t,loop_dt,cmd_z,cmd_ant_l,cmd_ant_r,cmd_roll,cmd_pitch,cmd_yaw,pres_z,pres_ant_l,pres_ant_r,pres_roll,pres_pitch,pres_yaw,pres_j0,pres_j1,pres_j2,pres_j3,pres_j4,pres_j5,pres_j6
0.0000,0.000001,0.000000,-0.349066,0.349066,0.0000,0.0000,0.0000,-0.002628,-0.165670,0.158000,1.2542,0.8736,-0.1011,0.001534,0.582913,-0.558369,0.555301,-0.595185,0.558369,-0.549165
0.0201,0.020085,0.000000,-0.348715,0.348715,0.0000,0.0000,0.0000,-0.002614,-0.167204,0.162602,1.2435,0.9251,-0.0481,0.001534,0.582913,-0.558369,0.556835,-0.595185,0.558369,-0.549165
0.0402,0.020090,0.000000,-0.348365,0.348365,0.0000,0.0000,0.0000,-0.002628,-0.165670,0.168738,1.2850,0.9533,-0.1060,0.001534,0.582913,-0.558369,0.556835,-0.595185,0.556835,-0.549165
0.0603,0.020091,0.000000,-0.348014,0.348014,0.0000,0.0000,0.0000,-0.002614,-0.181010,0.182544,1.2403,0.9168,-0.0475,0.001534,0.582913,-0.558369,0.556835,-0.595185,0.558369,-0.549165
0.0804,0.020087,0.000000,-0.347663,0.347663,0.0000,0.0000,0.0000,-0.002615,-0.242369,0.242369,1.2450,0.9206,-0.0536,0.001534,0.582913,-0.558369,0.556835,-0.595185,0.558369,-0.549165
0.1005,0.020100,0.000000,-0.347313,0.347313,0.0000,0.0000,0.0000,-0.002602,-0.326738,0.323670,1.1951,0.9021,-0.1065,0.001534,0.582913,-0.558369,0.556835,-0.595185,0.558369,-0.550699
0.1205,0.020084,0.000000,-0.346962,0.346962,0.0000,0.0000,0.0000,-0.002590,-0.380427,0.374291,1.1510,0.8859,-0.1545,0.001534,0.582913,-0.558369,0.556835,-0.595185,0.558369,-0.552233
0.1406,0.020088,0.000000,-0.346611,0.346611,0.0000,0.0000,0.0000,-0.002556,-0.368155,0.368155,1.2944,0.8212,-0.0948,0.001534,0.585981,-0.559903,0.556835,-0.595185,0.558369,-0.552233
0.1607,0.020086,0.000000,-0.346261,0.346261,0.0000,0.0000,0.0000,-0.002547,-0.354350,0.358952,1.2302,0.8098,-0.1545,0.001534,0.585981,-0.559903,0.556835,-0.595185,0.558369,-0.553767
0.1808,0.020098,0.000000,-0.345910,0.345910,0.0000,0.0000,0.0000,-0.002522,-0.345146,0.352816,1.1384,0.7749,-0.2555,0.001534,0.585981,-0.559903,0.556835,-0.595185,0.558369,-0.556835
0.2009,0.020122,0.000000,-0.345559,0.345559,0.0000,0.0000,0.0000,-0.002500,-0.348214,0.348214,1.1486,0.7452,-0.2445,0.001534,0.587515,-0.559903,0.556835,-0.595185,0.558369,-0.558369
0.2210,0.020099,0.000000,-0.345208,0.345208,0.0000,0.0000,0.0000,-0.002502,-0.348214,0.348214,1.1476,0.7483,-0.2457,0.001534,0.587515,-0.559903,0.556835,-0.595185,0.558369,-0.558369
0.2411,0.020102,0.000000,-0.344857,0.344857,0.0000,0.0000,0.0000,-0.002503,-0.351282,0.345146,1.0593,0.7655,-0.2459,0.001534,0.587515,-0.558369,0.556835,-0.595185,0.558369,-0.559903
0.2612,0.020095,0.000000,-0.344507,0.344507,0.0000,0.0000,0.0000,-0.002489,-0.348214,0.345146,1.1078,0.7282,-0.2991,0.001534,0.587515,-0.559903,0.556835,-0.595185,0.558369,-0.559903
0.2813,0.020097,0.000000,-0.344156,0.344156,0.0000,0.0000,0.0000,-0.002491,-0.348214,0.345146,1.1027,0.7321,-0.2936,0.001534,0.587515,-0.559903,0.556835,-0.595185,0.558369,-0.559903
0.3014,0.020108,0.000000,-0.343805,0.343805,0.0000,0.0000,0.0000,-0.002491,-0.348214,0.343612,1.1027,0.7321,-0.2936,0.001534,0.587515,-0.559903,0.556835,-0.595185,0.558369,-0.559903
0.3215,0.020084,0.000000,-0.343454,0.343454,0.0000,0.0000,0.0000,-0.002491,-0.348214,0.345146,1.1027,0.7321,-0.2936,0.001534,0.587515,-0.559903,0.556835,-0.595185,0.558369,-0.559903
0.3416,0.020103,0.000000,-0.343103,0.343103,0.0000,0.0000,0.0000,-0.002491,-0.346680,0.343612,1.1027,0.7321,-0.2936,0.001534,0.587515,-0.559903,0.556835,-0.595185,0.558369,-0.559903
0.3617,0.020090,0.000000,-0.342753,0.342753,0.0000,0.0000,0.0000,-0.002491,-0.348214,0.343612,1.1027,0.7321,-0.2936,0.001534,0.587515,-0.559903,0.556835,-0.595185,0.558369,-0.559903
0.3818,0.020099,0.000000,-0.342402,0.342402,0.0000,0.0000,0.0000,-0.002491,-0.346680,0.343612,1.1027,0.7321,-0.2936,0.001534,0.587515,-0.559903,0.556835,-0.595185,0.558369,-0.559903
0.4019,0.020099,0.000000,-0.342051,0.342051,0.0000,0.0000,0.0000,-0.002491,-0.346680,0.343612,1.1027,0.7321,-0.2936,0.001534,0.587515,-0.559903,0.556835,-0.595185,0.558369,-0.559903
0.4220,0.020090,0.000000,-0.341701,0.341701,0.0000,0.0000,0.0000,-0.002491,-0.346680,0.343612,1.1027,0.7321,-0.2936,0.001534,0.587515,-0.559903,0.556835,-0.595185,0.558369,-0.559903
0.4421,0.020096,0.000000,-0.341350,0.341350,0.0000,0.0000,0.0000,-0.002491,-0.346680,0.343612,1.1027,0.7321,-0.2936,0.001534,0.587515,-0.559903,0.556835,-0.595185,0.558369,-0.559903
0.4622,0.020087,0.000000,-0.340999,0.340999,0.0000,0.0000,0.0000,-0.002491,-0.346680,0.343612,1.1027,0.7321,-0.2936,0.001534,0.587515,-0.559903,0.556835,-0.595185,0.558369,-0.559903
0.4823,0.020098,0.000000,-0.340649,0.340649,0.0000,0.0000,0.0000,-0.002491,-0.346680,0.343612,1.1027,0.7321,-0.2936,0.001534,0.587515,-0.559903,0.556835,-0.595185,0.558369,-0.559903
0.5024,0.020093,0.000000,-0.340298,0.340298,0.0000,0.0000,0.0000,-0.002491,-0.346680,0.343612,1.1027,0.7321,-0.2936,0.001534,0.587515,-0.559903,0.556835,-0.595185,0.558369,-0.559903
0.5225,0.020093,0.000000,-0.339947,0.339947,0.0000,0.0000,0.0000,-0.002491,-0.346680,0.343612,1.1027,0.7321,-0.2936,0.001534,0.587515,-0.559903,0.556835,-0.595185,0.558369,-0.559903
0.5426,0.020142,0.000000,-0.339596,0.339596,0.0000,0.0000,0.0000,-0.002491,-0.346680,0.343612,1.1027,0.7321,-0.2936,0.001534,0.587515,-0.559903,0.556835,-0.595185,0.558369,-0.559903
0.5627,0.020093,0.000000,-0.339245,0.339245,0.0000,0.0000,0.0000,-0.002491,-0.346680,0.343612,1.1027,0.7321,-0.2936,0.001534,0.587515,-0.559903,0.556835,-0.595185,0.558369,-0.559903
0.5828,0.020097,0.000000,-0.338894,0.338894,0.0000,0.0000,0.0000,-0.002491,-0.346680,0.343612,1.1027,0.7321,-0.2936,0.001534,0.587515,-0.559903,0.556835,-0.595185,0.558369,-0.559903
0.6029,0.020097,0.000000,-0.338543,0.338543,0.0000,0.0000,0.0000,-0.002491,-0.346680,0.343612,1.1027,0.7321,-0.2936,0.001534,0.587515,-0.559903,0.556835,-0.595185,0.558369,-0.559903
0.6230,0.020104,0.000000,-0.338193,0.338193,0.0000,0.0000,0.0000,-0.002477,-0.345146,0.343612,1.1424,0.6961,-0.3475,0.001534,0.587515,-0.561437,0.556835,-0.595185,0.558369,-0.559903
0.6431,0.020090,0.000000,-0.337842,0.337842,0.0000,0.0000,0.0000,-0.002479,-0.346680,0.343612,1.1383,0.6998,-0.3419,0.001534,0.587515,-0.561437,0.556835,-0.595185,0.558369,-0.559903
0.6632,0.020088,0.000000,-0.337491,0.337491,0.0000,0.0000,0.0000,-0.002479,-0.346680,0.343612,1.1383,0.6998,-0.4298,0.000000,0.587515,-0.561437,0.556835,-0.595185,0.558369,-0.559903
0.6833,0.020096,0.000000,-0.337141,0.337141,0.0000,0.0000,0.0000,-0.002479,-0.345146,0.343612,1.1383,0.6998,-0.3419,0.001534,0.587515,-0.561437,0.556835,-0.595185,0.558369,-0.559903
0.7034,0.020101,0.000000,-0.336790,0.336790,0.0000,0.0000,0.0000,-0.002479,-0.345146,0.343612,1.1383,0.6998,-0.3419,0.001534,0.587515,-0.561437,0.556835,-0.595185,0.558369,-0.559903
0.7235,0.020123,0.000000,-0.336438,0.336438,0.0000,0.0000,0.0000,-0.002479,-0.345146,0.343612,1.1383,0.6998,-0.3419,0.001534,0.587515,-0.561437,0.556835,-0.595185,0.558369,-0.559903
0.7436,0.020094,0.000000,-0.336088,0.336088,0.0000,0.0000,0.0000,-0.002479,-0.345146,0.343612,1.1383,0.6998,-0.3419,0.001534,0.587515,-0.561437,0.556835,-0.595185,0.558369,-0.559903
0.7637,0.020087,0.000000,-0.335737,0.335737,0.0000,0.0000,0.0000,-0.002479,-0.345146,0.343612,1.1383,0.6998,-0.3419,0.001534,0.587515,-0.561437,0.556835,-0.595185,0.558369,-0.559903
0.7838,0.020092,0.000000,-0.335387,0.335387,0.0000,0.0000,0.0000,-0.002479,-0.345146,0.342078,1.1383,0.6998,-0.4298,0.000000,0.587515,-0.561437,0.556835,-0.595185,0.558369,-0.559903
0.8039,0.020093,0.000000,-0.335036,0.335036,0.0000,0.0000,0.0000,-0.002492,-0.345146,0.343612,1.1496,0.6473,-0.3960,0.001534,0.587515,-0.561437,0.555301,-0.595185,0.558369,-0.559903
0.8240,0.020093,0.000000,-0.334685,0.334685,0.0000,0.0000,0.0000,-0.002477,-0.345146,0.342078,1.1375,0.7050,-0.3368,0.001534,0.587515,-0.561437,0.556835,-0.595185,0.558369,-0.559903
0.8440,0.020089,0.000000,-0.334335,0.334335,0.0000,0.0000,0.0000,-0.002479,-0.345146,0.342078,1.1388,0.6989,-0.3430,0.001534,0.587515,-0.561437,0.556835,-0.595185,0.558369,-0.559903
0.8643,0.020242,0.000000,-0.333981,0.333981,0.0000,0.0000,0.0000,-0.002479,-0.345146,0.342078,1.1388,0.6989,-0.3430,0.001534,0.587515,-0.561437,0.556835,-0.595185,0.558369,-0.559903
0.8844,0.020085,0.000000,-0.333631,0.333631,0.0000,0.0000,0.0000,-0.002479,-0.345146,0.342078,1.1388,0.6989,-0.3430,0.001534,0.587515,-0.561437,0.556835,-0.595185,0.558369,-0.559903
0.9045,0.020088,0.000000,-0.333280,0.333280,0.0000,0.0000,0.0000,-0.002479,-0.345146,0.342078,1.1388,0.6989,-0.3430,0.001534,0.587515,-0.561437,0.556835,-0.595185,0.558369,-0.559903
0.9247,0.020223,0.000000,-0.332927,0.332927,0.0000,0.0000,0.0000,-0.002479,-0.345146,0.342078,1.1388,0.6989,-0.3430,0.001534,0.587515,-0.561437,0.556835,-0.595185,0.558369,-0.559903
0.9448,0.020098,0.000000,-0.332576,0.332576,0.0000,0.0000,0.0000,-0.002479,-0.345146,0.342078,1.1388,0.6989,-0.3430,0.001534,0.587515,-0.561437,0.556835,-0.595185,0.558369,-0.559903
0.9649,0.020095,0.000000,-0.332226,0.332226,0.0000,0.0000,0.0000,-0.002479,-0.343612,0.342078,1.1388,0.6989,-0.3430,0.001534,0.587515,-0.561437,0.556835,-0.595185,0.558369,-0.559903
0.9850,0.020083,0.000000,-0.331875,0.331875,0.0000,0.0000,0.0000,-0.002479,-0.343612,0.342078,1.1388,0.6989,-0.3430,0.001534,0.587515,-0.561437,0.556835,-0.595185,0.558369,-0.559903
1.0050,0.020091,0.000000,-0.331524,0.331524,0.0000,0.0000,0.0000,-0.002479,-0.343612,0.342078,1.1388,0.6989,-0.3430,0.001534,0.587515,-0.561437,0.556835,-0.595185,0.558369,-0.559903
1.0251,0.020093,0.000000,-0.331174,0.331174,0.0000,0.0000,0.0000,-0.002479,-0.343612,0.342078,1.1388,0.6989,-0.3430,0.001534,0.587515,-0.561437,0.556835,-0.595185,0.558369,-0.559903
1.0452,0.020101,0.000000,-0.330823,0.330823,0.0000,0.0000,0.0000,-0.002479,-0.342078,0.340544,1.1388,0.6989,-0.3430,0.001534,0.587515,-0.561437,0.556835,-0.595185,0.558369,-0.559903
1.0653,0.020098,0.000000,-0.330472,0.330472,0.0000,0.0000,0.0000,-0.002479,-0.340544,0.340544,1.1388,0.6989,-0.3430,0.001534,0.587515,-0.561437,0.556835,-0.595185,0.558369,-0.559903
1.0854,0.020090,0.000000,-0.330122,0.330122,0.0000,0.0000,0.0000,-0.002479,-0.340544,0.339010,1.1388,0.6989,-0.3430,0.001534,0.587515,-0.561437,0.556835,-0.595185,0.558369,-0.559903
1.1055,0.020091,0.000000,-0.329771,0.329771,0.0000,0.0000,0.0000,-0.002479,-0.340544,0.337476,1.1388,0.6989,-0.3430,0.001534,0.587515,-0.561437,0.556835,-0.595185,0.558369,-0.559903
1.1256,0.020088,0.000000,-0.329420,0.329420,0.0000,0.0000,0.0000,-0.002479,-0.340544,0.337476,1.1388,0.6989,-0.3430,0.001534,0.587515,-0.561437,0.556835,-0.595185,0.558369,-0.559903
1.1457,0.020050,0.000000,-0.329070,0.329070,0.0000,0.0000,0.0000,-0.002479,-0.342078,0.335942,1.1388,0.6989,-0.3430,0.001534,0.587515,-0.561437,0.556835,-0.595185,0.558369,-0.559903
1.1658,0.020096,0.000000,-0.328720,0.328720,0.0000,0.0000,0.0000,-0.002479,-0.340544,0.337476,1.1388,0.6989,-0.3430,0.001534,0.587515,-0.561437,0.556835,-0.595185,0.558369,-0.559903
1.1858,0.020088,0.000000,-0.328369,0.328369,0.0000,0.0000,0.0000,-0.002479,-0.340544,0.337476,1.1388,0.6989,-0.3430,0.001534,0.587515,-0.561437,0.556835,-0.595185,0.558369,-0.559903
1.2059,0.020093,0.000000,-0.328018,0.328018,0.0000,0.0000,0.0000,-0.002479,-0.342078,0.335942,1.1388,0.6989,-0.3430,0.001534,0.587515,-0.561437,0.556835,-0.595185,0.558369,-0.559903
1.2260,0.020096,0.000000,-0.327668,0.327668,0.0000,0.0000,0.0000,-0.002479,-0.342078,0.337476,1.1388,0.6989,-0.3430,0.001534,0.587515,-0.561437,0.556835,-0.595185,0.558369,-0.559903
1.2461,0.020111,0.000000,-0.327317,0.327317,0.0000,0.0000,0.0000,-0.002479,-0.340544,0.337476,1.1388,0.6989,-0.3430,0.001534,0.587515,-0.561437,0.556835,-0.595185,0.558369,-0.559903
1.2664,0.020226,0.000000,-0.326964,0.326964,0.0000,0.0000,0.0000,-0.002479,-0.340544,0.337476,1.1388,0.6989,-0.3430,0.001534,0.587515,-0.561437,0.556835,-0.595185,0.558369,-0.559903
1.2865,0.020090,0.000000,-0.326613,0.326613,0.0000,0.0000,0.0000,-0.002479,-0.342078,0.337476,1.1388,0.6989,-0.3430,0.001534,0.587515,-0.561437,0.556835,-0.595185,0.558369,-0.559903
1.3066,0.020093,0.000000,-0.326262,0.326262,0.0000,0.0000,0.0000,-0.002479,-0.340544,0.337476,1.1388,0.6989,-0.3430,0.001534,0.587515,-0.561437,0.556835,-0.595185,0.558369,-0.559903
1.3266,0.020097,0.000000,-0.325911,0.325911,0.0000,0.0000,0.0000,-0.002479,-0.342078,0.337476,1.1388,0.6989,-0.3430,0.001534,0.587515,-0.561437,0.556835,-0.595185,0.558369,-0.559903
1.3474,0.020709,0.000000,-0.325550,0.325550,0.0000,0.0000,0.0000,-0.002479,-0.340544,0.337476,1.1388,0.6989,-0.3430,0.001534,0.587515,-0.561437,0.556835,-0.595185,0.558369,-0.559903
1.3681,0.020756,0.000000,-0.325188,0.325188,0.0000,0.0000,0.0000,-0.002479,-0.342078,0.337476,1.1388,0.6989,-0.3430,0.001534,0.587515,-0.561437,0.556835,-0.595185,0.558369,-0.559903
1.3882,0.020084,0.000000,-0.324837,0.324837,0.0000,0.0000,0.0000,-0.002479,-0.340544,0.337476,1.1388,0.6989,-0.3430,0.001534,0.587515,-0.561437,0.556835,-0.595185,0.558369,-0.559903
1.4083,0.020086,0.000000,-0.324487,0.324487,0.0000,0.0000,0.0000,-0.002479,-0.340544,0.337476,1.1388,0.6989,-0.3430,0.001534,0.587515,-0.561437,0.556835,-0.595185,0.558369,-0.559903
1.4284,0.020089,0.000000,-0.324136,0.324136,0.0000,0.0000,0.0000,-0.002479,-0.342078,0.337476,1.1388,0.6989,-0.3430,0.001534,0.587515,-0.561437,0.556835,-0.595185,0.558369,-0.559903
1.4484,0.020045,0.000000,-0.323786,0.323786,0.0000,0.0000,0.0000,-0.002479,-0.340544,0.335942,1.1388,0.6989,-0.3430,0.001534,0.587515,-0.561437,0.556835,-0.595185,0.558369,-0.559903
1.4685,0.020087,0.000000,-0.323436,0.323436,0.0000,0.0000,0.0000,-0.002479,-0.340544,0.335942,1.1388,0.6989,-0.3430,0.001534,0.587515,-0.561437,0.556835,-0.595185,0.558369,-0.559903
1.4886,0.020084,0.000000,-0.323085,0.323085,0.0000,0.0000,0.0000,-0.002479,-0.340544,0.337476,1.1388,0.6989,-0.3430,0.001534,0.587515,-0.561437,0.556835,-0.595185,0.558369,-0.559903
1.5087,0.020084,0.000000,-0.322735,0.322735,0.0000,0.0000,0.0000,-0.002479,-0.340544,0.335942,1.1388,0.6989,-0.3430,0.001534,0.587515,-0.561437,0.556835,-0.595185,0.558369,-0.559903
1.5288,0.020086,0.000000,-0.322384,0.322384,0.0000,0.0000,0.0000,-0.002479,-0.340544,0.337476,1.1388,0.6989,-0.3430,0.001534,0.587515,-0.561437,0.556835,-0.595185,0.558369,-0.559903
1.5488,0.020084,0.000000,-0.322033,0.322033,0.0000,0.0000,0.0000,-0.002479,-0.342078,0.337476,1.1388,0.6989,-0.3430,0.001534,0.587515,-0.561437,0.556835,-0.595185,0.558369,-0.559903
1.5690,0.020140,0.000000,-0.321682,0.321682,0.0000,0.0000,0.0000,-0.002479,-0.342078,0.337476,1.1388,0.6989,-0.4309,0.000000,0.587515,-0.561437,0.556835,-0.595185,0.558369,-0.559903
1.5891,0.020091,0.000000,-0.321331,0.321331,0.0000,0.0000,0.0000,-0.002479,-0.340544,0.337476,1.1388,0.6989,-0.3430,0.001534,0.587515,-0.561437,0.556835,-0.595185,0.558369,-0.559903
1.6092,0.020087,0.000000,-0.320981,0.320981,0.0000,0.0000,0.0000,-0.002479,-0.340544,0.337476,1.1388,0.6989,-0.3430,0.001534,0.587515,-0.561437,0.556835,-0.595185,0.558369,-0.559903
1.6292,0.020087,0.000000,-0.320630,0.320630,0.0000,0.0000,0.0000,-0.002479,-0.340544,0.335942,1.1388,0.6989,-0.3430,0.001534,0.587515,-0.561437,0.556835,-0.595185,0.558369,-0.559903
1.6494,0.020158,0.000000,-0.320278,0.320278,0.0000,0.0000,0.0000,-0.002479,-0.340544,0.337476,1.1388,0.6989,-0.3430,0.001534,0.587515,-0.561437,0.556835,-0.595185,0.558369,-0.559903
1.6695,0.020064,0.000000,-0.319928,0.319928,0.0000,0.0000,0.0000,-0.002479,-0.340544,0.337476,1.1388,0.6989,-0.3430,0.001534,0.587515,-0.561437,0.556835,-0.595185,0.558369,-0.559903
1.6896,0.020082,0.000000,-0.319578,0.319578,0.0000,0.0000,0.0000,-0.002479,-0.340544,0.337476,1.1388,0.6989,-0.3430,0.001534,0.587515,-0.561437,0.556835,-0.595185,0.558369,-0.559903
1.7098,0.020231,0.000000,-0.319224,0.319224,0.0000,0.0000,0.0000,-0.002479,-0.340544,0.335942,1.1388,0.6989,-0.3430,0.001534,0.587515,-0.561437,0.556835,-0.595185,0.558369,-0.559903
1.7299,0.020096,0.000000,-0.318874,0.318874,0.0000,0.0000,0.0000,-0.002479,-0.339010,0.335942,1.1388,0.6989,-0.3430,0.001534,0.587515,-0.561437,0.556835,-0.595185,0.558369,-0.559903
1.7500,0.020088,0.000000,-0.318523,0.318523,0.0000,0.0000,0.0000,-0.002479,-0.331340,0.335942,1.1388,0.6989,-0.3430,0.001534,0.587515,-0.561437,0.556835,-0.595185,0.558369,-0.559903
1.7707,0.020715,0.000000,-0.318162,0.318162,0.0000,0.0000,0.0000,-0.002479,-0.331340,0.335942,1.1388,0.6989,-0.3430,0.001534,0.587515,-0.561437,0.556835,-0.595185,0.558369,-0.559903
1.7910,0.020285,0.000000,-0.317808,0.317808,0.0000,0.0000,0.0000,-0.002479,-0.320602,0.335942,1.1388,0.6989,-0.3430,0.001534,0.587515,-0.561437,0.556835,-0.595185,0.558369,-0.559903
1.8111,0.020128,0.000000,-0.317456,0.317456,0.0000,0.0000,0.0000,-0.002492,-0.320602,0.335942,1.1496,0.6474,-0.3959,0.001534,0.587515,-0.561437,0.555301,-0.595185,0.558369,-0.559903
1.8315,0.020434,0.000000,-0.317100,0.317100,0.0000,0.0000,0.0000,-0.002477,-0.320602,0.335942,1.1375,0.7049,-0.3368,0.001534,0.587515,-0.561437,0.556835,-0.595185,0.558369,-0.559903
1.8516,0.020092,0.000000,-0.316749,0.316749,0.0000,0.0000,0.0000,-0.002479,-0.320602,0.335942,1.1388,0.6989,-0.3430,0.001534,0.587515,-0.561437,0.556835,-0.595185,0.558369,-0.559903
1.8718,0.020186,0.000000,-0.316397,0.316397,0.0000,0.0000,0.0000,-0.002479,-0.319068,0.334408,1.1388,0.6989,-0.3430,0.001534,0.587515,-0.561437,0.556835,-0.595185,0.558369,-0.559903
1.8919,0.020088,0.000000,-0.316046,0.316046,0.0000,0.0000,0.0000,-0.002479,-0.319068,0.332874,1.1388,0.6989,-0.3430,0.001534,0.587515,-0.561437,0.556835,-0.595185,0.558369,-0.559903
1.9120,0.020090,0.000000,-0.315695,0.315695,0.0000,0.0000,0.0000,-0.002479,-0.319068,0.329806,1.1388,0.6989,-0.3430,0.001534,0.587515,-0.561437,0.556835,-0.595185,0.558369,-0.559903
1.9321,0.020092,0.000000,-0.315345,0.315345,0.0000,0.0000,0.0000,-0.002479,-0.320602,0.328272,1.1388,0.6989,-0.3430,0.001534,0.587515,-0.561437,0.556835,-0.595185,0.558369,-0.559903
1.9522,0.020085,0.000000,-0.314994,0.314994,0.0000,0.0000,0.0000,-0.002479,-0.319068,0.322136,1.1388,0.6989,-0.3430,0.001534,0.587515,-0.561437,0.556835,-0.595185,0.558369,-0.559903
1.9723,0.020090,0.000000,-0.314644,0.314644,0.0000,0.0000,0.0000,-0.002479,-0.319068,0.319068,1.1388,0.6989,-0.3430,0.001534,0.587515,-0.561437,0.556835,-0.595185,0.558369,-0.559903
1.9923,0.020086,0.000000,-0.314293,0.314293,0.0000,0.0000,0.0000,-0.002479,-0.319068,0.317534,1.1388,0.6989,-0.3430,0.001534,0.587515,-0.561437,0.556835,-0.595185,0.558369,-0.559903
2.0124,0.020088,0.000000,-0.313942,0.313942,0.0000,0.0000,0.0000,-0.002479,-0.319068,0.316000,1.1388,0.6989,-0.3430,0.001534,0.587515,-0.561437,0.556835,-0.595185,0.558369,-0.559903
2.0325,0.020085,0.000000,-0.313592,0.313592,0.0000,0.0000,0.0000,-0.002479,-0.319068,0.316000,1.1388,0.6989,-0.3430,0.001534,0.587515,-0.561437,0.556835,-0.595185,0.558369,-0.559903
2.0526,0.020087,0.000000,-0.313241,0.313241,0.0000,0.0000,0.0000,-0.002479,-0.319068,0.316000,1.1388,0.6989,-0.3430,0.001534,0.587515,-0.561437,0.556835,-0.595185,0.558369,-0.559903
2.0727,0.020092,0.000000,-0.312891,0.312891,0.0000,0.0000,0.0000,-0.002479,-0.319068,0.316000,1.1388,0.6989,-0.3430,0.001534,0.587515,-0.561437,0.556835,-0.595185,0.558369,-0.559903
2.0928,0.020089,0.000000,-0.312540,0.312540,0.0000,0.0000,0.0000,-0.002479,-0.319068,0.316000,1.1388,0.6989,-0.3430,0.001534,0.587515,-0.561437,0.556835,-0.595185,0.558369,-0.559903
2.1131,0.020288,0.000000,-0.312186,0.312186,0.0000,0.0000,0.0000,-0.002479,-0.319068,0.316000,1.1388,0.6989,-0.3430,0.001534,0.587515,-0.561437,0.556835,-0.595185,0.558369,-0.559903
2.1333,0.020242,0.000000,-0.311833,0.311833,0.0000,0.0000,0.0000,-0.002479,-0.319068,0.316000,1.1388,0.6989,-0.3430,0.001534,0.587515,-0.561437,0.556835,-0.595185,0.558369,-0.559903
2.1534,0.020043,0.000000,-0.311483,0.311483,0.0000,0.0000,0.0000,-0.002479,-0.317534,0.316000,1.1388,0.6989,-0.3430,0.001534,0.587515,-0.561437,0.556835,-0.595185,0.558369,-0.559903
2.1735,0.020139,0.000000,-0.311131,0.311131,0.0000,0.0000,0.0000,-0.002479,-0.317534,0.316000,1.1388,0.6989,-0.3430,0.001534,0.587515,-0.561437,0.556835,-0.595185,0.558369,-0.559903
2.1936,0.020089,0.000000,-0.310781,0.310781,0.0000,0.0000,0.0000,-0.002479,-0.317534,0.316000,1.1388,0.6989,-0.3430,0.001534,0.587515,-0.561437,0.556835,-0.595185,0.558369,-0.559903
2.2137,0.020099,0.000000,-0.310430,0.310430,0.0000,0.0000,0.0000,-0.002479,-0.317534,0.316000,1.1388,0.6989,-0.3430,0.001534,0.587515,-0.561437,0.556835,-0.595185,0.558369,-0.559903
2.2343,0.020663,0.000000,-0.310069,0.310069,0.0000,0.0000,0.0000,-0.002479,-0.317534,0.314466,1.1388,0.6989,-0.3430,0.001534,0.587515,-0.561437,0.556835,-0.595185,0.558369,-0.559903
2.2544,0.020085,0.000000,-0.309719,0.309719,0.0000,0.0000,0.0000,-0.002479,-0.317534,0.314466,1.1388,0.6989,-0.3430,0.001534,0.587515,-0.561437,0.556835,-0.595185,0.558369,-0.559903
2.2745,0.020098,0.000000,-0.309368,0.309368,0.0000,0.0000,0.0000,-0.002479,-0.317534,0.314466,1.1388,0.6989,-0.3430,0.001534,0.587515,-0.561437,0.556835,-0.595185,0.558369,-0.559903
2.2949,0.020354,0.000000,-0.309013,0.309013,0.0000,0.0000,0.0000,-0.002479,-0.317534,0.314466,1.1388,0.6989,-0.3430,0.001534,0.587515,-0.561437,0.556835,-0.595185,0.558369,-0.559903
2.3150,0.020100,0.000000,-0.308662,0.308662,0.0000,0.0000,0.0000,-0.002479,-0.317534,0.314466,1.1388,0.6989,-0.3430,0.001534,0.587515,-0.561437,0.556835,-0.595185,0.558369,-0.559903
2.3351,0.020108,0.000000,-0.308311,0.308311,0.0000,0.0000,0.0000,-0.002479,-0.317534,0.314466,1.1388,0.6989,-0.3430,0.001534,0.587515,-0.561437,0.556835,-0.595185,0.558369,-0.559903
2.3552,0.020094,0.000000,-0.307960,0.307960,0.0000,0.0000,0.0000,-0.002479,-0.317534,0.314466,1.1388,0.6989,-0.3430,0.001534,0.587515,-0.561437,0.556835,-0.595185,0.558369,-0.559903
2.3753,0.020111,0.000000,-0.307609,0.307609,0.0000,0.0000,0.0000,-0.002479,-0.317534,0.314466,1.1388,0.6989,-0.3430,0.001534,0.587515,-0.561437,0.556835,-0.595185,0.558369,-0.559903
2.3954,0.020098,0.000000,-0.307258,0.307258,0.0000,0.0000,0.0000,-0.002479,-0.317534,0.314466,1.1388,0.6989,-0.3430,0.001534,0.587515,-0.561437,0.556835,-0.595185,0.558369,-0.559903
2.4155,0.020104,0.000000,-0.306908,0.306908,0.0000,0.0000,0.0000,-0.002479,-0.317534,0.314466,1.1388,0.6989,-0.3430,0.001534,0.587515,-0.561437,0.556835,-0.595185,0.558369,-0.559903
2.4362,0.020690,0.000000,-0.306546,0.306546,0.0000,0.0000,0.0000,-0.002479,-0.317534,0.314466,1.1388,0.6989,-0.3430,0.001534,0.587515,-0.561437,0.556835,-0.595185,0.558369,-0.559903
2.4563,0.020102,0.000000,-0.306196,0.306196,0.0000,0.0000,0.0000,-0.002479,-0.317534,0.314466,1.1388,0.6989,-0.3430,0.001534,0.587515,-0.561437,0.556835,-0.595185,0.558369,-0.559903
2.4764,0.020092,0.000000,-0.305845,0.305845,0.0000,0.0000,0.0000,-0.002479,-0.317534,0.314466,1.1388,0.6989,-0.3430,0.001534,0.587515,-0.561437,0.556835,-0.595185,0.558369,-0.559903
2.4965,0.020090,0.000000,-0.305494,0.305494,0.0000,0.0000,0.0000,-0.002479,-0.317534,0.314466,1.1388,0.6989,-0.3430,0.001534,0.587515,-0.561437,0.556835,-0.595185,0.558369,-0.559903
2.5166,0.020095,0.000000,-0.305144,0.305144,0.0000,0.0000,0.0000,-0.002479,-0.317534,0.314466,1.1388,0.6989,-0.3430,0.001534,0.587515,-0.561437,0.556835,-0.595185,0.558369,-0.559903
2.5367,0.020091,0.000000,-0.304793,0.304793,0.0000,0.0000,0.0000,-0.002479,-0.317534,0.314466,1.1388,0.6989,-0.3430,0.001534,0.587515,-0.561437,0.556835,-0.595185,0.558369,-0.559903
2.5568,0.020104,0.000000,-0.304442,0.304442,0.0000,0.0000,0.0000,-0.002479,-0.316000,0.314466,1.1388,0.6989,-0.3430,0.001534,0.587515,-0.561437,0.556835,-0.595185,0.558369,-0.559903
2.5769,0.020101,0.000000,-0.304091,0.304091,0.0000,0.0000,0.0000,-0.002479,-0.312932,0.312932,1.1388,0.6989,-0.3430,0.001534,0.587515,-0.561437,0.556835,-0.595185,0.558369,-0.559903
2.5970,0.020117,0.000000,-0.303740,0.303740,0.0000,0.0000,0.0000,-0.002479,-0.314466,0.312932,1.1388,0.6989,-0.3430,0.001534,0.587515,-0.561437,0.556835,-0.595185,0.558369,-0.559903
2.6171,0.020089,0.000000,-0.303389,0.303389,0.0000,0.0000,0.0000,-0.002479,-0.314466,0.312932,1.1388,0.6989,-0.3430,0.001534,0.587515,-0.561437,0.556835,-0.595185,0.558369,-0.559903
2.6372,0.020094,0.000000,-0.303039,0.303039,0.0000,0.0000,0.0000,-0.002479,-0.312932,0.312932,1.1388,0.6989,-0.3430,0.001534,0.587515,-0.561437,0.556835,-0.595185,0.558369,-0.559903
2.6573,0.020092,0.000000,-0.302688,0.302688,0.0000,0.0000,0.0000,-0.002479,-0.312932,0.312932,1.1388,0.6989,-0.3430,0.001534,0.587515,-0.561437,0.556835,-0.595185,0.558369,-0.559903
2.6773,0.020095,0.000000,-0.302337,0.302337,0.0000,0.0000,0.0000,-0.002479,-0.312932,0.312932,1.1388,0.6989,-0.3430,0.001534,0.587515,-0.561437,0.556835,-0.595185,0.558369,-0.559903
2.6974,0.020099,0.000000,-0.301987,0.301987,0.0000,0.0000,0.0000,-0.002479,-0.312932,0.312932,1.1388,0.6989,-0.3430,0.001534,0.587515,-0.561437,0.556835,-0.595185,0.558369,-0.559903
2.7175,0.020095,0.000000,-0.301636,0.301636,0.0000,0.0000,0.0000,-0.002479,-0.312932,0.311398,1.1388,0.6989,-0.3430,0.001534,0.587515,-0.561437,0.556835,-0.595185,0.558369,-0.559903
2.7376,0.020098,0.000000,-0.301285,0.301285,0.0000,0.0000,0.0000,-0.002479,-0.312932,0.311398,1.1388,0.6989,-0.3430,0.001534,0.587515,-0.561437,0.556835,-0.595185,0.558369,-0.559903
2.7577,0.020095,0.000000,-0.300934,0.300934,0.0000,0.0000,0.0000,-0.002479,-0.312932,0.312932,1.1388,0.6989,-0.3430,0.001534,0.587515,-0.561437,0.556835,-0.595185,0.558369,-0.559903
2.7778,0.020102,0.000000,-0.300583,0.300583,0.0000,0.0000,0.0000,-0.002479,-0.312932,0.311398,1.1388,0.6989,-0.3430,0.001534,0.587515,-0.561437,0.556835,-0.595185,0.558369,-0.559903
2.7979,0.020103,0.000000,-0.300233,0.300233,0.0000,0.0000,0.0000,-0.002479,-0.312932,0.311398,1.1388,0.6989,-0.3430,0.001534,0.587515,-0.561437,0.556835,-0.595185,0.558369,-0.559903
2.8181,0.020129,0.000000,-0.299881,0.299881,0.0000,0.0000,0.0000,-0.002479,-0.312932,0.311398,1.1388,0.6989,-0.3430,0.001534,0.587515,-0.561437,0.556835,-0.595185,0.558369,-0.559903
2.8382,0.020101,0.000000,-0.299530,0.299530,0.0000,0.0000,0.0000,-0.002479,-0.312932,0.311398,1.1388,0.6989,-0.3430,0.001534,0.587515,-0.561437,0.556835,-0.595185,0.558369,-0.559903
2.8583,0.020091,0.000000,-0.299180,0.299180,0.0000,0.0000,0.0000,-0.002479,-0.312932,0.311398,1.1388,0.6989,-0.3430,0.001534,0.587515,-0.561437,0.556835,-0.595185,0.558369,-0.559903
2.8783,0.020090,0.000000,-0.298829,0.298829,0.0000,0.0000,0.0000,-0.002479,-0.312932,0.309864,1.1388,0.6989,-0.3430,0.001534,0.587515,-0.561437,0.556835,-0.595185,0.558369,-0.559903
2.8985,0.020101,0.000000,-0.298478,0.298478,0.0000,0.0000,0.0000,-0.002479,-0.312932,0.309864,1.1388,0.6989,-0.3430,0.001534,0.587515,-0.561437,0.556835,-0.595185,0.558369,-0.559903
2.9185,0.020092,0.000000,-0.298128,0.298128,0.0000,0.0000,0.0000,-0.002479,-0.312932,0.309864,1.1388,0.6989,-0.3430,0.001534,0.587515,-0.561437,0.556835,-0.595185,0.558369,-0.559903
2.9386,0.020094,0.000000,-0.297777,0.297777,0.0000,0.0000,0.0000,-0.002479,-0.312932,0.309864,1.1388,0.6989,-0.3430,0.001534,0.587515,-0.561437,0.556835,-0.595185,0.558369,-0.559903
2.9587,0.020090,0.000000,-0.297426,0.297426,0.0000,0.0000,0.0000,-0.002479,-0.314466,0.309864,1.1388,0.6989,-0.3430,0.001534,0.587515,-0.561437,0.556835,-0.595185,0.558369,-0.559903
2.9788,0.020099,0.000000,-0.297076,0.297076,0.0000,0.0000,0.0000,-0.002479,-0.314466,0.309864,1.1388,0.6989,-0.3430,0.001534,0.587515,-0.561437,0.556835,-0.595185,0.558369,-0.559903
2.9989,0.020098,0.000000,-0.296725,0.296725,0.0000,0.0000,0.0000,-0.002479,-0.312932,0.309864,1.1388,0.6989,-0.3430,0.001534,0.587515,-0.561437,0.556835,-0.595185,0.558369,-0.559903
3.0190,0.020085,0.000000,-0.296374,0.296374,0.0000,0.0000,0.0000,-0.002479,-0.312932,0.309864,1.1388,0.6989,-0.3430,0.001534,0.587515,-0.561437,0.556835,-0.595185,0.558369,-0.559903
3.0391,0.020089,0.000000,-0.296024,0.296024,0.0000,0.0000,0.0000,-0.002479,-0.312932,0.309864,1.1388,0.6989,-0.3430,0.001534,0.587515,-0.561437,0.556835,-0.595185,0.558369,-0.559903
3.0592,0.020095,0.000000,-0.295673,0.295673,0.0000,0.0000,0.0000,-0.002479,-0.312932,0.309864,1.1388,0.6989,-0.3430,0.001534,0.587515,-0.561437,0.556835,-0.595185,0.558369,-0.559903
3.0794,0.020238,0.000000,-0.295320,0.295320,0.0000,0.0000,0.0000,-0.002479,-0.312932,0.309864,1.1388,0.6989,-0.3430,0.001534,0.587515,-0.561437,0.556835,-0.595185,0.558369,-0.559903
3.1000,0.020555,0.000000,-0.294961,0.294961,0.0000,0.0000,0.0000,-0.002479,-0.312932,0.309864,1.1388,0.6989,-0.3430,0.001534,0.587515,-0.561437,0.556835,-0.595185,0.558369,-0.559903
3.1201,0.020086,0.000000,-0.294610,0.294610,0.0000,0.0000,0.0000,-0.002479,-0.312932,0.309864,1.1388,0.6989,-0.3430,0.001534,0.587515,-0.561437,0.556835,-0.595185,0.558369,-0.559903
3.1402,0.020089,0.000000,-0.294260,0.294260,0.0000,0.0000,0.0000,-0.002479,-0.312932,0.309864,1.1388,0.6989,-0.3430,0.001534,0.587515,-0.561437,0.556835,-0.595185,0.558369,-0.559903
3.1603,0.020098,0.000000,-0.293909,0.293909,0.0000,0.0000,0.0000,-0.002479,-0.312932,0.309864,1.1388,0.6989,-0.3430,0.001534,0.587515,-0.561437,0.556835,-0.595185,0.558369,-0.559903
3.1803,0.020089,0.000000,-0.293558,0.293558,0.0000,0.0000,0.0000,-0.002479,-0.312932,0.309864,1.1388,0.6989,-0.3430,0.001534,0.587515,-0.561437,0.556835,-0.595185,0.558369,-0.559903
3.2004,0.020097,0.000000,-0.293208,0.293208,0.0000,0.0000,0.0000,-0.002479,-0.312932,0.309864,1.1388,0.6989,-0.3430,0.001534,0.587515,-0.561437,0.556835,-0.595185,0.558369,-0.559903
3.2205,0.020091,0.000000,-0.292857,0.292857,0.0000,0.0000,0.0000,-0.002479,-0.312932,0.309864,1.1388,0.6989,-0.3430,0.001534,0.587515,-0.561437,0.556835,-0.595185,0.558369,-0.559903
3.2406,0.020092,0.000000,-0.292506,0.292506,0.0000,0.0000,0.0000,-0.002479,-0.312932,0.309864,1.1388,0.6989,-0.3430,0.001534,0.587515,-0.561437,0.556835,-0.595185,0.558369,-0.559903
3.2607,0.020087,0.000000,-0.292156,0.292156,0.0000,0.0000,0.0000,-0.002479,-0.312932,0.309864,1.1388,0.6989,-0.3430,0.001534,0.587515,-0.561437,0.556835,-0.595185,0.558369,-0.559903
3.2808,0.020091,0.000000,-0.291805,0.291805,0.0000,0.0000,0.0000,-0.002479,-0.312932,0.309864,1.1388,0.6989,-0.3430,0.001534,0.587515,-0.561437,0.556835,-0.595185,0.558369,-0.559903
3.3009,0.020102,0.000000,-0.291454,0.291454,0.0000,0.0000,0.0000,-0.002479,-0.312932,0.309864,1.1388,0.6989,-0.3430,0.001534,0.587515,-0.561437,0.556835,-0.595185,0.558369,-0.559903
3.3210,0.020091,0.000000,-0.291103,0.291103,0.0000,0.0000,0.0000,-0.002479,-0.311398,0.309864,1.1388,0.6989,-0.3430,0.001534,0.587515,-0.561437,0.556835,-0.595185,0.558369,-0.559903
3.3411,0.020091,0.000000,-0.290753,0.290753,0.0000,0.0000,0.0000,-0.002479,-0.311398,0.308330,1.1388,0.6989,-0.3430,0.001534,0.587515,-0.561437,0.556835,-0.595185,0.558369,-0.559903
3.3612,0.020089,0.000000,-0.290402,0.290402,0.0000,0.0000,0.0000,-0.002479,-0.308330,0.308330,1.1388,0.6989,-0.3430,0.001534,0.587515,-0.561437,0.556835,-0.595185,0.558369,-0.559903
3.3813,0.020093,0.000000,-0.290052,0.290052,0.0000,0.0000,0.0000,-0.002479,-0.300660,0.308330,1.1388,0.6989,-0.3430,0.001534,0.587515,-0.561437,0.556835,-0.595185,0.558369,-0.559903
3.4014,0.020098,0.000000,-0.289701,0.289701,0.0000,0.0000,0.0000,-0.002492,-0.291456,0.308330,1.1496,0.6474,-0.3959,0.001534,0.587515,-0.561437,0.555301,-0.595185,0.558369,-0.559903
3.4215,0.020127,0.000000,-0.289349,0.289349,0.0000,0.0000,0.0000,-0.002477,-0.291456,0.308330,1.1375,0.7049,-0.3368,0.001534,0.587515,-0.561437,0.556835,-0.595185,0.558369,-0.559903
3.4416,0.020097,0.000000,-0.288999,0.288999,0.0000,0.0000,0.0000,-0.002479,-0.291456,0.306796,1.1388,0.6989,-0.3430,0.001534,0.587515,-0.561437,0.556835,-0.595185,0.558369,-0.559903
3.4617,0.020086,0.000000,-0.288648,0.288648,0.0000,0.0000,0.0000,-0.002479,-0.291456,0.306796,1.1388,0.6989,-0.3430,0.001534,0.587515,-0.561437,0.556835,-0.595185,0.558369,-0.559903
3.4818,0.020097,0.000000,-0.288297,0.288297,0.0000,0.0000,0.0000,-0.002479,-0.289922,0.300660,1.1388,0.6989,-0.3430,0.001534,0.587515,-0.561437,0.556835,-0.595185,0.558369,-0.559903
3.5019,0.020093,0.000000,-0.287947,0.287947,0.0000,0.0000,0.0000,-0.002479,-0.289922,0.297592,1.1388,0.6989,-0.3430,0.001534,0.587515,-0.561437,0.556835,-0.595185,0.558369,-0.559903
3.5220,0.020091,0.000000,-0.287596,0.287596,0.0000,0.0000,0.0000,-0.002479,-0.289922,0.294524,1.1388,0.6989,-0.3430,0.001534,0.587515,-0.561437,0.556835,-0.595185,0.558369,-0.559903
3.5420,0.020086,0.000000,-0.287245,0.287245,0.0000,0.0000,0.0000,-0.002479,-0.289922,0.294524,1.1388,0.6989,-0.3430,0.001534,0.587515,-0.561437,0.556835,-0.595185,0.558369,-0.559903
3.5621,0.020083,0.000000,-0.286895,0.286895,0.0000,0.0000,0.0000,-0.002479,-0.289922,0.294524,1.1388,0.6989,-0.3430,0.001534,0.587515,-0.561437,0.556835,-0.595185,0.558369,-0.559903
3.5822,0.020082,0.000000,-0.286544,0.286544,0.0000,0.0000,0.0000,-0.002479,-0.289922,0.294524,1.1388,0.6989,-0.3430,0.001534,0.587515,-0.561437,0.556835,-0.595185,0.558369,-0.559903
3.6023,0.020087,0.000000,-0.286194,0.286194,0.0000,0.0000,0.0000,-0.002479,-0.289922,0.294524,1.1388,0.6989,-0.3430,0.001534,0.587515,-0.561437,0.556835,-0.595185,0.558369,-0.559903
3.6224,0.020094,0.000000,-0.285843,0.285843,0.0000,0.0000,0.0000,-0.002479,-0.289922,0.292990,1.1388,0.6989,-0.3430,0.001534,0.587515,-0.561437,0.556835,-0.595185,0.558369,-0.559903
3.6425,0.020084,0.000000,-0.285493,0.285493,0.0000,0.0000,0.0000,-0.002479,-0.289922,0.292990,1.1388,0.6989,-0.3430,0.001534,0.587515,-0.561437,0.556835,-0.595185,0.558369,-0.559903
3.6626,0.020093,0.000000,-0.285142,0.285142,0.0000,0.0000,0.0000,-0.002479,-0.289922,0.292990,1.1388,0.6989,-0.3430,0.001534,0.587515,-0.561437,0.556835,-0.595185,0.558369,-0.559903
3.6827,0.020089,0.000000,-0.284791,0.284791,0.0000,0.0000,0.0000,-0.002479,-0.289922,0.292990,1.1388,0.6989,-0.3430,0.001534,0.587515,-0.561437,0.556835,-0.595185,0.558369,-0.559903
3.7027,0.020086,0.000000,-0.284441,0.284441,0.0000,0.0000,0.0000,-0.002479,-0.289922,0.292990,1.1388,0.6989,-0.3430,0.001534,0.587515,-0.561437,0.556835,-0.595185,0.558369,-0.559903
3.7228,0.020093,0.000000,-0.284090,0.284090,0.0000,0.0000,0.0000,-0.002479,-0.289922,0.292990,1.1388,0.6989,-0.3430,0.001534,0.587515,-0.561437,0.556835,-0.595185,0.558369,-0.559903
3.7429,0.020090,0.000000,-0.283739,0.283739,0.0000,0.0000,0.0000,-0.002479,-0.289922,0.291456,1.1388,0.6989,-0.3430,0.001534,0.587515,-0.561437,0.556835,-0.595185,0.558369,-0.559903
3.7630,0.020119,0.000000,-0.283388,0.283388,0.0000,0.0000,0.0000,-0.002479,-0.288388,0.288388,1.1388,0.6989,-0.3430,0.001534,0.587515,-0.561437,0.556835,-0.595185,0.558369,-0.559903
3.7831,0.020083,0.000000,-0.283038,0.283038,0.0000,0.0000,0.0000,-0.002479,-0.288388,0.286854,1.1388,0.6989,-0.3430,0.001534,0.587515,-0.561437,0.556835,-0.595185,0.558369,-0.559903
3.8032,0.020095,0.000000,-0.282687,0.282687,0.0000,0.0000,0.0000,-0.002479,-0.288388,0.286854,1.1388,0.6989,-0.3430,0.001534,0.587515,-0.561437,0.556835,-0.595185,0.558369,-0.559903
3.8233,0.020090,0.000000,-0.282336,0.282336,0.0000,0.0000,0.0000,-0.002479,-0.288388,0.286854,1.1388,0.6989,-0.3430,0.001534,0.587515,-0.561437,0.556835,-0.595185,0.558369,-0.559903
3.8434,0.020045,0.000000,-0.281987,0.281987,0.0000,0.0000,0.0000,-0.002479,-0.288388,0.286854,1.1388,0.6989,-0.3430,0.001534,0.587515,-0.561437,0.556835,-0.595185,0.558369,-0.559903
3.8635,0.020105,0.000000,-0.281636,0.281636,0.0000,0.0000,0.0000,-0.002479,-0.288388,0.286854,1.1388,0.6989,-0.3430,0.001534,0.587515,-0.561437,0.556835,-0.595185,0.558369,-0.559903
3.8836,0.020090,0.000000,-0.281285,0.281285,0.0000,0.0000,0.0000,-0.002479,-0.288388,0.286854,1.1388,0.6989,-0.3430,0.001534,0.587515,-0.561437,0.556835,-0.595185,0.558369,-0.559903
3.9036,0.020091,0.000000,-0.280934,0.280934,0.0000,0.0000,0.0000,-0.002479,-0.288388,0.286854,1.1388,0.6989,-0.3430,0.001534,0.587515,-0.561437,0.556835,-0.595185,0.558369,-0.559903
3.9237,0.020084,0.000000,-0.280584,0.280584,0.0000,0.0000,0.0000,-0.002479,-0.288388,0.286854,1.1388,0.6989,-0.3430,0.001534,0.587515,-0.561437,0.556835,-0.595185,0.558369,-0.559903
3.9438,0.020092,0.000000,-0.280233,0.280233,0.0000,0.0000,0.0000,-0.002479,-0.288388,0.286854,1.1388,0.6989,-0.3430,0.001534,0.587515,-0.561437,0.556835,-0.595185,0.558369,-0.559903
3.9639,0.020101,0.000000,-0.279882,0.279882,0.0000,0.0000,0.0000,-0.002479,-0.288388,0.286854,1.1388,0.6989,-0.3430,0.001534,0.587515,-0.561437,0.556835,-0.595185,0.558369,-0.559903
3.9840,0.020085,0.000000,-0.279532,0.279532,0.0000,0.0000,0.0000,-0.002479,-0.288388,0.286854,1.1388,0.6989,-0.3430,0.001534,0.587515,-0.561437,0.556835,-0.595185,0.558369,-0.559903
4.0041,0.020088,0.000000,-0.279181,0.279181,0.0000,0.0000,0.0000,-0.002479,-0.288388,0.285320,1.1388,0.6989,-0.3430,0.001534,0.587515,-0.561437,0.556835,-0.595185,0.558369,-0.559903
4.0242,0.020082,0.000000,-0.278831,0.278831,0.0000,0.0000,0.0000,-0.002479,-0.286854,0.285320,1.1388,0.6989,-0.3430,0.001534,0.587515,-0.561437,0.556835,-0.595185,0.558369,-0.559903
4.0443,0.020083,0.000000,-0.278480,0.278480,0.0000,0.0000,0.0000,-0.002479,-0.286854,0.285320,1.1388,0.6989,-0.3430,0.001534,0.587515,-0.561437,0.556835,-0.595185,0.558369,-0.559903
4.0644,0.020099,0.000000,-0.278129,0.278129,0.0000,0.0000,0.0000,-0.002479,-0.286854,0.286854,1.1388,0.6989,-0.4309,0.000000,0.587515,-0.561437,0.556835,-0.595185,0.558369,-0.559903
4.0844,0.020080,0.000000,-0.277779,0.277779,0.0000,0.0000,0.0000,-0.002479,-0.285320,0.285320,1.1388,0.6989,-0.3430,0.001534,0.587515,-0.561437,0.556835,-0.595185,0.558369,-0.559903
4.1045,0.020082,0.000000,-0.277428,0.277428,0.0000,0.0000,0.0000,-0.002479,-0.285320,0.285320,1.1388,0.6989,-0.3430,0.001534,0.587515,-0.561437,0.556835,-0.595185,0.558369,-0.559903
4.1246,0.020079,0.000000,-0.277078,0.277078,0.0000,0.0000,0.0000,-0.002479,-0.283786,0.285320,1.1388,0.6989,-0.3430,0.001534,0.587515,-0.561437,0.556835,-0.595185,0.558369,-0.559903
4.1447,0.020082,0.000000,-0.276727,0.276727,0.0000,0.0000,0.0000,-0.002479,-0.283786,0.285320,1.1388,0.6989,-0.3430,0.001534,0.587515,-0.561437,0.556835,-0.595185,0.558369,-0.559903
4.1649,0.020207,0.000000,-0.276375,0.276375,0.0000,0.0000,0.0000,-0.002479,-0.283786,0.285320,1.1388,0.6989,-0.3430,0.001534,0.587515,-0.561437,0.556835,-0.595185,0.558369,-0.559903
4.1850,0.020086,0.000000,-0.276024,0.276024,0.0000,0.0000,0.0000,-0.002479,-0.283786,0.285320,1.1388,0.6989,-0.3430,0.001534,0.587515,-0.561437,0.556835,-0.595185,0.558369,-0.559903
4.2051,0.020092,0.000000,-0.275674,0.275674,0.0000,0.0000,0.0000,-0.002479,-0.283786,0.285320,1.1388,0.6989,-0.3430,0.001534,0.587515,-0.561437,0.556835,-0.595185,0.558369,-0.559903
4.2252,0.020086,0.000000,-0.275323,0.275323,0.0000,0.0000,0.0000,-0.002479,-0.283786,0.285320,1.1388,0.6989,-0.3430,0.001534,0.587515,-0.561437,0.556835,-0.595185,0.558369,-0.559903
4.2456,0.020490,0.000000,-0.274965,0.274965,0.0000,0.0000,0.0000,-0.002479,-0.283786,0.283786,1.1388,0.6989,-0.3430,0.001534,0.587515,-0.561437,0.556835,-0.595185,0.558369,-0.559903
4.2657,0.020097,0.000000,-0.274615,0.274615,0.0000,0.0000,0.0000,-0.002479,-0.283786,0.283786,1.1388,0.6989,-0.3430,0.001534,0.587515,-0.561437,0.556835,-0.595185,0.558369,-0.559903
4.2858,0.020089,0.000000,-0.274264,0.274264,0.0000,0.0000,0.0000,-0.002479,-0.283786,0.282252,1.1388,0.6989,-0.3430,0.001534,0.587515,-0.561437,0.556835,-0.595185,0.558369,-0.559903
4.3059,0.020093,0.000000,-0.273913,0.273913,0.0000,0.0000,0.0000,-0.002479,-0.283786,0.282252,1.1388,0.6989,-0.3430,0.001534,0.587515,-0.561437,0.556835,-0.595185,0.558369,-0.559903
4.3260,0.020090,0.000000,-0.273563,0.273563,0.0000,0.0000,0.0000,-0.002479,-0.283786,0.282252,1.1388,0.6989,-0.3430,0.001534,0.587515,-0.561437,0.556835,-0.595185,0.558369,-0.559903
4.3461,0.020095,0.000000,-0.273212,0.273212,0.0000,0.0000,0.0000,-0.002479,-0.283786,0.283786,1.1388,0.6989,-0.3430,0.001534,0.587515,-0.561437,0.556835,-0.595185,0.558369,-0.559903
4.3662,0.020102,0.000000,-0.272861,0.272861,0.0000,0.0000,0.0000,-0.002479,-0.283786,0.282252,1.1388,0.6989,-0.3430,0.001534,0.587515,-0.561437,0.556835,-0.595185,0.558369,-0.559903
4.3863,0.020091,0.000000,-0.272510,0.272510,0.0000,0.0000,0.0000,-0.002479,-0.283786,0.282252,1.1388,0.6989,-0.3430,0.001534,0.587515,-0.561437,0.556835,-0.595185,0.558369,-0.559903
4.4064,0.020091,0.000000,-0.272160,0.272160,0.0000,0.0000,0.0000,-0.002479,-0.283786,0.282252,1.1388,0.6989,-0.3430,0.001534,0.587515,-0.561437,0.556835,-0.595185,0.558369,-0.559903
4.4265,0.020089,0.000000,-0.271809,0.271809,0.0000,0.0000,0.0000,-0.002479,-0.283786,0.282252,1.1388,0.6989,-0.3430,0.001534,0.587515,-0.561437,0.556835,-0.595185,0.558369,-0.559903
4.4466,0.020104,0.000000,-0.271458,0.271458,0.0000,0.0000,0.0000,-0.002479,-0.283786,0.282252,1.1388,0.6989,-0.3430,0.001534,0.587515,-0.561437,0.556835,-0.595185,0.558369,-0.559903
4.4667,0.020098,0.000000,-0.271108,0.271108,0.0000,0.0000,0.0000,-0.002479,-0.283786,0.282252,1.1388,0.6989,-0.3430,0.001534,0.587515,-0.561437,0.556835,-0.595185,0.558369,-0.559903
4.4868,0.020132,0.000000,-0.270756,0.270756,0.0000,0.0000,0.0000,-0.002479,-0.283786,0.282252,1.1388,0.6989,-0.3430,0.001534,0.587515,-0.561437,0.556835,-0.595185,0.558369,-0.559903
4.5069,0.020087,0.000000,-0.270406,0.270406,0.0000,0.0000,0.0000,-0.002479,-0.283786,0.282252,1.1388,0.6989,-0.3430,0.001534,0.587515,-0.561437,0.556835,-0.595185,0.558369,-0.559903
4.5270,0.020091,0.000000,-0.270055,0.270055,0.0000,0.0000,0.0000,-0.002479,-0.283786,0.282252,1.1388,0.6989,-0.3430,0.001534,0.587515,-0.561437,0.556835,-0.595185,0.558369,-0.559903
4.5471,0.020096,0.000000,-0.269704,0.269704,0.0000,0.0000,0.0000,-0.002479,-0.283786,0.282252,1.1388,0.6989,-0.3430,0.001534,0.587515,-0.561437,0.556835,-0.595185,0.558369,-0.559903
4.5672,0.020087,0.000000,-0.269354,0.269354,0.0000,0.0000,0.0000,-0.002479,-0.283786,0.282252,1.1388,0.6989,-0.3430,0.001534,0.587515,-0.561437,0.556835,-0.595185,0.558369,-0.559903
4.5874,0.020255,0.000000,-0.269000,0.269000,0.0000,0.0000,0.0000,-0.002479,-0.283786,0.282252,1.1388,0.6989,-0.3430,0.001534,0.587515,-0.561437,0.556835,-0.595185,0.558369,-0.559903
4.6075,0.020097,0.000000,-0.268649,0.268649,0.0000,0.0000,0.0000,-0.002479,-0.283786,0.282252,1.1388,0.6989,-0.3430,0.001534,0.587515,-0.561437,0.556835,-0.595185,0.558369,-0.559903
4.6276,0.020089,0.000000,-0.268299,0.268299,0.0000,0.0000,0.0000,-0.002479,-0.283786,0.282252,1.1388,0.6989,-0.3430,0.001534,0.587515,-0.561437,0.556835,-0.595185,0.558369,-0.559903
4.6477,0.020091,0.000000,-0.267948,0.267948,0.0000,0.0000,0.0000,-0.002479,-0.283786,0.282252,1.1388,0.6989,-0.3430,0.001534,0.587515,-0.561437,0.556835,-0.595185,0.558369,-0.559903
4.6678,0.020057,0.000000,-0.267598,0.267598,0.0000,0.0000,0.0000,-0.002479,-0.283786,0.282252,1.1388,0.6989,-0.3430,0.001534,0.587515,-0.561437,0.556835,-0.595185,0.558369,-0.559903
4.6879,0.020093,0.000000,-0.267247,0.267247,0.0000,0.0000,0.0000,-0.002479,-0.283786,0.282252,1.1388,0.6989,-0.3430,0.001534,0.587515,-0.561437,0.556835,-0.595185,0.558369,-0.559903
4.7080,0.020095,0.000000,-0.266897,0.266897,0.0000,0.0000,0.0000,-0.002479,-0.283786,0.282252,1.1388,0.6989,-0.3430,0.001534,0.587515,-0.561437,0.556835,-0.595185,0.558369,-0.559903
4.7280,0.020086,0.000000,-0.266546,0.266546,0.0000,0.0000,0.0000,-0.002479,-0.283786,0.282252,1.1388,0.6989,-0.3430,0.001534,0.587515,-0.561437,0.556835,-0.595185,0.558369,-0.559903
4.7481,0.020099,0.000000,-0.266195,0.266195,0.0000,0.0000,0.0000,-0.002479,-0.283786,0.282252,1.1388,0.6989,-0.3430,0.001534,0.587515,-0.561437,0.556835,-0.595185,0.558369,-0.559903
4.7682,0.020093,0.000000,-0.265845,0.265845,0.0000,0.0000,0.0000,-0.002479,-0.283786,0.282252,1.1388,0.6989,-0.3430,0.001534,0.587515,-0.561437,0.556835,-0.595185,0.558369,-0.559903
4.7883,0.020092,0.000000,-0.265494,0.265494,0.0000,0.0000,0.0000,-0.002479,-0.283786,0.282252,1.1388,0.6989,-0.3430,0.001534,0.587515,-0.561437,0.556835,-0.595185,0.558369,-0.559903
4.8084,0.020092,0.000000,-0.265143,0.265143,0.0000,0.0000,0.0000,-0.002479,-0.283786,0.282252,1.1388,0.6989,-0.3430,0.001534,0.587515,-0.561437,0.556835,-0.595185,0.558369,-0.559903
4.8285,0.020090,0.000000,-0.264793,0.264793,0.0000,0.0000,0.0000,-0.002479,-0.282252,0.282252,1.1388,0.6989,-0.3430,0.001534,0.587515,-0.561437,0.556835,-0.595185,0.558369,-0.559903
4.8486,0.020089,0.000000,-0.264442,0.264442,0.0000,0.0000,0.0000,-0.002479,-0.283786,0.282252,1.1388,0.6989,-0.3430,0.001534,0.587515,-0.561437,0.556835,-0.595185,0.558369,-0.559903
4.8687,0.020097,0.000000,-0.264091,0.264091,0.0000,0.0000,0.0000,-0.002479,-0.282252,0.282252,1.1388,0.6989,-0.3430,0.001534,0.587515,-0.561437,0.556835,-0.595185,0.558369,-0.559903
4.8888,0.020092,0.000000,-0.263740,0.263740,0.0000,0.0000,0.0000,-0.002479,-0.282252,0.282252,1.1388,0.6989,-0.3430,0.001534,0.587515,-0.561437,0.556835,-0.595185,0.558369,-0.559903
4.9089,0.020092,0.000000,-0.263390,0.263390,0.0000,0.0000,0.0000,-0.002479,-0.280718,0.282252,1.1388,0.6989,-0.3430,0.001534,0.587515,-0.561437,0.556835,-0.595185,0.558369,-0.559903
4.9291,0.020216,0.000000,-0.263037,0.263037,0.0000,0.0000,0.0000,-0.002479,-0.276117,0.282252,1.1388,0.6989,-0.3430,0.001534,0.587515,-0.561437,0.556835,-0.595185,0.558369,-0.559903
4.9492,0.020091,0.000000,-0.262686,0.262686,0.0000,0.0000,0.0000,-0.002479,-0.269981,0.282252,1.1388,0.6989,-0.3430,0.001534,0.587515,-0.561437,0.556835,-0.595185,0.558369,-0.559903
4.9693,0.020098,0.000000,-0.262336,0.262336,0.0000,0.0000,0.0000,-0.002479,-0.263845,0.280718,1.1388,0.6989,-0.3430,0.001534,0.587515,-0.561437,0.556835,-0.595185,0.558369,-0.559903
4.9894,0.020092,0.000000,-0.261985,0.261985,0.0000,0.0000,0.0000,-0.002479,-0.263845,0.279185,1.1388,0.6989,-0.3430,0.001534,0.587515,-0.561437,0.556835,-0.595185,0.558369,-0.559903
5.0095,0.020094,0.000000,-0.261634,0.261634,0.0000,0.0000,0.0000,-0.002479,-0.263845,0.279185,1.1388,0.6989,-0.3430,0.001534,0.587515,-0.561437,0.556835,-0.595185,0.558369,-0.559903
5.0296,0.020092,0.000000,-0.261283,0.261283,0.0000,0.0000,0.0000,-0.002479,-0.263845,0.277651,1.1388,0.6989,-0.3430,0.001534,0.587515,-0.561437,0.556835,-0.595185,0.558369,-0.559903
5.0496,0.020084,0.000000,-0.260933,0.260933,0.0000,0.0000,0.0000,-0.002479,-0.263845,0.274583,1.1388,0.6989,-0.3430,0.001534,0.587515,-0.561437,0.556835,-0.595185,0.558369,-0.559903
5.0697,0.020096,0.000000,-0.260582,0.260582,0.0000,0.0000,0.0000,-0.002479,-0.263845,0.269981,1.1388,0.6989,-0.3430,0.001534,0.587515,-0.561437,0.556835,-0.595185,0.558369,-0.559903
5.0898,0.020086,0.000000,-0.260232,0.260232,0.0000,0.0000,0.0000,-0.002479,-0.262311,0.266913,1.1388,0.6989,-0.3430,0.001534,0.587515,-0.561437,0.556835,-0.595185,0.558369,-0.559903
5.1099,0.020089,0.000000,-0.259881,0.259881,0.0000,0.0000,0.0000,-0.002479,-0.262311,0.262311,1.1388,0.6989,-0.3430,0.001534,0.587515,-0.561437,0.556835,-0.595185,0.558369,-0.559903
5.1300,0.020093,0.000000,-0.259530,0.259530,0.0000,0.0000,0.0000,-0.002479,-0.262311,0.260777,1.1388,0.6989,-0.3430,0.001534,0.587515,-0.561437,0.556835,-0.595185,0.558369,-0.559903
5.1501,0.020086,0.000000,-0.259180,0.259180,0.0000,0.0000,0.0000,-0.002479,-0.262311,0.260777,1.1388,0.6989,-0.3430,0.001534,0.587515,-0.561437,0.556835,-0.595185,0.558369,-0.559903
5.1702,0.020085,0.000000,-0.258829,0.258829,0.0000,0.0000,0.0000,-0.002479,-0.262311,0.260777,1.1388,0.6989,-0.3430,0.001534,0.587515,-0.561437,0.556835,-0.595185,0.558369,-0.559903
5.1903,0.020088,0.000000,-0.258479,0.258479,0.0000,0.0000,0.0000,-0.002479,-0.262311,0.260777,1.1388,0.6989,-0.3430,0.001534,0.587515,-0.561437,0.556835,-0.595185,0.558369,-0.559903
5.2104,0.020099,0.000000,-0.258128,0.258128,0.0000,0.0000,0.0000,-0.002479,-0.262311,0.260777,1.1388,0.6989,-0.3430,0.001534,0.587515,-0.561437,0.556835,-0.595185,0.558369,-0.559903
5.2305,0.020098,0.000000,-0.257777,0.257777,0.0000,0.0000,0.0000,-0.002479,-0.262311,0.260777,1.1388,0.6989,-0.3430,0.001534,0.587515,-0.561437,0.556835,-0.595185,0.558369,-0.559903
5.2505,0.020085,0.000000,-0.257426,0.257426,0.0000,0.0000,0.0000,-0.002479,-0.262311,0.259243,1.1388,0.6989,-0.3430,0.001534,0.587515,-0.561437,0.556835,-0.595185,0.558369,-0.559903
5.2706,0.020087,0.000000,-0.257076,0.257076,0.0000,0.0000,0.0000,-0.002479,-0.262311,0.259243,1.1388,0.6989,-0.3430,0.001534,0.587515,-0.561437,0.556835,-0.595185,0.558369,-0.559903
5.2907,0.020087,0.000000,-0.256725,0.256725,0.0000,0.0000,0.0000,-0.002479,-0.262311,0.259243,1.1388,0.6989,-0.3430,0.001534,0.587515,-0.561437,0.556835,-0.595185,0.558369,-0.559903
5.3108,0.020102,0.000000,-0.256374,0.256374,0.0000,0.0000,0.0000,-0.002479,-0.262311,0.259243,1.1388,0.6989,-0.3430,0.001534,0.587515,-0.561437,0.556835,-0.595185,0.558369,-0.559903
5.3309,0.020110,0.000000,-0.256023,0.256023,0.0000,0.0000,0.0000,-0.002479,-0.262311,0.259243,1.1388,0.6989,-0.3430,0.001534,0.587515,-0.561437,0.556835,-0.595185,0.558369,-0.559903
5.3510,0.020091,0.000000,-0.255673,0.255673,0.0000,0.0000,0.0000,-0.002479,-0.262311,0.259243,1.1388,0.6989,-0.4309,0.000000,0.587515,-0.561437,0.556835,-0.595185,0.558369,-0.559903
5.3712,0.020131,0.000000,-0.255322,0.255322,0.0000,0.0000,0.0000,-0.002479,-0.262311,0.259243,1.1388,0.6989,-0.3430,0.001534,0.587515,-0.561437,0.556835,-0.595185,0.558369,-0.559903
5.3913,0.020101,0.000000,-0.254971,0.254971,0.0000,0.0000,0.0000,-0.002479,-0.262311,0.259243,1.1388,0.6989,-0.3430,0.001534,0.587515,-0.561437,0.556835,-0.595185,0.558369,-0.559903
5.4114,0.020109,0.000000,-0.254620,0.254620,0.0000,0.0000,0.0000,-0.002479,-0.262311,0.259243,1.1388,0.6989,-0.3430,0.001534,0.587515,-0.561437,0.556835,-0.595185,0.558369,-0.559903
5.4326,0.021254,0.000000,-0.254249,0.254249,0.0000,0.0000,0.0000,-0.002479,-0.262311,0.257709,1.1388,0.6989,-0.3430,0.001534,0.587515,-0.561437,0.556835,-0.595185,0.558369,-0.559903
5.4527,0.020105,0.000000,-0.253898,0.253898,0.0000,0.0000,0.0000,-0.002479,-0.262311,0.257709,1.1388,0.6989,-0.3430,0.001534,0.587515,-0.561437,0.556835,-0.595185,0.558369,-0.559903
5.4728,0.020091,0.000000,-0.253547,0.253547,0.0000,0.0000,0.0000,-0.002479,-0.260777,0.257709,1.1388,0.6989,-0.3430,0.001534,0.587515,-0.561437,0.556835,-0.595185,0.558369,-0.559903
5.4929,0.020099,0.000000,-0.253196,0.253196,0.0000,0.0000,0.0000,-0.002479,-0.260777,0.257709,1.1388,0.6989,-0.3430,0.001534,0.587515,-0.561437,0.556835,-0.595185,0.558369,-0.559903
5.5130,0.020096,0.000000,-0.252846,0.252846,0.0000,0.0000,0.0000,-0.002479,-0.260777,0.257709,1.1388,0.6989,-0.3430,0.001534,0.587515,-0.561437,0.556835,-0.595185,0.558369,-0.559903
5.5335,0.020444,0.000000,-0.252489,0.252489,0.0000,0.0000,0.0000,-0.002479,-0.260777,0.257709,1.1388,0.6989,-0.3430,0.001534,0.587515,-0.561437,0.556835,-0.595185,0.558369,-0.559903
5.5535,0.020094,0.000000,-0.252138,0.252138,0.0000,0.0000,0.0000,-0.002479,-0.260777,0.257709,1.1388,0.6989,-0.3430,0.001534,0.587515,-0.561437,0.556835,-0.595185,0.558369,-0.559903
5.5737,0.020103,0.000000,-0.251787,0.251787,0.0000,0.0000,0.0000,-0.002479,-0.260777,0.257709,1.1388,0.6989,-0.3430,0.001534,0.587515,-0.561437,0.556835,-0.595185,0.558369,-0.559903
5.5938,0.020100,0.000000,-0.251436,0.251436,0.0000,0.0000,0.0000,-0.002479,-0.260777,0.256175,1.1388,0.6989,-0.3430,0.001534,0.587515,-0.561437,0.556835,-0.595185,0.558369,-0.559903
5.6139,0.020140,0.000000,-0.251085,0.251085,0.0000,0.0000,0.0000,-0.002479,-0.260777,0.256175,1.1388,0.6989,-0.3430,0.001534,0.587515,-0.561437,0.556835,-0.595185,0.558369,-0.559903
5.6340,0.020101,0.000000,-0.250734,0.250734,0.0000,0.0000,0.0000,-0.002479,-0.260777,0.256175,1.1388,0.6989,-0.3430,0.001534,0.587515,-0.561437,0.556835,-0.595185,0.558369,-0.559903
5.6541,0.020093,0.000000,-0.250383,0.250383,0.0000,0.0000,0.0000,-0.002479,-0.259243,0.256175,1.1388,0.6989,-0.3430,0.001534,0.587515,-0.561437,0.556835,-0.595185,0.558369,-0.559903
5.6742,0.020136,0.000000,-0.250032,0.250032,0.0000,0.0000,0.0000,-0.002492,-0.257709,0.256175,1.1496,0.6474,-0.3959,0.001534,0.587515,-0.561437,0.555301,-0.595185,0.558369,-0.559903
5.6943,0.020103,0.000000,-0.249681,0.249681,0.0000,0.0000,0.0000,-0.002492,-0.256175,0.256175,1.1496,0.6474,-0.3959,0.001534,0.587515,-0.561437,0.556835,-0.595185,0.558369,-0.559903
5.7149,0.020569,0.000000,-0.249322,0.249322,0.0000,0.0000,0.0000,-0.002477,-0.257709,0.254641,1.1375,0.7049,-0.3368,0.001534,0.587515,-0.561437,0.556835,-0.595185,0.558369,-0.559903
5.7350,0.020100,0.000000,-0.248971,0.248971,0.0000,0.0000,0.0000,-0.002479,-0.257709,0.256175,1.1388,0.6989,-0.3430,0.001534,0.587515,-0.561437,0.556835,-0.595185,0.558369,-0.559903
5.7551,0.020093,0.000000,-0.248621,0.248621,0.0000,0.0000,0.0000,-0.002479,-0.257709,0.254641,1.1388,0.6989,-0.3430,0.001534,0.587515,-0.561437,0.556835,-0.595185,0.558369,-0.559903
5.7752,0.020162,0.000000,-0.248269,0.248269,0.0000,0.0000,0.0000,-0.002479,-0.256175,0.254641,1.1388,0.6989,-0.3430,0.001534,0.587515,-0.561437,0.556835,-0.595185,0.558369,-0.559903
5.7953,0.020096,0.000000,-0.247918,0.247918,0.0000,0.0000,0.0000,-0.002479,-0.257709,0.256175,1.1388,0.6989,-0.3430,0.001534,0.587515,-0.561437,0.556835,-0.595185,0.558369,-0.559903
5.8154,0.020092,0.000000,-0.247567,0.247567,0.0000,0.0000,0.0000,-0.002479,-0.257709,0.256175,1.1388,0.6989,-0.3430,0.001534,0.587515,-0.561437,0.556835,-0.595185,0.558369,-0.559903
5.8355,0.020094,0.000000,-0.247217,0.247217,0.0000,0.0000,0.0000,-0.002479,-0.257709,0.254641,1.1388,0.6989,-0.3430,0.001534,0.587515,-0.561437,0.556835,-0.595185,0.558369,-0.559903
5.8556,0.020099,0.000000,-0.246866,0.246866,0.0000,0.0000,0.0000,-0.002479,-0.257709,0.256175,1.1388,0.6989,-0.3430,0.001534,0.587515,-0.561437,0.556835,-0.595185,0.558369,-0.559903
5.8757,0.020107,0.000000,-0.246515,0.246515,0.0000,0.0000,0.0000,-0.002479,-0.256175,0.256175,1.1388,0.6989,-0.3430,0.001534,0.587515,-0.561437,0.556835,-0.595185,0.558369,-0.559903
5.8960,0.020254,0.000000,-0.246161,0.246161,0.0000,0.0000,0.0000,-0.002479,-0.256175,0.256175,1.1388,0.6989,-0.3430,0.001534,0.587515,-0.561437,0.556835,-0.595185,0.558369,-0.559903
5.9161,0.020106,0.000000,-0.245810,0.245810,0.0000,0.0000,0.0000,-0.002479,-0.257709,0.256175,1.1388,0.6989,-0.3430,0.001534,0.587515,-0.561437,0.556835,-0.595185,0.558369,-0.559903
5.9362,0.020133,0.000000,-0.245459,0.245459,0.0000,0.0000,0.0000,-0.002479,-0.256175,0.254641,1.1388,0.6989,-0.3430,0.001534,0.587515,-0.561437,0.556835,-0.595185,0.558369,-0.559903
5.9563,0.020101,0.000000,-0.245108,0.245108,0.0000,0.0000,0.0000,-0.002479,-0.257709,0.256175,1.1388,0.6989,-0.3430,0.001534,0.587515,-0.561437,0.556835,-0.595185,0.558369,-0.559903
5.9765,0.020128,0.000000,-0.244757,0.244757,0.0000,0.0000,0.0000,-0.002479,-0.257709,0.254641,1.1388,0.6989,-0.3430,0.001534,0.587515,-0.561437,0.556835,-0.595185,0.558369,-0.559903
5.9966,0.020174,0.000000,-0.244405,0.244405,0.0000,0.0000,0.0000,-0.002479,-0.257709,0.254641,1.1388,0.6989,-0.3430,0.001534,0.587515,-0.561437,0.556835,-0.595185,0.558369,-0.559903
6.0167,0.020106,0.000000,-0.244054,0.244054,0.0000,0.0000,0.0000,-0.002479,-0.256175,0.256175,1.1388,0.6989,-0.3430,0.001534,0.587515,-0.561437,0.556835,-0.595185,0.558369,-0.559903
6.0369,0.020114,0.000000,-0.243703,0.243703,0.0000,0.0000,0.0000,-0.002479,-0.257709,0.254641,1.1388,0.6989,-0.3430,0.001534,0.587515,-0.561437,0.556835,-0.595185,0.558369,-0.559903
6.0570,0.020102,0.000000,-0.243352,0.243352,0.0000,0.0000,0.0000,-0.002479,-0.257709,0.254641,1.1388,0.6989,-0.3430,0.001534,0.587515,-0.561437,0.556835,-0.595185,0.558369,-0.559903
6.0771,0.020111,0.000000,-0.243001,0.243001,0.0000,0.0000,0.0000,-0.002479,-0.256175,0.256175,1.1388,0.6989,-0.3430,0.001534,0.587515,-0.561437,0.556835,-0.595185,0.558369,-0.559903
6.0971,0.020071,0.000000,-0.242651,0.242651,0.0000,0.0000,0.0000,-0.002479,-0.256175,0.256175,1.1388,0.6989,-0.3430,0.001534,0.587515,-0.561437,0.556835,-0.595185,0.558369,-0.559903
6.1172,0.020098,0.000000,-0.242300,0.242300,0.0000,0.0000,0.0000,-0.002479,-0.256175,0.254641,1.1388,0.6989,-0.3430,0.001534,0.587515,-0.561437,0.556835,-0.595185,0.558369,-0.559903
6.1373,0.020111,0.000000,-0.241949,0.241949,0.0000,0.0000,0.0000,-0.002479,-0.257709,0.256175,1.1388,0.6989,-0.3430,0.001534,0.587515,-0.561437,0.556835,-0.595185,0.558369,-0.559903
6.1574,0.020103,0.000000,-0.241598,0.241598,0.0000,0.0000,0.0000,-0.002479,-0.257709,0.254641,1.1388,0.6989,-0.3430,0.001534,0.587515,-0.561437,0.556835,-0.595185,0.558369,-0.559903
6.1776,0.020131,0.000000,-0.241247,0.241247,0.0000,0.0000,0.0000,-0.002479,-0.257709,0.254641,1.1388,0.6989,-0.3430,0.001534,0.587515,-0.561437,0.556835,-0.595185,0.558369,-0.559903
6.1977,0.020102,0.000000,-0.240896,0.240896,0.0000,0.0000,0.0000,-0.002479,-0.256175,0.254641,1.1388,0.6989,-0.3430,0.001534,0.587515,-0.561437,0.556835,-0.595185,0.558369,-0.559903
6.2178,0.020094,0.000000,-0.240545,0.240545,0.0000,0.0000,0.0000,-0.002479,-0.256175,0.254641,1.1388,0.6989,-0.3430,0.001534,0.587515,-0.561437,0.556835,-0.595185,0.558369,-0.559903
6.2379,0.020107,0.000000,-0.240194,0.240194,0.0000,0.0000,0.0000,-0.002479,-0.256175,0.254641,1.1388,0.6989,-0.3430,0.001534,0.587515,-0.561437,0.556835,-0.595185,0.558369,-0.559903
6.2580,0.020081,0.000000,-0.239844,0.239844,0.0000,0.0000,0.0000,-0.002479,-0.256175,0.254641,1.1388,0.6989,-0.3430,0.001534,0.587515,-0.561437,0.556835,-0.595185,0.558369,-0.559903
6.2783,0.020375,0.000000,-0.239488,0.239488,0.0000,0.0000,0.0000,-0.002479,-0.256175,0.254641,1.1388,0.6989,-0.3430,0.001534,0.587515,-0.561437,0.556835,-0.595185,0.558369,-0.559903
6.2984,0.020104,0.000000,-0.239137,0.239137,0.0000,0.0000,0.0000,-0.002479,-0.256175,0.254641,1.1388,0.6989,-0.3430,0.001534,0.587515,-0.561437,0.556835,-0.595185,0.558369,-0.559903
6.3185,0.020095,0.000000,-0.238787,0.238787,0.0000,0.0000,0.0000,-0.002479,-0.256175,0.254641,1.1388,0.6989,-0.3430,0.001534,0.587515,-0.561437,0.556835,-0.595185,0.558369,-0.559903
6.3386,0.020095,0.000000,-0.238436,0.238436,0.0000,0.0000,0.0000,-0.002479,-0.256175,0.254641,1.1388,0.6989,-0.3430,0.001534,0.587515,-0.561437,0.556835,-0.595185,0.558369,-0.559903
6.3587,0.020094,0.000000,-0.238085,0.238085,0.0000,0.0000,0.0000,-0.002479,-0.256175,0.254641,1.1388,0.6989,-0.3430,0.001534,0.587515,-0.561437,0.556835,-0.595185,0.558369,-0.559903
6.3788,0.020092,0.000000,-0.237734,0.237734,0.0000,0.0000,0.0000,-0.002479,-0.256175,0.254641,1.1388,0.6989,-0.3430,0.001534,0.587515,-0.561437,0.556835,-0.595185,0.558369,-0.559903
6.3989,0.020105,0.000000,-0.237384,0.237384,0.0000,0.0000,0.0000,-0.002479,-0.256175,0.254641,1.1388,0.6989,-0.3430,0.001534,0.587515,-0.561437,0.556835,-0.595185,0.558369,-0.559903
6.4192,0.020238,0.000000,-0.237030,0.237030,0.0000,0.0000,0.0000,-0.002479,-0.254641,0.253107,1.1388,0.6989,-0.3430,0.001534,0.587515,-0.561437,0.556835,-0.595185,0.558369,-0.559903
6.4393,0.020093,0.000000,-0.236680,0.236680,0.0000,0.0000,0.0000,-0.002479,-0.250039,0.254641,1.1388,0.6989,-0.3430,0.001534,0.587515,-0.561437,0.556835,-0.595185,0.558369,-0.559903
6.4593,0.020090,0.000000,-0.236329,0.236329,0.0000,0.0000,0.0000,-0.002479,-0.240835,0.253107,1.1388,0.6989,-0.3430,0.001534,0.587515,-0.561437,0.556835,-0.595185,0.558369,-0.559903
6.4794,0.020093,0.000000,-0.235978,0.235978,0.0000,0.0000,0.0000,-0.002479,-0.236233,0.253107,1.1388,0.6989,-0.3430,0.001534,0.587515,-0.561437,0.556835,-0.595185,0.558369,-0.559903
6.4995,0.020105,0.000000,-0.235627,0.235627,0.0000,0.0000,0.0000,-0.002479,-0.236233,0.253107,1.1388,0.6989,-0.3430,0.001534,0.587515,-0.561437,0.556835,-0.595185,0.558369,-0.559903
6.5196,0.020092,0.000000,-0.235277,0.235277,0.0000,0.0000,0.0000,-0.002479,-0.237767,0.251573,1.1388,0.6989,-0.3430,0.001534,0.587515,-0.561437,0.556835,-0.595185,0.558369,-0.559903
6.5397,0.020090,0.000000,-0.234926,0.234926,0.0000,0.0000,0.0000,-0.002479,-0.236233,0.250039,1.1388,0.6989,-0.3430,0.001534,0.587515,-0.561437,0.556835,-0.595185,0.558369,-0.559903
