t,loop_dt,cmd_z,cmd_ant_l,cmd_ant_r,cmd_roll,cmd_pitch,cmd_yaw,pres_z,pres_ant_l,pres_ant_r,pres_roll,pres_pitch,pres_yaw,pres_j0,pres_j1,pres_j2,pres_j3,pres_j4,pres_j5,pres_j6
0.0000,0.000001,0.000000,-0.349065,0.349065,0.0000,0.0000,0.0000,-0.002681,-0.179476,0.177942,1.0747,1.0565,-0.1515,0.001534,0.578311,-0.555301,0.556835,-0.595185,0.558369,-0.549165
0.0201,0.020142,0.000000,-0.331488,0.331488,0.0000,0.0000,0.0000,-0.002670,-0.179476,0.177942,1.0384,1.0270,-0.1040,0.001534,0.578311,-0.555301,0.556835,-0.595185,0.558369,-0.549165
0.0404,0.020237,0.000000,-0.313828,0.313828,0.0000,0.0000,0.0000,-0.002685,-0.188680,0.188680,1.1390,0.9928,-0.1554,0.001534,0.579845,-0.555301,0.555301,-0.595185,0.556835,-0.549165
0.0605,0.020114,0.000000,-0.296275,0.296275,0.0000,0.0000,0.0000,-0.002669,-0.242369,0.242369,1.1177,1.0484,-0.0965,0.001534,0.579845,-0.555301,0.556835,-0.595185,0.556835,-0.549165
0.0816,0.021118,0.000000,-0.277846,0.277846,0.0000,0.0000,0.0000,-0.002645,-0.317534,0.316000,1.0302,0.9909,-0.1037,0.001534,0.579845,-0.555301,0.556835,-0.595185,0.558369,-0.550699
0.1019,0.020287,0.000000,-0.260142,0.260142,0.0000,0.0000,0.0000,-0.002648,-0.349748,0.343612,1.0394,0.9969,-0.1030,0.001534,0.579845,-0.555301,0.556835,-0.595185,0.558369,-0.550699
0.1222,0.020300,0.000000,-0.242426,0.242426,0.0000,0.0000,0.0000,-0.002634,-0.337476,0.332874,0.9891,0.9782,-0.1566,0.001534,0.579845,-0.555301,0.556835,-0.595185,0.558369,-0.552233
0.1423,0.020085,0.000000,-0.224899,0.224899,0.0000,0.0000,0.0000,-0.002636,-0.308330,0.308330,0.9944,0.9802,-0.1510,0.001534,0.579845,-0.555301,0.556835,-0.595185,0.558369,-0.552233
0.1624,0.020096,0.000000,-0.207362,0.207362,0.0000,0.0000,0.0000,-0.002636,-0.274583,0.282252,0.9944,0.9802,-0.1510,0.001534,0.579845,-0.555301,0.556835,-0.595185,0.558369,-0.552233
0.1827,0.020319,0.000000,-0.189631,0.189631,0.0000,0.0000,0.0000,-0.002649,-0.243903,0.253107,0.9959,0.9435,-0.3111,0.001534,0.579845,-0.555301,0.555301,-0.595185,0.556835,-0.553767
0.2028,0.020094,0.000000,-0.172095,0.172095,0.0000,0.0000,0.0000,-0.002621,-0.222427,0.231631,0.9444,0.9658,-0.1884,0.001534,0.579845,-0.555301,0.556835,-0.595185,0.558369,-0.553767
0.2230,0.020228,0.000000,-0.154443,0.154443,0.0000,0.0000,0.0000,-0.002598,-0.200951,0.207087,0.8514,0.9276,-0.3084,0.001534,0.579845,-0.555301,0.556835,-0.595185,0.558369,-0.556835
0.2431,0.020086,0.000000,-0.136914,0.136914,0.0000,0.0000,0.0000,-0.002601,-0.187146,0.193282,0.8611,0.9316,-0.2959,0.001534,0.579845,-0.555301,0.556835,-0.595185,0.558369,-0.556835
0.2633,0.020189,0.000000,-0.119296,0.119296,0.0000,0.0000,0.0000,-0.002600,-0.171806,0.177942,0.8598,0.9310,-0.2976,0.001534,0.579845,-0.555301,0.556835,-0.595185,0.558369,-0.556835
0.2834,0.020088,0.000000,-0.101766,0.101766,0.0000,0.0000,0.0000,-0.002600,-0.156466,0.161068,0.8598,0.9310,-0.2976,0.001534,0.579845,-0.555301,0.556835,-0.595185,0.558369,-0.556835
0.3035,0.020093,0.000000,-0.084232,0.084232,0.0000,0.0000,0.0000,-0.002600,-0.139592,0.141126,0.8598,0.9310,-0.2976,0.001534,0.579845,-0.555301,0.556835,-0.595185,0.558369,-0.556835
0.3236,0.020089,0.000000,-0.066701,0.066701,0.0000,0.0000,0.0000,-0.002600,-0.124252,0.124252,0.8598,0.9310,-0.2976,0.001534,0.579845,-0.555301,0.556835,-0.595185,0.558369,-0.556835
0.3437,0.020094,0.000000,-0.049166,0.049166,0.0000,0.0000,0.0000,-0.002600,-0.105845,0.105845,0.8598,0.9310,-0.2976,0.001534,0.579845,-0.555301,0.556835,-0.595185,0.558369,-0.556835
0.3638,0.020168,0.000000,-0.031566,0.031566,0.0000,0.0000,0.0000,-0.002600,-0.085903,0.085903,0.8598,0.9310,-0.2976,0.001534,0.579845,-0.555301,0.556835,-0.595185,0.558369,-0.556835
0.3842,0.020351,0.000000,-0.013806,0.013806,0.0000,0.0000,0.0000,-0.002600,-0.067495,0.069029,0.8598,0.9310,-0.2976,0.001534,0.579845,-0.555301,0.556835,-0.595185,0.558369,-0.556835
0.4043,0.020084,0.000000,-0.003721,0.003721,0.0000,0.0000,0.0000,-0.002600,-0.049087,0.050621,0.8598,0.9310,-0.2976,0.001534,0.579845,-0.555301,0.556835,-0.595185,0.558369,-0.556835
0.4244,0.020090,0.000000,-0.021252,0.021252,0.0000,0.0000,0.0000,-0.002600,-0.030680,0.033748,0.8598,0.9310,-0.2976,0.001534,0.579845,-0.555301,0.556835,-0.595185,0.558369,-0.556835
0.4444,0.020090,0.000000,-0.038784,0.038784,0.0000,0.0000,0.0000,-0.002600,-0.012272,0.016874,0.8598,0.9310,-0.2976,0.001534,0.579845,-0.555301,0.556835,-0.595185,0.558369,-0.556835
0.4645,0.020084,0.000000,-0.056311,0.056311,0.0000,0.0000,0.0000,-0.002600,0.003068,0.004602,0.8598,0.9310,-0.2976,0.001534,0.579845,-0.555301,0.556835,-0.595185,0.558369,-0.556835
0.4846,0.020084,0.000000,-0.073838,0.073838,0.0000,0.0000,0.0000,-0.002600,0.000000,0.007670,0.8598,0.9310,-0.2976,0.001534,0.579845,-0.555301,0.556835,-0.595185,0.558369,-0.556835
0.5047,0.020083,0.000000,-0.091363,0.091363,0.0000,0.0000,0.0000,-0.002589,-0.019942,0.026078,0.9101,0.9156,-0.2431,0.001534,0.581379,-0.555301,0.556835,-0.595185,0.558369,-0.556835
0.5248,0.020092,0.000000,-0.108896,0.108896,0.0000,0.0000,0.0000,-0.002579,-0.047553,0.050621,0.9546,0.9017,-0.1947,0.001534,0.582913,-0.555301,0.556835,-0.595185,0.558369,-0.556835
0.5451,0.020311,0.000000,-0.126621,0.126621,0.0000,0.0000,0.0000,-0.002569,-0.076699,0.078233,0.9997,0.8877,-0.1458,0.001534,0.584447,-0.555301,0.556835,-0.595185,0.558369,-0.556835
0.5653,0.020208,0.000000,-0.144256,0.144256,0.0000,0.0000,0.0000,-0.002581,-0.105845,0.101243,0.9453,0.9046,-0.2049,0.001534,0.582913,-0.555301,0.556835,-0.595185,0.558369,-0.556835
0.5854,0.020088,0.000000,-0.161786,0.161786,0.0000,0.0000,0.0000,-0.002569,-0.121184,0.118117,1.0007,0.8874,-0.1447,0.001534,0.584447,-0.555301,0.556835,-0.595185,0.558369,-0.556835
0.6055,0.020089,0.000000,-0.179317,0.179317,0.0000,0.0000,0.0000,-0.002570,-0.131922,0.130388,0.9949,0.8892,-0.1510,0.001534,0.584447,-0.555301,0.556835,-0.595185,0.558369,-0.556835
0.6256,0.020096,0.000000,-0.196854,0.196854,0.0000,0.0000,0.0000,-0.002570,-0.147262,0.147262,0.9949,0.8892,-0.1510,0.001534,0.584447,-0.555301,0.556835,-0.595185,0.558369,-0.556835
0.6457,0.020093,0.000000,-0.214388,0.214388,0.0000,0.0000,0.0000,-0.002559,-0.167204,0.165670,1.0452,0.8736,-0.0963,0.001534,0.585981,-0.555301,0.556835,-0.595185,0.558369,-0.556835
0.6658,0.020095,0.000000,-0.231925,0.231925,0.0000,0.0000,0.0000,-0.002560,-0.188680,0.184078,1.0400,0.8752,-0.1020,0.001534,0.585981,-0.555301,0.556835,-0.595185,0.558369,-0.556835
0.6859,0.020110,0.000000,-0.249474,0.249474,0.0000,0.0000,0.0000,-0.002560,-0.208621,0.200951,1.0400,0.8752,-0.1020,0.001534,0.585981,-0.555301,0.556835,-0.595185,0.558369,-0.556835
0.7062,0.020296,0.000000,-0.267185,0.267185,0.0000,0.0000,0.0000,-0.002560,-0.222427,0.219359,1.0400,0.8752,-0.1020,0.001534,0.585981,-0.555301,0.556835,-0.595185,0.558369,-0.556835
0.7267,0.020518,0.000000,-0.285091,0.285091,0.0000,0.0000,0.0000,-0.002560,-0.240835,0.239301,1.0400,0.8752,-0.1020,0.001534,0.585981,-0.555301,0.556835,-0.595185,0.558369,-0.556835
0.7470,0.020279,0.000000,-0.302787,0.302787,0.0000,0.0000,0.0000,-0.002560,-0.254641,0.254641,1.0400,0.8752,-0.1020,0.001534,0.585981,-0.555301,0.556835,-0.595185,0.558369,-0.556835
0.7670,0.020052,0.000000,-0.320286,0.320286,0.0000,0.0000,0.0000,-0.002560,-0.273049,0.271515,1.0400,0.8752,-0.1020,0.001534,0.585981,-0.555301,0.556835,-0.595185,0.558369,-0.556835
0.7871,0.020091,0.000000,-0.337819,0.337819,0.0000,0.0000,0.0000,-0.002560,-0.289922,0.289922,1.0400,0.8752,-0.1020,0.001534,0.585981,-0.555301,0.556835,-0.595185,0.558369,-0.556835
0.8072,0.020092,0.000000,-0.342779,0.342779,0.0000,0.0000,0.0000,-0.002560,-0.289922,0.289922,1.0400,0.8752,-0.1020,0.001534,0.585981,-0.555301,0.556835,-0.595185,0.558369,-0.556835
0.8273,0.020096,0.000000,-0.325242,0.325242,0.0000,0.0000,0.0000,-0.002560,-0.312932,0.311398,1.0400,0.8752,-0.1020,0.001534,0.585981,-0.555301,0.556835,-0.595185,0.558369,-0.556835
0.8474,0.020101,0.000000,-0.307700,0.307700,0.0000,0.0000,0.0000,-0.002560,-0.329806,0.325204,1.0400,0.8752,-0.1020,0.001534,0.585981,-0.555301,0.556835,-0.595185,0.558369,-0.556835
0.8675,0.020089,0.000000,-0.290169,0.290169,0.0000,0.0000,0.0000,-0.002560,-0.335942,0.331340,1.0400,0.8752,-0.1020,0.001534,0.585981,-0.555301,0.556835,-0.595185,0.558369,-0.556835
0.8876,0.020091,0.000000,-0.272636,0.272636,0.0000,0.0000,0.0000,-0.002560,-0.339010,0.334408,1.0400,0.8752,-0.1020,0.001534,0.585981,-0.555301,0.556835,-0.595185,0.558369,-0.556835
0.9077,0.020093,0.000000,-0.255102,0.255102,0.0000,0.0000,0.0000,-0.002560,-0.334408,0.332874,1.0400,0.8752,-0.1020,0.001534,0.585981,-0.555301,0.556835,-0.595185,0.558369,-0.556835
0.9278,0.020097,0.000000,-0.237564,0.237564,0.0000,0.0000,0.0000,-0.002560,-0.320602,0.320602,1.0400,0.8752,-0.1020,0.001534,0.585981,-0.555301,0.556835,-0.595185,0.558369,-0.556835
0.9481,0.020330,0.000000,-0.219823,0.219823,0.0000,0.0000,0.0000,-0.002560,-0.300660,0.302194,1.0400,0.8752,-0.1020,0.001534,0.585981,-0.555301,0.556835,-0.595185,0.558369,-0.556835
0.9681,0.020042,0.000000,-0.202332,0.202332,0.0000,0.0000,0.0000,-0.002560,-0.277651,0.282252,1.0400,0.8752,-0.1020,0.001534,0.585981,-0.555301,0.556835,-0.595185,0.558369,-0.556835
0.9882,0.020090,0.000000,-0.184800,0.184800,0.0000,0.0000,0.0000,-0.002560,-0.256175,0.262311,1.0400,0.8752,-0.1020,0.001534,0.585981,-0.555301,0.556835,-0.595185,0.558369,-0.556835
1.0083,0.020094,0.000000,-0.167265,0.167265,0.0000,0.0000,0.0000,-0.002560,-0.239301,0.243903,1.0400,0.8752,-0.1020,0.001534,0.585981,-0.555301,0.556835,-0.595185,0.558369,-0.556835
1.0284,0.020091,0.000000,-0.149733,0.149733,0.0000,0.0000,0.0000,-0.002560,-0.217825,0.222427,1.0400,0.8752,-0.1020,0.001534,0.585981,-0.555301,0.556835,-0.595185,0.558369,-0.556835
1.0485,0.020095,0.000000,-0.132197,0.132197,0.0000,0.0000,0.0000,-0.002560,-0.200951,0.208621,1.0400,0.8752,-0.1020,0.001534,0.585981,-0.555301,0.556835,-0.595185,0.558369,-0.556835
1.0686,0.020093,0.000000,-0.114662,0.114662,0.0000,0.0000,0.0000,-0.002560,-0.181010,0.188680,1.0400,0.8752,-0.1020,0.001534,0.585981,-0.555301,0.556835,-0.595185,0.558369,-0.556835
1.0887,0.020094,0.000000,-0.097126,0.097126,0.0000,0.0000,0.0000,-0.002560,-0.167204,0.173340,1.0400,0.8752,-0.1020,0.001534,0.585981,-0.555301,0.556835,-0.595185,0.558369,-0.556835
1.1088,0.020090,0.000000,-0.079594,0.079594,0.0000,0.0000,0.0000,-0.002560,-0.145728,0.150330,1.0400,0.8752,-0.1020,0.001534,0.585981,-0.555301,0.556835,-0.595185,0.558369,-0.556835
1.1290,0.020258,0.000000,-0.061916,0.061916,0.0000,0.0000,0.0000,-0.002560,-0.130388,0.133456,1.0400,0.8752,-0.1020,0.001534,0.585981,-0.555301,0.556835,-0.595185,0.558369,-0.556835
1.1492,0.020106,0.000000,-0.044370,0.044370,0.0000,0.0000,0.0000,-0.002560,-0.093573,0.095107,1.0400,0.8752,-0.1020,0.001534,0.585981,-0.555301,0.556835,-0.595185,0.558369,-0.556835
1.1692,0.020087,0.000000,-0.026840,0.026840,0.0000,0.0000,0.0000,-0.002560,-0.076699,0.078233,1.0400,0.8752,-0.1020,0.001534,0.585981,-0.555301,0.556835,-0.595185,0.558369,-0.556835
1.1893,0.020087,0.000000,-0.009311,0.009311,0.0000,0.0000,0.0000,-0.002560,-0.059825,0.059825,1.0400,0.8752,-0.1020,0.001534,0.585981,-0.555301,0.556835,-0.595185,0.558369,-0.556835
1.2095,0.020171,0.000000,-0.008292,0.008292,0.0000,0.0000,0.0000,-0.002574,-0.041417,0.041417,1.0515,0.8230,-0.1549,0.001534,0.585981,-0.555301,0.555301,-0.595185,0.558369,-0.556835
1.2296,0.020097,0.000000,-0.025830,0.025830,0.0000,0.0000,0.0000,-0.002559,-0.026078,0.027612,1.0393,0.8805,-0.0959,0.001534,0.585981,-0.555301,0.556835,-0.595185,0.558369,-0.556835
1.2497,0.020092,0.000000,-0.043364,0.043364,0.0000,0.0000,0.0000,-0.002560,-0.007670,0.010738,1.0406,0.8745,-0.1020,0.001534,0.585981,-0.555301,0.556835,-0.595185,0.558369,-0.556835
1.2698,0.020085,0.000000,-0.060892,0.060892,0.0000,0.0000,0.0000,-0.002560,0.001534,0.001534,1.0406,0.8745,-0.1020,0.001534,0.585981,-0.555301,0.556835,-0.595185,0.558369,-0.556835
1.2899,0.020092,0.000000,-0.078425,0.078425,0.0000,0.0000,0.0000,-0.002560,-0.007670,0.010738,1.0406,0.8745,-0.1020,0.001534,0.585981,-0.555301,0.556835,-0.595185,0.558369,-0.556835
1.3100,0.020082,0.000000,-0.095950,0.095950,0.0000,0.0000,0.0000,-0.002560,-0.030680,0.032214,1.0406,0.8745,-0.1020,0.001534,0.585981,-0.555301,0.556835,-0.595185,0.558369,-0.556835
1.3300,0.020082,0.000000,-0.113475,0.113475,0.0000,0.0000,0.0000,-0.002560,-0.058291,0.056757,1.0406,0.8745,-0.1020,0.001534,0.585981,-0.555301,0.556835,-0.595185,0.558369,-0.556835
1.3501,0.020104,0.000000,-0.131019,0.131019,0.0000,0.0000,0.0000,-0.002560,-0.085903,0.084369,1.0406,0.8745,-0.1020,0.001534,0.585981,-0.555301,0.556835,-0.595185,0.558369,-0.556835
1.3711,0.020997,0.000000,-0.149342,0.149342,0.0000,0.0000,0.0000,-0.002560,-0.110447,0.105845,1.0406,0.8745,-0.1020,0.001534,0.585981,-0.555301,0.556835,-0.595185,0.558369,-0.556835
1.3912,0.020112,0.000000,-0.166893,0.166893,0.0000,0.0000,0.0000,-0.002560,-0.124252,0.122718,1.0406,0.8745,-0.1020,0.001534,0.585981,-0.555301,0.556835,-0.595185,0.558369,-0.556835
1.4113,0.020097,0.000000,-0.184431,0.184431,0.0000,0.0000,0.0000,-0.002560,-0.134990,0.133456,1.0406,0.8745,-0.1020,0.001534,0.585981,-0.555301,0.556835,-0.595185,0.558369,-0.556835
1.4314,0.020094,0.000000,-0.201966,0.201966,0.0000,0.0000,0.0000,-0.002560,-0.151864,0.150330,1.0406,0.8745,-0.1020,0.001534,0.585981,-0.555301,0.556835,-0.595185,0.558369,-0.556835
1.4516,0.020153,0.000000,-0.219553,0.219553,0.0000,0.0000,0.0000,-0.002560,-0.170272,0.168738,1.0406,0.8745,-0.1020,0.001534,0.585981,-0.555301,0.556835,-0.595185,0.558369,-0.556835
1.4717,0.020091,0.000000,-0.237086,0.237086,0.0000,0.0000,0.0000,-0.002560,-0.194816,0.190214,1.0406,0.8745,-0.1020,0.001534,0.585981,-0.555301,0.556835,-0.595185,0.558369,-0.556835
1.4918,0.020096,0.000000,-0.254624,0.254624,0.0000,0.0000,0.0000,-0.002560,-0.211689,0.207087,1.0406,0.8745,-0.1020,0.001534,0.585981,-0.555301,0.556835,-0.595185,0.558369,-0.556835
1.5119,0.020092,0.000000,-0.272157,0.272157,0.0000,0.0000,0.0000,-0.002560,-0.227029,0.225495,1.0406,0.8745,-0.1020,0.001534,0.585981,-0.555301,0.556835,-0.595185,0.558369,-0.556835
1.5320,0.020107,0.000000,-0.289704,0.289704,0.0000,0.0000,0.0000,-0.002560,-0.242369,0.242369,1.0406,0.8745,-0.1020,0.001534,0.585981,-0.555301,0.556835,-0.595185,0.558369,-0.556835
1.5521,0.020111,0.000000,-0.307254,0.307254,0.0000,0.0000,0.0000,-0.002560,-0.260777,0.260777,1.0406,0.8745,-0.1020,0.001534,0.585981,-0.555301,0.556835,-0.595185,0.558369,-0.556835
1.5722,0.020087,0.000000,-0.324784,0.324784,0.0000,0.0000,0.0000,-0.002560,-0.276117,0.276117,1.0406,0.8745,-0.1020,0.001534,0.585981,-0.555301,0.556835,-0.595185,0.558369,-0.556835
1.5923,0.020096,0.000000,-0.342321,0.342321,0.0000,0.0000,0.0000,-0.002560,-0.297592,0.294524,1.0406,0.8745,-0.1020,0.001534,0.585981,-0.555301,0.556835,-0.595185,0.558369,-0.556835
1.6124,0.020122,0.000000,-0.338251,0.338251,0.0000,0.0000,0.0000,-0.002560,-0.319068,0.316000,1.0406,0.8745,-0.1020,0.001534,0.585981,-0.555301,0.556835,-0.595185,0.558369,-0.556835
1.6325,0.020105,0.000000,-0.320706,0.320706,0.0000,0.0000,0.0000,-0.002560,-0.334408,0.329806,1.0406,0.8745,-0.1020,0.001534,0.585981,-0.555301,0.556835,-0.595185,0.558369,-0.556835
1.6526,0.020090,0.000000,-0.303174,0.303174,0.0000,0.0000,0.0000,-0.002560,-0.349748,0.346680,1.0406,0.8745,-0.1020,0.001534,0.585981,-0.555301,0.556835,-0.595185,0.558369,-0.556835
1.6727,0.020096,0.000000,-0.285638,0.285638,0.0000,0.0000,0.0000,-0.002560,-0.349748,0.343612,1.0406,0.8745,-0.1020,0.001534,0.585981,-0.555301,0.556835,-0.595185,0.558369,-0.556835
1.6928,0.020119,0.000000,-0.268081,0.268081,0.0000,0.0000,0.0000,-0.002560,-0.339010,0.332874,1.0406,0.8745,-0.1020,0.001534,0.585981,-0.555301,0.556835,-0.595185,0.558369,-0.556835
1.7129,0.020109,0.000000,-0.250532,0.250532,0.0000,0.0000,0.0000,-0.002560,-0.322136,0.319068,1.0406,0.8745,-0.1020,0.001534,0.585981,-0.555301,0.556835,-0.595185,0.558369,-0.556835
1.7330,0.020083,0.000000,-0.233007,0.233007,0.0000,0.0000,0.0000,-0.002560,-0.302194,0.303728,1.0406,0.8745,-0.1020,0.001534,0.585981,-0.555301,0.556835,-0.595185,0.558369,-0.556835
1.7533,0.020259,0.000000,-0.215328,0.215328,0.0000,0.0000,0.0000,-0.002560,-0.279185,0.283786,1.0406,0.8745,-0.1899,0.000000,0.585981,-0.555301,0.556835,-0.595185,0.558369,-0.556835
1.7733,0.020077,0.000000,-0.197807,0.197807,0.0000,0.0000,0.0000,-0.002560,-0.259243,0.266913,1.0406,0.8745,-0.1020,0.001534,0.585981,-0.555301,0.556835,-0.595185,0.558369,-0.556835
1.7935,0.020220,0.000000,-0.180162,0.180162,0.0000,0.0000,0.0000,-0.002560,-0.239301,0.246971,1.0406,0.8745,-0.1020,0.001534,0.585981,-0.555301,0.556835,-0.595185,0.558369,-0.556835
1.8137,0.020174,0.000000,-0.162557,0.162557,0.0000,0.0000,0.0000,-0.002560,-0.222427,0.227029,1.0406,0.8745,-0.1020,0.001534,0.585981,-0.555301,0.556835,-0.595185,0.558369,-0.556835
1.8338,0.020078,0.000000,-0.145036,0.145036,0.0000,0.0000,0.0000,-0.002560,-0.202485,0.210155,1.0406,0.8745,-0.1020,0.001534,0.585981,-0.555301,0.556835,-0.595185,0.558369,-0.556835
1.8539,0.020092,0.000000,-0.127502,0.127502,0.0000,0.0000,0.0000,-0.002560,-0.185612,0.193282,1.0406,0.8745,-0.1020,0.001534,0.585981,-0.555301,0.556835,-0.595185,0.558369,-0.556835
1.8740,0.020089,0.000000,-0.109971,0.109971,0.0000,0.0000,0.0000,-0.002560,-0.168738,0.174874,1.0406,0.8745,-0.1020,0.001534,0.585981,-0.555301,0.556835,-0.595185,0.558369,-0.556835
1.8941,0.020076,0.000000,-0.092452,0.092452,0.0000,0.0000,0.0000,-0.002560,-0.153398,0.158000,1.0406,0.8745,-0.1020,0.001534,0.585981,-0.555301,0.556835,-0.595185,0.558369,-0.556835
1.9141,0.020086,0.000000,-0.074924,0.074924,0.0000,0.0000,0.0000,-0.002560,-0.134990,0.136524,1.0406,0.8745,-0.1020,0.001534,0.585981,-0.555301,0.556835,-0.595185,0.558369,-0.556835
1.9342,0.020042,0.000000,-0.057434,0.057434,0.0000,0.0000,0.0000,-0.002560,-0.118117,0.118117,1.0406,0.8745,-0.1020,0.001534,0.585981,-0.555301,0.556835,-0.595185,0.558369,-0.556835
1.9543,0.020087,0.000000,-0.039905,0.039905,0.0000,0.0000,0.0000,-0.002560,-0.101243,0.101243,1.0406,0.8745,-0.1020,0.001534,0.585981,-0.555301,0.556835,-0.595185,0.558369,-0.556835
1.9744,0.020078,0.000000,-0.022383,0.022383,0.0000,0.0000,0.0000,-0.002560,-0.084369,0.084369,1.0406,0.8745,-0.1020,0.001534,0.585981,-0.555301,0.556835,-0.595185,0.558369,-0.556835
1.9944,0.020079,0.000000,-0.004861,0.004861,0.0000,0.0000,0.0000,-0.002560,-0.067495,0.065961,1.0406,0.8745,-0.1020,0.001534,0.585981,-0.555301,0.556835,-0.595185,0.558369,-0.556835
2.0145,0.020086,0.000000,-0.012668,0.012668,0.0000,0.0000,0.0000,-0.002560,-0.046019,0.047553,1.0406,0.8745,-0.1020,0.001534,0.585981,-0.555301,0.556835,-0.595185,0.558369,-0.556835
2.0346,0.020088,0.000000,-0.030198,0.030198,0.0000,0.0000,0.0000,-0.002560,-0.029146,0.030680,1.0406,0.8745,-0.1020,0.001534,0.585981,-0.555301,0.556835,-0.595185,0.558369,-0.556835
2.0547,0.020079,0.000000,-0.047720,0.047720,0.0000,0.0000,0.0000,-0.002560,-0.010738,0.013806,1.0406,0.8745,-0.1020,0.001534,0.585981,-0.555301,0.556835,-0.595185,0.558369,-0.556835
2.0748,0.020082,0.000000,-0.065245,0.065245,0.0000,0.0000,0.0000,-0.002560,-0.001534,0.004602,1.0406,0.8745,-0.1020,0.001534,0.585981,-0.555301,0.556835,-0.595185,0.558369,-0.556835
2.0948,0.020080,0.000000,-0.082768,0.082768,0.0000,0.0000,0.0000,-0.002560,-0.007670,0.010738,1.0406,0.8745,-0.1020,0.001534,0.585981,-0.555301,0.556835,-0.595185,0.558369,-0.556835
2.1149,0.020082,0.000000,-0.100293,0.100293,0.0000,0.0000,0.0000,-0.002560,-0.030680,0.029146,1.0406,0.8745,-0.1020,0.001534,0.585981,-0.555301,0.556835,-0.595185,0.558369,-0.556835
2.1350,0.020080,0.000000,-0.117816,0.117816,0.0000,0.0000,0.0000,-0.002560,-0.055223,0.052155,1.0406,0.8745,-0.1020,0.001534,0.585981,-0.555301,0.556835,-0.595185,0.558369,-0.556835
2.1551,0.020074,0.000000,-0.135334,0.135334,0.0000,0.0000,0.0000,-0.002560,-0.079767,0.079767,1.0406,0.8745,-0.1020,0.001534,0.585981,-0.555301,0.556835,-0.595185,0.558369,-0.556835
2.1752,0.020080,0.000000,-0.152857,0.152857,0.0000,0.0000,0.0000,-0.002560,-0.105845,0.101243,1.0406,0.8745,-0.1020,0.001534,0.585981,-0.555301,0.556835,-0.595185,0.558369,-0.556835
2.1952,0.020075,0.000000,-0.170376,0.170376,0.0000,0.0000,0.0000,-0.002560,-0.122718,0.119651,1.0406,0.8745,-0.1020,0.001534,0.585981,-0.555301,0.556835,-0.595185,0.558369,-0.556835
2.2153,0.020077,0.000000,-0.187897,0.187897,0.0000,0.0000,0.0000,-0.002560,-0.136524,0.133456,1.0406,0.8745,-0.1020,0.001534,0.585981,-0.555301,0.556835,-0.595185,0.558369,-0.556835
2.2354,0.020079,0.000000,-0.205419,0.205419,0.0000,0.0000,0.0000,-0.002560,-0.150330,0.148796,1.0406,0.8745,-0.1020,0.001534,0.585981,-0.555301,0.556835,-0.595185,0.558369,-0.556835
2.2555,0.020077,0.000000,-0.222939,0.222939,0.0000,0.0000,0.0000,-0.002560,-0.170272,0.167204,1.0406,0.8745,-0.1020,0.001534,0.585981,-0.555301,0.556835,-0.595185,0.558369,-0.556835
2.2756,0.020084,0.000000,-0.240466,0.240466,0.0000,0.0000,0.0000,-0.002560,-0.190214,0.185612,1.0406,0.8745,-0.1020,0.001534,0.585981,-0.555301,0.556835,-0.595185,0.558369,-0.556835
2.2956,0.020080,0.000000,-0.257989,0.257989,0.0000,0.0000,0.0000,-0.002560,-0.207087,0.200951,1.0406,0.8745,-0.1020,0.001534,0.585981,-0.555301,0.556835,-0.595185,0.558369,-0.556835
2.3157,0.020079,0.000000,-0.275512,0.275512,0.0000,0.0000,0.0000,-0.002560,-0.222427,0.220893,1.0406,0.8745,-0.1020,0.001534,0.585981,-0.555301,0.556835,-0.595185,0.558369,-0.556835
2.3358,0.020082,0.000000,-0.293036,0.293036,0.0000,0.0000,0.0000,-0.002560,-0.239301,0.239301,1.0406,0.8745,-0.1020,0.001534,0.585981,-0.555301,0.556835,-0.595185,0.558369,-0.556835
2.3559,0.020076,0.000000,-0.310556,0.310556,0.0000,0.0000,0.0000,-0.002560,-0.254641,0.254641,1.0406,0.8745,-0.1020,0.001534,0.585981,-0.555301,0.556835,-0.595185,0.558369,-0.556835
2.3759,0.020079,0.000000,-0.328078,0.328078,0.0000,0.0000,0.0000,-0.002560,-0.271515,0.271515,1.0406,0.8745,-0.1020,0.001534,0.585981,-0.555301,0.556835,-0.595185,0.558369,-0.556835
2.3960,0.020078,0.000000,-0.345599,0.345599,0.0000,0.0000,0.0000,-0.002560,-0.289922,0.289922,1.0406,0.8745,-0.1020,0.001534,0.585981,-0.555301,0.556835,-0.595185,0.558369,-0.556835
2.4161,0.020081,0.000000,-0.335009,0.335009,0.0000,0.0000,0.0000,-0.002560,-0.311398,0.308330,1.0406,0.8745,-0.1020,0.001534,0.585981,-0.555301,0.556835,-0.595185,0.558369,-0.556835
2.4362,0.020088,0.000000,-0.317479,0.317479,0.0000,0.0000,0.0000,-0.002560,-0.331340,0.326738,1.0406,0.8745,-0.1020,0.001534,0.585981,-0.555301,0.556835,-0.595185,0.558369,-0.556835
2.4563,0.020080,0.000000,-0.299956,0.299956,0.0000,0.0000,0.0000,-0.002560,-0.346680,0.342078,1.0406,0.8745,-0.1020,0.001534,0.585981,-0.555301,0.556835,-0.595185,0.558369,-0.556835
2.4764,0.020167,0.000000,-0.282357,0.282357,0.0000,0.0000,0.0000,-0.002560,-0.352816,0.349748,1.0406,0.8745,-0.1020,0.001534,0.585981,-0.555301,0.556835,-0.595185,0.558369,-0.556835
2.4965,0.020079,0.000000,-0.264835,0.264835,0.0000,0.0000,0.0000,-0.002560,-0.348214,0.343612,1.0406,0.8745,-0.1020,0.001534,0.585981,-0.555301,0.556835,-0.595185,0.558369,-0.556835
2.5166,0.020087,0.000000,-0.247307,0.247307,0.0000,0.0000,0.0000,-0.002560,-0.331340,0.328272,1.0406,0.8745,-0.1020,0.001534,0.585981,-0.555301,0.556835,-0.595185,0.558369,-0.556835
2.5367,0.020083,0.000000,-0.229781,0.229781,0.0000,0.0000,0.0000,-0.002574,-0.312932,0.311398,1.0515,0.8231,-0.1548,0.001534,0.585981,-0.555301,0.555301,-0.595185,0.558369,-0.556835
2.5569,0.020220,0.000000,-0.212135,0.212135,0.0000,0.0000,0.0000,-0.002559,-0.286854,0.289922,1.0393,0.8805,-0.0959,0.001534,0.585981,-0.555301,0.556835,-0.595185,0.558369,-0.556835
2.5770,0.020116,0.000000,-0.194581,0.194581,0.0000,0.0000,0.0000,-0.002560,-0.263845,0.269981,1.0406,0.8745,-0.1020,0.001534,0.585981,-0.555301,0.556835,-0.595185,0.558369,-0.556835
2.5971,0.020080,0.000000,-0.177058,0.177058,0.0000,0.0000,0.0000,-0.002560,-0.243903,0.248505,1.0406,0.8745,-0.1020,0.001534,0.585981,-0.555301,0.556835,-0.595185,0.558369,-0.556835
2.6172,0.020088,0.000000,-0.159528,0.159528,0.0000,0.0000,0.0000,-0.002560,-0.225495,0.231631,1.0406,0.8745,-0.1020,0.001534,0.585981,-0.555301,0.556835,-0.595185,0.558369,-0.556835
2.6373,0.020085,0.000000,-0.142001,0.142001,0.0000,0.0000,0.0000,-0.002560,-0.207087,0.213223,1.0406,0.8745,-0.1020,0.001534,0.585981,-0.555301,0.556835,-0.595185,0.558369,-0.556835
2.6574,0.020082,0.000000,-0.124476,0.124476,0.0000,0.0000,0.0000,-0.002560,-0.190214,0.196350,1.0406,0.8745,-0.1020,0.001534,0.585981,-0.555301,0.556835,-0.595185,0.558369,-0.556835
2.6775,0.020147,0.000000,-0.106894,0.106894,0.0000,0.0000,0.0000,-0.002560,-0.171806,0.177942,1.0406,0.8745,-0.1020,0.001534,0.585981,-0.555301,0.556835,-0.595185,0.558369,-0.556835
2.6976,0.020082,0.000000,-0.089369,0.089369,0.0000,0.0000,0.0000,-0.002560,-0.154932,0.159534,1.0406,0.8745,-0.1020,0.001534,0.585981,-0.555301,0.556835,-0.595185,0.558369,-0.556835
2.7182,0.020576,0.000000,-0.071413,0.071413,0.0000,0.0000,0.0000,-0.002560,-0.136524,0.138058,1.0406,0.8745,-0.1020,0.001534,0.585981,-0.555301,0.556835,-0.595185,0.558369,-0.556835
2.7382,0.020079,0.000000,-0.053891,0.053891,0.0000,0.0000,0.0000,-0.002560,-0.119651,0.121184,1.0406,0.8745,-0.1020,0.001534,0.585981,-0.555301,0.556835,-0.595185,0.558369,-0.556835
2.7583,0.020084,0.000000,-0.036364,0.036364,0.0000,0.0000,0.0000,-0.002560,-0.105845,0.105845,1.0406,0.8745,-0.1020,0.001534,0.585981,-0.555301,0.556835,-0.595185,0.558369,-0.556835
2.7784,0.020089,0.000000,-0.018834,0.018834,0.0000,0.0000,0.0000,-0.002560,-0.087437,0.087437,1.0406,0.8745,-0.1020,0.001534,0.585981,-0.555301,0.556835,-0.595185,0.558369,-0.556835
2.7985,0.020076,0.000000,-0.001314,0.001314,0.0000,0.0000,0.0000,-0.002560,-0.069029,0.069029,1.0406,0.8745,-0.1020,0.001534,0.585981,-0.555301,0.556835,-0.595185,0.558369,-0.556835
2.8192,0.020703,0.000000,-0.016752,0.016752,0.0000,0.0000,0.0000,-0.002560,-0.052155,0.052155,1.0406,0.8745,-0.1020,0.001534,0.585981,-0.555301,0.556835,-0.595185,0.558369,-0.556835
2.8393,0.020083,0.000000,-0.034278,0.034278,0.0000,0.0000,0.0000,-0.002560,-0.029146,0.030680,1.0406,0.8745,-0.1020,0.001534,0.585981,-0.555301,0.556835,-0.595185,0.558369,-0.556835
2.8594,0.020079,0.000000,-0.051800,0.051800,0.0000,0.0000,0.0000,-0.002560,-0.012272,0.016874,1.0406,0.8745,-0.1020,0.001534,0.585981,-0.555301,0.556835,-0.595185,0.558369,-0.556835
2.8794,0.020078,0.000000,-0.069322,0.069322,0.0000,0.0000,0.0000,-0.002560,0.001534,0.004602,1.0406,0.8745,-0.1020,0.001534,0.585981,-0.555301,0.556835,-0.595185,0.558369,-0.556835
2.8995,0.020082,0.000000,-0.086847,0.086847,0.0000,0.0000,0.0000,-0.002560,0.000000,0.007670,1.0406,0.8745,-0.1020,0.001534,0.585981,-0.555301,0.556835,-0.595185,0.558369,-0.556835
2.9197,0.020138,0.000000,-0.104420,0.104420,0.0000,0.0000,0.0000,-0.002560,-0.019942,0.026078,1.0406,0.8745,-0.1020,0.001534,0.585981,-0.555301,0.556835,-0.595185,0.558369,-0.556835
2.9397,0.020086,0.000000,-0.121949,0.121949,0.0000,0.0000,0.0000,-0.002574,-0.044485,0.047553,1.0515,0.8231,-0.1548,0.001534,0.585981,-0.555301,0.555301,-0.595185,0.558369,-0.556835
2.9599,0.020157,0.000000,-0.139539,0.139539,0.0000,0.0000,0.0000,-0.002559,-0.073631,0.073631,1.0393,0.8805,-0.0959,0.001534,0.585981,-0.555301,0.556835,-0.595185,0.558369,-0.556835
2.9803,0.020350,0.000000,-0.157298,0.157298,0.0000,0.0000,0.0000,-0.002560,-0.102777,0.099709,1.0406,0.8745,-0.1020,0.001534,0.585981,-0.555301,0.556835,-0.595185,0.558369,-0.556835
3.0003,0.020082,0.000000,-0.174823,0.174823,0.0000,0.0000,0.0000,-0.002560,-0.122718,0.118117,1.0406,0.8745,-0.1020,0.001534,0.585981,-0.555301,0.556835,-0.595185,0.558369,-0.556835
3.0204,0.020080,0.000000,-0.192346,0.192346,0.0000,0.0000,0.0000,-0.002549,-0.145728,0.144194,1.0901,0.8597,-0.0473,0.001534,0.587515,-0.555301,0.556835,-0.595185,0.558369,-0.556835
3.0406,0.020175,0.000000,-0.209952,0.209952,0.0000,0.0000,0.0000,-0.002550,-0.162602,0.161068,1.0850,0.8613,-0.1409,0.000000,0.587515,-0.555301,0.556835,-0.595185,0.558369,-0.556835
3.0607,0.020076,0.000000,-0.227471,0.227471,0.0000,0.0000,0.0000,-0.002575,-0.184078,0.181010,1.0469,0.8244,-0.1600,0.001534,0.585981,-0.555301,0.555301,-0.595185,0.558369,-0.556835
3.0807,0.020080,0.000000,-0.244994,0.244994,0.0000,0.0000,0.0000,-0.002572,-0.184078,0.181010,1.0508,0.8283,-0.1488,0.001534,0.585981,-0.555301,0.555301,-0.595185,0.558369,-0.556835
3.1008,0.020083,0.000000,-0.262520,0.262520,0.0000,0.0000,0.0000,-0.002559,-0.223961,0.222427,1.0394,0.8799,-0.0965,0.001534,0.585981,-0.555301,0.556835,-0.595185,0.558369,-0.556835
3.1212,0.020401,0.000000,-0.280323,0.280323,0.0000,0.0000,0.0000,-0.002560,-0.239301,0.239301,1.0406,0.8745,-0.1019,0.001534,0.585981,-0.555301,0.556835,-0.595185,0.558369,-0.556835
3.1413,0.020083,0.000000,-0.297848,0.297848,0.0000,0.0000,0.0000,-0.002560,-0.254641,0.256175,1.0406,0.8745,-0.1019,0.001534,0.585981,-0.555301,0.556835,-0.595185,0.558369,-0.556835
3.1614,0.020080,0.000000,-0.315371,0.315371,0.0000,0.0000,0.0000,-0.002549,-0.273049,0.273049,1.0901,0.8597,-0.0473,0.001534,0.587515,-0.555301,0.556835,-0.595185,0.558369,-0.556835
3.1815,0.020092,0.000000,-0.332904,0.332904,0.0000,0.0000,0.0000,-0.002561,-0.291456,0.289922,1.0353,0.8766,-0.1071,0.001534,0.585981,-0.555301,0.556835,-0.595185,0.558369,-0.556835
3.2016,0.020079,0.000000,-0.347705,0.347705,0.0000,0.0000,0.0000,-0.002560,-0.311398,0.308330,1.0410,0.8749,-0.1008,0.001534,0.585981,-0.555301,0.556835,-0.595185,0.558369,-0.556835
3.2219,0.020364,0.000000,-0.329934,0.329934,0.0000,0.0000,0.0000,-0.002549,-0.331340,0.326738,1.0901,0.8597,-0.0474,0.001534,0.587515,-0.555301,0.556835,-0.595185,0.558369,-0.556835
3.2420,0.020077,0.000000,-0.312413,0.312413,0.0000,0.0000,0.0000,-0.002561,-0.348214,0.343612,1.0353,0.8766,-0.1071,0.001534,0.585981,-0.555301,0.556835,-0.595185,0.558369,-0.556835
3.2621,0.020078,0.000000,-0.294892,0.294892,0.0000,0.0000,0.0000,-0.002560,-0.355884,0.351282,1.0410,0.8749,-0.1008,0.001534,0.585981,-0.555301,0.556835,-0.595185,0.558369,-0.556835
3.2822,0.020082,0.000000,-0.277367,0.277367,0.0000,0.0000,0.0000,-0.002560,-0.351282,0.346680,1.0410,0.8749,-0.1008,0.001534,0.585981,-0.555301,0.556835,-0.595185,0.558369,-0.556835
3.3022,0.020081,0.000000,-0.259843,0.259843,0.0000,0.0000,0.0000,-0.002560,-0.332874,0.328272,1.0410,0.8749,-0.1008,0.001534,0.585981,-0.555301,0.556835,-0.595185,0.558369,-0.556835
3.3223,0.020083,0.000000,-0.242317,0.242317,0.0000,0.0000,0.0000,-0.002560,-0.311398,0.309864,1.0410,0.8749,-0.1008,0.001534,0.585981,-0.555301,0.556835,-0.595185,0.558369,-0.556835
3.3424,0.020094,0.000000,-0.224781,0.224781,0.0000,0.0000,0.0000,-0.002560,-0.288388,0.291456,1.0410,0.8749,-0.1008,0.001534,0.585981,-0.555301,0.556835,-0.595185,0.558369,-0.556835
3.3625,0.020075,0.000000,-0.207263,0.207263,0.0000,0.0000,0.0000,-0.002560,-0.265379,0.271515,1.0410,0.8749,-0.1008,0.001534,0.585981,-0.555301,0.556835,-0.595185,0.558369,-0.556835
3.3826,0.020079,0.000000,-0.189740,0.189740,0.0000,0.0000,0.0000,-0.002549,-0.243903,0.250039,1.0901,0.8597,-0.0474,0.001534,0.587515,-0.555301,0.556835,-0.595185,0.558369,-0.556835
3.4027,0.020077,0.000000,-0.172220,0.172220,0.0000,0.0000,0.0000,-0.002561,-0.227029,0.231631,1.0353,0.8766,-0.1071,0.001534,0.585981,-0.555301,0.556835,-0.595185,0.558369,-0.556835
3.4227,0.020081,0.000000,-0.154695,0.154695,0.0000,0.0000,0.0000,-0.002560,-0.208621,0.214757,1.0410,0.8749,-0.1008,0.001534,0.585981,-0.555301,0.556835,-0.595185,0.558369,-0.556835
3.4430,0.020287,0.000000,-0.136992,0.136992,0.0000,0.0000,0.0000,-0.002560,-0.191748,0.197884,1.0410,0.8749,-0.1008,0.001534,0.585981,-0.555301,0.556835,-0.595185,0.558369,-0.556835
3.4631,0.020078,0.000000,-0.119471,0.119471,0.0000,0.0000,0.0000,-0.002560,-0.174874,0.181010,1.0410,0.8749,-0.1008,0.001534,0.585981,-0.555301,0.556835,-0.595185,0.558369,-0.556835
3.4836,0.020465,0.000000,-0.101612,0.101612,0.0000,0.0000,0.0000,-0.002560,-0.158000,0.162602,1.0410,0.8749,-0.1008,0.001534,0.585981,-0.555301,0.556835,-0.595185,0.558369,-0.556835
3.5036,0.020085,0.000000,-0.084084,0.084084,0.0000,0.0000,0.0000,-0.002560,-0.139592,0.142660,1.0410,0.8749,-0.1008,0.001534,0.585981,-0.555301,0.556835,-0.595185,0.558369,-0.556835
3.5237,0.020075,0.000000,-0.066565,0.066565,0.0000,0.0000,0.0000,-0.002560,-0.122718,0.122718,1.0410,0.8749,-0.1008,0.001534,0.585981,-0.555301,0.556835,-0.595185,0.558369,-0.556835
3.5438,0.020080,0.000000,-0.049042,0.049042,0.0000,0.0000,0.0000,-0.002560,-0.104311,0.104311,1.0410,0.8749,-0.1008,0.001534,0.585981,-0.555301,0.556835,-0.595185,0.558369,-0.556835
3.5639,0.020076,0.000000,-0.031522,0.031522,0.0000,0.0000,0.0000,-0.002560,-0.085903,0.084369,1.0410,0.8749,-0.1008,0.001534,0.585981,-0.555301,0.556835,-0.595185,0.558369,-0.556835
3.5840,0.020136,0.000000,-0.013950,0.013950,0.0000,0.0000,0.0000,-0.002560,-0.067495,0.067495,1.0410,0.8749,-0.1008,0.001534,0.585981,-0.555301,0.556835,-0.595185,0.558369,-0.556835
3.6041,0.020079,0.000000,-0.003572,0.003572,0.0000,0.0000,0.0000,-0.002560,-0.049087,0.049087,1.0410,0.8749,-0.1008,0.001534,0.585981,-0.555301,0.556835,-0.595185,0.558369,-0.556835
3.6242,0.020078,0.000000,-0.021093,0.021093,0.0000,0.0000,0.0000,-0.002560,-0.030680,0.032214,1.0410,0.8749,-0.1008,0.001534,0.585981,-0.555301,0.556835,-0.595185,0.558369,-0.556835
3.6443,0.020092,0.000000,-0.038626,0.038626,0.0000,0.0000,0.0000,-0.002560,-0.012272,0.015340,1.0410,0.8749,-0.1008,0.001534,0.585981,-0.555301,0.556835,-0.595185,0.558369,-0.556835
3.6643,0.020084,0.000000,-0.056153,0.056153,0.0000,0.0000,0.0000,-0.002560,0.004602,0.003068,1.0410,0.8749,-0.1008,0.001534,0.585981,-0.555301,0.556835,-0.595185,0.558369,-0.556835
3.6844,0.020102,0.000000,-0.073695,0.073695,0.0000,0.0000,0.0000,-0.002560,0.004602,0.003068,1.0410,0.8749,-0.1008,0.001534,0.585981,-0.555301,0.556835,-0.595185,0.558369,-0.556835
3.7045,0.020090,0.000000,-0.091227,0.091227,0.0000,0.0000,0.0000,-0.002549,-0.015340,0.023010,1.0901,0.8597,-0.0474,0.001534,0.587515,-0.555301,0.556835,-0.595185,0.558369,-0.556835
3.7246,0.020076,0.000000,-0.108747,0.108747,0.0000,0.0000,0.0000,-0.002550,-0.047553,0.050621,1.0850,0.8613,-0.0530,0.001534,0.587515,-0.555301,0.556835,-0.595185,0.558369,-0.556835
3.7450,0.020396,0.000000,-0.126545,0.126545,0.0000,0.0000,0.0000,-0.002561,-0.072097,0.073631,1.0358,0.8765,-0.1065,0.001534,0.585981,-0.555301,0.556835,-0.595185,0.558369,-0.556835
3.7652,0.020211,0.000000,-0.144183,0.144183,0.0000,0.0000,0.0000,-0.002560,-0.101243,0.098175,1.0409,0.8749,-0.1009,0.001534,0.585981,-0.555301,0.556835,-0.595185,0.558369,-0.556835
3.7858,0.020579,0.000000,-0.162141,0.162141,0.0000,0.0000,0.0000,-0.002560,-0.119651,0.115049,1.0409,0.8749,-0.1009,0.001534,0.585981,-0.555301,0.556835,-0.595185,0.558369,-0.556835
3.8059,0.020080,0.000000,-0.179664,0.179664,0.0000,0.0000,0.0000,-0.002560,-0.131922,0.128854,1.0409,0.8749,-0.1009,0.001534,0.585981,-0.555301,0.556835,-0.595185,0.558369,-0.556835
3.8260,0.020080,0.000000,-0.197188,0.197188,0.0000,0.0000,0.0000,-0.002549,-0.144194,0.144194,1.0901,0.8597,-0.0474,0.001534,0.587515,-0.555301,0.556835,-0.595185,0.558369,-0.556835
3.8464,0.020406,0.000000,-0.214996,0.214996,0.0000,0.0000,0.0000,-0.002561,-0.162602,0.162602,1.0353,0.8766,-0.1071,0.001534,0.585981,-0.555301,0.556835,-0.595185,0.558369,-0.556835
3.8665,0.020092,0.000000,-0.232529,0.232529,0.0000,0.0000,0.0000,-0.002561,-0.187146,0.184078,1.0353,0.8766,-0.1071,0.001534,0.585981,-0.555301,0.556835,-0.595185,0.558369,-0.556835
3.8866,0.020109,0.000000,-0.250078,0.250078,0.0000,0.0000,0.0000,-0.002560,-0.208621,0.204019,1.0410,0.8749,-0.1008,0.001534,0.585981,-0.555301,0.556835,-0.595185,0.558369,-0.556835
3.9067,0.020086,0.000000,-0.267607,0.267607,0.0000,0.0000,0.0000,-0.002549,-0.223961,0.220893,1.0901,0.8597,-0.0474,0.001534,0.587515,-0.555301,0.556835,-0.595185,0.558369,-0.556835
3.9267,0.020092,0.000000,-0.285140,0.285140,0.0000,0.0000,0.0000,-0.002561,-0.237767,0.237767,1.0353,0.8766,-0.1071,0.001534,0.585981,-0.555301,0.556835,-0.595185,0.558369,-0.556835
3.9468,0.020103,0.000000,-0.302683,0.302683,0.0000,0.0000,0.0000,-0.002560,-0.250039,0.251573,1.0410,0.8749,-0.1008,0.001534,0.585981,-0.555301,0.556835,-0.595185,0.558369,-0.556835
3.9669,0.020083,0.000000,-0.320210,0.320210,0.0000,0.0000,0.0000,-0.002560,-0.268447,0.268447,1.0410,0.8749,-0.1008,0.001534,0.585981,-0.555301,0.556835,-0.595185,0.558369,-0.556835
3.9870,0.020092,0.000000,-0.337743,0.337743,0.0000,0.0000,0.0000,-0.002560,-0.268447,0.268447,1.0410,0.8749,-0.1008,0.001534,0.585981,-0.555301,0.556835,-0.595185,0.558369,-0.556835
4.0071,0.020099,0.000000,-0.342848,0.342848,0.0000,0.0000,0.0000,-0.002549,-0.308330,0.306796,1.0901,0.8597,-0.0474,0.001534,0.587515,-0.555301,0.556835,-0.595185,0.558369,-0.556835
4.0272,0.020085,0.000000,-0.325321,0.325321,0.0000,0.0000,0.0000,-0.002561,-0.328272,0.323670,1.0353,0.8766,-0.1071,0.001534,0.585981,-0.555301,0.556835,-0.595185,0.558369,-0.556835
4.0473,0.020102,0.000000,-0.307779,0.307779,0.0000,0.0000,0.0000,-0.002560,-0.345146,0.340544,1.0410,0.8749,-0.1008,0.001534,0.585981,-0.555301,0.556835,-0.595185,0.558369,-0.556835
4.0674,0.020086,0.000000,-0.290251,0.290251,0.0000,0.0000,0.0000,-0.002560,-0.351282,0.346680,1.0410,0.8749,-0.1008,0.001534,0.585981,-0.555301,0.556835,-0.595185,0.558369,-0.556835
4.0875,0.020090,0.000000,-0.272719,0.272719,0.0000,0.0000,0.0000,-0.002560,-0.345146,0.340544,1.0410,0.8749,-0.1008,0.001534,0.585981,-0.555301,0.556835,-0.595185,0.558369,-0.556835
4.1077,0.020170,0.000000,-0.255117,0.255117,0.0000,0.0000,0.0000,-0.002560,-0.345146,0.340544,1.0410,0.8749,-0.1008,0.001534,0.585981,-0.555301,0.556835,-0.595185,0.558369,-0.556835
4.1278,0.020124,0.000000,-0.237556,0.237556,0.0000,0.0000,0.0000,-0.002560,-0.311398,0.311398,1.0410,0.8749,-0.1008,0.001534,0.585981,-0.555301,0.556835,-0.595185,0.558369,-0.556835
4.1479,0.020091,0.000000,-0.220023,0.220023,0.0000,0.0000,0.0000,-0.002560,-0.286854,0.291456,1.0410,0.8749,-0.1008,0.001534,0.585981,-0.555301,0.556835,-0.595185,0.558369,-0.556835
4.1680,0.020090,0.000000,-0.202491,0.202491,0.0000,0.0000,0.0000,-0.002560,-0.268447,0.273049,1.0410,0.8749,-0.1008,0.001534,0.585981,-0.555301,0.556835,-0.595185,0.558369,-0.556835
4.1880,0.020086,0.000000,-0.184963,0.184963,0.0000,0.0000,0.0000,-0.002560,-0.268447,0.273049,1.0410,0.8749,-0.1008,0.001534,0.585981,-0.555301,0.556835,-0.595185,0.558369,-0.556835
4.2081,0.020081,0.000000,-0.167439,0.167439,0.0000,0.0000,0.0000,-0.002560,-0.230097,0.236233,1.0410,0.8749,-0.1008,0.001534,0.587515,-0.555301,0.556835,-0.595185,0.558369,-0.556835
4.2285,0.020396,0.000000,-0.149640,0.149640,0.0000,0.0000,0.0000,-0.002549,-0.230097,0.236233,1.0901,0.8597,-0.0474,0.001534,0.587515,-0.555301,0.556835,-0.595185,0.558369,-0.556835
4.2487,0.020151,0.000000,-0.132055,0.132055,0.0000,0.0000,0.0000,-0.002560,-0.193282,0.199418,1.0410,0.8749,-0.1008,0.001534,0.585981,-0.555301,0.556835,-0.595185,0.558369,-0.556835
4.2688,0.020148,0.000000,-0.114473,0.114473,0.0000,0.0000,0.0000,-0.002560,-0.176408,0.184078,1.0410,0.8749,-0.1008,0.001534,0.585981,-0.555301,0.556835,-0.595185,0.558369,-0.556835
4.2889,0.020090,0.000000,-0.096941,0.096941,0.0000,0.0000,0.0000,-0.002560,-0.159534,0.165670,1.0410,0.8749,-0.1008,0.001534,0.585981,-0.555301,0.556835,-0.595185,0.558369,-0.556835
4.3090,0.020119,0.000000,-0.079384,0.079384,0.0000,0.0000,0.0000,-0.002560,-0.142660,0.145728,1.0410,0.8749,-0.1008,0.001534,0.585981,-0.555301,0.556835,-0.595185,0.558369,-0.556835
4.3291,0.020080,0.000000,-0.061860,0.061860,0.0000,0.0000,0.0000,-0.002560,-0.142660,0.145728,1.0410,0.8749,-0.1008,0.001534,0.585981,-0.555301,0.556835,-0.595185,0.558369,-0.556835
4.3492,0.020109,0.000000,-0.044312,0.044312,0.0000,0.0000,0.0000,-0.002560,-0.108913,0.107379,1.0410,0.8749,-0.1008,0.001534,0.585981,-0.555301,0.556835,-0.595185,0.558369,-0.556835
4.3693,0.020091,0.000000,-0.026780,0.026780,0.0000,0.0000,0.0000,-0.002560,-0.088971,0.088971,1.0410,0.8749,-0.1008,0.001534,0.585981,-0.555301,0.556835,-0.595185,0.558369,-0.556835
4.3894,0.020091,0.000000,-0.009247,0.009247,0.0000,0.0000,0.0000,-0.002549,-0.072097,0.072097,1.0901,0.8597,-0.0474,0.001534,0.587515,-0.555301,0.556835,-0.595185,0.558369,-0.556835
4.4095,0.020103,0.000000,-0.008296,0.008296,0.0000,0.0000,0.0000,-0.002549,-0.072097,0.072097,1.0901,0.8597,-0.0474,0.001534,0.587515,-0.555301,0.556835,-0.595185,0.558369,-0.556835
4.4296,0.020096,0.000000,-0.025833,0.025833,0.0000,0.0000,0.0000,-0.002560,-0.033748,0.035282,1.0410,0.8749,-0.1008,0.001534,0.585981,-0.555301,0.556835,-0.595185,0.558369,-0.556835
4.4497,0.020110,0.000000,-0.043383,0.043383,0.0000,0.0000,0.0000,-0.002560,-0.033748,0.035282,1.0410,0.8749,-0.1008,0.001534,0.585981,-0.555301,0.556835,-0.595185,0.558369,-0.556835
4.4698,0.020124,0.000000,-0.060944,0.060944,0.0000,0.0000,0.0000,-0.002560,0.000000,0.003068,1.0410,0.8749,-0.1008,0.001534,0.587515,-0.555301,0.556835,-0.595185,0.558369,-0.556835
4.4899,0.020086,0.000000,-0.078472,0.078472,0.0000,0.0000,0.0000,-0.002549,0.000000,0.003068,1.0901,0.8597,-0.0474,0.001534,0.587515,-0.555301,0.556835,-0.595185,0.558369,-0.556835
4.5109,0.020985,0.000000,-0.096785,0.096785,0.0000,0.0000,0.0000,-0.002560,-0.019942,0.021476,1.0410,0.8749,-0.1008,0.001534,0.585981,-0.555301,0.556835,-0.595185,0.558369,-0.556835
4.5310,0.020083,0.000000,-0.114311,0.114311,0.0000,0.0000,0.0000,-0.002560,-0.046019,0.046019,1.0410,0.8749,-0.1008,0.001534,0.585981,-0.555301,0.556835,-0.595185,0.558369,-0.556835
4.5511,0.020114,0.000000,-0.131863,0.131863,0.0000,0.0000,0.0000,-0.002560,-0.073631,0.072097,1.0410,0.8749,-0.1008,0.001534,0.585981,-0.555301,0.556835,-0.595185,0.558369,-0.556835
4.5712,0.020083,0.000000,-0.149389,0.149389,0.0000,0.0000,0.0000,-0.002560,-0.101243,0.098175,1.0410,0.8749,-0.1008,0.001534,0.585981,-0.555301,0.556835,-0.595185,0.558369,-0.556835
4.5913,0.020085,0.000000,-0.166916,0.166916,0.0000,0.0000,0.0000,-0.002560,-0.121184,0.118117,1.0410,0.8749,-0.1008,0.001534,0.585981,-0.555301,0.556835,-0.595185,0.558369,-0.556835
4.6114,0.020100,0.000000,-0.184457,0.184457,0.0000,0.0000,0.0000,-0.002560,-0.134990,0.131922,1.0410,0.8749,-0.1008,0.001534,0.585981,-0.555301,0.556835,-0.595185,0.558369,-0.556835
4.6315,0.020135,0.000000,-0.202028,0.202028,0.0000,0.0000,0.0000,-0.002549,-0.145728,0.144194,1.0901,0.8597,-0.0474,0.001534,0.587515,-0.555301,0.556835,-0.595185,0.558369,-0.556835
4.6516,0.020100,0.000000,-0.219568,0.219568,0.0000,0.0000,0.0000,-0.002549,-0.164136,0.159534,1.0901,0.8597,-0.0474,0.001534,0.585981,-0.555301,0.556835,-0.595185,0.558369,-0.556835
4.6717,0.020093,0.000000,-0.237102,0.237102,0.0000,0.0000,0.0000,-0.002560,-0.185612,0.179476,1.0410,0.8749,-0.1008,0.001534,0.585981,-0.555301,0.556835,-0.595185,0.558369,-0.556835
4.6919,0.020154,0.000000,-0.254690,0.254690,0.0000,0.0000,0.0000,-0.002560,-0.202485,0.199418,1.0410,0.8749,-0.1008,0.001534,0.585981,-0.555301,0.556835,-0.595185,0.558369,-0.556835
4.7123,0.020433,0.000000,-0.272521,0.272521,0.0000,0.0000,0.0000,-0.002560,-0.222427,0.219359,1.0410,0.8749,-0.1008,0.001534,0.585981,-0.555301,0.556835,-0.595185,0.558369,-0.556835
4.7324,0.020095,0.000000,-0.290057,0.290057,0.0000,0.0000,0.0000,-0.002560,-0.239301,0.239301,1.0410,0.8749,-0.1008,0.001534,0.585981,-0.555301,0.556835,-0.595185,0.558369,-0.556835
4.7525,0.020105,0.000000,-0.307601,0.307601,0.0000,0.0000,0.0000,-0.002560,-0.254641,0.254641,1.0410,0.8749,-0.1008,0.001534,0.585981,-0.555301,0.556835,-0.595185,0.558369,-0.556835
4.7725,0.020039,0.000000,-0.325089,0.325089,0.0000,0.0000,0.0000,-0.002560,-0.269981,0.268447,1.0410,0.8749,-0.1008,0.001534,0.585981,-0.555301,0.556835,-0.595185,0.558369,-0.556835
4.7926,0.020079,0.000000,-0.342612,0.342612,0.0000,0.0000,0.0000,-0.002560,-0.289922,0.289922,1.0410,0.8749,-0.1008,0.001534,0.585981,-0.555301,0.556835,-0.595185,0.558369,-0.556835
4.8127,0.020092,0.000000,-0.337987,0.337987,0.0000,0.0000,0.0000,-0.002560,-0.311398,0.308330,1.0410,0.8749,-0.1008,0.001534,0.585981,-0.555301,0.556835,-0.595185,0.558369,-0.556835
4.8328,0.020092,0.000000,-0.320453,0.320453,0.0000,0.0000,0.0000,-0.002560,-0.326738,0.323670,1.0410,0.8749,-0.1008,0.001534,0.585981,-0.555301,0.556835,-0.595185,0.558369,-0.556835
4.8529,0.020101,0.000000,-0.302912,0.302912,0.0000,0.0000,0.0000,-0.002560,-0.326738,0.323670,1.0410,0.8749,-0.1008,0.001534,0.585981,-0.555301,0.556835,-0.595185,0.558369,-0.556835
4.8730,0.020093,0.000000,-0.285377,0.285377,0.0000,0.0000,0.0000,-0.002560,-0.349748,0.345146,1.0410,0.8749,-0.1008,0.001534,0.585981,-0.555301,0.556835,-0.595185,0.558369,-0.556835
4.8931,0.020095,0.000000,-0.267841,0.267841,0.0000,0.0000,0.0000,-0.002560,-0.343612,0.339010,1.0410,0.8749,-0.1008,0.001534,0.585981,-0.555301,0.556835,-0.595185,0.558369,-0.556835
4.9133,0.020210,0.000000,-0.250204,0.250204,0.0000,0.0000,0.0000,-0.002560,-0.343612,0.339010,1.0410,0.8749,-0.1008,0.001534,0.585981,-0.555301,0.556835,-0.595185,0.558369,-0.556835
4.9334,0.020096,0.000000,-0.232667,0.232667,0.0000,0.0000,0.0000,-0.002560,-0.311398,0.311398,1.0410,0.8749,-0.1008,0.001534,0.585981,-0.555301,0.556835,-0.595185,0.558369,-0.556835
4.9535,0.020094,0.000000,-0.215132,0.215132,0.0000,0.0000,0.0000,-0.002560,-0.288388,0.291456,1.0410,0.8749,-0.1008,0.001534,0.585981,-0.555301,0.556835,-0.595185,0.558369,-0.556835
4.9737,0.020260,0.000000,-0.197452,0.197452,0.0000,0.0000,0.0000,-0.002560,-0.266913,0.274583,1.0410,0.8749,-0.1008,0.001534,0.585981,-0.555301,0.556835,-0.595185,0.558369,-0.556835
4.9938,0.020112,0.000000,-0.179900,0.179900,0.0000,0.0000,0.0000,-0.002560,-0.243903,0.251573,1.0410,0.8749,-0.1008,0.001534,0.585981,-0.555301,0.556835,-0.595185,0.558369,-0.556835
5.0140,0.020102,0.000000,-0.162358,0.162358,0.0000,0.0000,0.0000,-0.002560,-0.230097,0.236233,1.0410,0.8749,-0.1008,0.001534,0.585981,-0.555301,0.556835,-0.595185,0.558369,-0.556835
5.0340,0.020086,0.000000,-0.144830,0.144830,0.0000,0.0000,0.0000,-0.002560,-0.230097,0.236233,1.0410,0.8749,-0.1008,0.001534,0.585981,-0.555301,0.556835,-0.595185,0.558369,-0.556835
5.0541,0.020050,0.000000,-0.127332,0.127332,0.0000,0.0000,0.0000,-0.002549,-0.193282,0.199418,1.0901,0.8597,-0.0474,0.001534,0.585981,-0.555301,0.556835,-0.595185,0.558369,-0.556835
5.0742,0.020084,0.000000,-0.109806,0.109806,0.0000,0.0000,0.0000,-0.002560,-0.174874,0.182544,1.0410,0.8749,-0.1008,0.001534,0.585981,-0.555301,0.556835,-0.595185,0.558369,-0.556835
5.0943,0.020088,0.000000,-0.092276,0.092276,0.0000,0.0000,0.0000,-0.002549,-0.158000,0.162602,1.0901,0.8597,-0.0474,0.001534,0.587515,-0.555301,0.556835,-0.595185,0.558369,-0.556835
5.1144,0.020100,0.000000,-0.074736,0.074736,0.0000,0.0000,0.0000,-0.002549,-0.139592,0.142660,1.0901,0.8597,-0.0474,0.001534,0.585981,-0.555301,0.556835,-0.595185,0.558369,-0.556835
5.1344,0.020085,0.000000,-0.057208,0.057208,0.0000,0.0000,0.0000,-0.002561,-0.122718,0.122718,1.0353,0.8766,-0.1071,0.001534,0.587515,-0.555301,0.556835,-0.595185,0.558369,-0.556835
5.1546,0.020119,0.000000,-0.039651,0.039651,0.0000,0.0000,0.0000,-0.002549,-0.105845,0.104311,1.0907,0.8595,-0.0468,0.001534,0.585981,-0.555301,0.556835,-0.595185,0.558369,-0.556835
5.1746,0.020076,0.000000,-0.022131,0.022131,0.0000,0.0000,0.0000,-0.002561,-0.105845,0.104311,1.0352,0.8767,-0.1071,0.001534,0.585981,-0.555301,0.556835,-0.595185,0.558369,-0.556835
5.1947,0.020083,0.000000,-0.004605,0.004605,0.0000,0.0000,0.0000,-0.002560,-0.087437,0.085903,1.0410,0.8749,-0.1008,0.001534,0.585981,-0.555301,0.556835,-0.595185,0.558369,-0.556835
5.2148,0.020085,0.000000,-0.012922,0.012922,0.0000,0.0000,0.0000,-0.002560,-0.069029,0.069029,1.0410,0.8749,-0.1008,0.001534,0.585981,-0.555301,0.556835,-0.595185,0.558369,-0.556835
5.2349,0.020084,0.000000,-0.030449,0.030449,0.0000,0.0000,0.0000,-0.002560,-0.050621,0.052155,1.0410,0.8749,-0.1008,0.001534,0.585981,-0.555301,0.556835,-0.595185,0.558369,-0.556835
5.2550,0.020080,0.000000,-0.047972,0.047972,0.0000,0.0000,0.0000,-0.002549,-0.035282,0.036816,1.0901,0.8597,-0.0474,0.001534,0.587515,-0.555301,0.556835,-0.595185,0.558369,-0.556835
5.2751,0.020102,0.000000,-0.065514,0.065514,0.0000,0.0000,0.0000,-0.002561,-0.015340,0.019942,1.0353,0.8766,-0.1071,0.001534,0.585981,-0.555301,0.556835,-0.595185,0.558369,-0.556835
5.2952,0.020079,0.000000,-0.083037,0.083037,0.0000,0.0000,0.0000,-0.002560,-0.001534,0.006136,1.0410,0.8749,-0.1008,0.001534,0.585981,-0.555301,0.556835,-0.595185,0.558369,-0.556835
5.3153,0.020101,0.000000,-0.100579,0.100579,0.0000,0.0000,0.0000,-0.002560,-0.004602,0.007670,1.0410,0.8749,-0.1008,0.001534,0.585981,-0.555301,0.556835,-0.595185,0.558369,-0.556835
5.3355,0.020287,0.000000,-0.118283,0.118283,0.0000,0.0000,0.0000,-0.002560,-0.021476,0.021476,1.0410,0.8749,-0.1008,0.001534,0.585981,-0.555301,0.556835,-0.595185,0.558369,-0.556835
5.3556,0.020082,0.000000,-0.135808,0.135808,0.0000,0.0000,0.0000,-0.002563,-0.044485,0.042951,1.1011,0.8076,-0.1009,0.001534,0.587515,-0.555301,0.555301,-0.595185,0.558369,-0.556835
5.3758,0.020150,0.000000,-0.153392,0.153392,0.0000,0.0000,0.0000,-0.002560,-0.070563,0.069029,1.0341,0.8821,-0.1015,0.001534,0.585981,-0.555301,0.556835,-0.595185,0.558369,-0.556835
5.3959,0.020087,0.000000,-0.170921,0.170921,0.0000,0.0000,0.0000,-0.002560,-0.096641,0.093573,1.0411,0.8743,-0.1014,0.001534,0.585981,-0.555301,0.556835,-0.595185,0.558369,-0.556835
5.4160,0.020097,0.000000,-0.188460,0.188460,0.0000,0.0000,0.0000,-0.002560,-0.116583,0.113515,1.0401,0.8754,-0.1014,0.001534,0.585981,-0.555301,0.556835,-0.595185,0.558369,-0.556835
5.4360,0.020088,0.000000,-0.205989,0.205989,0.0000,0.0000,0.0000,-0.002560,-0.131922,0.128854,1.0401,0.8754,-0.1014,0.001534,0.585981,-0.555301,0.556835,-0.595185,0.558369,-0.556835
5.4561,0.020081,0.000000,-0.223513,0.223513,0.0000,0.0000,0.0000,-0.002560,-0.147262,0.142660,1.0401,0.8754,-0.1014,0.001534,0.585981,-0.555301,0.556835,-0.595185,0.558369,-0.556835
5.4762,0.020092,0.000000,-0.241047,0.241047,0.0000,0.0000,0.0000,-0.002560,-0.162602,0.158000,1.0401,0.8754,-0.1014,0.001534,0.585981,-0.555301,0.556835,-0.595185,0.558369,-0.556835
5.4963,0.020080,0.000000,-0.258569,0.258569,0.0000,0.0000,0.0000,-0.002560,-0.202485,0.197884,1.0401,0.8754,-0.1014,0.001534,0.585981,-0.555301,0.556835,-0.595185,0.558369,-0.556835
5.5164,0.020096,0.000000,-0.276107,0.276107,0.0000,0.0000,0.0000,-0.002560,-0.219359,0.216291,1.0401,0.8754,-0.1014,0.001534,0.585981,-0.555301,0.556835,-0.595185,0.558369,-0.556835
5.5365,0.020084,0.000000,-0.293634,0.293634,0.0000,0.0000,0.0000,-0.002560,-0.234699,0.234699,1.0401,0.8754,-0.1014,0.001534,0.585981,-0.555301,0.556835,-0.595185,0.558369,-0.556835
5.5566,0.020078,0.000000,-0.311155,0.311155,0.0000,0.0000,0.0000,-0.002560,-0.251573,0.251573,1.0401,0.8754,-0.1014,0.001534,0.585981,-0.555301,0.556835,-0.595185,0.558369,-0.556835
5.5766,0.020092,0.000000,-0.328688,0.328688,0.0000,0.0000,0.0000,-0.002549,-0.269981,0.269981,1.0902,0.8596,-0.0473,0.001534,0.587515,-0.555301,0.556835,-0.595185,0.558369,-0.556835
5.5967,0.020083,0.000000,-0.346214,0.346214,0.0000,0.0000,0.0000,-0.002561,-0.286854,0.286854,1.0353,0.8766,-0.1071,0.001534,0.585981,-0.555301,0.556835,-0.595185,0.558369,-0.556835
5.6168,0.020094,0.000000,-0.334383,0.334383,0.0000,0.0000,0.0000,-0.002560,-0.306796,0.302194,1.0410,0.8749,-0.1008,0.001534,0.585981,-0.555301,0.556835,-0.595185,0.558369,-0.556835
5.6369,0.020083,0.000000,-0.316857,0.316857,0.0000,0.0000,0.0000,-0.002560,-0.325204,0.320602,1.0410,0.8749,-0.1008,0.001534,0.585981,-0.555301,0.556835,-0.595185,0.558369,-0.556835
5.6570,0.020074,0.000000,-0.299339,0.299339,0.0000,0.0000,0.0000,-0.002560,-0.343612,0.340544,1.0410,0.8749,-0.1008,0.001534,0.585981,-0.555301,0.556835,-0.595185,0.558369,-0.556835
5.6771,0.020093,0.000000,-0.281805,0.281805,0.0000,0.0000,0.0000,-0.002560,-0.354350,0.351282,1.0410,0.8749,-0.1008,0.001534,0.585981,-0.555301,0.556835,-0.595185,0.558369,-0.556835
5.6972,0.020077,0.000000,-0.264284,0.264284,0.0000,0.0000,0.0000,-0.002560,-0.352816,0.346680,1.0410,0.8749,-0.1008,0.001534,0.585981,-0.555301,0.556835,-0.595185,0.558369,-0.556835
5.7172,0.020093,0.000000,-0.246750,0.246750,0.0000,0.0000,0.0000,-0.002560,-0.337476,0.331340,1.0410,0.8749,-0.1008,0.001534,0.585981,-0.555301,0.556835,-0.595185,0.558369,-0.556835
5.7373,0.020082,0.000000,-0.229225,0.229225,0.0000,0.0000,0.0000,-0.002560,-0.316000,0.314466,1.0410,0.8749,-0.1008,0.001534,0.585981,-0.555301,0.556835,-0.595185,0.558369,-0.556835
5.7574,0.020080,0.000000,-0.211702,0.211702,0.0000,0.0000,0.0000,-0.002560,-0.289922,0.292990,1.0410,0.8749,-0.1008,0.001534,0.585981,-0.555301,0.556835,-0.595185,0.558369,-0.556835
5.7775,0.020085,0.000000,-0.194175,0.194175,0.0000,0.0000,0.0000,-0.002560,-0.268447,0.276117,1.0410,0.8749,-0.1008,0.001534,0.585981,-0.555301,0.556835,-0.595185,0.558369,-0.556835
5.7976,0.020075,0.000000,-0.176656,0.176656,0.0000,0.0000,0.0000,-0.002560,-0.250039,0.256175,1.0410,0.8749,-0.1008,0.001534,0.585981,-0.555301,0.556835,-0.595185,0.558369,-0.556835
5.8177,0.020097,0.000000,-0.159118,0.159118,0.0000,0.0000,0.0000,-0.002560,-0.228563,0.234699,1.0410,0.8749,-0.1008,0.001534,0.585981,-0.555301,0.556835,-0.595185,0.558369,-0.556835
5.8377,0.020080,0.000000,-0.141595,0.141595,0.0000,0.0000,0.0000,-0.002560,-0.210155,0.216291,1.0410,0.8749,-0.1008,0.001534,0.585981,-0.555301,0.556835,-0.595185,0.558369,-0.556835
5.8578,0.020085,0.000000,-0.124068,0.124068,0.0000,0.0000,0.0000,-0.002560,-0.196350,0.199418,1.0410,0.8749,-0.1008,0.001534,0.585981,-0.555301,0.556835,-0.595185,0.558369,-0.556835
5.8779,0.020085,0.000000,-0.106540,0.106540,0.0000,0.0000,0.0000,-0.002560,-0.176408,0.185612,1.0410,0.8749,-0.1008,0.001534,0.585981,-0.555301,0.556835,-0.595185,0.558369,-0.556835
5.8980,0.020077,0.000000,-0.089019,0.089019,0.0000,0.0000,0.0000,-0.002560,-0.162602,0.165670,1.0410,0.8749,-0.1008,0.001534,0.585981,-0.555301,0.556835,-0.595185,0.558369,-0.556835
5.9181,0.020086,0.000000,-0.071490,0.071490,0.0000,0.0000,0.0000,-0.002560,-0.142660,0.145728,1.0410,0.8749,-0.1008,0.001534,0.585981,-0.555301,0.556835,-0.595185,0.558369,-0.556835
5.9382,0.020080,0.000000,-0.053967,0.053967,0.0000,0.0000,0.0000,-0.002560,-0.125786,0.127320,1.0410,0.8749,-0.1008,0.001534,0.585981,-0.555301,0.556835,-0.595185,0.558369,-0.556835
5.9582,0.020078,0.000000,-0.036446,0.036446,0.0000,0.0000,0.0000,-0.002560,-0.107379,0.108913,1.0410,0.8749,-0.1008,0.001534,0.585981,-0.555301,0.556835,-0.595185,0.558369,-0.556835
5.9783,0.020053,0.000000,-0.018946,0.018946,0.0000,0.0000,0.0000,-0.002560,-0.087437,0.087437,1.0410,0.8749,-0.1008,0.001534,0.585981,-0.555301,0.556835,-0.595185,0.558369,-0.556835
5.9984,0.020076,0.000000,-0.001427,0.001427,0.0000,0.0000,0.0000,-0.002560,-0.059825,0.059825,1.0410,0.8749,-0.1008,0.001534,0.585981,-0.555301,0.556835,-0.595185,0.558369,-0.556835
6.0184,0.020082,0.000000,-0.016098,0.016098,0.0000,0.0000,0.0000,-0.002560,-0.044485,0.044485,1.0410,0.8749,-0.1008,0.001534,0.585981,-0.555301,0.556835,-0.595185,0.558369,-0.556835
6.0385,0.020085,0.000000,-0.033626,0.033626,0.0000,0.0000,0.0000,-0.002560,-0.030680,0.029146,1.0410,0.8749,-0.1887,0.000000,0.585981,-0.555301,0.556835,-0.595185,0.558369,-0.556835
6.0586,0.020078,0.000000,-0.051147,0.051147,0.0000,0.0000,0.0000,-0.002560,-0.015340,0.013806,1.0410,0.8749,-0.1008,0.001534,0.585981,-0.555301,0.556835,-0.595185,0.558369,-0.556835
6.0787,0.020086,0.000000,-0.068676,0.068676,0.0000,0.0000,0.0000,-0.002560,-0.004602,0.004602,1.0410,0.8749,-0.1008,0.001534,0.585981,-0.555301,0.556835,-0.595185,0.558369,-0.556835
6.0988,0.020081,0.000000,-0.086199,0.086199,0.0000,0.0000,0.0000,-0.002549,-0.018408,0.015340,1.0901,0.8597,-0.0474,0.001534,0.587515,-0.555301,0.556835,-0.595185,0.558369,-0.556835
6.1189,0.020082,0.000000,-0.103724,0.103724,0.0000,0.0000,0.0000,-0.002561,-0.036816,0.033748,1.0353,0.8766,-0.1071,0.001534,0.585981,-0.555301,0.556835,-0.595185,0.558369,-0.556835
6.1389,0.020077,0.000000,-0.121244,0.121244,0.0000,0.0000,0.0000,-0.002560,-0.059825,0.059825,1.0410,0.8749,-0.1008,0.001534,0.585981,-0.555301,0.556835,-0.595185,0.558369,-0.556835
6.1590,0.020078,0.000000,-0.138766,0.138766,0.0000,0.0000,0.0000,-0.002560,-0.085903,0.087437,1.0410,0.8749,-0.1008,0.001534,0.585981,-0.555301,0.556835,-0.595185,0.558369,-0.556835
6.1791,0.020088,0.000000,-0.156296,0.156296,0.0000,0.0000,0.0000,-0.002560,-0.111981,0.108913,1.0410,0.8749,-0.1008,0.001534,0.585981,-0.555301,0.556835,-0.595185,0.558369,-0.556835
6.1992,0.020084,0.000000,-0.173823,0.173823,0.0000,0.0000,0.0000,-0.002560,-0.130388,0.125786,1.0410,0.8749,-0.1008,0.001534,0.585981,-0.555301,0.556835,-0.595185,0.558369,-0.556835
6.2193,0.020077,0.000000,-0.191343,0.191343,0.0000,0.0000,0.0000,-0.002560,-0.142660,0.138058,1.0410,0.8749,-0.1008,0.001534,0.585981,-0.555301,0.556835,-0.595185,0.558369,-0.556835
6.2393,0.020080,0.000000,-0.208867,0.208867,0.0000,0.0000,0.0000,-0.002549,-0.158000,0.151864,1.0901,0.8597,-0.0474,0.001534,0.587515,-0.555301,0.556835,-0.595185,0.558369,-0.556835
6.2594,0.020075,0.000000,-0.226386,0.226386,0.0000,0.0000,0.0000,-0.002550,-0.176408,0.171806,1.0850,0.8613,-0.0530,0.001534,0.587515,-0.555301,0.556835,-0.595185,0.558369,-0.556835
6.2795,0.020077,0.000000,-0.243906,0.243906,0.0000,0.0000,0.0000,-0.002561,-0.196350,0.191748,1.0358,0.8765,-0.1065,0.001534,0.585981,-0.555301,0.556835,-0.595185,0.558369,-0.556835
6.2996,0.020080,0.000000,-0.261429,0.261429,0.0000,0.0000,0.0000,-0.002560,-0.214757,0.211689,1.0409,0.8749,-0.1009,0.001534,0.585981,-0.555301,0.556835,-0.595185,0.558369,-0.556835
6.3197,0.020080,0.000000,-0.278953,0.278953,0.0000,0.0000,0.0000,-0.002549,-0.231631,0.230097,1.0901,0.8597,-0.0474,0.001534,0.587515,-0.555301,0.556835,-0.595185,0.558369,-0.556835
6.3397,0.020088,0.000000,-0.296482,0.296482,0.0000,0.0000,0.0000,-0.002561,-0.248505,0.246971,1.0353,0.8766,-0.1071,0.001534,0.585981,-0.555301,0.556835,-0.595185,0.558369,-0.556835
6.3598,0.020076,0.000000,-0.314002,0.314002,0.0000,0.0000,0.0000,-0.002560,-0.263845,0.263845,1.0410,0.8749,-0.1008,0.001534,0.585981,-0.555301,0.556835,-0.595185,0.558369,-0.556835
6.3799,0.020080,0.000000,-0.331525,0.331525,0.0000,0.0000,0.0000,-0.002560,-0.282252,0.282252,1.0410,0.8749,-0.1008,0.001534,0.585981,-0.555301,0.556835,-0.595185,0.558369,-0.556835
6.4000,0.020082,0.000000,-0.349050,0.349050,0.0000,0.0000,0.0000,-0.002560,-0.300660,0.299126,1.0410,0.8749,-0.1008,0.001534,0.585981,-0.555301,0.556835,-0.595185,0.558369,-0.556835
6.4201,0.020077,0.000000,-0.331562,0.331562,0.0000,0.0000,0.0000,-0.002560,-0.319068,0.317534,1.0410,0.8749,-0.1008,0.001534,0.585981,-0.555301,0.556835,-0.595185,0.558369,-0.556835
6.4401,0.020087,0.000000,-0.314032,0.314032,0.0000,0.0000,0.0000,-0.002560,-0.337476,0.334408,1.0410,0.8749,-0.1008,0.001534,0.585981,-0.555301,0.556835,-0.595185,0.558369,-0.556835
6.4602,0.020078,0.000000,-0.296511,0.296511,0.0000,0.0000,0.0000,-0.002549,-0.354350,0.349748,1.0901,0.8597,-0.0474,0.001534,0.587515,-0.555301,0.556835,-0.595185,0.558369,-0.556835
6.4803,0.020083,0.000000,-0.278985,0.278985,0.0000,0.0000,0.0000,-0.002561,-0.355884,0.351282,1.0353,0.8766,-0.1071,0.001534,0.585981,-0.555301,0.556835,-0.595185,0.558369,-0.556835
6.5004,0.020084,0.000000,-0.261458,0.261458,0.0000,0.0000,0.0000,-0.002560,-0.346680,0.340544,1.0410,0.8749,-0.1008,0.001534,0.585981,-0.555301,0.556835,-0.595185,0.558369,-0.556835
6.5205,0.020073,0.000000,-0.243941,0.243941,0.0000,0.0000,0.0000,-0.002560,-0.325204,0.322136,1.0410,0.8749,-0.1008,0.001534,0.585981,-0.555301,0.556835,-0.595185,0.558369,-0.556835
6.5406,0.020090,0.000000,-0.226408,0.226408,0.0000,0.0000,0.0000,-0.002560,-0.302194,0.302194,1.0410,0.8749,-0.1008,0.001534,0.585981,-0.555301,0.556835,-0.595185,0.558369,-0.556835
