t,loop_dt,cmd_z,cmd_ant_l,cmd_ant_r,cmd_roll,cmd_pitch,cmd_yaw,pres_z,pres_ant_l,pres_ant_r,pres_roll,pres_pitch,pres_yaw,pres_j0,pres_j1,pres_j2,pres_j3,pres_j4,pres_j5,pres_j6
0.0000,0.000001,0.000000,-0.349066,0.349066,0.0000,0.0000,0.0000,-0.002652,-0.182544,0.194816,1.2138,1.0185,-0.0092,0.001534,0.582913,-0.555301,0.556835,-0.595185,0.556835,-0.549165
0.0201,0.020099,0.000000,-0.347312,0.347312,0.0000,0.0000,0.0000,-0.002638,-0.181010,0.190214,1.1692,0.9815,0.0487,0.001534,0.582913,-0.555301,0.556835,-0.595185,0.558369,-0.549165
0.0402,0.020105,0.000000,-0.345557,0.345557,0.0000,0.0000,0.0000,-0.002639,-0.188680,0.194816,1.1738,0.9854,0.0426,0.001534,0.582913,-0.555301,0.556835,-0.595185,0.558369,-0.549165
0.0603,0.020089,0.000000,-0.343804,0.343804,0.0000,0.0000,0.0000,-0.002639,-0.246971,0.245437,1.1738,0.9854,0.0426,0.001534,0.582913,-0.555301,0.556835,-0.595185,0.558369,-0.549165
0.0804,0.020098,0.000000,-0.342050,0.342050,0.0000,0.0000,0.0000,-0.002626,-0.328272,0.319068,1.1240,0.9668,-0.0102,0.001534,0.582913,-0.555301,0.556835,-0.595185,0.558369,-0.550699
0.1005,0.020089,0.000000,-0.340297,0.340297,0.0000,0.0000,0.0000,-0.002627,-0.372757,0.363553,1.1292,0.9687,-0.0047,0.001534,0.582913,-0.555301,0.556835,-0.595185,0.558369,-0.550699
0.1206,0.020082,0.000000,-0.338545,0.338545,0.0000,0.0000,0.0000,-0.002603,-0.383495,0.372757,1.1291,0.9350,-0.0048,0.001534,0.584447,-0.555301,0.556835,-0.595185,0.558369,-0.552233
0.1407,0.020099,0.000000,-0.336791,0.336791,0.0000,0.0000,0.0000,-0.002617,-0.371223,0.360485,1.0794,0.9539,-0.0588,0.001534,0.582913,-0.555301,0.556835,-0.595185,0.558369,-0.552233
0.1608,0.020091,0.000000,-0.335038,0.335038,0.0000,0.0000,0.0000,-0.002604,-0.352816,0.349748,1.1343,0.9366,0.0008,0.001534,0.584447,-0.555301,0.556835,-0.595185,0.558369,-0.552233
0.1808,0.020094,0.000000,-0.333284,0.333284,0.0000,0.0000,0.0000,-0.002581,-0.337476,0.342078,1.1291,0.9049,-0.0049,0.001534,0.585981,-0.555301,0.556835,-0.595185,0.558369,-0.553767
0.2009,0.020087,0.000000,-0.331531,0.331531,0.0000,0.0000,0.0000,-0.002560,-0.335942,0.334408,1.1301,0.8747,-0.0038,0.001534,0.587515,-0.555301,0.556835,-0.595185,0.558369,-0.555301
0.2210,0.020114,0.000000,-0.329776,0.329776,0.0000,0.0000,0.0000,-0.002536,-0.342078,0.334408,1.0316,0.8415,-0.1112,0.001534,0.587515,-0.555301,0.556835,-0.595185,0.558369,-0.558369
0.2411,0.020055,0.000000,-0.328026,0.328026,0.0000,0.0000,0.0000,-0.002536,-0.342078,0.334408,1.0316,0.8415,-0.1112,0.001534,0.587515,-0.555301,0.556835,-0.595185,0.558369,-0.558369
0.2612,0.020084,0.000000,-0.326273,0.326273,0.0000,0.0000,0.0000,-0.002526,-0.337476,0.334408,0.9917,0.8266,-0.1548,0.001534,0.587515,-0.555301,0.556835,-0.595185,0.558369,-0.559903
0.2813,0.020088,0.000000,-0.324520,0.324520,0.0000,0.0000,0.0000,-0.002527,-0.335942,0.334408,0.9970,0.8285,-0.1491,0.001534,0.587515,-0.555301,0.556835,-0.595185,0.558369,-0.559903
0.3014,0.020076,0.000000,-0.322768,0.322768,0.0000,0.0000,0.0000,-0.002527,-0.329806,0.334408,0.9970,0.8285,-0.1491,0.001534,0.587515,-0.555301,0.556835,-0.595185,0.558369,-0.559903
0.3215,0.020125,0.000000,-0.321012,0.321012,0.0000,0.0000,0.0000,-0.002527,-0.326738,0.334408,0.9970,0.8285,-0.1491,0.001534,0.587515,-0.555301,0.556835,-0.595185,0.558369,-0.559903
0.3416,0.020113,0.000000,-0.319257,0.319257,0.0000,0.0000,0.0000,-0.002527,-0.326738,0.334408,0.9970,0.8285,-0.1491,0.001534,0.587515,-0.555301,0.556835,-0.595185,0.558369,-0.559903
0.3617,0.020092,0.000000,-0.317503,0.317503,0.0000,0.0000,0.0000,-0.002527,-0.326738,0.334408,0.9970,0.8285,-0.1491,0.001534,0.587515,-0.555301,0.556835,-0.595185,0.558369,-0.559903
0.3818,0.020086,0.000000,-0.315750,0.315750,0.0000,0.0000,0.0000,-0.002527,-0.326738,0.334408,0.9970,0.8285,-0.1491,0.001534,0.587515,-0.555301,0.556835,-0.595185,0.558369,-0.559903
0.4019,0.020097,0.000000,-0.313997,0.313997,0.0000,0.0000,0.0000,-0.002527,-0.325204,0.334408,0.9970,0.8285,-0.1491,0.001534,0.587515,-0.555301,0.556835,-0.595185,0.558369,-0.559903
0.4219,0.020083,0.000000,-0.312244,0.312244,0.0000,0.0000,0.0000,-0.002527,-0.325204,0.332874,0.9970,0.8285,-0.1491,0.001534,0.587515,-0.555301,0.556835,-0.595185,0.558369,-0.559903
0.4421,0.020104,0.000000,-0.310490,0.310490,0.0000,0.0000,0.0000,-0.002527,-0.325204,0.329806,0.9970,0.8285,-0.1491,0.001534,0.587515,-0.555301,0.556835,-0.595185,0.558369,-0.559903
0.4623,0.020273,0.000000,-0.308720,0.308720,0.0000,0.0000,0.0000,-0.002527,-0.325204,0.325204,0.9970,0.8285,-0.1491,0.001534,0.587515,-0.555301,0.556835,-0.595185,0.558369,-0.559903
0.4824,0.020083,0.000000,-0.306968,0.306968,0.0000,0.0000,0.0000,-0.002527,-0.322136,0.319068,0.9970,0.8285,-0.1491,0.001534,0.587515,-0.555301,0.556835,-0.595185,0.558369,-0.559903
0.5025,0.020119,0.000000,-0.305212,0.305212,0.0000,0.0000,0.0000,-0.002527,-0.317534,0.312932,0.9970,0.8285,-0.1491,0.001534,0.587515,-0.555301,0.556835,-0.595185,0.558369,-0.559903
0.5227,0.020144,0.000000,-0.303454,0.303454,0.0000,0.0000,0.0000,-0.002527,-0.314466,0.311398,0.9970,0.8285,-0.1491,0.001534,0.587515,-0.555301,0.556835,-0.595185,0.558369,-0.559903
0.5428,0.020095,0.000000,-0.301701,0.301701,0.0000,0.0000,0.0000,-0.002527,-0.312932,0.311398,0.9970,0.8285,-0.1491,0.001534,0.587515,-0.555301,0.556835,-0.595185,0.558369,-0.559903
0.5630,0.020230,0.000000,-0.299935,0.299935,0.0000,0.0000,0.0000,-0.002527,-0.312932,0.311398,0.9970,0.8285,-0.1491,0.001534,0.587515,-0.555301,0.556835,-0.595185,0.558369,-0.559903
0.5833,0.020304,0.000000,-0.298163,0.298163,0.0000,0.0000,0.0000,-0.002527,-0.312932,0.309864,0.9970,0.8285,-0.1491,0.001534,0.587515,-0.555301,0.556835,-0.595185,0.558369,-0.559903
0.6034,0.020093,0.000000,-0.296410,0.296410,0.0000,0.0000,0.0000,-0.002527,-0.312932,0.309864,0.9970,0.8285,-0.1491,0.001534,0.587515,-0.555301,0.556835,-0.595185,0.558369,-0.559903
0.6236,0.020242,0.000000,-0.294643,0.294643,0.0000,0.0000,0.0000,-0.002527,-0.312932,0.309864,0.9970,0.8285,-0.1491,0.001534,0.587515,-0.555301,0.556835,-0.595185,0.558369,-0.559903
0.6437,0.020093,0.000000,-0.292890,0.292890,0.0000,0.0000,0.0000,-0.002527,-0.312932,0.309864,0.9970,0.8285,-0.1491,0.001534,0.587515,-0.555301,0.556835,-0.595185,0.558369,-0.559903
0.6646,0.020881,0.000000,-0.291068,0.291068,0.0000,0.0000,0.0000,-0.002527,-0.312932,0.309864,0.9970,0.8285,-0.1491,0.001534,0.587515,-0.555301,0.556835,-0.595185,0.558369,-0.559903
0.6847,0.020075,0.000000,-0.289316,0.289316,0.0000,0.0000,0.0000,-0.002527,-0.312932,0.309864,0.9970,0.8285,-0.1491,0.001534,0.587515,-0.555301,0.556835,-0.595185,0.558369,-0.559903
0.7052,0.020475,0.000000,-0.287529,0.287529,0.0000,0.0000,0.0000,-0.002527,-0.311398,0.309864,0.9970,0.8285,-0.1491,0.001534,0.587515,-0.555301,0.556835,-0.595185,0.558369,-0.559903
0.7252,0.020077,0.000000,-0.285777,0.285777,0.0000,0.0000,0.0000,-0.002513,-0.309864,0.308330,1.0358,0.7928,-0.2028,0.001534,0.587515,-0.556835,0.556835,-0.595185,0.558369,-0.559903
0.7453,0.020103,0.000000,-0.284023,0.284023,0.0000,0.0000,0.0000,-0.002515,-0.302194,0.306796,1.0317,0.7965,-0.1972,0.001534,0.587515,-0.556835,0.556835,-0.595185,0.558369,-0.559903
0.7655,0.020137,0.000000,-0.282265,0.282265,0.0000,0.0000,0.0000,-0.002501,-0.292990,0.303728,1.0714,0.7605,-0.2510,0.001534,0.587515,-0.558369,0.556835,-0.595185,0.558369,-0.559903
0.7856,0.020115,0.000000,-0.280510,0.280510,0.0000,0.0000,0.0000,-0.002503,-0.286854,0.299126,1.0673,0.7643,-0.2454,0.001534,0.587515,-0.558369,0.556835,-0.595185,0.558369,-0.559903
0.8057,0.020109,0.000000,-0.278755,0.278755,0.0000,0.0000,0.0000,-0.002489,-0.285320,0.294524,1.1069,0.7283,-0.2992,0.001534,0.587515,-0.559903,0.556835,-0.595185,0.558369,-0.559903
0.8258,0.020091,0.000000,-0.277002,0.277002,0.0000,0.0000,0.0000,-0.002491,-0.285320,0.288388,1.1028,0.7321,-0.2936,0.001534,0.587515,-0.559903,0.556835,-0.595185,0.558369,-0.559903
0.8459,0.020090,0.000000,-0.275249,0.275249,0.0000,0.0000,0.0000,-0.002477,-0.285320,0.285320,1.1424,0.6961,-0.3475,0.001534,0.587515,-0.561437,0.556835,-0.595185,0.558369,-0.559903
0.8662,0.020289,0.000000,-0.273478,0.273478,0.0000,0.0000,0.0000,-0.002479,-0.283786,0.283786,1.1383,0.6998,-0.3419,0.001534,0.587515,-0.561437,0.556835,-0.595185,0.558369,-0.559903
0.8863,0.020084,0.000000,-0.271726,0.271726,0.0000,0.0000,0.0000,-0.002479,-0.283786,0.282252,1.1383,0.6998,-0.3419,0.001534,0.587515,-0.561437,0.556835,-0.595185,0.558369,-0.559903
0.9064,0.020142,0.000000,-0.269968,0.269968,0.0000,0.0000,0.0000,-0.002479,-0.283786,0.282252,1.1383,0.6998,-0.3419,0.001534,0.587515,-0.561437,0.556835,-0.595185,0.558369,-0.559903
0.9265,0.020078,0.000000,-0.268216,0.268216,0.0000,0.0000,0.0000,-0.002479,-0.283786,0.282252,1.1383,0.6998,-0.3419,0.001534,0.587515,-0.561437,0.556835,-0.595185,0.558369,-0.559903
0.9468,0.020349,0.000000,-0.266440,0.266440,0.0000,0.0000,0.0000,-0.002479,-0.283786,0.282252,1.1383,0.6998,-0.3419,0.001534,0.587515,-0.561437,0.556835,-0.595185,0.558369,-0.559903
0.9669,0.020087,0.000000,-0.264687,0.264687,0.0000,0.0000,0.0000,-0.002479,-0.283786,0.282252,1.1383,0.6998,-0.3419,0.001534,0.587515,-0.561437,0.556835,-0.595185,0.558369,-0.559903
0.9870,0.020077,0.000000,-0.262935,0.262935,0.0000,0.0000,0.0000,-0.002479,-0.283786,0.282252,1.1383,0.6998,-0.3419,0.001534,0.587515,-0.561437,0.556835,-0.595185,0.558369,-0.559903
1.0075,0.020534,0.000000,-0.261143,0.261143,0.0000,0.0000,0.0000,-0.002479,-0.282252,0.282252,1.1383,0.6998,-0.3419,0.001534,0.587515,-0.561437,0.556835,-0.595185,0.558369,-0.559903
1.0276,0.020081,0.000000,-0.259391,0.259391,0.0000,0.0000,0.0000,-0.002479,-0.282252,0.280718,1.1383,0.6998,-0.3419,0.001534,0.587515,-0.561437,0.556835,-0.595185,0.558369,-0.559903
1.0477,0.020079,0.000000,-0.257638,0.257638,0.0000,0.0000,0.0000,-0.002479,-0.277651,0.279185,1.1383,0.6998,-0.3419,0.001534,0.587515,-0.561437,0.556835,-0.595185,0.558369,-0.559903
1.0678,0.020093,0.000000,-0.255885,0.255885,0.0000,0.0000,0.0000,-0.002479,-0.268447,0.277651,1.1383,0.6998,-0.3419,0.001534,0.587515,-0.561437,0.556835,-0.595185,0.558369,-0.559903
1.0879,0.020081,0.000000,-0.254133,0.254133,0.0000,0.0000,0.0000,-0.002479,-0.262311,0.274583,1.1383,0.6998,-0.3419,0.001534,0.587515,-0.561437,0.556835,-0.595185,0.558369,-0.559903
1.1080,0.020099,0.000000,-0.252379,0.252379,0.0000,0.0000,0.0000,-0.002479,-0.259243,0.266913,1.1383,0.6998,-0.3419,0.001534,0.587515,-0.561437,0.556835,-0.595185,0.558369,-0.559903
1.1280,0.020079,0.000000,-0.250626,0.250626,0.0000,0.0000,0.0000,-0.002479,-0.257709,0.260777,1.1383,0.6998,-0.3419,0.001534,0.587515,-0.561437,0.556835,-0.595185,0.558369,-0.559903
1.1481,0.020083,0.000000,-0.248874,0.248874,0.0000,0.0000,0.0000,-0.002479,-0.256175,0.256175,1.1383,0.6998,-0.3419,0.001534,0.587515,-0.561437,0.556835,-0.595185,0.558369,-0.559903
1.1682,0.020123,0.000000,-0.247118,0.247118,0.0000,0.0000,0.0000,-0.002479,-0.256175,0.254641,1.1383,0.6998,-0.3419,0.001534,0.587515,-0.561437,0.556835,-0.595185,0.558369,-0.559903
1.1883,0.020079,0.000000,-0.245366,0.245366,0.0000,0.0000,0.0000,-0.002479,-0.257709,0.254641,1.1383,0.6998,-0.3419,0.001534,0.587515,-0.561437,0.556835,-0.595185,0.558369,-0.559903
1.2090,0.020695,0.000000,-0.243560,0.243560,0.0000,0.0000,0.0000,-0.002479,-0.256175,0.254641,1.1383,0.6998,-0.3419,0.001534,0.587515,-0.561437,0.556835,-0.595185,0.558369,-0.559903
1.2291,0.020074,0.000000,-0.241808,0.241808,0.0000,0.0000,0.0000,-0.002479,-0.257709,0.254641,1.1383,0.6998,-0.3419,0.001534,0.587515,-0.561437,0.556835,-0.595185,0.558369,-0.559903
1.2492,0.020077,0.000000,-0.240056,0.240056,0.0000,0.0000,0.0000,-0.002479,-0.256175,0.254641,1.1383,0.6998,-0.3419,0.001534,0.587515,-0.561437,0.556835,-0.595185,0.558369,-0.559903
1.2696,0.020451,0.000000,-0.238271,0.238271,0.0000,0.0000,0.0000,-0.002479,-0.256175,0.254641,1.1383,0.6998,-0.3419,0.001534,0.587515,-0.561437,0.556835,-0.595185,0.558369,-0.559903
1.2897,0.020074,0.000000,-0.236519,0.236519,0.0000,0.0000,0.0000,-0.002479,-0.256175,0.254641,1.1383,0.6998,-0.4298,0.000000,0.587515,-0.561437,0.556835,-0.595185,0.558369,-0.559903
1.3098,0.020109,0.000000,-0.234764,0.234764,0.0000,0.0000,0.0000,-0.002479,-0.256175,0.254641,1.1383,0.6998,-0.3419,0.001534,0.587515,-0.561437,0.556835,-0.595185,0.558369,-0.559903
1.3299,0.020075,0.000000,-0.233013,0.233013,0.0000,0.0000,0.0000,-0.002479,-0.254641,0.253107,1.1383,0.6998,-0.3419,0.001534,0.587515,-0.561437,0.556835,-0.595185,0.558369,-0.559903
1.3500,0.020078,0.000000,-0.231260,0.231260,0.0000,0.0000,0.0000,-0.002479,-0.251573,0.253107,1.1383,0.6998,-0.3419,0.001534,0.587515,-0.561437,0.556835,-0.595185,0.558369,-0.559903
1.3702,0.020278,0.000000,-0.229491,0.229491,0.0000,0.0000,0.0000,-0.002479,-0.243903,0.251573,1.1383,0.6998,-0.3419,0.001534,0.587515,-0.561437,0.556835,-0.595185,0.558369,-0.559903
1.3903,0.020075,0.000000,-0.227739,0.227739,0.0000,0.0000,0.0000,-0.002479,-0.234699,0.248505,1.1383,0.6998,-0.3419,0.001534,0.587515,-0.561437,0.556835,-0.595185,0.558369,-0.559903
1.4105,0.020217,0.000000,-0.225975,0.225975,0.0000,0.0000,0.0000,-0.002479,-0.231631,0.243903,1.1383,0.6998,-0.3419,0.001534,0.587515,-0.561437,0.556835,-0.595185,0.558369,-0.559903
1.4306,0.020079,0.000000,-0.224222,0.224222,0.0000,0.0000,0.0000,-0.002479,-0.230097,0.237767,1.1383,0.6998,-0.3419,0.001534,0.587515,-0.561437,0.556835,-0.595185,0.558369,-0.559903
1.4507,0.020104,0.000000,-0.222468,0.222468,0.0000,0.0000,0.0000,-0.002479,-0.230097,0.233165,1.1383,0.6998,-0.3419,0.001534,0.587515,-0.561437,0.556835,-0.595185,0.558369,-0.559903
1.4708,0.020085,0.000000,-0.220715,0.220715,0.0000,0.0000,0.0000,-0.002479,-0.230097,0.230097,1.1383,0.6998,-0.3419,0.001534,0.587515,-0.561437,0.556835,-0.595185,0.558369,-0.559903
1.4909,0.020083,0.000000,-0.218963,0.218963,0.0000,0.0000,0.0000,-0.002479,-0.230097,0.228563,1.1383,0.6998,-0.3419,0.001534,0.587515,-0.561437,0.556835,-0.595185,0.558369,-0.559903
1.5110,0.020104,0.000000,-0.217208,0.217208,0.0000,0.0000,0.0000,-0.002479,-0.230097,0.228563,1.1383,0.6998,-0.3419,0.001534,0.587515,-0.561437,0.556835,-0.595185,0.558369,-0.559903
1.5311,0.020079,0.000000,-0.215456,0.215456,0.0000,0.0000,0.0000,-0.002479,-0.230097,0.228563,1.1383,0.6998,-0.3419,0.001534,0.587515,-0.561437,0.556835,-0.595185,0.558369,-0.559903
1.5512,0.020098,0.000000,-0.213702,0.213702,0.0000,0.0000,0.0000,-0.002479,-0.230097,0.228563,1.1383,0.6998,-0.3419,0.001534,0.587515,-0.561437,0.556835,-0.595185,0.558369,-0.559903
1.5712,0.020089,0.000000,-0.211949,0.211949,0.0000,0.0000,0.0000,-0.002479,-0.230097,0.227029,1.1383,0.6998,-0.3419,0.001534,0.587515,-0.561437,0.556835,-0.595185,0.558369,-0.559903
1.5913,0.020079,0.000000,-0.210197,0.210197,0.0000,0.0000,0.0000,-0.002479,-0.228563,0.227029,1.1383,0.6998,-0.3419,0.001534,0.587515,-0.561437,0.556835,-0.595185,0.558369,-0.559903
1.6114,0.020118,0.000000,-0.208441,0.208441,0.0000,0.0000,0.0000,-0.002479,-0.228563,0.227029,1.1383,0.6998,-0.3419,0.001534,0.587515,-0.561437,0.556835,-0.595185,0.558369,-0.559903
1.6315,0.020084,0.000000,-0.206688,0.206688,0.0000,0.0000,0.0000,-0.002479,-0.223961,0.227029,1.1383,0.6998,-0.3419,0.001534,0.587515,-0.561437,0.556835,-0.595185,0.558369,-0.559903
1.6516,0.020084,0.000000,-0.204936,0.204936,0.0000,0.0000,0.0000,-0.002479,-0.216291,0.225495,1.1383,0.6998,-0.3419,0.001534,0.587515,-0.561437,0.556835,-0.595185,0.558369,-0.559903
1.6718,0.020208,0.000000,-0.203172,0.203172,0.0000,0.0000,0.0000,-0.002479,-0.208621,0.225495,1.1383,0.6998,-0.3419,0.001534,0.587515,-0.561437,0.556835,-0.595185,0.558369,-0.559903
1.6919,0.020084,0.000000,-0.201420,0.201420,0.0000,0.0000,0.0000,-0.002479,-0.207087,0.222427,1.1383,0.6998,-0.3419,0.001534,0.587515,-0.561437,0.556835,-0.595185,0.558369,-0.559903
1.7120,0.020118,0.000000,-0.199664,0.199664,0.0000,0.0000,0.0000,-0.002479,-0.208621,0.217825,1.1383,0.6998,-0.3419,0.001534,0.587515,-0.561437,0.556835,-0.595185,0.558369,-0.559903
1.7327,0.020645,0.000000,-0.197862,0.197862,0.0000,0.0000,0.0000,-0.002479,-0.204019,0.205553,1.1383,0.6998,-0.3419,0.001534,0.587515,-0.561437,0.556835,-0.595185,0.558369,-0.559903
1.7527,0.020085,0.000000,-0.196110,0.196110,0.0000,0.0000,0.0000,-0.002479,-0.202485,0.204019,1.1383,0.6998,-0.3419,0.001534,0.587515,-0.561437,0.556835,-0.595185,0.558369,-0.559903
1.7729,0.020125,0.000000,-0.194353,0.194353,0.0000,0.0000,0.0000,-0.002479,-0.202485,0.204019,1.1383,0.6998,-0.3419,0.001534,0.587515,-0.561437,0.556835,-0.595185,0.558369,-0.559903
1.7931,0.020179,0.000000,-0.192592,0.192592,0.0000,0.0000,0.0000,-0.002479,-0.200951,0.199418,1.1383,0.6998,-0.3419,0.001534,0.587515,-0.561437,0.556835,-0.595185,0.558369,-0.559903
1.8132,0.020162,0.000000,-0.190833,0.190833,0.0000,0.0000,0.0000,-0.002479,-0.200951,0.199418,1.1383,0.6998,-0.3419,0.001534,0.587515,-0.561437,0.556835,-0.595185,0.558369,-0.559903
1.8333,0.020082,0.000000,-0.189081,0.189081,0.0000,0.0000,0.0000,-0.002479,-0.200951,0.199418,1.1383,0.6998,-0.3419,0.001534,0.587515,-0.561437,0.556835,-0.595185,0.558369,-0.559903
1.8534,0.020082,0.000000,-0.187328,0.187328,0.0000,0.0000,0.0000,-0.002479,-0.200951,0.199418,1.1383,0.6998,-0.3419,0.001534,0.587515,-0.561437,0.556835,-0.595185,0.558369,-0.559903
1.8736,0.020223,0.000000,-0.185563,0.185563,0.0000,0.0000,0.0000,-0.002479,-0.200951,0.199418,1.1383,0.6998,-0.3419,0.001534,0.587515,-0.561437,0.556835,-0.595185,0.558369,-0.559903
1.8937,0.020081,0.000000,-0.183811,0.183811,0.0000,0.0000,0.0000,-0.002479,-0.200951,0.199418,1.1383,0.6998,-0.3419,0.001534,0.587515,-0.561437,0.556835,-0.595185,0.558369,-0.559903
1.9138,0.020085,0.000000,-0.182058,0.182058,0.0000,0.0000,0.0000,-0.002479,-0.199418,0.199418,1.1383,0.6998,-0.3419,0.001534,0.587515,-0.561437,0.556835,-0.595185,0.558369,-0.559903
1.9339,0.020085,0.000000,-0.180305,0.180305,0.0000,0.0000,0.0000,-0.002479,-0.193282,0.199418,1.1383,0.6998,-0.3419,0.001534,0.587515,-0.561437,0.556835,-0.595185,0.558369,-0.559903
1.9539,0.020073,0.000000,-0.178554,0.178554,0.0000,0.0000,0.0000,-0.002479,-0.185612,0.197884,1.1383,0.6998,-0.3419,0.001534,0.587515,-0.561437,0.556835,-0.595185,0.558369,-0.559903
1.9747,0.020820,0.000000,-0.176737,0.176737,0.0000,0.0000,0.0000,-0.002479,-0.182544,0.196350,1.1383,0.6998,-0.3419,0.001534,0.587515,-0.561437,0.556835,-0.595185,0.558369,-0.559903
1.9948,0.020076,0.000000,-0.174985,0.174985,0.0000,0.0000,0.0000,-0.002479,-0.182544,0.193282,1.1383,0.6998,-0.3419,0.001534,0.587515,-0.561437,0.556835,-0.595185,0.558369,-0.559903
2.0149,0.020073,0.000000,-0.173233,0.173233,0.0000,0.0000,0.0000,-0.002479,-0.181010,0.190214,1.1383,0.6998,-0.3419,0.001534,0.587515,-0.561437,0.556835,-0.595185,0.558369,-0.559903
2.0360,0.021119,0.000000,-0.171390,0.171390,0.0000,0.0000,0.0000,-0.002479,-0.179476,0.182544,1.1383,0.6998,-0.3419,0.001534,0.587515,-0.561437,0.556835,-0.595185,0.558369,-0.559903
2.0561,0.020078,0.000000,-0.169638,0.169638,0.0000,0.0000,0.0000,-0.002479,-0.179476,0.174874,1.1383,0.6998,-0.3419,0.001534,0.587515,-0.561437,0.556835,-0.595185,0.558369,-0.559903
2.0762,0.020085,0.000000,-0.167885,0.167885,0.0000,0.0000,0.0000,-0.002479,-0.177942,0.171806,1.1383,0.6998,-0.3419,0.001534,0.587515,-0.561437,0.556835,-0.595185,0.558369,-0.559903
2.0963,0.020077,0.000000,-0.166133,0.166133,0.0000,0.0000,0.0000,-0.002479,-0.174874,0.170272,1.1383,0.6998,-0.3419,0.001534,0.587515,-0.561437,0.556835,-0.595185,0.558369,-0.559903
2.1163,0.020076,0.000000,-0.164381,0.164381,0.0000,0.0000,0.0000,-0.002479,-0.174874,0.170272,1.1383,0.6998,-0.3419,0.001534,0.587515,-0.561437,0.556835,-0.595185,0.558369,-0.559903
2.1364,0.020097,0.000000,-0.162628,0.162628,0.0000,0.0000,0.0000,-0.002479,-0.174874,0.170272,1.1383,0.6998,-0.3419,0.001534,0.587515,-0.561437,0.556835,-0.595185,0.558369,-0.559903
2.1565,0.020084,0.000000,-0.160875,0.160875,0.0000,0.0000,0.0000,-0.002479,-0.174874,0.170272,1.1383,0.6998,-0.3419,0.001534,0.587515,-0.561437,0.556835,-0.595185,0.558369,-0.559903
2.1766,0.020135,0.000000,-0.159118,0.159118,0.0000,0.0000,0.0000,-0.002479,-0.173340,0.170272,1.1383,0.6998,-0.3419,0.001534,0.587515,-0.561437,0.556835,-0.595185,0.558369,-0.559903
2.1967,0.020086,0.000000,-0.157365,0.157365,0.0000,0.0000,0.0000,-0.002479,-0.171806,0.170272,1.1383,0.6998,-0.3419,0.001534,0.587515,-0.561437,0.556835,-0.595185,0.558369,-0.559903
2.2168,0.020090,0.000000,-0.155612,0.155612,0.0000,0.0000,0.0000,-0.002479,-0.165670,0.170272,1.1383,0.6998,-0.3419,0.001534,0.587515,-0.561437,0.556835,-0.595185,0.558369,-0.559903
2.2369,0.020108,0.000000,-0.153857,0.153857,0.0000,0.0000,0.0000,-0.002479,-0.158000,0.168738,1.1383,0.6998,-0.3419,0.001534,0.587515,-0.561437,0.556835,-0.595185,0.558369,-0.559903
2.2570,0.020087,0.000000,-0.152104,0.152104,0.0000,0.0000,0.0000,-0.002479,-0.158000,0.167204,1.1383,0.6998,-0.3419,0.001534,0.587515,-0.561437,0.556835,-0.595185,0.558369,-0.559903
2.2771,0.020120,0.000000,-0.150348,0.150348,0.0000,0.0000,0.0000,-0.002479,-0.158000,0.164136,1.1383,0.6998,-0.3419,0.001534,0.587515,-0.561437,0.556835,-0.595185,0.558369,-0.559903
2.2972,0.020093,0.000000,-0.148595,0.148595,0.0000,0.0000,0.0000,-0.002479,-0.158000,0.158000,1.1383,0.6998,-0.3419,0.001534,0.587515,-0.561437,0.556835,-0.595185,0.558369,-0.559903
2.3173,0.020111,0.000000,-0.146840,0.146840,0.0000,0.0000,0.0000,-0.002479,-0.158000,0.158000,1.1383,0.6998,-0.3419,0.001534,0.587515,-0.561437,0.556835,-0.595185,0.558369,-0.559903
2.3374,0.020090,0.000000,-0.145087,0.145087,0.0000,0.0000,0.0000,-0.002479,-0.153398,0.148796,1.1383,0.6998,-0.3419,0.001534,0.587515,-0.561437,0.556835,-0.595185,0.558369,-0.559903
2.3575,0.020082,0.000000,-0.143334,0.143334,0.0000,0.0000,0.0000,-0.002479,-0.151864,0.147262,1.1383,0.6998,-0.3419,0.001534,0.587515,-0.561437,0.556835,-0.595185,0.558369,-0.559903
2.3776,0.020094,0.000000,-0.141581,0.141581,0.0000,0.0000,0.0000,-0.002479,-0.148796,0.147262,1.1383,0.6998,-0.3419,0.001534,0.587515,-0.561437,0.556835,-0.595185,0.558369,-0.559903
2.3977,0.020086,0.000000,-0.139828,0.139828,0.0000,0.0000,0.0000,-0.002479,-0.147262,0.147262,1.1383,0.6998,-0.3419,0.001534,0.587515,-0.561437,0.556835,-0.595185,0.558369,-0.559903
2.4178,0.020091,0.000000,-0.138075,0.138075,0.0000,0.0000,0.0000,-0.002479,-0.147262,0.147262,1.1383,0.6998,-0.3419,0.001534,0.587515,-0.561437,0.556835,-0.595185,0.558369,-0.559903
2.4379,0.020094,0.000000,-0.136321,0.136321,0.0000,0.0000,0.0000,-0.002479,-0.147262,0.147262,1.1383,0.6998,-0.3419,0.001534,0.587515,-0.561437,0.556835,-0.595185,0.558369,-0.559903
2.4580,0.020095,0.000000,-0.134567,0.134567,0.0000,0.0000,0.0000,-0.002479,-0.147262,0.144194,1.1383,0.6998,-0.3419,0.001534,0.587515,-0.561437,0.556835,-0.595185,0.558369,-0.559903
2.4781,0.020102,0.000000,-0.132813,0.132813,0.0000,0.0000,0.0000,-0.002479,-0.147262,0.144194,1.1383,0.6998,-0.3419,0.001534,0.587515,-0.561437,0.556835,-0.595185,0.558369,-0.559903
2.4982,0.020085,0.000000,-0.131060,0.131060,0.0000,0.0000,0.0000,-0.002479,-0.147262,0.144194,1.1383,0.6998,-0.3419,0.001534,0.587515,-0.561437,0.556835,-0.595185,0.558369,-0.559903
2.5182,0.020082,0.000000,-0.129308,0.129308,0.0000,0.0000,0.0000,-0.002479,-0.147262,0.144194,1.1383,0.6998,-0.3419,0.001534,0.587515,-0.561437,0.556835,-0.595185,0.558369,-0.559903
2.5383,0.020079,0.000000,-0.127556,0.127556,0.0000,0.0000,0.0000,-0.002479,-0.145728,0.144194,1.1383,0.6998,-0.3419,0.001534,0.587515,-0.561437,0.556835,-0.595185,0.558369,-0.559903
2.5584,0.020086,0.000000,-0.125803,0.125803,0.0000,0.0000,0.0000,-0.002479,-0.139592,0.142660,1.1383,0.6998,-0.3419,0.001534,0.587515,-0.561437,0.556835,-0.595185,0.558369,-0.559903
2.5785,0.020077,0.000000,-0.124051,0.124051,0.0000,0.0000,0.0000,-0.002479,-0.131922,0.141126,1.1383,0.6998,-0.3419,0.001534,0.587515,-0.561437,0.556835,-0.595185,0.558369,-0.559903
2.5986,0.020083,0.000000,-0.122298,0.122298,0.0000,0.0000,0.0000,-0.002479,-0.128854,0.138058,1.1383,0.6998,-0.3419,0.001534,0.587515,-0.561437,0.556835,-0.595185,0.558369,-0.559903
2.6187,0.020172,0.000000,-0.120538,0.120538,0.0000,0.0000,0.0000,-0.002479,-0.130388,0.131922,1.1383,0.6998,-0.3419,0.001534,0.587515,-0.561437,0.556835,-0.595185,0.558369,-0.559903
2.6388,0.020044,0.000000,-0.118789,0.118789,0.0000,0.0000,0.0000,-0.002479,-0.128854,0.125786,1.1383,0.6998,-0.3419,0.001534,0.587515,-0.561437,0.556835,-0.595185,0.558369,-0.559903
2.6589,0.020093,0.000000,-0.117035,0.117035,0.0000,0.0000,0.0000,-0.002479,-0.125786,0.122718,1.1383,0.6998,-0.3419,0.001534,0.587515,-0.561437,0.556835,-0.595185,0.558369,-0.559903
2.6790,0.020083,0.000000,-0.115283,0.115283,0.0000,0.0000,0.0000,-0.002479,-0.124252,0.121184,1.1383,0.6998,-0.3419,0.001534,0.587515,-0.561437,0.556835,-0.595185,0.558369,-0.559903
2.6990,0.020092,0.000000,-0.113529,0.113529,0.0000,0.0000,0.0000,-0.002479,-0.122718,0.121184,1.1383,0.6998,-0.3419,0.001534,0.587515,-0.561437,0.556835,-0.595185,0.558369,-0.559903
2.7191,0.020088,0.000000,-0.111776,0.111776,0.0000,0.0000,0.0000,-0.002479,-0.121184,0.119651,1.1383,0.6998,-0.3419,0.001534,0.587515,-0.561437,0.556835,-0.595185,0.558369,-0.559903
2.7392,0.020106,0.000000,-0.110022,0.110022,0.0000,0.0000,0.0000,-0.002479,-0.121184,0.118117,1.1383,0.6998,-0.3419,0.001534,0.587515,-0.561437,0.556835,-0.595185,0.558369,-0.559903
2.7593,0.020093,0.000000,-0.108268,0.108268,0.0000,0.0000,0.0000,-0.002479,-0.121184,0.118117,1.1383,0.6998,-0.3419,0.001534,0.587515,-0.561437,0.556835,-0.595185,0.558369,-0.559903
2.7794,0.020084,0.000000,-0.106516,0.106516,0.0000,0.0000,0.0000,-0.002479,-0.121184,0.116583,1.1383,0.6998,-0.3419,0.001534,0.587515,-0.561437,0.556835,-0.595185,0.558369,-0.559903
2.7995,0.020083,0.000000,-0.104763,0.104763,0.0000,0.0000,0.0000,-0.002479,-0.121184,0.116583,1.1383,0.6998,-0.4298,0.000000,0.587515,-0.561437,0.556835,-0.595185,0.558369,-0.559903
2.8196,0.020078,0.000000,-0.103011,0.103011,0.0000,0.0000,0.0000,-0.002479,-0.119651,0.116583,1.1383,0.6998,-0.3419,0.001534,0.587515,-0.561437,0.556835,-0.595185,0.558369,-0.559903
2.8397,0.020088,0.000000,-0.101258,0.101258,0.0000,0.0000,0.0000,-0.002479,-0.115049,0.116583,1.1383,0.6998,-0.3419,0.001534,0.587515,-0.561437,0.556835,-0.595185,0.558369,-0.559903
2.8597,0.020080,0.000000,-0.099506,0.099506,0.0000,0.0000,0.0000,-0.002479,-0.107379,0.115049,1.1383,0.6998,-0.3419,0.001534,0.587515,-0.561437,0.556835,-0.595185,0.558369,-0.559903
2.8798,0.020048,0.000000,-0.097756,0.097756,0.0000,0.0000,0.0000,-0.002479,-0.105845,0.111981,1.1383,0.6998,-0.3419,0.001534,0.587515,-0.561437,0.556835,-0.595185,0.558369,-0.559903
2.8999,0.020089,0.000000,-0.096003,0.096003,0.0000,0.0000,0.0000,-0.002479,-0.105845,0.108913,1.1383,0.6998,-0.3419,0.001534,0.587515,-0.561437,0.556835,-0.595185,0.558369,-0.559903
2.9200,0.020078,0.000000,-0.094251,0.094251,0.0000,0.0000,0.0000,-0.002479,-0.105845,0.104311,1.1383,0.6998,-0.3419,0.001534,0.587515,-0.561437,0.556835,-0.595185,0.558369,-0.559903
2.9400,0.020084,0.000000,-0.092498,0.092498,0.0000,0.0000,0.0000,-0.002479,-0.102777,0.098175,1.1383,0.6998,-0.3419,0.001534,0.587515,-0.561437,0.556835,-0.595185,0.558369,-0.559903
2.9601,0.020075,0.000000,-0.090746,0.090746,0.0000,0.0000,0.0000,-0.002479,-0.099709,0.095107,1.1383,0.6998,-0.3419,0.001534,0.587515,-0.561437,0.556835,-0.595185,0.558369,-0.559903
2.9802,0.020073,0.000000,-0.088995,0.088995,0.0000,0.0000,0.0000,-0.002479,-0.096641,0.096641,1.1383,0.6998,-0.3419,0.001534,0.587515,-0.561437,0.556835,-0.595185,0.558369,-0.559903
3.0003,0.020082,0.000000,-0.087242,0.087242,0.0000,0.0000,0.0000,-0.002479,-0.096641,0.095107,1.1383,0.6998,-0.3419,0.001534,0.587515,-0.561437,0.556835,-0.595185,0.558369,-0.559903
3.0204,0.020082,0.000000,-0.085490,0.085490,0.0000,0.0000,0.0000,-0.002479,-0.095107,0.092039,1.1383,0.6998,-0.3419,0.001534,0.587515,-0.561437,0.556835,-0.595185,0.558369,-0.559903
3.0404,0.020082,0.000000,-0.083737,0.083737,0.0000,0.0000,0.0000,-0.002479,-0.092039,0.090505,1.1383,0.6998,-0.3419,0.001534,0.587515,-0.561437,0.556835,-0.595185,0.558369,-0.559903
3.0605,0.020076,0.000000,-0.081985,0.081985,0.0000,0.0000,0.0000,-0.002479,-0.092039,0.090505,1.1383,0.6998,-0.3419,0.001534,0.587515,-0.561437,0.556835,-0.595185,0.558369,-0.559903
3.0806,0.020077,0.000000,-0.080233,0.080233,0.0000,0.0000,0.0000,-0.002479,-0.090505,0.090505,1.1383,0.6998,-0.3419,0.001534,0.587515,-0.561437,0.556835,-0.595185,0.558369,-0.559903
3.1007,0.020087,0.000000,-0.078480,0.078480,0.0000,0.0000,0.0000,-0.002479,-0.085903,0.090505,1.1383,0.6998,-0.3419,0.001534,0.587515,-0.561437,0.556835,-0.595185,0.558369,-0.559903
3.1208,0.020075,0.000000,-0.076729,0.076729,0.0000,0.0000,0.0000,-0.002479,-0.081301,0.088971,1.1383,0.6998,-0.3419,0.001534,0.587515,-0.561437,0.556835,-0.595185,0.558369,-0.559903
3.1408,0.020083,0.000000,-0.074976,0.074976,0.0000,0.0000,0.0000,-0.002479,-0.081301,0.087437,1.1383,0.6998,-0.3419,0.001534,0.587515,-0.561437,0.556835,-0.595185,0.558369,-0.559903
3.1609,0.020079,0.000000,-0.073224,0.073224,0.0000,0.0000,0.0000,-0.002479,-0.082835,0.084369,1.1383,0.6998,-0.3419,0.001534,0.587515,-0.561437,0.556835,-0.595185,0.558369,-0.559903
3.1810,0.020074,0.000000,-0.071472,0.071472,0.0000,0.0000,0.0000,-0.002479,-0.078233,0.081301,1.1383,0.6998,-0.3419,0.001534,0.587515,-0.561437,0.556835,-0.595185,0.558369,-0.559903
3.2011,0.020080,0.000000,-0.069720,0.069720,0.0000,0.0000,0.0000,-0.002479,-0.076699,0.075165,1.1383,0.6998,-0.3419,0.001534,0.587515,-0.561437,0.556835,-0.595185,0.558369,-0.559903
3.2211,0.020080,0.000000,-0.067967,0.067967,0.0000,0.0000,0.0000,-0.002479,-0.076699,0.073631,1.1383,0.6998,-0.3419,0.001534,0.587515,-0.561437,0.556835,-0.595185,0.558369,-0.559903
3.2412,0.020095,0.000000,-0.066214,0.066214,0.0000,0.0000,0.0000,-0.002479,-0.072097,0.070563,1.1383,0.6998,-0.3419,0.001534,0.587515,-0.561437,0.556835,-0.595185,0.558369,-0.559903
3.2613,0.020081,0.000000,-0.064461,0.064461,0.0000,0.0000,0.0000,-0.002479,-0.069029,0.069029,1.1383,0.6998,-0.3419,0.001534,0.587515,-0.561437,0.556835,-0.595185,0.558369,-0.559903
3.2814,0.020081,0.000000,-0.062709,0.062709,0.0000,0.0000,0.0000,-0.002479,-0.070563,0.069029,1.1383,0.6998,-0.3419,0.001534,0.587515,-0.561437,0.556835,-0.595185,0.558369,-0.559903
3.3015,0.020091,0.000000,-0.060956,0.060956,0.0000,0.0000,0.0000,-0.002479,-0.070563,0.067495,1.1383,0.6998,-0.3419,0.001534,0.587515,-0.561437,0.556835,-0.595185,0.558369,-0.559903
3.3216,0.020078,0.000000,-0.059204,0.059204,0.0000,0.0000,0.0000,-0.002479,-0.067495,0.065961,1.1383,0.6998,-0.3419,0.001534,0.587515,-0.561437,0.556835,-0.595185,0.558369,-0.559903
3.3417,0.020081,0.000000,-0.057451,0.057451,0.0000,0.0000,0.0000,-0.002479,-0.064427,0.064427,1.1383,0.6998,-0.3419,0.001534,0.587515,-0.561437,0.556835,-0.595185,0.558369,-0.559903
3.3617,0.020073,0.000000,-0.055700,0.055700,0.0000,0.0000,0.0000,-0.002479,-0.059825,0.062893,1.1383,0.6998,-0.3419,0.001534,0.587515,-0.561437,0.556835,-0.595185,0.558369,-0.559903
3.3818,0.020081,0.000000,-0.053947,0.053947,0.0000,0.0000,0.0000,-0.002479,-0.056757,0.062893,1.1383,0.6998,-0.3419,0.001534,0.587515,-0.561437,0.556835,-0.595185,0.558369,-0.559903
3.4019,0.020092,0.000000,-0.052194,0.052194,0.0000,0.0000,0.0000,-0.002479,-0.058291,0.062893,1.1383,0.6998,-0.3419,0.001534,0.587515,-0.561437,0.556835,-0.595185,0.558369,-0.559903
3.4220,0.020080,0.000000,-0.050441,0.050441,0.0000,0.0000,0.0000,-0.002479,-0.058291,0.062893,1.1383,0.6998,-0.4298,0.000000,0.587515,-0.561437,0.556835,-0.595185,0.558369,-0.559903
3.4421,0.020079,0.000000,-0.048689,0.048689,0.0000,0.0000,0.0000,-0.002479,-0.053689,0.061359,1.1383,0.6998,-0.3419,0.001534,0.587515,-0.561437,0.556835,-0.595185,0.558369,-0.559903
3.4621,0.020084,0.000000,-0.046937,0.046937,0.0000,0.0000,0.0000,-0.002479,-0.050621,0.059825,1.1383,0.6998,-0.3419,0.001534,0.587515,-0.561437,0.556835,-0.595185,0.558369,-0.559903
3.4822,0.020079,0.000000,-0.045184,0.045184,0.0000,0.0000,0.0000,-0.002479,-0.055223,0.055223,1.1383,0.6998,-0.3419,0.001534,0.587515,-0.561437,0.556835,-0.595185,0.558369,-0.559903
3.5023,0.020088,0.000000,-0.043431,0.043431,0.0000,0.0000,0.0000,-0.002479,-0.050621,0.049087,1.1383,0.6998,-0.3419,0.001534,0.587515,-0.561437,0.556835,-0.595185,0.558369,-0.559903
3.5224,0.020078,0.000000,-0.041679,0.041679,0.0000,0.0000,0.0000,-0.002479,-0.044485,0.046019,1.1383,0.6998,-0.3419,0.001534,0.587515,-0.561437,0.556835,-0.595185,0.558369,-0.559903
3.5425,0.020086,0.000000,-0.039926,0.039926,0.0000,0.0000,0.0000,-0.002479,-0.044485,0.044485,1.1383,0.6998,-0.3419,0.001534,0.587515,-0.561437,0.556835,-0.595185,0.558369,-0.559903
3.5626,0.020077,0.000000,-0.038174,0.038174,0.0000,0.0000,0.0000,-0.002479,-0.047553,0.042951,1.1383,0.6998,-0.3419,0.001534,0.587515,-0.561437,0.556835,-0.595185,0.558369,-0.559903
3.5826,0.020076,0.000000,-0.036423,0.036423,0.0000,0.0000,0.0000,-0.002479,-0.044485,0.042951,1.1383,0.6998,-0.3419,0.001534,0.587515,-0.561437,0.556835,-0.595185,0.558369,-0.559903
3.6027,0.020090,0.000000,-0.034669,0.034669,0.0000,0.0000,0.0000,-0.002479,-0.038350,0.041417,1.1383,0.6998,-0.3419,0.001534,0.587515,-0.561437,0.556835,-0.595185,0.558369,-0.559903
3.6228,0.020077,0.000000,-0.032917,0.032917,0.0000,0.0000,0.0000,-0.002479,-0.038350,0.039884,1.1383,0.6998,-0.3419,0.001534,0.587515,-0.561437,0.556835,-0.595185,0.558369,-0.559903
3.6429,0.020085,0.000000,-0.031165,0.031165,0.0000,0.0000,0.0000,-0.002479,-0.041417,0.036816,1.1383,0.6998,-0.3419,0.001534,0.587515,-0.561437,0.556835,-0.595185,0.558369,-0.559903
3.6630,0.020079,0.000000,-0.029412,0.029412,0.0000,0.0000,0.0000,-0.002479,-0.039884,0.036816,1.1383,0.6998,-0.3419,0.001534,0.587515,-0.561437,0.556835,-0.595185,0.558369,-0.559903
3.6830,0.020076,0.000000,-0.027660,0.027660,0.0000,0.0000,0.0000,-0.002479,-0.036816,0.035282,1.1383,0.6998,-0.3419,0.001534,0.587515,-0.561437,0.556835,-0.595185,0.558369,-0.559903
3.7031,0.020085,0.000000,-0.025908,0.025908,0.0000,0.0000,0.0000,-0.002479,-0.030680,0.035282,1.1383,0.6998,-0.3419,0.001534,0.587515,-0.561437,0.556835,-0.595185,0.558369,-0.559903
3.7232,0.020076,0.000000,-0.024156,0.024156,0.0000,0.0000,0.0000,-0.002479,-0.027612,0.035282,1.1383,0.6998,-0.3419,0.001534,0.587515,-0.561437,0.556835,-0.595185,0.558369,-0.559903
3.7433,0.020080,0.000000,-0.022403,0.022403,0.0000,0.0000,0.0000,-0.002479,-0.029146,0.033748,1.1383,0.6998,-0.3419,0.001534,0.587515,-0.561437,0.556835,-0.595185,0.558369,-0.559903
3.7634,0.020085,0.000000,-0.020651,0.020651,0.0000,0.0000,0.0000,-0.002479,-0.030680,0.032214,1.1383,0.6998,-0.3419,0.001534,0.587515,-0.561437,0.556835,-0.595185,0.558369,-0.559903
3.7834,0.020078,0.000000,-0.018899,0.018899,0.0000,0.0000,0.0000,-0.002479,-0.026078,0.029146,1.1383,0.6998,-0.3419,0.001534,0.587515,-0.561437,0.556835,-0.595185,0.558369,-0.559903
3.8035,0.020087,0.000000,-0.017146,0.017146,0.0000,0.0000,0.0000,-0.002479,-0.019942,0.026078,1.1383,0.6998,-0.3419,0.001534,0.587515,-0.561437,0.556835,-0.595185,0.558369,-0.559903
3.8236,0.020078,0.000000,-0.015393,0.015393,0.0000,0.0000,0.0000,-0.002479,-0.021476,0.019942,1.1383,0.6998,-0.3419,0.001534,0.587515,-0.561437,0.556835,-0.595185,0.558369,-0.559903
3.8437,0.020084,0.000000,-0.013641,0.013641,0.0000,0.0000,0.0000,-0.002479,-0.024544,0.018408,1.1383,0.6998,-0.3419,0.001534,0.587515,-0.561437,0.556835,-0.595185,0.558369,-0.559903
3.8638,0.020080,0.000000,-0.011889,0.011889,0.0000,0.0000,0.0000,-0.002479,-0.013806,0.015340,1.1383,0.6998,-0.3419,0.001534,0.587515,-0.561437,0.556835,-0.595185,0.558369,-0.559903
3.8838,0.020076,0.000000,-0.010137,0.010137,0.0000,0.0000,0.0000,-0.002479,-0.013806,0.015340,1.1383,0.6998,-0.3419,0.001534,0.587515,-0.561437,0.556835,-0.595185,0.558369,-0.559903
3.9039,0.020084,0.000000,-0.008384,0.008384,0.0000,0.0000,0.0000,-0.002479,-0.016874,0.012272,1.1383,0.6998,-0.3419,0.001534,0.587515,-0.561437,0.556835,-0.595185,0.558369,-0.559903
3.9240,0.020086,0.000000,-0.006631,0.006631,0.0000,0.0000,0.0000,-0.002479,-0.013806,0.009204,1.1383,0.6998,-0.3419,0.001534,0.587515,-0.561437,0.556835,-0.595185,0.558369,-0.559903
3.9441,0.020081,0.000000,-0.004879,0.004879,0.0000,0.0000,0.0000,-0.002479,-0.007670,0.009204,1.1383,0.6998,-0.3419,0.001534,0.587515,-0.561437,0.556835,-0.595185,0.558369,-0.559903
3.9642,0.020076,0.000000,-0.003127,0.003127,0.0000,0.0000,0.0000,-0.002479,-0.007670,0.007670,1.1383,0.6998,-0.3419,0.001534,0.587515,-0.561437,0.556835,-0.595185,0.558369,-0.559903
3.9842,0.020075,0.000000,-0.001375,0.001375,0.0000,0.0000,0.0000,-0.002479,-0.007670,0.007670,1.1383,0.6998,-0.3419,0.001534,0.587515,-0.561437,0.556835,-0.595185,0.558369,-0.559903
4.0043,0.020076,0.000000,-0.000377,0.000377,0.0000,0.0000,0.0000,-0.002479,-0.003068,0.006136,1.1383,0.6998,-0.3419,0.001534,0.587515,-0.561437,0.556835,-0.595185,0.558369,-0.559903
4.0244,0.020082,0.000000,-0.002130,0.002130,0.0000,0.0000,0.0000,-0.002479,0.001534,0.004602,1.1383,0.6998,-0.3419,0.001534,0.587515,-0.561437,0.556835,-0.595185,0.558369,-0.559903
4.0445,0.020082,0.000000,-0.003882,0.003882,0.0000,0.0000,0.0000,-0.002479,0.000000,0.003068,1.1383,0.6998,-0.3419,0.001534,0.587515,-0.561437,0.556835,-0.595185,0.558369,-0.559903
4.0646,0.020075,0.000000,-0.005634,0.005634,0.0000,0.0000,0.0000,-0.002479,-0.006136,0.001534,1.1383,0.6998,-0.3419,0.001534,0.587515,-0.561437,0.556835,-0.595185,0.558369,-0.559903
4.0846,0.020075,0.000000,-0.007386,0.007386,0.0000,0.0000,0.0000,-0.002479,-0.003068,0.001534,1.1383,0.6998,-0.3419,0.001534,0.587515,-0.561437,0.556835,-0.595185,0.558369,-0.559903
4.1047,0.020081,0.000000,-0.009138,0.009138,0.0000,0.0000,0.0000,-0.002479,0.000000,0.003068,1.1383,0.6998,-0.3419,0.001534,0.587515,-0.561437,0.556835,-0.595185,0.558369,-0.559903
4.1248,0.020079,0.000000,-0.010890,0.010890,0.0000,0.0000,0.0000,-0.002479,-0.003068,0.004602,1.1383,0.6998,-0.3419,0.001534,0.587515,-0.561437,0.556835,-0.595185,0.558369,-0.559903
4.1449,0.020078,0.000000,-0.012643,0.012643,0.0000,0.0000,0.0000,-0.002479,-0.012272,0.006136,1.1383,0.6998,-0.3419,0.001534,0.587515,-0.561437,0.556835,-0.595185,0.558369,-0.559903
4.1650,0.020078,0.000000,-0.014395,0.014395,0.0000,0.0000,0.0000,-0.002479,-0.012272,0.006136,1.1383,0.6998,-0.3419,0.001534,0.587515,-0.561437,0.556835,-0.595185,0.558369,-0.559903
4.1850,0.020075,0.000000,-0.016147,0.016147,0.0000,0.0000,0.0000,-0.002479,-0.010738,0.012272,1.1383,0.6998,-0.3419,0.001534,0.587515,-0.561437,0.556835,-0.595185,0.558369,-0.559903
4.2051,0.020077,0.000000,-0.017899,0.017899,0.0000,0.0000,0.0000,-0.002479,-0.010738,0.013806,1.1383,0.6998,-0.3419,0.001534,0.587515,-0.561437,0.556835,-0.595185,0.558369,-0.559903
4.2252,0.020083,0.000000,-0.019651,0.019651,0.0000,0.0000,0.0000,-0.002479,-0.015340,0.012272,1.1383,0.6998,-0.3419,0.001534,0.587515,-0.561437,0.556835,-0.595185,0.558369,-0.559903
4.2453,0.020073,0.000000,-0.021403,0.021403,0.0000,0.0000,0.0000,-0.002479,-0.021476,0.013806,1.1383,0.6998,-0.3419,0.001534,0.587515,-0.561437,0.556835,-0.595185,0.558369,-0.559903
4.2653,0.020074,0.000000,-0.023155,0.023155,0.0000,0.0000,0.0000,-0.002479,-0.019942,0.018408,1.1383,0.6998,-0.3419,0.001534,0.587515,-0.561437,0.556835,-0.595185,0.558369,-0.559903
4.2854,0.020075,0.000000,-0.024907,0.024907,0.0000,0.0000,0.0000,-0.002479,-0.015340,0.016874,1.1383,0.6998,-0.4298,0.000000,0.587515,-0.561437,0.556835,-0.595185,0.558369,-0.559903
4.3055,0.020089,0.000000,-0.026660,0.026660,0.0000,0.0000,0.0000,-0.002479,-0.021476,0.018408,1.1383,0.6998,-0.3419,0.001534,0.587515,-0.561437,0.556835,-0.595185,0.558369,-0.559903
4.3256,0.020083,0.000000,-0.028412,0.028412,0.0000,0.0000,0.0000,-0.002479,-0.029146,0.023010,1.1383,0.6998,-0.3419,0.001534,0.587515,-0.561437,0.556835,-0.595185,0.558369,-0.559903
4.3457,0.020074,0.000000,-0.030164,0.030164,0.0000,0.0000,0.0000,-0.002479,-0.027612,0.024544,1.1383,0.6998,-0.3419,0.001534,0.587515,-0.561437,0.556835,-0.595185,0.558369,-0.559903
4.3657,0.020089,0.000000,-0.031917,0.031917,0.0000,0.0000,0.0000,-0.002479,-0.023010,0.024544,1.1383,0.6998,-0.3419,0.001534,0.587515,-0.561437,0.556835,-0.595185,0.558369,-0.559903
4.3858,0.020072,0.000000,-0.033669,0.033669,0.0000,0.0000,0.0000,-0.002479,-0.026078,0.024544,1.1383,0.6998,-0.3419,0.001534,0.587515,-0.561437,0.556835,-0.595185,0.558369,-0.559903
4.4059,0.020084,0.000000,-0.035422,0.035422,0.0000,0.0000,0.0000,-0.002479,-0.033748,0.029146,1.1383,0.6998,-0.3419,0.001534,0.587515,-0.561437,0.556835,-0.595185,0.558369,-0.559903
4.4260,0.020080,0.000000,-0.037174,0.037174,0.0000,0.0000,0.0000,-0.002479,-0.032214,0.032214,1.1383,0.6998,-0.3419,0.001534,0.587515,-0.561437,0.556835,-0.595185,0.558369,-0.559903
4.4461,0.020078,0.000000,-0.038926,0.038926,0.0000,0.0000,0.0000,-0.002479,-0.027612,0.032214,1.1383,0.6998,-0.3419,0.001534,0.587515,-0.561437,0.556835,-0.595185,0.558369,-0.559903
4.4661,0.020089,0.000000,-0.040679,0.040679,0.0000,0.0000,0.0000,-0.002479,-0.030680,0.035282,1.1383,0.6998,-0.3419,0.001534,0.587515,-0.561437,0.556835,-0.595185,0.558369,-0.559903
4.4862,0.020072,0.000000,-0.042431,0.042431,0.0000,0.0000,0.0000,-0.002479,-0.041417,0.036816,1.1383,0.6998,-0.3419,0.001534,0.587515,-0.561437,0.556835,-0.595185,0.558369,-0.559903
4.5063,0.020089,0.000000,-0.044184,0.044184,0.0000,0.0000,0.0000,-0.002479,-0.042951,0.036816,1.1383,0.6998,-0.3419,0.001534,0.587515,-0.561437,0.556835,-0.595185,0.558369,-0.559903
4.5264,0.020083,0.000000,-0.045936,0.045936,0.0000,0.0000,0.0000,-0.002479,-0.038350,0.038350,1.1383,0.6998,-0.3419,0.001534,0.587515,-0.561437,0.556835,-0.595185,0.558369,-0.559903
4.5465,0.020078,0.000000,-0.047689,0.047689,0.0000,0.0000,0.0000,-0.002479,-0.038350,0.042951,1.1383,0.6998,-0.3419,0.001534,0.587515,-0.561437,0.556835,-0.595185,0.558369,-0.559903
4.5666,0.020099,0.000000,-0.049442,0.049442,0.0000,0.0000,0.0000,-0.002479,-0.047553,0.042951,1.1383,0.6998,-0.3419,0.001534,0.587515,-0.561437,0.556835,-0.595185,0.558369,-0.559903
4.5866,0.020077,0.000000,-0.051195,0.051195,0.0000,0.0000,0.0000,-0.002492,-0.049087,0.042951,1.1496,0.6473,-0.3960,0.001534,0.587515,-0.561437,0.555301,-0.595185,0.558369,-0.559903
4.6067,0.020094,0.000000,-0.052948,0.052948,0.0000,0.0000,0.0000,-0.002477,-0.044485,0.046019,1.1375,0.7050,-0.3368,0.001534,0.587515,-0.561437,0.556835,-0.595185,0.558369,-0.559903
4.6268,0.020083,0.000000,-0.054701,0.054701,0.0000,0.0000,0.0000,-0.002479,-0.047553,0.047553,1.1388,0.6989,-0.3430,0.001534,0.587515,-0.561437,0.556835,-0.595185,0.558369,-0.559903
4.6469,0.020081,0.000000,-0.056453,0.056453,0.0000,0.0000,0.0000,-0.002465,-0.056757,0.049087,1.1777,0.6640,-0.3957,0.001534,0.587515,-0.562971,0.556835,-0.595185,0.558369,-0.559903
4.6670,0.020080,0.000000,-0.058205,0.058205,0.0000,0.0000,0.0000,-0.002480,-0.056757,0.052155,1.1346,0.7032,-0.3368,0.001534,0.587515,-0.561437,0.556835,-0.595185,0.558369,-0.559903
4.6871,0.020080,0.000000,-0.059958,0.059958,0.0000,0.0000,0.0000,-0.002478,-0.049087,0.052155,1.1391,0.6991,-0.3430,0.001534,0.587515,-0.561437,0.556835,-0.595185,0.558369,-0.559903
4.7072,0.020087,0.000000,-0.061711,0.061711,0.0000,0.0000,0.0000,-0.002478,-0.052155,0.052155,1.1391,0.6991,-0.3430,0.001534,0.587515,-0.561437,0.556835,-0.595185,0.558369,-0.559903
4.7272,0.020083,0.000000,-0.063463,0.063463,0.0000,0.0000,0.0000,-0.002478,-0.061359,0.055223,1.1391,0.6991,-0.3430,0.001534,0.587515,-0.561437,0.556835,-0.595185,0.558369,-0.559903
4.7473,0.020080,0.000000,-0.065216,0.065216,0.0000,0.0000,0.0000,-0.002478,-0.062893,0.059825,1.1391,0.6991,-0.3430,0.001534,0.587515,-0.561437,0.556835,-0.595185,0.558369,-0.559903
4.7674,0.020080,0.000000,-0.066968,0.066968,0.0000,0.0000,0.0000,-0.002478,-0.061359,0.061359,1.1391,0.6991,-0.3430,0.001534,0.587515,-0.561437,0.556835,-0.595185,0.558369,-0.559903
4.7875,0.020082,0.000000,-0.068720,0.068720,0.0000,0.0000,0.0000,-0.002478,-0.061359,0.061359,1.1391,0.6991,-0.3430,0.001534,0.587515,-0.561437,0.556835,-0.595185,0.558369,-0.559903
4.8079,0.020421,0.000000,-0.070502,0.070502,0.0000,0.0000,0.0000,-0.002478,-0.067495,0.064427,1.1391,0.6991,-0.3430,0.001534,0.587515,-0.561437,0.556835,-0.595185,0.558369,-0.559903
4.8280,0.020076,0.000000,-0.072254,0.072254,0.0000,0.0000,0.0000,-0.002478,-0.070563,0.067495,1.1391,0.6991,-0.3430,0.001534,0.587515,-0.561437,0.556835,-0.595185,0.558369,-0.559903
4.8481,0.020079,0.000000,-0.074007,0.074007,0.0000,0.0000,0.0000,-0.002478,-0.067495,0.065961,1.1391,0.6991,-0.4309,0.000000,0.587515,-0.561437,0.556835,-0.595185,0.558369,-0.559903
4.8681,0.020084,0.000000,-0.075759,0.075759,0.0000,0.0000,0.0000,-0.002478,-0.065961,0.067495,1.1391,0.6991,-0.3430,0.001534,0.587515,-0.561437,0.556835,-0.595185,0.558369,-0.559903
4.8882,0.020077,0.000000,-0.077511,0.077511,0.0000,0.0000,0.0000,-0.002478,-0.073631,0.073631,1.1391,0.6991,-0.3430,0.001534,0.587515,-0.561437,0.556835,-0.595185,0.558369,-0.559903
4.9085,0.020249,0.000000,-0.079278,0.079278,0.0000,0.0000,0.0000,-0.002478,-0.079767,0.073631,1.1391,0.6991,-0.3430,0.001534,0.587515,-0.561437,0.556835,-0.595185,0.558369,-0.559903
4.9285,0.020083,0.000000,-0.081031,0.081031,0.0000,0.0000,0.0000,-0.002478,-0.078233,0.072097,1.1391,0.6991,-0.3430,0.001534,0.587515,-0.561437,0.556835,-0.595185,0.558369,-0.559903
4.9486,0.020081,0.000000,-0.082783,0.082783,0.0000,0.0000,0.0000,-0.002478,-0.075165,0.076699,1.1391,0.6991,-0.3430,0.001534,0.587515,-0.561437,0.556835,-0.595185,0.558369,-0.559903
4.9687,0.020084,0.000000,-0.084536,0.084536,0.0000,0.0000,0.0000,-0.002478,-0.081301,0.076699,1.1391,0.6991,-0.3430,0.001534,0.587515,-0.561437,0.556835,-0.595185,0.558369,-0.559903
4.9888,0.020081,0.000000,-0.086288,0.086288,0.0000,0.0000,0.0000,-0.002478,-0.082835,0.078233,1.1391,0.6991,-0.3430,0.001534,0.587515,-0.561437,0.556835,-0.595185,0.558369,-0.559903
5.0108,0.021987,0.000000,-0.088207,0.088207,0.0000,0.0000,0.0000,-0.002478,-0.078233,0.079767,1.1391,0.6991,-0.3430,0.001534,0.587515,-0.561437,0.556835,-0.595185,0.558369,-0.559903
5.0309,0.020074,0.000000,-0.089959,0.089959,0.0000,0.0000,0.0000,-0.002478,-0.081301,0.082835,1.1391,0.6991,-0.3430,0.001534,0.587515,-0.561437,0.556835,-0.595185,0.558369,-0.559903
5.0509,0.020073,0.000000,-0.091711,0.091711,0.0000,0.0000,0.0000,-0.002478,-0.088971,0.087437,1.1391,0.6991,-0.3430,0.001534,0.587515,-0.561437,0.556835,-0.595185,0.558369,-0.559903
5.0710,0.020079,0.000000,-0.093463,0.093463,0.0000,0.0000,0.0000,-0.002478,-0.088971,0.087437,1.1391,0.6991,-0.3430,0.001534,0.587515,-0.561437,0.556835,-0.595185,0.558369,-0.559903
5.0911,0.020075,0.000000,-0.095215,0.095215,0.0000,0.0000,0.0000,-0.002478,-0.087437,0.087437,1.1391,0.6991,-0.3430,0.001534,0.587515,-0.561437,0.556835,-0.595185,0.558369,-0.559903
5.1112,0.020077,0.000000,-0.096967,0.096967,0.0000,0.0000,0.0000,-0.002478,-0.088971,0.090505,1.1391,0.6991,-0.3430,0.001534,0.587515,-0.561437,0.556835,-0.595185,0.558369,-0.559903
5.1312,0.020078,0.000000,-0.098719,0.098719,0.0000,0.0000,0.0000,-0.002478,-0.096641,0.090505,1.1391,0.6991,-0.3430,0.001534,0.587515,-0.561437,0.556835,-0.595185,0.558369,-0.559903
5.1513,0.020079,0.000000,-0.100471,0.100471,0.0000,0.0000,0.0000,-0.002478,-0.096641,0.092039,1.1391,0.6991,-0.3430,0.001534,0.587515,-0.561437,0.556835,-0.595185,0.558369,-0.559903
5.1714,0.020073,0.000000,-0.102223,0.102223,0.0000,0.0000,0.0000,-0.002478,-0.095107,0.098175,1.1391,0.6991,-0.3430,0.001534,0.587515,-0.561437,0.556835,-0.595185,0.558369,-0.559903
5.1915,0.020080,0.000000,-0.103975,0.103975,0.0000,0.0000,0.0000,-0.002478,-0.101243,0.098175,1.1391,0.6991,-0.3430,0.001534,0.587515,-0.561437,0.556835,-0.595185,0.558369,-0.559903
5.2115,0.020080,0.000000,-0.105727,0.105727,0.0000,0.0000,0.0000,-0.002478,-0.102777,0.096641,1.1391,0.6991,-0.3430,0.001534,0.587515,-0.561437,0.556835,-0.595185,0.558369,-0.559903
5.2316,0.020092,0.000000,-0.107481,0.107481,0.0000,0.0000,0.0000,-0.002478,-0.102777,0.101243,1.1391,0.6991,-0.3430,0.001534,0.587515,-0.561437,0.556835,-0.595185,0.558369,-0.559903
5.2517,0.020099,0.000000,-0.109235,0.109235,0.0000,0.0000,0.0000,-0.002478,-0.105845,0.101243,1.1391,0.6991,-0.3430,0.001534,0.587515,-0.561437,0.556835,-0.595185,0.558369,-0.559903
5.2718,0.020108,0.000000,-0.110989,0.110989,0.0000,0.0000,0.0000,-0.002478,-0.107379,0.101243,1.1391,0.6991,-0.3430,0.001534,0.587515,-0.561437,0.556835,-0.595185,0.558369,-0.559903
5.2919,0.020102,0.000000,-0.112744,0.112744,0.0000,0.0000,0.0000,-0.002478,-0.108913,0.105845,1.1391,0.6991,-0.3430,0.001534,0.587515,-0.561437,0.556835,-0.595185,0.558369,-0.559903
5.3121,0.020107,0.000000,-0.114498,0.114498,0.0000,0.0000,0.0000,-0.002478,-0.108913,0.107379,1.1391,0.6991,-0.3430,0.001534,0.587515,-0.561437,0.556835,-0.595185,0.558369,-0.559903
5.3322,0.020107,0.000000,-0.116253,0.116253,0.0000,0.0000,0.0000,-0.002478,-0.113515,0.108913,1.1391,0.6991,-0.3430,0.001534,0.587515,-0.561437,0.556835,-0.595185,0.558369,-0.559903
5.3522,0.020088,0.000000,-0.118006,0.118006,0.0000,0.0000,0.0000,-0.002478,-0.113515,0.110447,1.1391,0.6991,-0.3430,0.001534,0.587515,-0.561437,0.556835,-0.595185,0.558369,-0.559903
5.3723,0.020087,0.000000,-0.119759,0.119759,0.0000,0.0000,0.0000,-0.002478,-0.113515,0.115049,1.1391,0.6991,-0.3430,0.001534,0.587515,-0.561437,0.556835,-0.595185,0.558369,-0.559903
5.3924,0.020089,0.000000,-0.121512,0.121512,0.0000,0.0000,0.0000,-0.002478,-0.119651,0.113515,1.1391,0.6991,-0.3430,0.001534,0.587515,-0.561437,0.556835,-0.595185,0.558369,-0.559903
5.4125,0.020092,0.000000,-0.123265,0.123265,0.0000,0.0000,0.0000,-0.002478,-0.119651,0.115049,1.1391,0.6991,-0.3430,0.001534,0.587515,-0.561437,0.556835,-0.595185,0.558369,-0.559903
5.4326,0.020103,0.000000,-0.125020,0.125020,0.0000,0.0000,0.0000,-0.002478,-0.121184,0.119651,1.1391,0.6991,-0.3430,0.001534,0.587515,-0.561437,0.556835,-0.595185,0.558369,-0.559903
5.4527,0.020094,0.000000,-0.126773,0.126773,0.0000,0.0000,0.0000,-0.002478,-0.125786,0.119651,1.1391,0.6991,-0.3430,0.001534,0.587515,-0.561437,0.556835,-0.595185,0.558369,-0.559903
5.4728,0.020087,0.000000,-0.128526,0.128526,0.0000,0.0000,0.0000,-0.002478,-0.125786,0.119651,1.1391,0.6991,-0.3430,0.001534,0.587515,-0.561437,0.556835,-0.595185,0.558369,-0.559903
5.4929,0.020088,0.000000,-0.130279,0.130279,0.0000,0.0000,0.0000,-0.002478,-0.125786,0.122718,1.1391,0.6991,-0.3430,0.001534,0.587515,-0.561437,0.556835,-0.595185,0.558369,-0.559903
5.5130,0.020084,0.000000,-0.132032,0.132032,0.0000,0.0000,0.0000,-0.002478,-0.127320,0.124252,1.1391,0.6991,-0.3430,0.001534,0.587515,-0.561437,0.556835,-0.595185,0.558369,-0.559903
5.5331,0.020148,0.000000,-0.133790,0.133790,0.0000,0.0000,0.0000,-0.002478,-0.128854,0.125786,1.1391,0.6991,-0.3430,0.001534,0.587515,-0.561437,0.556835,-0.595185,0.558369,-0.559903
5.5532,0.020088,0.000000,-0.135543,0.135543,0.0000,0.0000,0.0000,-0.002478,-0.128854,0.127320,1.1391,0.6991,-0.3430,0.001534,0.587515,-0.561437,0.556835,-0.595185,0.558369,-0.559903
5.5733,0.020098,0.000000,-0.137297,0.137297,0.0000,0.0000,0.0000,-0.002478,-0.133456,0.127320,1.1391,0.6991,-0.3430,0.001534,0.587515,-0.561437,0.556835,-0.595185,0.558369,-0.559903
5.5934,0.020086,0.000000,-0.139050,0.139050,0.0000,0.0000,0.0000,-0.002478,-0.136524,0.131922,1.1391,0.6991,-0.3430,0.001534,0.587515,-0.561437,0.556835,-0.595185,0.558369,-0.559903
5.6135,0.020092,0.000000,-0.140803,0.140803,0.0000,0.0000,0.0000,-0.002478,-0.136524,0.133456,1.1391,0.6991,-0.3430,0.001534,0.587515,-0.561437,0.556835,-0.595185,0.558369,-0.559903
5.6336,0.020098,0.000000,-0.142557,0.142557,0.0000,0.0000,0.0000,-0.002478,-0.136524,0.133456,1.1391,0.6991,-0.3430,0.001534,0.587515,-0.561437,0.556835,-0.595185,0.558369,-0.559903
5.6537,0.020087,0.000000,-0.144310,0.144310,0.0000,0.0000,0.0000,-0.002478,-0.139592,0.133456,1.1391,0.6991,-0.3430,0.001534,0.587515,-0.561437,0.556835,-0.595185,0.558369,-0.559903
5.6738,0.020089,0.000000,-0.146063,0.146063,0.0000,0.0000,0.0000,-0.002478,-0.142660,0.139592,1.1391,0.6991,-0.3430,0.001534,0.587515,-0.561437,0.556835,-0.595185,0.558369,-0.559903
5.6939,0.020125,0.000000,-0.147819,0.147819,0.0000,0.0000,0.0000,-0.002478,-0.144194,0.141126,1.1391,0.6991,-0.3430,0.001534,0.587515,-0.561437,0.556835,-0.595185,0.558369,-0.559903
5.7142,0.020339,0.000000,-0.149594,0.149594,0.0000,0.0000,0.0000,-0.002478,-0.148796,0.145728,1.1391,0.6991,-0.3430,0.001534,0.587515,-0.561437,0.556835,-0.595185,0.558369,-0.559903
5.7343,0.020120,0.000000,-0.151350,0.151350,0.0000,0.0000,0.0000,-0.002478,-0.151864,0.147262,1.1391,0.6991,-0.3430,0.001534,0.587515,-0.561437,0.556835,-0.595185,0.558369,-0.559903
5.7544,0.020087,0.000000,-0.153103,0.153103,0.0000,0.0000,0.0000,-0.002478,-0.150330,0.145728,1.1391,0.6991,-0.3430,0.001534,0.587515,-0.561437,0.556835,-0.595185,0.558369,-0.559903
5.7745,0.020086,0.000000,-0.154856,0.154856,0.0000,0.0000,0.0000,-0.002478,-0.150330,0.145728,1.1391,0.6991,-0.3430,0.001534,0.587515,-0.561437,0.556835,-0.595185,0.558369,-0.559903
5.7946,0.020085,0.000000,-0.156608,0.156608,0.0000,0.0000,0.0000,-0.002478,-0.154932,0.151864,1.1391,0.6991,-0.3430,0.001534,0.587515,-0.561437,0.556835,-0.595185,0.558369,-0.559903
5.8147,0.020123,0.000000,-0.158364,0.158364,0.0000,0.0000,0.0000,-0.002478,-0.154932,0.150330,1.1391,0.6991,-0.3430,0.001534,0.587515,-0.561437,0.556835,-0.595185,0.558369,-0.559903
5.8348,0.020124,0.000000,-0.160120,0.160120,0.0000,0.0000,0.0000,-0.002478,-0.154932,0.153398,1.1391,0.6991,-0.3430,0.001534,0.587515,-0.561437,0.556835,-0.595185,0.558369,-0.559903
5.8549,0.020087,0.000000,-0.161873,0.161873,0.0000,0.0000,0.0000,-0.002478,-0.162602,0.156466,1.1391,0.6991,-0.3430,0.001534,0.587515,-0.561437,0.556835,-0.595185,0.558369,-0.559903
5.8750,0.020094,0.000000,-0.163627,0.163627,0.0000,0.0000,0.0000,-0.002478,-0.164136,0.156466,1.1391,0.6991,-0.3430,0.001534,0.587515,-0.561437,0.556835,-0.595185,0.558369,-0.559903
5.8952,0.020211,0.000000,-0.165391,0.165391,0.0000,0.0000,0.0000,-0.002478,-0.161068,0.159534,1.1391,0.6991,-0.3430,0.001534,0.587515,-0.561437,0.556835,-0.595185,0.558369,-0.559903
5.9153,0.020112,0.000000,-0.167146,0.167146,0.0000,0.0000,0.0000,-0.002478,-0.164136,0.161068,1.1391,0.6991,-0.3430,0.001534,0.587515,-0.561437,0.556835,-0.595185,0.558369,-0.559903
5.9355,0.020118,0.000000,-0.168901,0.168901,0.0000,0.0000,0.0000,-0.002478,-0.165670,0.161068,1.1391,0.6991,-0.3430,0.001534,0.587515,-0.561437,0.556835,-0.595185,0.558369,-0.559903
5.9565,0.021036,0.000000,-0.170737,0.170737,0.0000,0.0000,0.0000,-0.002478,-0.165670,0.162602,1.1391,0.6991,-0.3430,0.001534,0.587515,-0.561437,0.556835,-0.595185,0.558369,-0.559903
5.9767,0.020162,0.000000,-0.172497,0.172497,0.0000,0.0000,0.0000,-0.002478,-0.168738,0.167204,1.1391,0.6991,-0.3430,0.001534,0.587515,-0.561437,0.556835,-0.595185,0.558369,-0.559903
5.9967,0.020085,0.000000,-0.174249,0.174249,0.0000,0.0000,0.0000,-0.002478,-0.171806,0.168738,1.1391,0.6991,-0.3430,0.001534,0.587515,-0.561437,0.556835,-0.595185,0.558369,-0.559903
6.0169,0.020158,0.000000,-0.176008,0.176008,0.0000,0.0000,0.0000,-0.002478,-0.171806,0.170272,1.1391,0.6991,-0.3430,0.001534,0.587515,-0.561437,0.556835,-0.595185,0.558369,-0.559903
6.0375,0.020597,0.000000,-0.177806,0.177806,0.0000,0.0000,0.0000,-0.002478,-0.174874,0.171806,1.1391,0.6991,-0.3430,0.001534,0.587515,-0.561437,0.556835,-0.595185,0.558369,-0.559903
6.0576,0.020102,0.000000,-0.179560,0.179560,0.0000,0.0000,0.0000,-0.002478,-0.179476,0.173340,1.1391,0.6991,-0.3430,0.001534,0.587515,-0.561437,0.556835,-0.595185,0.558369,-0.559903
6.0779,0.020285,0.000000,-0.181330,0.181330,0.0000,0.0000,0.0000,-0.002478,-0.177942,0.173340,1.1391,0.6991,-0.3430,0.001534,0.587515,-0.561437,0.556835,-0.595185,0.558369,-0.559903
6.0980,0.020100,0.000000,-0.183084,0.183084,0.0000,0.0000,0.0000,-0.002478,-0.177942,0.176408,1.1391,0.6991,-0.3430,0.001534,0.587515,-0.561437,0.556835,-0.595185,0.558369,-0.559903
6.1181,0.020088,0.000000,-0.184837,0.184837,0.0000,0.0000,0.0000,-0.002478,-0.184078,0.179476,1.1391,0.6991,-0.3430,0.001534,0.587515,-0.561437,0.556835,-0.595185,0.558369,-0.559903
6.1383,0.020235,0.000000,-0.186603,0.186603,0.0000,0.0000,0.0000,-0.002478,-0.184078,0.181010,1.1391,0.6991,-0.3430,0.001534,0.587515,-0.561437,0.556835,-0.595185,0.558369,-0.559903
6.1584,0.020093,0.000000,-0.188357,0.188357,0.0000,0.0000,0.0000,-0.002478,-0.184078,0.181010,1.1391,0.6991,-0.3430,0.001534,0.587515,-0.561437,0.556835,-0.595185,0.558369,-0.559903
6.1787,0.020324,0.000000,-0.190130,0.190130,0.0000,0.0000,0.0000,-0.002478,-0.188680,0.184078,1.1391,0.6991,-0.3430,0.001534,0.587515,-0.561437,0.556835,-0.595185,0.558369,-0.559903
6.1989,0.020129,0.000000,-0.191887,0.191887,0.0000,0.0000,0.0000,-0.002478,-0.190214,0.184078,1.1391,0.6991,-0.3430,0.001534,0.587515,-0.561437,0.556835,-0.595185,0.558369,-0.559903
6.2190,0.020091,0.000000,-0.193640,0.193640,0.0000,0.0000,0.0000,-0.002478,-0.188680,0.187146,1.1391,0.6991,-0.3430,0.001534,0.587515,-0.561437,0.556835,-0.595185,0.558369,-0.559903
6.2390,0.020089,0.000000,-0.195393,0.195393,0.0000,0.0000,0.0000,-0.002478,-0.191748,0.188680,1.1391,0.6991,-0.3430,0.001534,0.587515,-0.561437,0.556835,-0.595185,0.558369,-0.559903
6.2591,0.020100,0.000000,-0.197147,0.197147,0.0000,0.0000,0.0000,-0.002478,-0.194816,0.190214,1.1391,0.6991,-0.3430,0.001534,0.587515,-0.561437,0.556835,-0.595185,0.558369,-0.559903
6.2795,0.020314,0.000000,-0.198920,0.198920,0.0000,0.0000,0.0000,-0.002478,-0.194816,0.196350,1.1391,0.6991,-0.3430,0.001534,0.587515,-0.561437,0.556835,-0.595185,0.558369,-0.559903
6.3000,0.020551,0.000000,-0.200713,0.200713,0.0000,0.0000,0.0000,-0.002478,-0.197884,0.196350,1.1391,0.6991,-0.3430,0.001534,0.587515,-0.561437,0.556835,-0.595185,0.558369,-0.559903
6.3201,0.020085,0.000000,-0.202466,0.202466,0.0000,0.0000,0.0000,-0.002478,-0.197884,0.194816,1.1391,0.6991,-0.3430,0.001534,0.587515,-0.561437,0.556835,-0.595185,0.558369,-0.559903
6.3404,0.020322,0.000000,-0.204239,0.204239,0.0000,0.0000,0.0000,-0.002478,-0.197884,0.199418,1.1391,0.6991,-0.3430,0.001534,0.587515,-0.561437,0.556835,-0.595185,0.558369,-0.559903
6.3605,0.020103,0.000000,-0.205994,0.205994,0.0000,0.0000,0.0000,-0.002478,-0.197884,0.199418,1.1391,0.6991,-0.3430,0.001534,0.587515,-0.561437,0.556835,-0.595185,0.558369,-0.559903
6.3806,0.020097,0.000000,-0.207748,0.207748,0.0000,0.0000,0.0000,-0.002478,-0.202485,0.199418,1.1391,0.6991,-0.3430,0.001534,0.587515,-0.561437,0.556835,-0.595185,0.558369,-0.559903
6.4007,0.020124,0.000000,-0.209504,0.209504,0.0000,0.0000,0.0000,-0.002478,-0.204019,0.204019,1.1391,0.6991,-0.3430,0.001534,0.587515,-0.561437,0.556835,-0.595185,0.558369,-0.559903
6.4208,0.020108,0.000000,-0.211259,0.211259,0.0000,0.0000,0.0000,-0.002478,-0.207087,0.205553,1.1391,0.6991,-0.3430,0.001534,0.587515,-0.561437,0.556835,-0.595185,0.558369,-0.559903
6.4410,0.020116,0.000000,-0.213014,0.213014,0.0000,0.0000,0.0000,-0.002478,-0.207087,0.205553,1.1391,0.6991,-0.3430,0.001534,0.587515,-0.561437,0.556835,-0.595185,0.558369,-0.559903
6.4611,0.020105,0.000000,-0.214768,0.214768,0.0000,0.0000,0.0000,-0.002478,-0.207087,0.205553,1.1391,0.6991,-0.3430,0.001534,0.587515,-0.561437,0.556835,-0.595185,0.558369,-0.559903
6.4812,0.020105,0.000000,-0.216523,0.216523,0.0000,0.0000,0.0000,-0.002478,-0.208621,0.208621,1.1391,0.6991,-0.3430,0.001534,0.587515,-0.561437,0.556835,-0.595185,0.558369,-0.559903
6.5014,0.020187,0.000000,-0.218285,0.218285,0.0000,0.0000,0.0000,-0.002478,-0.211689,0.208621,1.1391,0.6991,-0.3430,0.001534,0.587515,-0.561437,0.556835,-0.595185,0.558369,-0.559903
6.5217,0.020348,0.000000,-0.220060,0.220060,0.0000,0.0000,0.0000,-0.002478,-0.213223,0.213223,1.1391,0.6991,-0.3430,0.001534,0.587515,-0.561437,0.556835,-0.595185,0.558369,-0.559903
6.5418,0.020107,0.000000,-0.221815,0.221815,0.0000,0.0000,0.0000,-0.002478,-0.213223,0.213223,1.1391,0.6991,-0.3430,0.001534,0.587515,-0.561437,0.556835,-0.595185,0.558369,-0.559903
