t,loop_dt,cmd_z,cmd_ant_l,cmd_ant_r,cmd_roll,cmd_pitch,cmd_yaw,pres_z,pres_ant_l,pres_ant_r,pres_roll,pres_pitch,pres_yaw,pres_j0,pres_j1,pres_j2,pres_j3,pres_j4,pres_j5,pres_j6
0.0000,0.000001,0.000000,-0.349066,0.349066,0.0000,0.0000,0.0000,-0.002663,-0.184078,0.190214,1.1025,1.0502,0.1387,0.001534,0.582913,-0.552233,0.556835,-0.595185,0.558369,-0.549165
0.0201,0.020097,0.000000,-0.344857,0.344857,0.0000,0.0000,0.0000,-0.002663,-0.181010,0.185612,1.1025,1.0502,0.1387,0.001534,0.582913,-0.552233,0.556835,-0.595185,0.558369,-0.549165
0.0402,0.020115,0.000000,-0.340644,0.340644,0.0000,0.0000,0.0000,-0.002663,-0.188680,0.190214,1.1025,1.0502,0.1387,0.001534,0.582913,-0.552233,0.556835,-0.595185,0.558369,-0.549165
0.0603,0.020099,0.000000,-0.336434,0.336434,0.0000,0.0000,0.0000,-0.002677,-0.243903,0.240835,1.1130,0.9978,0.0858,0.001534,0.582913,-0.552233,0.555301,-0.595185,0.558369,-0.549165
0.0804,0.020098,0.000000,-0.332225,0.332225,0.0000,0.0000,0.0000,-0.002649,-0.326738,0.316000,1.0516,1.0370,0.0913,0.001534,0.582913,-0.552233,0.556835,-0.595185,0.558369,-0.550699
0.1005,0.020100,0.000000,-0.328015,0.328015,0.0000,0.0000,0.0000,-0.002639,-0.374291,0.363553,1.0087,1.0147,0.0372,0.001534,0.582913,-0.552233,0.556835,-0.595185,0.558369,-0.552233
0.1206,0.020115,0.000000,-0.323802,0.323802,0.0000,0.0000,0.0000,-0.002613,-0.374291,0.366621,1.0920,0.9456,-0.0632,0.001534,0.582913,-0.555301,0.556835,-0.595185,0.558369,-0.552233
0.1407,0.020092,0.000000,-0.319594,0.319594,0.0000,0.0000,0.0000,-0.002616,-0.354350,0.355884,1.0833,0.9528,-0.0527,0.001534,0.582913,-0.555301,0.556835,-0.595185,0.558369,-0.552233
0.1608,0.020101,0.000000,-0.315384,0.315384,0.0000,0.0000,0.0000,-0.002602,-0.335942,0.340544,1.0349,0.9339,-0.1074,0.001534,0.582913,-0.555301,0.556835,-0.595185,0.558369,-0.553767
0.1809,0.020095,0.000000,-0.311176,0.311176,0.0000,0.0000,0.0000,-0.002580,-0.322136,0.329806,1.0405,0.9024,-0.1013,0.001534,0.584447,-0.555301,0.556835,-0.595185,0.558369,-0.555301
0.2010,0.020094,0.000000,-0.306967,0.306967,0.0000,0.0000,0.0000,-0.002569,-0.319068,0.320602,0.9907,0.8876,-0.1555,0.001534,0.584447,-0.555301,0.556835,-0.595185,0.558369,-0.556835
0.2211,0.020090,0.000000,-0.302759,0.302759,0.0000,0.0000,0.0000,-0.002546,-0.317534,0.316000,0.9965,0.8557,-0.1494,0.001534,0.585981,-0.555301,0.556835,-0.595185,0.558369,-0.558369
0.2412,0.020083,0.000000,-0.298553,0.298553,0.0000,0.0000,0.0000,-0.002536,-0.316000,0.311398,0.9468,0.8410,-0.2037,0.001534,0.585981,-0.555301,0.556835,-0.595185,0.558369,-0.559903
0.2613,0.020095,0.000000,-0.294345,0.294345,0.0000,0.0000,0.0000,-0.002526,-0.312932,0.309864,1.0017,0.8270,-0.1440,0.001534,0.587515,-0.555301,0.556835,-0.595185,0.558369,-0.559903
0.2814,0.020167,0.000000,-0.290121,0.290121,0.0000,0.0000,0.0000,-0.002527,-0.312932,0.308330,0.9959,0.8285,-0.1502,0.001534,0.587515,-0.555301,0.556835,-0.595185,0.558369,-0.559903
0.3015,0.020103,0.000000,-0.285911,0.285911,0.0000,0.0000,0.0000,-0.002527,-0.311398,0.308330,0.9959,0.8285,-0.1502,0.001534,0.587515,-0.555301,0.556835,-0.595185,0.558369,-0.559903
0.3217,0.020150,0.000000,-0.281690,0.281690,0.0000,0.0000,0.0000,-0.002538,-0.311398,0.308330,0.9469,0.8438,-0.2036,0.001534,0.585981,-0.555301,0.556835,-0.595185,0.558369,-0.559903
0.3418,0.020084,0.000000,-0.277484,0.277484,0.0000,0.0000,0.0000,-0.002526,-0.305262,0.308330,1.0017,0.8267,-0.1440,0.001534,0.587515,-0.555301,0.556835,-0.595185,0.558369,-0.559903
0.3619,0.020093,0.000000,-0.273276,0.273276,0.0000,0.0000,0.0000,-0.002513,-0.297592,0.305262,1.0353,0.7929,-0.2033,0.001534,0.587515,-0.556835,0.556835,-0.595185,0.558369,-0.559903
0.3820,0.020098,0.000000,-0.269066,0.269066,0.0000,0.0000,0.0000,-0.002515,-0.286854,0.299126,1.0318,0.7965,-0.1971,0.001534,0.587515,-0.556835,0.556835,-0.595185,0.558369,-0.559903
0.4021,0.020090,0.000000,-0.264859,0.264859,0.0000,0.0000,0.0000,-0.002501,-0.280718,0.291456,1.0714,0.7605,-0.2510,0.001534,0.587515,-0.558369,0.556835,-0.595185,0.558369,-0.559903
0.4222,0.020092,0.000000,-0.260651,0.260651,0.0000,0.0000,0.0000,-0.002489,-0.276117,0.282252,1.1065,0.7287,-0.2986,0.001534,0.587515,-0.559903,0.556835,-0.595185,0.558369,-0.559903
0.4422,0.020079,0.000000,-0.256445,0.256445,0.0000,0.0000,0.0000,-0.002491,-0.269981,0.276117,1.1028,0.7320,-0.2936,0.001534,0.587515,-0.559903,0.556835,-0.595185,0.558369,-0.559903
0.4623,0.020088,0.000000,-0.252238,0.252238,0.0000,0.0000,0.0000,-0.002491,-0.265379,0.271515,1.1028,0.7320,-0.2936,0.001534,0.587515,-0.559903,0.556835,-0.595185,0.558369,-0.559903
0.4824,0.020099,0.000000,-0.248029,0.248029,0.0000,0.0000,0.0000,-0.002491,-0.263845,0.265379,1.1028,0.7320,-0.2936,0.001534,0.587515,-0.559903,0.556835,-0.595185,0.558369,-0.559903
0.5025,0.020095,0.000000,-0.243820,0.243820,0.0000,0.0000,0.0000,-0.002491,-0.259243,0.259243,1.1028,0.7320,-0.2936,0.001534,0.587515,-0.559903,0.556835,-0.595185,0.558369,-0.559903
0.5226,0.020097,0.000000,-0.239611,0.239611,0.0000,0.0000,0.0000,-0.002491,-0.257709,0.254641,1.1028,0.7320,-0.2936,0.001534,0.587515,-0.559903,0.556835,-0.595185,0.558369,-0.559903
0.5427,0.020090,0.000000,-0.235403,0.235403,0.0000,0.0000,0.0000,-0.002491,-0.256175,0.253107,1.1028,0.7320,-0.2936,0.001534,0.587515,-0.559903,0.556835,-0.595185,0.558369,-0.559903
0.5628,0.020089,0.000000,-0.231196,0.231196,0.0000,0.0000,0.0000,-0.002491,-0.254641,0.253107,1.1028,0.7320,-0.2936,0.001534,0.587515,-0.559903,0.556835,-0.595185,0.558369,-0.559903
0.5829,0.020087,0.000000,-0.226989,0.226989,0.0000,0.0000,0.0000,-0.002491,-0.253107,0.251573,1.1028,0.7320,-0.2936,0.001534,0.587515,-0.559903,0.556835,-0.595185,0.558369,-0.559903
0.6030,0.020082,0.000000,-0.222783,0.222783,0.0000,0.0000,0.0000,-0.002491,-0.243903,0.250039,1.1028,0.7320,-0.2936,0.001534,0.587515,-0.559903,0.556835,-0.595185,0.558369,-0.559903
0.6231,0.020098,0.000000,-0.218574,0.218574,0.0000,0.0000,0.0000,-0.002491,-0.234699,0.245437,1.1028,0.7320,-0.2936,0.001534,0.587515,-0.559903,0.556835,-0.595185,0.558369,-0.559903
0.6431,0.020077,0.000000,-0.214369,0.214369,0.0000,0.0000,0.0000,-0.002491,-0.227029,0.237767,1.1028,0.7320,-0.2936,0.001534,0.587515,-0.559903,0.556835,-0.595185,0.558369,-0.559903
0.6632,0.020102,0.000000,-0.210159,0.210159,0.0000,0.0000,0.0000,-0.002491,-0.222427,0.230097,1.1028,0.7320,-0.2936,0.001534,0.587515,-0.559903,0.556835,-0.595185,0.558369,-0.559903
0.6833,0.020086,0.000000,-0.205952,0.205952,0.0000,0.0000,0.0000,-0.002491,-0.217825,0.225495,1.1028,0.7320,-0.2936,0.001534,0.587515,-0.559903,0.556835,-0.595185,0.558369,-0.559903
0.7034,0.020081,0.000000,-0.201746,0.201746,0.0000,0.0000,0.0000,-0.002491,-0.214757,0.222427,1.1028,0.7320,-0.2936,0.001534,0.587515,-0.559903,0.556835,-0.595185,0.558369,-0.559903
0.7235,0.020082,0.000000,-0.197540,0.197540,0.0000,0.0000,0.0000,-0.002491,-0.211689,0.220893,1.1028,0.7320,-0.2936,0.001534,0.587515,-0.559903,0.556835,-0.595185,0.558369,-0.559903
0.7436,0.020083,0.000000,-0.193334,0.193334,0.0000,0.0000,0.0000,-0.002491,-0.208621,0.216291,1.1028,0.7320,-0.2936,0.001534,0.587515,-0.559903,0.556835,-0.595185,0.558369,-0.559903
0.7637,0.020093,0.000000,-0.189125,0.189125,0.0000,0.0000,0.0000,-0.002502,-0.204019,0.210155,1.0535,0.7472,-0.3482,0.001534,0.585981,-0.559903,0.556835,-0.595185,0.558369,-0.559903
0.7837,0.020087,0.000000,-0.184919,0.184919,0.0000,0.0000,0.0000,-0.002489,-0.200951,0.204019,1.1084,0.7301,-0.2885,0.001534,0.587515,-0.559903,0.556835,-0.595185,0.558369,-0.559903
0.8038,0.020081,0.000000,-0.180713,0.180713,0.0000,0.0000,0.0000,-0.002502,-0.199418,0.199418,1.0529,0.7474,-0.3487,0.001534,0.585981,-0.559903,0.556835,-0.595185,0.558369,-0.559903
0.8242,0.020388,0.000000,-0.176443,0.176443,0.0000,0.0000,0.0000,-0.002489,-0.193282,0.196350,1.1084,0.7300,-0.2884,0.001534,0.587515,-0.559903,0.556835,-0.595185,0.558369,-0.559903
0.8443,0.020078,0.000000,-0.172238,0.172238,0.0000,0.0000,0.0000,-0.002491,-0.187146,0.193282,1.1026,0.7319,-0.2947,0.001534,0.587515,-0.559903,0.556835,-0.595185,0.558369,-0.559903
0.8644,0.020083,0.000000,-0.168031,0.168031,0.0000,0.0000,0.0000,-0.002491,-0.181010,0.188680,1.1026,0.7319,-0.2947,0.001534,0.587515,-0.559903,0.556835,-0.595185,0.558369,-0.559903
0.8845,0.020083,0.000000,-0.163825,0.163825,0.0000,0.0000,0.0000,-0.002491,-0.179476,0.182544,1.1026,0.7319,-0.2947,0.001534,0.587515,-0.559903,0.556835,-0.595185,0.558369,-0.559903
0.9045,0.020082,0.000000,-0.159619,0.159619,0.0000,0.0000,0.0000,-0.002491,-0.177942,0.174874,1.1026,0.7319,-0.2947,0.001534,0.587515,-0.559903,0.556835,-0.595185,0.558369,-0.559903
0.9246,0.020086,0.000000,-0.155413,0.155413,0.0000,0.0000,0.0000,-0.002491,-0.176408,0.170272,1.1026,0.7319,-0.2947,0.001534,0.587515,-0.559903,0.556835,-0.595185,0.558369,-0.559903
0.9447,0.020076,0.000000,-0.151208,0.151208,0.0000,0.0000,0.0000,-0.002491,-0.171806,0.167204,1.1026,0.7319,-0.2947,0.001534,0.587515,-0.559903,0.556835,-0.595185,0.558369,-0.559903
0.9648,0.020084,0.000000,-0.147001,0.147001,0.0000,0.0000,0.0000,-0.002491,-0.165670,0.165670,1.1026,0.7319,-0.2947,0.001534,0.587515,-0.559903,0.556835,-0.595185,0.558369,-0.559903
0.9849,0.020082,0.000000,-0.142795,0.142795,0.0000,0.0000,0.0000,-0.002491,-0.158000,0.161068,1.1026,0.7319,-0.2947,0.001534,0.587515,-0.559903,0.556835,-0.595185,0.558369,-0.559903
1.0049,0.020075,0.000000,-0.138591,0.138591,0.0000,0.0000,0.0000,-0.002491,-0.151864,0.154932,1.1026,0.7319,-0.2947,0.001534,0.587515,-0.559903,0.556835,-0.595185,0.558369,-0.559903
1.0250,0.020085,0.000000,-0.134384,0.134384,0.0000,0.0000,0.0000,-0.002491,-0.150330,0.148796,1.1026,0.7319,-0.2947,0.001534,0.587515,-0.559903,0.556835,-0.595185,0.558369,-0.559903
1.0451,0.020075,0.000000,-0.130180,0.130180,0.0000,0.0000,0.0000,-0.002491,-0.148796,0.144194,1.1026,0.7319,-0.2947,0.001534,0.587515,-0.559903,0.556835,-0.595185,0.558369,-0.559903
1.0652,0.020079,0.000000,-0.125975,0.125975,0.0000,0.0000,0.0000,-0.002491,-0.145728,0.141126,1.1026,0.7319,-0.2947,0.001534,0.587515,-0.559903,0.556835,-0.595185,0.558369,-0.559903
1.0853,0.020077,0.000000,-0.121770,0.121770,0.0000,0.0000,0.0000,-0.002491,-0.145728,0.139592,1.1026,0.7319,-0.2947,0.001534,0.587515,-0.559903,0.556835,-0.595185,0.558369,-0.559903
1.1053,0.020082,0.000000,-0.117564,0.117564,0.0000,0.0000,0.0000,-0.002491,-0.138058,0.136524,1.1026,0.7319,-0.2947,0.001534,0.587515,-0.559903,0.556835,-0.595185,0.558369,-0.559903
1.1254,0.020093,0.000000,-0.113355,0.113355,0.0000,0.0000,0.0000,-0.002491,-0.130388,0.130388,1.1026,0.7319,-0.2947,0.001534,0.587515,-0.559903,0.556835,-0.595185,0.558369,-0.559903
1.1455,0.020081,0.000000,-0.109150,0.109150,0.0000,0.0000,0.0000,-0.002491,-0.122718,0.124252,1.1026,0.7319,-0.2947,0.001534,0.587515,-0.559903,0.556835,-0.595185,0.558369,-0.559903
1.1656,0.020090,0.000000,-0.104942,0.104942,0.0000,0.0000,0.0000,-0.002491,-0.119651,0.119651,1.1026,0.7319,-0.2947,0.001534,0.587515,-0.559903,0.556835,-0.595185,0.558369,-0.559903
1.1857,0.020078,0.000000,-0.100737,0.100737,0.0000,0.0000,0.0000,-0.002491,-0.119651,0.115049,1.1026,0.7319,-0.2947,0.001534,0.587515,-0.559903,0.556835,-0.595185,0.558369,-0.559903
1.2058,0.020076,0.000000,-0.096532,0.096532,0.0000,0.0000,0.0000,-0.002477,-0.116583,0.113515,1.1424,0.6961,-0.3474,0.001534,0.587515,-0.561437,0.556835,-0.595185,0.558369,-0.559903
1.2258,0.020079,0.000000,-0.092327,0.092327,0.0000,0.0000,0.0000,-0.002479,-0.110447,0.110447,1.1382,0.6998,-0.3419,0.001534,0.587515,-0.561437,0.556835,-0.595185,0.558369,-0.559903
1.2459,0.020080,0.000000,-0.088121,0.088121,0.0000,0.0000,0.0000,-0.002479,-0.102777,0.104311,1.1382,0.6998,-0.3419,0.001534,0.587515,-0.561437,0.556835,-0.595185,0.558369,-0.559903
1.2661,0.020185,0.000000,-0.083894,0.083894,0.0000,0.0000,0.0000,-0.002490,-0.096641,0.098175,1.0889,0.7150,-0.3965,0.001534,0.585981,-0.561437,0.556835,-0.595185,0.558369,-0.559903
1.2862,0.020078,0.000000,-0.079689,0.079689,0.0000,0.0000,0.0000,-0.002477,-0.093573,0.090505,1.1438,0.6979,-0.3368,0.001534,0.587515,-0.561437,0.556835,-0.595185,0.558369,-0.559903
1.3063,0.020078,0.000000,-0.075483,0.075483,0.0000,0.0000,0.0000,-0.002479,-0.093573,0.088971,1.1381,0.6997,-0.3430,0.001534,0.587515,-0.561437,0.556835,-0.595185,0.558369,-0.559903
1.3263,0.020077,0.000000,-0.071278,0.071278,0.0000,0.0000,0.0000,-0.002479,-0.092039,0.088971,1.1381,0.6997,-0.3430,0.001534,0.587515,-0.561437,0.556835,-0.595185,0.558369,-0.559903
1.3464,0.020078,0.000000,-0.067073,0.067073,0.0000,0.0000,0.0000,-0.002479,-0.085903,0.085903,1.1381,0.6997,-0.3430,0.001534,0.587515,-0.561437,0.556835,-0.595185,0.558369,-0.559903
1.3667,0.020274,0.000000,-0.062827,0.062827,0.0000,0.0000,0.0000,-0.002479,-0.076699,0.081301,1.1381,0.6997,-0.3430,0.001534,0.587515,-0.561437,0.556835,-0.595185,0.558369,-0.559903
1.3868,0.020075,0.000000,-0.058623,0.058623,0.0000,0.0000,0.0000,-0.002479,-0.069029,0.075165,1.1381,0.6997,-0.3430,0.001534,0.587515,-0.561437,0.556835,-0.595185,0.558369,-0.559903
1.4068,0.020049,0.000000,-0.054424,0.054424,0.0000,0.0000,0.0000,-0.002479,-0.067495,0.065961,1.1381,0.6997,-0.3430,0.001534,0.587515,-0.561437,0.556835,-0.595185,0.558369,-0.559903
1.4269,0.020079,0.000000,-0.050218,0.050218,0.0000,0.0000,0.0000,-0.002479,-0.069029,0.061359,1.1381,0.6997,-0.3430,0.001534,0.587515,-0.561437,0.556835,-0.595185,0.558369,-0.559903
1.4470,0.020081,0.000000,-0.046013,0.046013,0.0000,0.0000,0.0000,-0.002479,-0.067495,0.059825,1.1381,0.6997,-0.3430,0.001534,0.587515,-0.561437,0.556835,-0.595185,0.558369,-0.559903
1.4671,0.020092,0.000000,-0.041805,0.041805,0.0000,0.0000,0.0000,-0.002479,-0.064427,0.058291,1.1381,0.6997,-0.3430,0.001534,0.587515,-0.561437,0.556835,-0.595185,0.558369,-0.559903
1.4872,0.020096,0.000000,-0.037596,0.037596,0.0000,0.0000,0.0000,-0.002479,-0.055223,0.053689,1.1381,0.6997,-0.3430,0.001534,0.587515,-0.561437,0.556835,-0.595185,0.558369,-0.559903
1.5072,0.020083,0.000000,-0.033389,0.033389,0.0000,0.0000,0.0000,-0.002479,-0.042951,0.047553,1.1381,0.6997,-0.3430,0.001534,0.587515,-0.561437,0.556835,-0.595185,0.558369,-0.559903
1.5276,0.020383,0.000000,-0.029121,0.029121,0.0000,0.0000,0.0000,-0.002490,-0.039884,0.041417,1.0889,0.7150,-0.3963,0.001534,0.585981,-0.561437,0.556835,-0.595185,0.558369,-0.559903
1.5477,0.020085,0.000000,-0.024914,0.024914,0.0000,0.0000,0.0000,-0.002477,-0.041417,0.038350,1.1438,0.6979,-0.3368,0.001534,0.587515,-0.561437,0.556835,-0.595185,0.558369,-0.559903
1.5680,0.020262,0.000000,-0.020670,0.020670,0.0000,0.0000,0.0000,-0.002479,-0.041417,0.035282,1.1381,0.6997,-0.3430,0.001534,0.587515,-0.561437,0.556835,-0.595185,0.558369,-0.559903
1.5881,0.020086,0.000000,-0.016464,0.016464,0.0000,0.0000,0.0000,-0.002479,-0.038350,0.033748,1.1381,0.6997,-0.3430,0.001534,0.587515,-0.561437,0.556835,-0.595185,0.558369,-0.559903
1.6081,0.020077,0.000000,-0.012259,0.012259,0.0000,0.0000,0.0000,-0.002479,-0.030680,0.030680,1.1381,0.6997,-0.3430,0.001534,0.587515,-0.561437,0.556835,-0.595185,0.558369,-0.559903
1.6282,0.020079,0.000000,-0.008053,0.008053,0.0000,0.0000,0.0000,-0.002479,-0.016874,0.026078,1.1381,0.6997,-0.3430,0.001534,0.587515,-0.561437,0.556835,-0.595185,0.558369,-0.559903
1.6483,0.020084,0.000000,-0.003847,0.003847,0.0000,0.0000,0.0000,-0.002479,-0.015340,0.018408,1.1381,0.6997,-0.3430,0.001534,0.587515,-0.561437,0.556835,-0.595185,0.558369,-0.559903
1.6686,0.020319,0.000000,-0.000408,0.000408,0.0000,0.0000,0.0000,-0.002479,-0.016874,0.012272,1.1381,0.6997,-0.3430,0.001534,0.587515,-0.561437,0.556835,-0.595185,0.558369,-0.559903
1.6887,0.020100,0.000000,-0.004618,0.004618,0.0000,0.0000,0.0000,-0.002479,-0.013806,0.006136,1.1381,0.6997,-0.4309,0.000000,0.587515,-0.561437,0.556835,-0.595185,0.558369,-0.559903
1.7088,0.020077,0.000000,-0.008823,0.008823,0.0000,0.0000,0.0000,-0.002479,-0.009204,0.004602,1.1381,0.6997,-0.3430,0.001534,0.587515,-0.561437,0.556835,-0.595185,0.558369,-0.559903
1.7289,0.020086,0.000000,-0.013030,0.013030,0.0000,0.0000,0.0000,-0.002479,-0.001534,0.004602,1.1381,0.6997,-0.3430,0.001534,0.587515,-0.561437,0.556835,-0.595185,0.558369,-0.559903
1.7490,0.020078,0.000000,-0.017235,0.017235,0.0000,0.0000,0.0000,-0.002479,0.003068,0.003068,1.1381,0.6997,-0.3430,0.001534,0.587515,-0.561437,0.556835,-0.595185,0.558369,-0.559903
1.7695,0.020576,0.000000,-0.021544,0.021544,0.0000,0.0000,0.0000,-0.002479,-0.001534,0.006136,1.1381,0.6997,-0.3430,0.001534,0.587515,-0.561437,0.556835,-0.595185,0.558369,-0.559903
1.7896,0.020078,0.000000,-0.025749,0.025749,0.0000,0.0000,0.0000,-0.002479,-0.010738,0.013806,1.1381,0.6997,-0.3430,0.001534,0.587515,-0.561437,0.556835,-0.595185,0.558369,-0.559903
1.8097,0.020075,0.000000,-0.029954,0.029954,0.0000,0.0000,0.0000,-0.002490,-0.019942,0.016874,1.0889,0.7150,-0.3963,0.001534,0.585981,-0.561437,0.556835,-0.595185,0.558369,-0.559903
1.8298,0.020092,0.000000,-0.034162,0.034162,0.0000,0.0000,0.0000,-0.002477,-0.026078,0.016874,1.1438,0.6979,-0.3368,0.001534,0.587515,-0.561437,0.556835,-0.595185,0.558369,-0.559903
1.8499,0.020079,0.000000,-0.038367,0.038367,0.0000,0.0000,0.0000,-0.002479,-0.026078,0.023010,1.1381,0.6997,-0.3430,0.001534,0.587515,-0.561437,0.556835,-0.595185,0.558369,-0.559903
1.8699,0.020074,0.000000,-0.042572,0.042572,0.0000,0.0000,0.0000,-0.002479,-0.024544,0.027612,1.1381,0.6997,-0.3430,0.001534,0.587515,-0.561437,0.556835,-0.595185,0.558369,-0.559903
1.8900,0.020078,0.000000,-0.046777,0.046777,0.0000,0.0000,0.0000,-0.002479,-0.029146,0.035282,1.1381,0.6997,-0.3430,0.001534,0.587515,-0.561437,0.556835,-0.595185,0.558369,-0.559903
1.9101,0.020078,0.000000,-0.050982,0.050982,0.0000,0.0000,0.0000,-0.002479,-0.038350,0.038350,1.1381,0.6997,-0.3430,0.001534,0.587515,-0.561437,0.556835,-0.595185,0.558369,-0.559903
1.9305,0.020400,0.000000,-0.055254,0.055254,0.0000,0.0000,0.0000,-0.002479,-0.047553,0.038350,1.1381,0.6997,-0.3430,0.001534,0.587515,-0.561437,0.556835,-0.595185,0.558369,-0.559903
1.9506,0.020080,0.000000,-0.059460,0.059460,0.0000,0.0000,0.0000,-0.002479,-0.047553,0.044485,1.1381,0.6997,-0.3430,0.001534,0.587515,-0.561437,0.556835,-0.595185,0.558369,-0.559903
1.9706,0.020074,0.000000,-0.063664,0.063664,0.0000,0.0000,0.0000,-0.002479,-0.046019,0.049087,1.1381,0.6997,-0.3430,0.001534,0.587515,-0.561437,0.556835,-0.595185,0.558369,-0.559903
1.9907,0.020085,0.000000,-0.067871,0.067871,0.0000,0.0000,0.0000,-0.002479,-0.052155,0.052155,1.1381,0.6997,-0.3430,0.001534,0.587515,-0.561437,0.556835,-0.595185,0.558369,-0.559903
2.0108,0.020076,0.000000,-0.072076,0.072076,0.0000,0.0000,0.0000,-0.002490,-0.062893,0.056757,1.0889,0.7150,-0.3963,0.001534,0.585981,-0.561437,0.556835,-0.595185,0.558369,-0.559903
2.0316,0.020784,0.000000,-0.076429,0.076429,0.0000,0.0000,0.0000,-0.002477,-0.064427,0.064427,1.1438,0.6979,-0.3368,0.001534,0.587515,-0.561437,0.556835,-0.595185,0.558369,-0.559903
2.0517,0.020084,0.000000,-0.080635,0.080635,0.0000,0.0000,0.0000,-0.002479,-0.062893,0.065961,1.1381,0.6997,-0.3430,0.001534,0.587515,-0.561437,0.556835,-0.595185,0.558369,-0.559903
2.0717,0.020078,0.000000,-0.084840,0.084840,0.0000,0.0000,0.0000,-0.002479,-0.067495,0.065961,1.1381,0.6997,-0.3430,0.001534,0.587515,-0.561437,0.556835,-0.595185,0.558369,-0.559903
2.0918,0.020085,0.000000,-0.089047,0.089047,0.0000,0.0000,0.0000,-0.002479,-0.078233,0.070563,1.1381,0.6997,-0.3430,0.001534,0.587515,-0.561437,0.556835,-0.595185,0.558369,-0.559903
2.1119,0.020076,0.000000,-0.093251,0.093251,0.0000,0.0000,0.0000,-0.002479,-0.082835,0.079767,1.1381,0.6997,-0.3430,0.001534,0.587515,-0.561437,0.556835,-0.595185,0.558369,-0.559903
2.1320,0.020080,0.000000,-0.097457,0.097457,0.0000,0.0000,0.0000,-0.002479,-0.078233,0.081301,1.1381,0.6997,-0.3430,0.001534,0.587515,-0.561437,0.556835,-0.595185,0.558369,-0.559903
2.1521,0.020078,0.000000,-0.101662,0.101662,0.0000,0.0000,0.0000,-0.002479,-0.081301,0.084369,1.1381,0.6997,-0.3430,0.001534,0.587515,-0.561437,0.556835,-0.595185,0.558369,-0.559903
2.1721,0.020078,0.000000,-0.105867,0.105867,0.0000,0.0000,0.0000,-0.002479,-0.090505,0.095107,1.1381,0.6997,-0.3430,0.001534,0.587515,-0.561437,0.556835,-0.595185,0.558369,-0.559903
2.1922,0.020046,0.000000,-0.110066,0.110066,0.0000,0.0000,0.0000,-0.002479,-0.101243,0.095107,1.1381,0.6997,-0.3430,0.001534,0.587515,-0.561437,0.556835,-0.595185,0.558369,-0.559903
2.2123,0.020079,0.000000,-0.114271,0.114271,0.0000,0.0000,0.0000,-0.002479,-0.102777,0.093573,1.1381,0.6997,-0.3430,0.001534,0.587515,-0.561437,0.556835,-0.595185,0.558369,-0.559903
2.2325,0.020246,0.000000,-0.118511,0.118511,0.0000,0.0000,0.0000,-0.002479,-0.102777,0.101243,1.1381,0.6997,-0.3430,0.001534,0.587515,-0.561437,0.556835,-0.595185,0.558369,-0.559903
2.2526,0.020079,0.000000,-0.122717,0.122717,0.0000,0.0000,0.0000,-0.002479,-0.108913,0.108913,1.1381,0.6997,-0.3430,0.001534,0.587515,-0.561437,0.556835,-0.595185,0.558369,-0.559903
2.2727,0.020064,0.000000,-0.126919,0.126919,0.0000,0.0000,0.0000,-0.002479,-0.116583,0.111981,1.1381,0.6997,-0.3430,0.001534,0.587515,-0.561437,0.556835,-0.595185,0.558369,-0.559903
2.2929,0.020270,0.000000,-0.131164,0.131164,0.0000,0.0000,0.0000,-0.002479,-0.118117,0.115049,1.1381,0.6997,-0.3430,0.001534,0.587515,-0.561437,0.556835,-0.595185,0.558369,-0.559903
2.3130,0.020078,0.000000,-0.135369,0.135369,0.0000,0.0000,0.0000,-0.002479,-0.128854,0.122718,1.1381,0.6997,-0.3430,0.001534,0.587515,-0.561437,0.556835,-0.595185,0.558369,-0.559903
2.3331,0.020043,0.000000,-0.139567,0.139567,0.0000,0.0000,0.0000,-0.002479,-0.128854,0.122718,1.1381,0.6997,-0.3430,0.001534,0.587515,-0.561437,0.556835,-0.595185,0.558369,-0.559903
2.3531,0.020078,0.000000,-0.143772,0.143772,0.0000,0.0000,0.0000,-0.002490,-0.133456,0.133456,1.0889,0.7150,-0.3963,0.001534,0.585981,-0.561437,0.556835,-0.595185,0.558369,-0.559903
2.3732,0.020083,0.000000,-0.147978,0.147978,0.0000,0.0000,0.0000,-0.002464,-0.142660,0.136524,1.1829,0.6623,-0.3902,0.001534,0.587515,-0.562971,0.556835,-0.595185,0.558369,-0.559903
2.3933,0.020125,0.000000,-0.152193,0.152193,0.0000,0.0000,0.0000,-0.002464,-0.144194,0.139592,1.1829,0.6623,-0.3902,0.001534,0.587515,-0.561437,0.556835,-0.595185,0.558369,-0.559903
2.4135,0.020116,0.000000,-0.156406,0.156406,0.0000,0.0000,0.0000,-0.002478,-0.144194,0.145728,1.1391,0.6991,-0.3429,0.001534,0.587515,-0.561437,0.556835,-0.595185,0.558369,-0.559903
2.4336,0.020106,0.000000,-0.160617,0.160617,0.0000,0.0000,0.0000,-0.002490,-0.151864,0.150330,1.0888,0.7151,-0.3963,0.001534,0.585981,-0.561437,0.556835,-0.595185,0.558369,-0.559903
2.4536,0.020078,0.000000,-0.164822,0.164822,0.0000,0.0000,0.0000,-0.002477,-0.161068,0.151864,1.1438,0.6979,-0.3368,0.001534,0.587515,-0.561437,0.556835,-0.595185,0.558369,-0.559903
2.4738,0.020168,0.000000,-0.169046,0.169046,0.0000,0.0000,0.0000,-0.002479,-0.159534,0.154932,1.1381,0.6997,-0.3430,0.001534,0.587515,-0.561437,0.556835,-0.595185,0.558369,-0.559903
2.4941,0.020257,0.000000,-0.173289,0.173289,0.0000,0.0000,0.0000,-0.002479,-0.159534,0.159534,1.1381,0.6997,-0.3430,0.001534,0.587515,-0.561437,0.556835,-0.595185,0.558369,-0.559903
2.5141,0.020084,0.000000,-0.177495,0.177495,0.0000,0.0000,0.0000,-0.002479,-0.168738,0.167204,1.1381,0.6997,-0.3430,0.001534,0.587515,-0.561437,0.556835,-0.595185,0.558369,-0.559903
2.5342,0.020092,0.000000,-0.181703,0.181703,0.0000,0.0000,0.0000,-0.002479,-0.176408,0.173340,1.1381,0.6997,-0.3430,0.001534,0.587515,-0.561437,0.556835,-0.595185,0.558369,-0.559903
2.5543,0.020083,0.000000,-0.185909,0.185909,0.0000,0.0000,0.0000,-0.002479,-0.177942,0.173340,1.1381,0.6997,-0.3430,0.001534,0.587515,-0.561437,0.556835,-0.595185,0.558369,-0.559903
2.5744,0.020074,0.000000,-0.190114,0.190114,0.0000,0.0000,0.0000,-0.002479,-0.179476,0.176408,1.1381,0.6997,-0.3430,0.001534,0.587515,-0.561437,0.556835,-0.595185,0.558369,-0.559903
2.5946,0.020178,0.000000,-0.194340,0.194340,0.0000,0.0000,0.0000,-0.002479,-0.188680,0.184078,1.1381,0.6997,-0.3430,0.001534,0.587515,-0.561437,0.556835,-0.595185,0.558369,-0.559903
2.6146,0.020079,0.000000,-0.198545,0.198545,0.0000,0.0000,0.0000,-0.002479,-0.191748,0.187146,1.1381,0.6997,-0.3430,0.001534,0.587515,-0.561437,0.556835,-0.595185,0.558369,-0.559903
2.6348,0.020113,0.000000,-0.202758,0.202758,0.0000,0.0000,0.0000,-0.002479,-0.190214,0.187146,1.1381,0.6997,-0.3430,0.001534,0.587515,-0.561437,0.556835,-0.595185,0.558369,-0.559903
2.6549,0.020090,0.000000,-0.206965,0.206965,0.0000,0.0000,0.0000,-0.002479,-0.196350,0.191748,1.1381,0.6997,-0.3430,0.001534,0.587515,-0.561437,0.556835,-0.595185,0.558369,-0.559903
2.6749,0.020082,0.000000,-0.211171,0.211171,0.0000,0.0000,0.0000,-0.002479,-0.204019,0.199418,1.1381,0.6997,-0.3430,0.001534,0.587515,-0.561437,0.556835,-0.595185,0.558369,-0.559903
2.6950,0.020092,0.000000,-0.215379,0.215379,0.0000,0.0000,0.0000,-0.002479,-0.207087,0.207087,1.1381,0.6997,-0.3430,0.001534,0.587515,-0.561437,0.556835,-0.595185,0.558369,-0.559903
2.7153,0.020262,0.000000,-0.219623,0.219623,0.0000,0.0000,0.0000,-0.002479,-0.207087,0.207087,1.1381,0.6997,-0.3430,0.001534,0.587515,-0.561437,0.556835,-0.595185,0.558369,-0.559903
2.7354,0.020100,0.000000,-0.223832,0.223832,0.0000,0.0000,0.0000,-0.002479,-0.211689,0.207087,1.1381,0.6997,-0.3430,0.001534,0.587515,-0.561437,0.556835,-0.595185,0.558369,-0.559903
2.7567,0.021306,0.000000,-0.228295,0.228295,0.0000,0.0000,0.0000,-0.002479,-0.220893,0.216291,1.1381,0.6997,-0.3430,0.001534,0.587515,-0.561437,0.556835,-0.595185,0.558369,-0.559903
2.7768,0.020080,0.000000,-0.232500,0.232500,0.0000,0.0000,0.0000,-0.002479,-0.222427,0.222427,1.1381,0.6997,-0.3430,0.001534,0.587515,-0.561437,0.556835,-0.595185,0.558369,-0.559903
2.7969,0.020083,0.000000,-0.236707,0.236707,0.0000,0.0000,0.0000,-0.002479,-0.220893,0.223961,1.1381,0.6997,-0.3430,0.001534,0.587515,-0.561437,0.556835,-0.595185,0.558369,-0.559903
2.8169,0.020077,0.000000,-0.240912,0.240912,0.0000,0.0000,0.0000,-0.002490,-0.230097,0.228563,1.0889,0.7150,-0.3963,0.001534,0.585981,-0.561437,0.556835,-0.595185,0.558369,-0.559903
2.8370,0.020079,0.000000,-0.245117,0.245117,0.0000,0.0000,0.0000,-0.002477,-0.237767,0.234699,1.1438,0.6979,-0.3368,0.001534,0.587515,-0.561437,0.556835,-0.595185,0.558369,-0.559903
2.8572,0.020161,0.000000,-0.249339,0.249339,0.0000,0.0000,0.0000,-0.002479,-0.237767,0.236233,1.1381,0.6997,-0.3430,0.001534,0.587515,-0.561437,0.556835,-0.595185,0.558369,-0.559903
2.8773,0.020082,0.000000,-0.253545,0.253545,0.0000,0.0000,0.0000,-0.002479,-0.242369,0.240835,1.1381,0.6997,-0.3430,0.001534,0.587515,-0.561437,0.556835,-0.595185,0.558369,-0.559903
2.8974,0.020106,0.000000,-0.257756,0.257756,0.0000,0.0000,0.0000,-0.002479,-0.250039,0.243903,1.1381,0.6997,-0.3430,0.001534,0.587515,-0.561437,0.556835,-0.595185,0.558369,-0.559903
2.9175,0.020137,0.000000,-0.261974,0.261974,0.0000,0.0000,0.0000,-0.002479,-0.250039,0.243903,1.1381,0.6997,-0.3430,0.001534,0.587515,-0.561437,0.556835,-0.595185,0.558369,-0.559903
2.9376,0.020108,0.000000,-0.266185,0.266185,0.0000,0.0000,0.0000,-0.002479,-0.251573,0.257709,1.1381,0.6997,-0.3430,0.001534,0.587515,-0.561437,0.556835,-0.595185,0.558369,-0.559903
2.9584,0.020823,0.000000,-0.270546,0.270546,0.0000,0.0000,0.0000,-0.002479,-0.262311,0.259243,1.1381,0.6997,-0.3430,0.001534,0.587515,-0.561437,0.556835,-0.595185,0.558369,-0.559903
2.9785,0.020096,0.000000,-0.274755,0.274755,0.0000,0.0000,0.0000,-0.002479,-0.265379,0.256175,1.1381,0.6997,-0.3430,0.001534,0.587515,-0.561437,0.556835,-0.595185,0.558369,-0.559903
2.9986,0.020121,0.000000,-0.278969,0.278969,0.0000,0.0000,0.0000,-0.002479,-0.265379,0.265379,1.1381,0.6997,-0.3430,0.001534,0.587515,-0.561437,0.556835,-0.595185,0.558369,-0.559903
3.0187,0.020093,0.000000,-0.283178,0.283178,0.0000,0.0000,0.0000,-0.002479,-0.269981,0.273049,1.1381,0.6997,-0.3430,0.001534,0.587515,-0.561437,0.556835,-0.595185,0.558369,-0.559903
3.0388,0.020088,0.000000,-0.287385,0.287385,0.0000,0.0000,0.0000,-0.002479,-0.277651,0.276117,1.1381,0.6997,-0.3430,0.001534,0.587515,-0.561437,0.556835,-0.595185,0.558369,-0.559903
3.0589,0.020115,0.000000,-0.291598,0.291598,0.0000,0.0000,0.0000,-0.002479,-0.277651,0.277651,1.1381,0.6997,-0.3430,0.001534,0.587515,-0.561437,0.556835,-0.595185,0.558369,-0.559903
3.0790,0.020092,0.000000,-0.295806,0.295806,0.0000,0.0000,0.0000,-0.002479,-0.280718,0.283786,1.1381,0.6997,-0.3430,0.001534,0.587515,-0.561437,0.556835,-0.595185,0.558369,-0.559903
3.0992,0.020146,0.000000,-0.300025,0.300025,0.0000,0.0000,0.0000,-0.002479,-0.292990,0.288388,1.1381,0.6997,-0.3430,0.001534,0.587515,-0.561437,0.556835,-0.595185,0.558369,-0.559903
3.1193,0.020090,0.000000,-0.304233,0.304233,0.0000,0.0000,0.0000,-0.002479,-0.299126,0.291456,1.1381,0.6997,-0.3430,0.001534,0.587515,-0.561437,0.556835,-0.595185,0.558369,-0.559903
3.1394,0.020087,0.000000,-0.308440,0.308440,0.0000,0.0000,0.0000,-0.002479,-0.297592,0.292990,1.1381,0.6997,-0.3430,0.001534,0.587515,-0.561437,0.556835,-0.595185,0.558369,-0.559903
3.1595,0.020104,0.000000,-0.312650,0.312650,0.0000,0.0000,0.0000,-0.002479,-0.302194,0.299126,1.1381,0.6997,-0.3430,0.001534,0.587515,-0.561437,0.556835,-0.595185,0.558369,-0.559903
3.1795,0.020086,0.000000,-0.316857,0.316857,0.0000,0.0000,0.0000,-0.002479,-0.309864,0.306796,1.1381,0.6997,-0.3430,0.001534,0.587515,-0.561437,0.556835,-0.595185,0.558369,-0.559903
3.1997,0.020107,0.000000,-0.321068,0.321068,0.0000,0.0000,0.0000,-0.002479,-0.312932,0.309864,1.1381,0.6997,-0.3430,0.001534,0.587515,-0.561437,0.556835,-0.595185,0.558369,-0.559903
3.2197,0.020094,0.000000,-0.325277,0.325277,0.0000,0.0000,0.0000,-0.002479,-0.312932,0.309864,1.1381,0.6997,-0.3430,0.001534,0.587515,-0.561437,0.556835,-0.595185,0.558369,-0.559903
3.2398,0.020088,0.000000,-0.329484,0.329484,0.0000,0.0000,0.0000,-0.002479,-0.317534,0.314466,1.1381,0.6997,-0.3430,0.001534,0.587515,-0.561437,0.556835,-0.595185,0.558369,-0.559903
3.2600,0.020116,0.000000,-0.333697,0.333697,0.0000,0.0000,0.0000,-0.002479,-0.326738,0.322136,1.1381,0.6997,-0.3430,0.001534,0.587515,-0.561437,0.556835,-0.595185,0.558369,-0.559903
3.2801,0.020098,0.000000,-0.337906,0.337906,0.0000,0.0000,0.0000,-0.002479,-0.328272,0.326738,1.1381,0.6997,-0.3430,0.001534,0.587515,-0.561437,0.556835,-0.595185,0.558369,-0.559903
3.3005,0.020415,0.000000,-0.342182,0.342182,0.0000,0.0000,0.0000,-0.002479,-0.328272,0.326738,1.1381,0.6997,-0.3430,0.001534,0.587515,-0.561437,0.556835,-0.595185,0.558369,-0.559903
3.3206,0.020092,0.000000,-0.346390,0.346390,0.0000,0.0000,0.0000,-0.002479,-0.335942,0.332874,1.1381,0.6997,-0.3430,0.001534,0.587515,-0.561437,0.556835,-0.595185,0.558369,-0.559903
3.3406,0.020089,0.000000,-0.347534,0.347534,0.0000,0.0000,0.0000,-0.002479,-0.343612,0.340544,1.1381,0.6997,-0.3430,0.001534,0.587515,-0.561437,0.556835,-0.595185,0.558369,-0.559903
3.3607,0.020097,0.000000,-0.343325,0.343325,0.0000,0.0000,0.0000,-0.002479,-0.343612,0.340544,1.1381,0.6997,-0.3430,0.001534,0.587515,-0.561437,0.556835,-0.595185,0.558369,-0.559903
3.3808,0.020088,0.000000,-0.339118,0.339118,0.0000,0.0000,0.0000,-0.002479,-0.343612,0.340544,1.1381,0.6997,-0.3430,0.001534,0.587515,-0.561437,0.556835,-0.595185,0.558369,-0.559903
3.4009,0.020114,0.000000,-0.334905,0.334905,0.0000,0.0000,0.0000,-0.002479,-0.354350,0.348214,1.1381,0.6997,-0.3430,0.001534,0.587515,-0.561437,0.556835,-0.595185,0.558369,-0.559903
3.4210,0.020089,0.000000,-0.330698,0.330698,0.0000,0.0000,0.0000,-0.002479,-0.354350,0.348214,1.1381,0.6997,-0.3430,0.001534,0.587515,-0.561437,0.556835,-0.595185,0.558369,-0.559903
3.4411,0.020087,0.000000,-0.326491,0.326491,0.0000,0.0000,0.0000,-0.002479,-0.345146,0.339010,1.1381,0.6997,-0.3430,0.001534,0.587515,-0.561437,0.556835,-0.595185,0.558369,-0.559903
3.4612,0.020108,0.000000,-0.322279,0.322279,0.0000,0.0000,0.0000,-0.002479,-0.343612,0.337476,1.1381,0.6997,-0.3430,0.001534,0.587515,-0.561437,0.556835,-0.595185,0.558369,-0.559903
3.4813,0.020085,0.000000,-0.318073,0.318073,0.0000,0.0000,0.0000,-0.002479,-0.339010,0.334408,1.1381,0.6997,-0.3430,0.001534,0.587515,-0.561437,0.556835,-0.595185,0.558369,-0.559903
3.5014,0.020087,0.000000,-0.313866,0.313866,0.0000,0.0000,0.0000,-0.002479,-0.335942,0.334408,1.1381,0.6997,-0.3430,0.001534,0.587515,-0.561437,0.556835,-0.595185,0.558369,-0.559903
3.5233,0.021909,0.000000,-0.309277,0.309277,0.0000,0.0000,0.0000,-0.002479,-0.328272,0.334408,1.1381,0.6997,-0.3430,0.001534,0.587515,-0.561437,0.556835,-0.595185,0.558369,-0.559903
3.5434,0.020078,0.000000,-0.305072,0.305072,0.0000,0.0000,0.0000,-0.002479,-0.322136,0.332874,1.1381,0.6997,-0.3430,0.001534,0.587515,-0.561437,0.556835,-0.595185,0.558369,-0.559903
3.5635,0.020099,0.000000,-0.300863,0.300863,0.0000,0.0000,0.0000,-0.002479,-0.316000,0.329806,1.1381,0.6997,-0.3430,0.001534,0.587515,-0.561437,0.556835,-0.595185,0.558369,-0.559903
3.5836,0.020133,0.000000,-0.296646,0.296646,0.0000,0.0000,0.0000,-0.002479,-0.312932,0.320602,1.1381,0.6997,-0.3430,0.001534,0.587515,-0.561437,0.556835,-0.595185,0.558369,-0.559903
3.6037,0.020075,0.000000,-0.292442,0.292442,0.0000,0.0000,0.0000,-0.002479,-0.312932,0.314466,1.1381,0.6997,-0.3430,0.001534,0.587515,-0.561437,0.556835,-0.595185,0.558369,-0.559903
3.6238,0.020089,0.000000,-0.288234,0.288234,0.0000,0.0000,0.0000,-0.002479,-0.312932,0.308330,1.1381,0.6997,-0.3430,0.001534,0.587515,-0.561437,0.556835,-0.595185,0.558369,-0.559903
3.6439,0.020118,0.000000,-0.284021,0.284021,0.0000,0.0000,0.0000,-0.002479,-0.312932,0.305262,1.1381,0.6997,-0.3430,0.001534,0.587515,-0.561437,0.556835,-0.595185,0.558369,-0.559903
3.6640,0.020092,0.000000,-0.279812,0.279812,0.0000,0.0000,0.0000,-0.002479,-0.311398,0.302194,1.1381,0.6997,-0.3430,0.001534,0.587515,-0.561437,0.556835,-0.595185,0.558369,-0.559903
3.6843,0.020286,0.000000,-0.275564,0.275564,0.0000,0.0000,0.0000,-0.002479,-0.309864,0.299126,1.1381,0.6997,-0.3430,0.001534,0.587515,-0.561437,0.556835,-0.595185,0.558369,-0.559903
3.7044,0.020085,0.000000,-0.271357,0.271357,0.0000,0.0000,0.0000,-0.002479,-0.300660,0.294524,1.1381,0.6997,-0.3430,0.001534,0.587515,-0.561437,0.556835,-0.595185,0.558369,-0.559903
3.7245,0.020094,0.000000,-0.267149,0.267149,0.0000,0.0000,0.0000,-0.002479,-0.288388,0.288388,1.1381,0.6997,-0.3430,0.001534,0.587515,-0.561437,0.556835,-0.595185,0.558369,-0.559903
3.7445,0.020087,0.000000,-0.262942,0.262942,0.0000,0.0000,0.0000,-0.002479,-0.280718,0.283786,1.1381,0.6997,-0.3430,0.001534,0.587515,-0.561437,0.556835,-0.595185,0.558369,-0.559903
3.7647,0.020107,0.000000,-0.258730,0.258730,0.0000,0.0000,0.0000,-0.002479,-0.274583,0.279185,1.1381,0.6997,-0.3430,0.001534,0.587515,-0.561437,0.556835,-0.595185,0.558369,-0.559903
3.7849,0.020279,0.000000,-0.254483,0.254483,0.0000,0.0000,0.0000,-0.002479,-0.268447,0.277651,1.1381,0.6997,-0.3430,0.001534,0.587515,-0.561437,0.556835,-0.595185,0.558369,-0.559903
3.8051,0.020124,0.000000,-0.250268,0.250268,0.0000,0.0000,0.0000,-0.002479,-0.265379,0.276117,1.1381,0.6997,-0.3430,0.001534,0.587515,-0.561437,0.556835,-0.595185,0.558369,-0.559903
3.8252,0.020098,0.000000,-0.246059,0.246059,0.0000,0.0000,0.0000,-0.002479,-0.262311,0.273049,1.1381,0.6997,-0.3430,0.001534,0.587515,-0.561437,0.556835,-0.595185,0.558369,-0.559903
3.8452,0.020085,0.000000,-0.241853,0.241853,0.0000,0.0000,0.0000,-0.002492,-0.259243,0.265379,1.1496,0.6473,-0.3959,0.001534,0.587515,-0.561437,0.555301,-0.595185,0.558369,-0.559903
3.8653,0.020099,0.000000,-0.237643,0.237643,0.0000,0.0000,0.0000,-0.002477,-0.257709,0.257709,1.1375,0.7050,-0.3368,0.001534,0.587515,-0.561437,0.556835,-0.595185,0.558369,-0.559903
3.8855,0.020176,0.000000,-0.233417,0.233417,0.0000,0.0000,0.0000,-0.002479,-0.256175,0.251573,1.1388,0.6989,-0.3430,0.001534,0.587515,-0.561437,0.556835,-0.595185,0.558369,-0.559903
3.9060,0.020454,0.000000,-0.229134,0.229134,0.0000,0.0000,0.0000,-0.002479,-0.254641,0.250039,1.1388,0.6989,-0.3430,0.001534,0.587515,-0.561437,0.556835,-0.595185,0.558369,-0.559903
3.9264,0.020467,0.000000,-0.224847,0.224847,0.0000,0.0000,0.0000,-0.002490,-0.253107,0.248505,1.0889,0.7151,-0.3963,0.001534,0.585981,-0.561437,0.556835,-0.595185,0.558369,-0.559903
3.9465,0.020081,0.000000,-0.220641,0.220641,0.0000,0.0000,0.0000,-0.002477,-0.243903,0.243903,1.1438,0.6978,-0.3368,0.001534,0.587515,-0.561437,0.556835,-0.595185,0.558369,-0.559903
3.9666,0.020090,0.000000,-0.216433,0.216433,0.0000,0.0000,0.0000,-0.002479,-0.234699,0.239301,1.1381,0.6997,-0.3430,0.001534,0.587515,-0.561437,0.556835,-0.595185,0.558369,-0.559903
3.9867,0.020078,0.000000,-0.212228,0.212228,0.0000,0.0000,0.0000,-0.002479,-0.225495,0.233165,1.1381,0.6997,-0.3430,0.001534,0.587515,-0.561437,0.556835,-0.595185,0.558369,-0.559903
4.0068,0.020099,0.000000,-0.208019,0.208019,0.0000,0.0000,0.0000,-0.002479,-0.220893,0.228563,1.1381,0.6997,-0.3430,0.001534,0.587515,-0.561437,0.556835,-0.595185,0.558369,-0.559903
4.0270,0.020265,0.000000,-0.203775,0.203775,0.0000,0.0000,0.0000,-0.002479,-0.216291,0.225495,1.1381,0.6997,-0.3430,0.001534,0.587515,-0.561437,0.556835,-0.595185,0.558369,-0.559903
4.0471,0.020084,0.000000,-0.199568,0.199568,0.0000,0.0000,0.0000,-0.002479,-0.214757,0.225495,1.1381,0.6997,-0.3430,0.001534,0.587515,-0.561437,0.556835,-0.595185,0.558369,-0.559903
4.0672,0.020112,0.000000,-0.195356,0.195356,0.0000,0.0000,0.0000,-0.002479,-0.213223,0.225495,1.1381,0.6997,-0.3430,0.001534,0.587515,-0.561437,0.556835,-0.595185,0.558369,-0.559903
4.0873,0.020081,0.000000,-0.191150,0.191150,0.0000,0.0000,0.0000,-0.002490,-0.210155,0.222427,1.0889,0.7150,-0.3963,0.001534,0.585981,-0.561437,0.556835,-0.595185,0.558369,-0.559903
4.1074,0.020086,0.000000,-0.186943,0.186943,0.0000,0.0000,0.0000,-0.002489,-0.204019,0.214757,1.0940,0.7134,-0.3908,0.001534,0.585981,-0.561437,0.556835,-0.595185,0.558369,-0.559903
4.1275,0.020079,0.000000,-0.182738,0.182738,0.0000,0.0000,0.0000,-0.002489,-0.204019,0.214757,1.0940,0.7134,-0.3908,0.001534,0.585981,-0.561437,0.556835,-0.595185,0.558369,-0.559903
4.1476,0.020080,0.000000,-0.178532,0.178532,0.0000,0.0000,0.0000,-0.002479,-0.196350,0.199418,1.1382,0.6996,-0.3429,0.001534,0.587515,-0.561437,0.556835,-0.595185,0.558369,-0.559903
4.1681,0.020557,0.000000,-0.174227,0.174227,0.0000,0.0000,0.0000,-0.002479,-0.190214,0.194816,1.1382,0.6996,-0.3429,0.001534,0.587515,-0.561437,0.556835,-0.595185,0.558369,-0.559903
4.1883,0.020192,0.000000,-0.169998,0.169998,0.0000,0.0000,0.0000,-0.002479,-0.184078,0.190214,1.1382,0.6996,-0.3429,0.001534,0.587515,-0.561437,0.556835,-0.595185,0.558369,-0.559903
4.2084,0.020079,0.000000,-0.165793,0.165793,0.0000,0.0000,0.0000,-0.002479,-0.182544,0.184078,1.1382,0.6996,-0.3429,0.001534,0.587515,-0.561437,0.556835,-0.595185,0.558369,-0.559903
4.2287,0.020274,0.000000,-0.161547,0.161547,0.0000,0.0000,0.0000,-0.002490,-0.179476,0.179476,1.0889,0.7150,-0.3963,0.001534,0.585981,-0.561437,0.556835,-0.595185,0.558369,-0.559903
4.2492,0.020502,0.000000,-0.157253,0.157253,0.0000,0.0000,0.0000,-0.002477,-0.176408,0.173340,1.1438,0.6979,-0.3368,0.001534,0.587515,-0.561437,0.556835,-0.595185,0.558369,-0.559903
4.2693,0.020077,0.000000,-0.153048,0.153048,0.0000,0.0000,0.0000,-0.002479,-0.173340,0.168738,1.1381,0.6997,-0.3430,0.001534,0.587515,-0.561437,0.556835,-0.595185,0.558369,-0.559903
4.2895,0.020268,0.000000,-0.148803,0.148803,0.0000,0.0000,0.0000,-0.002479,-0.170272,0.167204,1.1381,0.6997,-0.3430,0.001534,0.587515,-0.561437,0.556835,-0.595185,0.558369,-0.559903
4.3096,0.020075,0.000000,-0.144598,0.144598,0.0000,0.0000,0.0000,-0.002479,-0.164136,0.165670,1.1381,0.6997,-0.3430,0.001534,0.587515,-0.561437,0.556835,-0.595185,0.558369,-0.559903
4.3301,0.020495,0.000000,-0.140306,0.140306,0.0000,0.0000,0.0000,-0.002479,-0.156466,0.159534,1.1381,0.6997,-0.3430,0.001534,0.587515,-0.561437,0.556835,-0.595185,0.558369,-0.559903
4.3502,0.020084,0.000000,-0.136099,0.136099,0.0000,0.0000,0.0000,-0.002479,-0.150330,0.153398,1.1381,0.6997,-0.3430,0.001534,0.587515,-0.561437,0.556835,-0.595185,0.558369,-0.559903
4.3703,0.020169,0.000000,-0.131875,0.131875,0.0000,0.0000,0.0000,-0.002479,-0.148796,0.147262,1.1381,0.6997,-0.3430,0.001534,0.587515,-0.561437,0.556835,-0.595185,0.558369,-0.559903
4.3905,0.020169,0.000000,-0.127651,0.127651,0.0000,0.0000,0.0000,-0.002479,-0.147262,0.142660,1.1381,0.6997,-0.3430,0.001534,0.587515,-0.561437,0.556835,-0.595185,0.558369,-0.559903
4.4106,0.020075,0.000000,-0.123446,0.123446,0.0000,0.0000,0.0000,-0.002479,-0.145728,0.139592,1.1381,0.6997,-0.3430,0.001534,0.587515,-0.561437,0.556835,-0.595185,0.558369,-0.559903
4.4309,0.020267,0.000000,-0.119202,0.119202,0.0000,0.0000,0.0000,-0.002479,-0.144194,0.138058,1.1381,0.6997,-0.3430,0.001534,0.587515,-0.561437,0.556835,-0.595185,0.558369,-0.559903
4.4510,0.020133,0.000000,-0.114985,0.114985,0.0000,0.0000,0.0000,-0.002479,-0.136524,0.131922,1.1381,0.6997,-0.3430,0.001534,0.587515,-0.561437,0.556835,-0.595185,0.558369,-0.559903
4.4711,0.020080,0.000000,-0.110780,0.110780,0.0000,0.0000,0.0000,-0.002479,-0.127320,0.125786,1.1381,0.6997,-0.3430,0.001534,0.587515,-0.561437,0.556835,-0.595185,0.558369,-0.559903
4.4912,0.020136,0.000000,-0.106562,0.106562,0.0000,0.0000,0.0000,-0.002479,-0.121184,0.121184,1.1381,0.6997,-0.3430,0.001534,0.587515,-0.561437,0.556835,-0.595185,0.558369,-0.559903
4.5113,0.020085,0.000000,-0.102356,0.102356,0.0000,0.0000,0.0000,-0.002479,-0.118117,0.116583,1.1381,0.6997,-0.3430,0.001534,0.587515,-0.561437,0.556835,-0.595185,0.558369,-0.559903
4.5317,0.020462,0.000000,-0.098070,0.098070,0.0000,0.0000,0.0000,-0.002479,-0.115049,0.115049,1.1381,0.6997,-0.3430,0.001534,0.587515,-0.561437,0.556835,-0.595185,0.558369,-0.559903
4.5518,0.020075,0.000000,-0.093866,0.093866,0.0000,0.0000,0.0000,-0.002479,-0.110447,0.113515,1.1381,0.6997,-0.3430,0.001534,0.587515,-0.561437,0.556835,-0.595185,0.558369,-0.559903
4.5719,0.020074,0.000000,-0.089661,0.089661,0.0000,0.0000,0.0000,-0.002479,-0.105845,0.110447,1.1381,0.6997,-0.3430,0.001534,0.587515,-0.561437,0.556835,-0.595185,0.558369,-0.559903
4.5921,0.020156,0.000000,-0.085440,0.085440,0.0000,0.0000,0.0000,-0.002479,-0.102777,0.104311,1.1381,0.6997,-0.3430,0.001534,0.587515,-0.561437,0.556835,-0.595185,0.558369,-0.559903
4.6121,0.020077,0.000000,-0.081235,0.081235,0.0000,0.0000,0.0000,-0.002490,-0.096641,0.096641,1.0889,0.7150,-0.4842,0.000000,0.585981,-0.561437,0.556835,-0.595185,0.558369,-0.559903
4.6324,0.020284,0.000000,-0.076987,0.076987,0.0000,0.0000,0.0000,-0.002477,-0.092039,0.090505,1.1438,0.6979,-0.3368,0.001534,0.587515,-0.561437,0.556835,-0.595185,0.558369,-0.559903
4.6525,0.020076,0.000000,-0.072782,0.072782,0.0000,0.0000,0.0000,-0.002479,-0.088971,0.087437,1.1381,0.6997,-0.3430,0.001534,0.587515,-0.561437,0.556835,-0.595185,0.558369,-0.559903
4.6726,0.020077,0.000000,-0.068577,0.068577,0.0000,0.0000,0.0000,-0.002479,-0.082835,0.085903,1.1381,0.6997,-0.3430,0.001534,0.587515,-0.561437,0.556835,-0.595185,0.558369,-0.559903
4.6929,0.020311,0.000000,-0.064323,0.064323,0.0000,0.0000,0.0000,-0.002479,-0.076699,0.084369,1.1381,0.6997,-0.3430,0.001534,0.587515,-0.561437,0.556835,-0.595185,0.558369,-0.559903
4.7130,0.020086,0.000000,-0.060116,0.060116,0.0000,0.0000,0.0000,-0.002479,-0.076699,0.078233,1.1381,0.6997,-0.3430,0.001534,0.587515,-0.561437,0.556835,-0.595185,0.558369,-0.559903
4.7332,0.020273,0.000000,-0.055870,0.055870,0.0000,0.0000,0.0000,-0.002479,-0.067495,0.062893,1.1381,0.6997,-0.3430,0.001534,0.587515,-0.561437,0.556835,-0.595185,0.558369,-0.559903
4.7537,0.020489,0.000000,-0.051579,0.051579,0.0000,0.0000,0.0000,-0.002479,-0.062893,0.061359,1.1381,0.6997,-0.3430,0.001534,0.587515,-0.561437,0.556835,-0.595185,0.558369,-0.559903
4.7738,0.020080,0.000000,-0.047373,0.047373,0.0000,0.0000,0.0000,-0.002479,-0.056757,0.061359,1.1381,0.6997,-0.3430,0.001534,0.587515,-0.561437,0.556835,-0.595185,0.558369,-0.559903
4.7939,0.020077,0.000000,-0.043168,0.043168,0.0000,0.0000,0.0000,-0.002479,-0.056757,0.061359,1.1381,0.6997,-0.3430,0.001534,0.587515,-0.561437,0.556835,-0.595185,0.558369,-0.559903
4.8140,0.020079,0.000000,-0.038963,0.038963,0.0000,0.0000,0.0000,-0.002479,-0.050621,0.055223,1.1381,0.6997,-0.3430,0.001534,0.587515,-0.561437,0.556835,-0.595185,0.558369,-0.559903
4.8340,0.020079,0.000000,-0.034758,0.034758,0.0000,0.0000,0.0000,-0.002479,-0.047553,0.049087,1.1381,0.6997,-0.3430,0.001534,0.587515,-0.561437,0.556835,-0.595185,0.558369,-0.559903
4.8541,0.020074,0.000000,-0.030553,0.030553,0.0000,0.0000,0.0000,-0.002479,-0.041417,0.041417,1.1381,0.6997,-0.3430,0.001534,0.587515,-0.561437,0.556835,-0.595185,0.558369,-0.559903
4.8742,0.020078,0.000000,-0.026348,0.026348,0.0000,0.0000,0.0000,-0.002479,-0.038350,0.036816,1.1381,0.6997,-0.3430,0.001534,0.587515,-0.561437,0.556835,-0.595185,0.558369,-0.559903
4.8947,0.020537,0.000000,-0.022047,0.022047,0.0000,0.0000,0.0000,-0.002479,-0.030680,0.032214,1.1381,0.6997,-0.3430,0.001534,0.587515,-0.561437,0.556835,-0.595185,0.558369,-0.559903
4.9148,0.020087,0.000000,-0.017840,0.017840,0.0000,0.0000,0.0000,-0.002479,-0.024544,0.030680,1.1381,0.6997,-0.3430,0.001534,0.587515,-0.561437,0.556835,-0.595185,0.558369,-0.559903
4.9350,0.020201,0.000000,-0.013609,0.013609,0.0000,0.0000,0.0000,-0.002479,-0.023010,0.027612,1.1381,0.6997,-0.3430,0.001534,0.587515,-0.561437,0.556835,-0.595185,0.558369,-0.559903
4.9551,0.020033,0.000000,-0.009413,0.009413,0.0000,0.0000,0.0000,-0.002479,-0.026078,0.021476,1.1381,0.6997,-0.3430,0.001534,0.587515,-0.561437,0.556835,-0.595185,0.558369,-0.559903
4.9752,0.020100,0.000000,-0.005203,0.005203,0.0000,0.0000,0.0000,-0.002479,-0.021476,0.013806,1.1381,0.6997,-0.3430,0.001534,0.587515,-0.561437,0.556835,-0.595185,0.558369,-0.559903
4.9953,0.020129,0.000000,-0.000988,0.000988,0.0000,0.0000,0.0000,-0.002490,-0.013806,0.009204,1.0889,0.7150,-0.3963,0.001534,0.585981,-0.561437,0.556835,-0.595185,0.558369,-0.559903
5.0154,0.020086,0.000000,-0.003219,0.003219,0.0000,0.0000,0.0000,-0.002477,-0.006136,0.007670,1.1438,0.6979,-0.3368,0.001534,0.587515,-0.561437,0.556835,-0.595185,0.558369,-0.559903
5.0354,0.020076,0.000000,-0.007424,0.007424,0.0000,0.0000,0.0000,-0.002479,0.000000,0.006136,1.1381,0.6997,-0.3430,0.001534,0.587515,-0.561437,0.556835,-0.595185,0.558369,-0.559903
5.0555,0.020076,0.000000,-0.011629,0.011629,0.0000,0.0000,0.0000,-0.002479,0.000000,0.004602,1.1381,0.6997,-0.3430,0.001534,0.587515,-0.561437,0.556835,-0.595185,0.558369,-0.559903
5.0756,0.020086,0.000000,-0.015835,0.015835,0.0000,0.0000,0.0000,-0.002479,-0.004602,0.003068,1.1381,0.6997,-0.3430,0.001534,0.587515,-0.561437,0.556835,-0.595185,0.558369,-0.559903
5.0959,0.020250,0.000000,-0.020077,0.020077,0.0000,0.0000,0.0000,-0.002479,-0.010738,0.009204,1.1381,0.6997,-0.3430,0.001534,0.587515,-0.561437,0.556835,-0.595185,0.558369,-0.559903
5.1159,0.020085,0.000000,-0.024283,0.024283,0.0000,0.0000,0.0000,-0.002479,-0.015340,0.012272,1.1381,0.6997,-0.3430,0.001534,0.587515,-0.561437,0.556835,-0.595185,0.558369,-0.559903
5.1360,0.020077,0.000000,-0.028488,0.028488,0.0000,0.0000,0.0000,-0.002479,-0.016874,0.013806,1.1381,0.6997,-0.3430,0.001534,0.587515,-0.561437,0.556835,-0.595185,0.558369,-0.559903
5.1568,0.020738,0.000000,-0.032831,0.032831,0.0000,0.0000,0.0000,-0.002490,-0.018408,0.019942,1.0889,0.7150,-0.4842,0.000000,0.585981,-0.561437,0.556835,-0.595185,0.558369,-0.559903
5.1768,0.020078,0.000000,-0.037036,0.037036,0.0000,0.0000,0.0000,-0.002477,-0.026078,0.026078,1.1438,0.6979,-0.3368,0.001534,0.587515,-0.561437,0.556835,-0.595185,0.558369,-0.559903
5.1970,0.020188,0.000000,-0.041265,0.041265,0.0000,0.0000,0.0000,-0.002479,-0.033748,0.026078,1.1381,0.6997,-0.3430,0.001534,0.587515,-0.561437,0.556835,-0.595185,0.558369,-0.559903
5.2171,0.020091,0.000000,-0.045472,0.045472,0.0000,0.0000,0.0000,-0.002479,-0.033748,0.030680,1.1381,0.6997,-0.3430,0.001534,0.587515,-0.561437,0.556835,-0.595185,0.558369,-0.559903
5.2374,0.020333,0.000000,-0.049731,0.049731,0.0000,0.0000,0.0000,-0.002479,-0.033748,0.041417,1.1381,0.6997,-0.3430,0.001534,0.587515,-0.561437,0.556835,-0.595185,0.558369,-0.559903
5.2576,0.020110,0.000000,-0.053943,0.053943,0.0000,0.0000,0.0000,-0.002479,-0.041417,0.042951,1.1381,0.6997,-0.3430,0.001534,0.587515,-0.561437,0.556835,-0.595185,0.558369,-0.559903
5.2777,0.020095,0.000000,-0.058152,0.058152,0.0000,0.0000,0.0000,-0.002479,-0.052155,0.041417,1.1381,0.6997,-0.3430,0.001534,0.587515,-0.561437,0.556835,-0.595185,0.558369,-0.559903
5.2979,0.020285,0.000000,-0.062400,0.062400,0.0000,0.0000,0.0000,-0.002465,-0.053689,0.047553,1.1778,0.6639,-0.3957,0.001534,0.587515,-0.562971,0.556835,-0.595185,0.558369,-0.559903
5.3181,0.020192,0.000000,-0.066629,0.066629,0.0000,0.0000,0.0000,-0.002480,-0.049087,0.053689,1.1346,0.7032,-0.3368,0.001534,0.587515,-0.561437,0.556835,-0.595185,0.558369,-0.559903
5.3383,0.020205,0.000000,-0.070861,0.070861,0.0000,0.0000,0.0000,-0.002478,-0.055223,0.058291,1.1391,0.6991,-0.3430,0.001534,0.587515,-0.561437,0.556835,-0.595185,0.558369,-0.559903
5.3587,0.020328,0.000000,-0.075118,0.075118,0.0000,0.0000,0.0000,-0.002478,-0.064427,0.064427,1.1391,0.6991,-0.3430,0.001534,0.587515,-0.561437,0.556835,-0.595185,0.558369,-0.559903
5.3788,0.020090,0.000000,-0.079326,0.079326,0.0000,0.0000,0.0000,-0.002478,-0.073631,0.067495,1.1391,0.6991,-0.3430,0.001534,0.587515,-0.561437,0.556835,-0.595185,0.558369,-0.559903
5.3989,0.020135,0.000000,-0.083543,0.083543,0.0000,0.0000,0.0000,-0.002478,-0.073631,0.070563,1.1391,0.6991,-0.3430,0.001534,0.587515,-0.561437,0.556835,-0.595185,0.558369,-0.559903
5.4190,0.020093,0.000000,-0.087751,0.087751,0.0000,0.0000,0.0000,-0.002478,-0.070563,0.073631,1.1391,0.6991,-0.3430,0.001534,0.587515,-0.561437,0.556835,-0.595185,0.558369,-0.559903
5.4392,0.020227,0.000000,-0.091988,0.091988,0.0000,0.0000,0.0000,-0.002478,-0.078233,0.079767,1.1391,0.6991,-0.3430,0.001534,0.587515,-0.561437,0.556835,-0.595185,0.558369,-0.559903
5.4593,0.020095,0.000000,-0.096196,0.096196,0.0000,0.0000,0.0000,-0.002478,-0.088971,0.082835,1.1391,0.6991,-0.3430,0.001534,0.587515,-0.561437,0.556835,-0.595185,0.558369,-0.559903
5.4794,0.020091,0.000000,-0.100404,0.100404,0.0000,0.0000,0.0000,-0.002478,-0.090505,0.087437,1.1391,0.6991,-0.3430,0.001534,0.587515,-0.561437,0.556835,-0.595185,0.558369,-0.559903
5.5004,0.021044,0.000000,-0.104812,0.104812,0.0000,0.0000,0.0000,-0.002478,-0.087437,0.092039,1.1391,0.6991,-0.3430,0.001534,0.587515,-0.561437,0.556835,-0.595185,0.558369,-0.559903
5.5205,0.020090,0.000000,-0.109019,0.109019,0.0000,0.0000,0.0000,-0.002478,-0.092039,0.093573,1.1391,0.6991,-0.3430,0.001534,0.587515,-0.561437,0.556835,-0.595185,0.558369,-0.559903
5.5410,0.020467,0.000000,-0.113306,0.113306,0.0000,0.0000,0.0000,-0.002478,-0.105845,0.096641,1.1391,0.6991,-0.3430,0.001534,0.587515,-0.561437,0.556835,-0.595185,0.558369,-0.559903
5.5611,0.020092,0.000000,-0.117514,0.117514,0.0000,0.0000,0.0000,-0.002478,-0.110447,0.104311,1.1391,0.6991,-0.3430,0.001534,0.587515,-0.561437,0.556835,-0.595185,0.558369,-0.559903
5.5812,0.020083,0.000000,-0.121720,0.121720,0.0000,0.0000,0.0000,-0.002478,-0.110447,0.110447,1.1391,0.6991,-0.3430,0.001534,0.587515,-0.561437,0.556835,-0.595185,0.558369,-0.559903
5.6013,0.020159,0.000000,-0.125942,0.125942,0.0000,0.0000,0.0000,-0.002490,-0.111981,0.111981,1.0888,0.7151,-0.3963,0.001534,0.585981,-0.561437,0.556835,-0.595185,0.558369,-0.559903
5.6216,0.020226,0.000000,-0.130178,0.130178,0.0000,0.0000,0.0000,-0.002477,-0.121184,0.116583,1.1438,0.6979,-0.3368,0.001534,0.587515,-0.561437,0.556835,-0.595185,0.558369,-0.559903
5.6416,0.020087,0.000000,-0.134385,0.134385,0.0000,0.0000,0.0000,-0.002479,-0.127320,0.124252,1.1381,0.6997,-0.3430,0.001534,0.587515,-0.561437,0.556835,-0.595185,0.558369,-0.559903
5.6618,0.020112,0.000000,-0.138598,0.138598,0.0000,0.0000,0.0000,-0.002479,-0.128854,0.124252,1.1381,0.6997,-0.3430,0.001534,0.587515,-0.561437,0.556835,-0.595185,0.558369,-0.559903
5.6818,0.020090,0.000000,-0.142805,0.142805,0.0000,0.0000,0.0000,-0.002479,-0.128854,0.124252,1.1381,0.6997,-0.3430,0.001534,0.587515,-0.561437,0.556835,-0.595185,0.558369,-0.559903
5.7019,0.020087,0.000000,-0.147012,0.147012,0.0000,0.0000,0.0000,-0.002479,-0.138058,0.131922,1.1381,0.6997,-0.3430,0.001534,0.587515,-0.561437,0.556835,-0.595185,0.558369,-0.559903
5.7221,0.020154,0.000000,-0.151233,0.151233,0.0000,0.0000,0.0000,-0.002479,-0.142660,0.139592,1.1381,0.6997,-0.3430,0.001534,0.587515,-0.561437,0.556835,-0.595185,0.558369,-0.559903
5.7422,0.020085,0.000000,-0.155440,0.155440,0.0000,0.0000,0.0000,-0.002479,-0.144194,0.145728,1.1381,0.6997,-0.3430,0.001534,0.587515,-0.561437,0.556835,-0.595185,0.558369,-0.559903
5.7623,0.020093,0.000000,-0.159648,0.159648,0.0000,0.0000,0.0000,-0.002490,-0.148796,0.145728,1.0889,0.7150,-0.3963,0.001534,0.585981,-0.561437,0.556835,-0.595185,0.558369,-0.559903
5.7824,0.020096,0.000000,-0.163857,0.163857,0.0000,0.0000,0.0000,-0.002477,-0.156466,0.147262,1.1438,0.6979,-0.3368,0.001534,0.587515,-0.561437,0.556835,-0.595185,0.558369,-0.559903
5.8025,0.020103,0.000000,-0.168067,0.168067,0.0000,0.0000,0.0000,-0.002479,-0.158000,0.156466,1.1381,0.6997,-0.3430,0.001534,0.587515,-0.561437,0.556835,-0.595185,0.558369,-0.559903
5.8226,0.020089,0.000000,-0.172275,0.172275,0.0000,0.0000,0.0000,-0.002479,-0.159534,0.161068,1.1381,0.6997,-0.3430,0.001534,0.587515,-0.561437,0.556835,-0.595185,0.558369,-0.559903
5.8426,0.020090,0.000000,-0.176482,0.176482,0.0000,0.0000,0.0000,-0.002479,-0.167204,0.161068,1.1381,0.6997,-0.3430,0.001534,0.587515,-0.561437,0.556835,-0.595185,0.558369,-0.559903
5.8628,0.020119,0.000000,-0.180696,0.180696,0.0000,0.0000,0.0000,-0.002479,-0.170272,0.164136,1.1381,0.6997,-0.3430,0.001534,0.587515,-0.561437,0.556835,-0.595185,0.558369,-0.559903
5.8830,0.020247,0.000000,-0.184937,0.184937,0.0000,0.0000,0.0000,-0.002479,-0.170272,0.174874,1.1381,0.6997,-0.3430,0.001534,0.587515,-0.561437,0.556835,-0.595185,0.558369,-0.559903
5.9033,0.020250,0.000000,-0.189178,0.189178,0.0000,0.0000,0.0000,-0.002479,-0.181010,0.177942,1.1381,0.6997,-0.3430,0.001534,0.587515,-0.561437,0.556835,-0.595185,0.558369,-0.559903
5.9235,0.020233,0.000000,-0.193415,0.193415,0.0000,0.0000,0.0000,-0.002479,-0.187146,0.177942,1.1381,0.6997,-0.3430,0.001534,0.587515,-0.561437,0.556835,-0.595185,0.558369,-0.559903
5.9436,0.020099,0.000000,-0.197625,0.197625,0.0000,0.0000,0.0000,-0.002479,-0.187146,0.177942,1.1381,0.6997,-0.3430,0.001534,0.587515,-0.561437,0.556835,-0.595185,0.558369,-0.559903
5.9637,0.020104,0.000000,-0.201835,0.201835,0.0000,0.0000,0.0000,-0.002479,-0.188680,0.188680,1.1381,0.6997,-0.3430,0.001534,0.587515,-0.561437,0.556835,-0.595185,0.558369,-0.559903
5.9838,0.020096,0.000000,-0.206044,0.206044,0.0000,0.0000,0.0000,-0.002479,-0.188680,0.188680,1.1381,0.6997,-0.3430,0.001534,0.587515,-0.561437,0.556835,-0.595185,0.558369,-0.559903
6.0040,0.020232,0.000000,-0.210282,0.210282,0.0000,0.0000,0.0000,-0.002479,-0.197884,0.194816,1.1381,0.6997,-0.3430,0.001534,0.587515,-0.561437,0.556835,-0.595185,0.558369,-0.559903
6.0241,0.020121,0.000000,-0.214496,0.214496,0.0000,0.0000,0.0000,-0.002479,-0.199418,0.194816,1.1381,0.6997,-0.3430,0.001534,0.587515,-0.561437,0.556835,-0.595185,0.558369,-0.559903
6.0442,0.020108,0.000000,-0.218707,0.218707,0.0000,0.0000,0.0000,-0.002479,-0.208621,0.208621,1.1381,0.6997,-0.3430,0.001534,0.587515,-0.561437,0.556835,-0.595185,0.558369,-0.559903
6.0643,0.020098,0.000000,-0.222917,0.222917,0.0000,0.0000,0.0000,-0.002479,-0.214757,0.208621,1.1381,0.6997,-0.3430,0.001534,0.587515,-0.561437,0.556835,-0.595185,0.558369,-0.559903
6.0845,0.020109,0.000000,-0.227128,0.227128,0.0000,0.0000,0.0000,-0.002479,-0.214757,0.208621,1.1381,0.6997,-0.3430,0.001534,0.587515,-0.561437,0.556835,-0.595185,0.558369,-0.559903
6.1049,0.020431,0.000000,-0.231407,0.231407,0.0000,0.0000,0.0000,-0.002479,-0.213223,0.207087,1.1381,0.6997,-0.3430,0.001534,0.587515,-0.561437,0.556835,-0.595185,0.558369,-0.559903
6.1250,0.020104,0.000000,-0.235618,0.235618,0.0000,0.0000,0.0000,-0.002490,-0.216291,0.214757,1.0889,0.7150,-0.3963,0.001534,0.585981,-0.561437,0.556835,-0.595185,0.558369,-0.559903
6.1451,0.020100,0.000000,-0.239827,0.239827,0.0000,0.0000,0.0000,-0.002477,-0.230097,0.228563,1.1438,0.6979,-0.3368,0.001534,0.587515,-0.561437,0.556835,-0.595185,0.558369,-0.559903
6.1652,0.020103,0.000000,-0.244038,0.244038,0.0000,0.0000,0.0000,-0.002479,-0.230097,0.228563,1.1381,0.6997,-0.3430,0.001534,0.587515,-0.561437,0.556835,-0.595185,0.558369,-0.559903
6.1853,0.020096,0.000000,-0.248247,0.248247,0.0000,0.0000,0.0000,-0.002479,-0.230097,0.228563,1.1381,0.6997,-0.3430,0.001534,0.587515,-0.561437,0.556835,-0.595185,0.558369,-0.559903
6.2054,0.020114,0.000000,-0.252459,0.252459,0.0000,0.0000,0.0000,-0.002479,-0.231631,0.230097,1.1381,0.6997,-0.3430,0.001534,0.587515,-0.561437,0.556835,-0.595185,0.558369,-0.559903
6.2255,0.020094,0.000000,-0.256668,0.256668,0.0000,0.0000,0.0000,-0.002479,-0.240835,0.239301,1.1381,0.6997,-0.3430,0.001534,0.587515,-0.561437,0.556835,-0.595185,0.558369,-0.559903
6.2456,0.020105,0.000000,-0.260878,0.260878,0.0000,0.0000,0.0000,-0.002479,-0.246971,0.243903,1.1381,0.6997,-0.3430,0.001534,0.587515,-0.561437,0.556835,-0.595185,0.558369,-0.559903
6.2657,0.020109,0.000000,-0.265090,0.265090,0.0000,0.0000,0.0000,-0.002479,-0.245437,0.245437,1.1381,0.6997,-0.3430,0.001534,0.587515,-0.561437,0.556835,-0.595185,0.558369,-0.559903
6.2858,0.020084,0.000000,-0.269296,0.269296,0.0000,0.0000,0.0000,-0.002479,-0.246971,0.250039,1.1381,0.6997,-0.3430,0.001534,0.587515,-0.561437,0.556835,-0.595185,0.558369,-0.559903
6.3059,0.020093,0.000000,-0.273505,0.273505,0.0000,0.0000,0.0000,-0.002479,-0.256175,0.257709,1.1381,0.6997,-0.3430,0.001534,0.587515,-0.561437,0.556835,-0.595185,0.558369,-0.559903
6.3260,0.020096,0.000000,-0.277714,0.277714,0.0000,0.0000,0.0000,-0.002490,-0.263845,0.259243,1.0889,0.7150,-0.3963,0.001534,0.585981,-0.561437,0.556835,-0.595185,0.558369,-0.559903
6.3461,0.020093,0.000000,-0.281922,0.281922,0.0000,0.0000,0.0000,-0.002477,-0.263845,0.257709,1.1438,0.6979,-0.3368,0.001534,0.587515,-0.561437,0.556835,-0.595185,0.558369,-0.559903
6.3662,0.020096,0.000000,-0.286131,0.286131,0.0000,0.0000,0.0000,-0.002492,-0.265379,0.266913,1.1490,0.6475,-0.3965,0.001534,0.587515,-0.561437,0.555301,-0.595185,0.558369,-0.559903
6.3863,0.020096,0.000000,-0.290340,0.290340,0.0000,0.0000,0.0000,-0.002477,-0.276117,0.274583,1.1376,0.7049,-0.3368,0.001534,0.587515,-0.561437,0.556835,-0.595185,0.558369,-0.559903
6.4063,0.020065,0.000000,-0.294542,0.294542,0.0000,0.0000,0.0000,-0.002479,-0.277651,0.277651,1.1388,0.6989,-0.3430,0.001534,0.587515,-0.561437,0.556835,-0.595185,0.558369,-0.559903
6.4264,0.020093,0.000000,-0.298750,0.298750,0.0000,0.0000,0.0000,-0.002479,-0.277651,0.282252,1.1388,0.6989,-0.3430,0.001534,0.587515,-0.561437,0.556835,-0.595185,0.558369,-0.559903
6.4465,0.020088,0.000000,-0.302958,0.302958,0.0000,0.0000,0.0000,-0.002479,-0.286854,0.283786,1.1388,0.6989,-0.3430,0.001534,0.587515,-0.561437,0.556835,-0.595185,0.558369,-0.559903
6.4666,0.020092,0.000000,-0.307166,0.307166,0.0000,0.0000,0.0000,-0.002479,-0.296058,0.286854,1.1388,0.6989,-0.3430,0.001534,0.587515,-0.561437,0.556835,-0.595185,0.558369,-0.559903
6.4867,0.020087,0.000000,-0.311373,0.311373,0.0000,0.0000,0.0000,-0.002479,-0.292990,0.294524,1.1388,0.6989,-0.3430,0.001534,0.587515,-0.561437,0.556835,-0.595185,0.558369,-0.559903
6.5068,0.020138,0.000000,-0.315590,0.315590,0.0000,0.0000,0.0000,-0.002479,-0.297592,0.297592,1.1388,0.6989,-0.3430,0.001534,0.587515,-0.561437,0.556835,-0.595185,0.558369,-0.559903
6.5269,0.020095,0.000000,-0.319799,0.319799,0.0000,0.0000,0.0000,-0.002479,-0.306796,0.299126,1.1388,0.6989,-0.3430,0.001534,0.587515,-0.561437,0.556835,-0.595185,0.558369,-0.559903
6.5470,0.020092,0.000000,-0.324007,0.324007,0.0000,0.0000,0.0000,-0.002479,-0.308330,0.306796,1.1388,0.6989,-0.3430,0.001534,0.587515,-0.561437,0.556835,-0.595185,0.558369,-0.559903
