t,loop_dt,cmd_z,cmd_ant_l,cmd_ant_r,cmd_roll,cmd_pitch,cmd_yaw,pres_z,pres_ant_l,pres_ant_r,pres_roll,pres_pitch,pres_yaw,pres_j0,pres_j1,pres_j2,pres_j3,pres_j4,pres_j5,pres_j6
0.0000,0.000001,0.000000,-0.174533,0.174533,0.0000,0.0000,0.0000,-0.002639,-0.012272,0.009204,1.1735,0.9845,0.0427,0.001534,0.582913,-0.555301,0.556835,-0.595185,0.558369,-0.549165
0.0202,0.020166,0.000000,-0.170309,0.170309,0.0000,0.0000,0.0000,-0.002653,-0.009204,0.006136,1.1843,0.9331,-0.0103,0.001534,0.582913,-0.555301,0.555301,-0.595185,0.558369,-0.549165
0.0403,0.020090,0.000000,-0.166101,0.166101,0.0000,0.0000,0.0000,-0.002638,-0.007670,0.009204,1.1723,0.9905,0.0488,0.001534,0.582913,-0.555301,0.556835,-0.595185,0.558369,-0.549165
0.0603,0.020088,0.000000,-0.161894,0.161894,0.0000,0.0000,0.0000,-0.002639,-0.055223,0.056757,1.1735,0.9845,0.0426,0.001534,0.582913,-0.555301,0.556835,-0.595185,0.558369,-0.549165
0.0804,0.020086,0.000000,-0.157687,0.157687,0.0000,0.0000,0.0000,-0.002626,-0.128854,0.130388,1.1240,0.9669,-0.0102,0.001534,0.582913,-0.555301,0.556835,-0.595185,0.558369,-0.550699
0.1005,0.020071,0.000000,-0.153484,0.153484,0.0000,0.0000,0.0000,-0.002627,-0.185612,0.184078,1.1292,0.9687,-0.0047,0.001534,0.582913,-0.555301,0.556835,-0.595185,0.558369,-0.550699
0.1206,0.020086,0.000000,-0.149277,0.149277,0.0000,0.0000,0.0000,-0.002603,-0.194816,0.190214,1.1291,0.9350,-0.0048,0.001534,0.584447,-0.555301,0.556835,-0.595185,0.558369,-0.552233
0.1407,0.020085,0.000000,-0.145070,0.145070,0.0000,0.0000,0.0000,-0.002606,-0.179476,0.177942,1.1291,0.9386,-0.0048,0.001534,0.584447,-0.555301,0.556835,-0.595185,0.558369,-0.552233
0.1608,0.020090,0.000000,-0.140862,0.140862,0.0000,0.0000,0.0000,-0.002581,-0.162602,0.162602,1.1296,0.9047,-0.0043,0.001534,0.585981,-0.555301,0.556835,-0.595185,0.558369,-0.553767
0.1808,0.020084,0.000000,-0.136656,0.136656,0.0000,0.0000,0.0000,-0.002584,-0.148796,0.150330,1.1296,0.9082,-0.0044,0.001534,0.585981,-0.555301,0.556835,-0.595185,0.558369,-0.553767
0.2009,0.020091,0.000000,-0.132448,0.132448,0.0000,0.0000,0.0000,-0.002547,-0.141126,0.139592,1.0808,0.8562,-0.0575,0.001534,0.587515,-0.555301,0.556835,-0.595185,0.558369,-0.556835
0.2211,0.020203,0.000000,-0.128217,0.128217,0.0000,0.0000,0.0000,-0.002538,-0.144194,0.138058,1.0368,0.8435,-0.1056,0.001534,0.587515,-0.555301,0.556835,-0.595185,0.558369,-0.558369
0.2412,0.020086,0.000000,-0.124010,0.124010,0.0000,0.0000,0.0000,-0.002526,-0.141126,0.138058,0.9923,0.8268,-0.1542,0.001534,0.587515,-0.555301,0.556835,-0.595185,0.558369,-0.559903
0.2615,0.020271,0.000000,-0.119765,0.119765,0.0000,0.0000,0.0000,-0.002527,-0.133456,0.134990,0.9969,0.8285,-0.1491,0.001534,0.587515,-0.555301,0.556835,-0.595185,0.558369,-0.559903
0.2816,0.020081,0.000000,-0.115559,0.115559,0.0000,0.0000,0.0000,-0.002527,-0.125786,0.130388,0.9969,0.8285,-0.1491,0.001534,0.587515,-0.555301,0.556835,-0.595185,0.558369,-0.559903
0.3017,0.020089,0.000000,-0.111352,0.111352,0.0000,0.0000,0.0000,-0.002527,-0.124252,0.124252,0.9969,0.8285,-0.1491,0.001534,0.587515,-0.555301,0.556835,-0.595185,0.558369,-0.559903
0.3218,0.020087,0.000000,-0.107145,0.107145,0.0000,0.0000,0.0000,-0.002527,-0.124252,0.119651,0.9969,0.8285,-0.1491,0.001534,0.587515,-0.555301,0.556835,-0.595185,0.558369,-0.559903
0.3418,0.020079,0.000000,-0.102939,0.102939,0.0000,0.0000,0.0000,-0.002527,-0.121184,0.116583,0.9969,0.8285,-0.1491,0.001534,0.587515,-0.555301,0.556835,-0.595185,0.558369,-0.559903
0.3619,0.020095,0.000000,-0.098731,0.098731,0.0000,0.0000,0.0000,-0.002527,-0.116583,0.113515,0.9969,0.8285,-0.1491,0.001534,0.587515,-0.555301,0.556835,-0.595185,0.558369,-0.559903
0.3820,0.020090,0.000000,-0.094523,0.094523,0.0000,0.0000,0.0000,-0.002527,-0.110447,0.111981,0.9969,0.8285,-0.1491,0.001534,0.587515,-0.555301,0.556835,-0.595185,0.558369,-0.559903
0.4021,0.020096,0.000000,-0.090314,0.090314,0.0000,0.0000,0.0000,-0.002527,-0.102777,0.107379,0.9969,0.8285,-0.1491,0.001534,0.587515,-0.555301,0.556835,-0.595185,0.558369,-0.559903
0.4222,0.020097,0.000000,-0.086105,0.086105,0.0000,0.0000,0.0000,-0.002527,-0.099709,0.101243,0.9969,0.8285,-0.1491,0.001534,0.587515,-0.555301,0.556835,-0.595185,0.558369,-0.559903
0.4423,0.020093,0.000000,-0.081897,0.081897,0.0000,0.0000,0.0000,-0.002527,-0.096641,0.093573,0.9969,0.8285,-0.1491,0.001534,0.587515,-0.555301,0.556835,-0.595185,0.558369,-0.559903
0.4624,0.020090,0.000000,-0.077689,0.077689,0.0000,0.0000,0.0000,-0.002527,-0.093573,0.087437,0.9969,0.8285,-0.1491,0.001534,0.587515,-0.555301,0.556835,-0.595185,0.558369,-0.559903
0.4825,0.020090,0.000000,-0.073481,0.073481,0.0000,0.0000,0.0000,-0.002527,-0.090505,0.085903,0.9969,0.8285,-0.1491,0.001534,0.587515,-0.555301,0.556835,-0.595185,0.558369,-0.559903
0.5029,0.020367,0.000000,-0.069216,0.069216,0.0000,0.0000,0.0000,-0.002527,-0.084369,0.084369,0.9969,0.8285,-0.1491,0.001534,0.587515,-0.555301,0.556835,-0.595185,0.558369,-0.559903
0.5230,0.020141,0.000000,-0.064997,0.064997,0.0000,0.0000,0.0000,-0.002527,-0.073631,0.081301,0.9969,0.8285,-0.1491,0.001534,0.587515,-0.555301,0.556835,-0.595185,0.558369,-0.559903
0.5431,0.020089,0.000000,-0.060790,0.060790,0.0000,0.0000,0.0000,-0.002527,-0.070563,0.073631,0.9969,0.8285,-0.1491,0.001534,0.587515,-0.555301,0.556835,-0.595185,0.558369,-0.559903
0.5634,0.020351,0.000000,-0.056528,0.056528,0.0000,0.0000,0.0000,-0.002527,-0.073631,0.067495,0.9969,0.8285,-0.1491,0.001534,0.587515,-0.555301,0.556835,-0.595185,0.558369,-0.559903
0.5836,0.020144,0.000000,-0.052309,0.052309,0.0000,0.0000,0.0000,-0.002527,-0.070563,0.062893,0.9969,0.8285,-0.1491,0.001534,0.587515,-0.555301,0.556835,-0.595185,0.558369,-0.559903
0.6038,0.020191,0.000000,-0.048080,0.048080,0.0000,0.0000,0.0000,-0.002527,-0.065961,0.062893,0.9969,0.8285,-0.1491,0.001534,0.587515,-0.555301,0.556835,-0.595185,0.558369,-0.559903
0.6241,0.020345,0.000000,-0.043819,0.043819,0.0000,0.0000,0.0000,-0.002527,-0.058291,0.062893,0.9969,0.8285,-0.1491,0.001534,0.587515,-0.555301,0.556835,-0.595185,0.558369,-0.559903
0.6442,0.020136,0.000000,-0.039602,0.039602,0.0000,0.0000,0.0000,-0.002527,-0.047553,0.059825,0.9969,0.8285,-0.1491,0.001534,0.587515,-0.555301,0.556835,-0.595185,0.558369,-0.559903
0.6643,0.020094,0.000000,-0.035393,0.035393,0.0000,0.0000,0.0000,-0.002527,-0.044485,0.055223,0.9969,0.8285,-0.1491,0.001534,0.587515,-0.555301,0.556835,-0.595185,0.558369,-0.559903
0.6844,0.020093,0.000000,-0.031185,0.031185,0.0000,0.0000,0.0000,-0.002527,-0.047553,0.047553,0.9969,0.8285,-0.1491,0.001534,0.587515,-0.555301,0.556835,-0.595185,0.558369,-0.559903
0.7051,0.020676,0.000000,-0.026855,0.026855,0.0000,0.0000,0.0000,-0.002527,-0.046019,0.039884,0.9969,0.8285,-0.1491,0.001534,0.587515,-0.555301,0.556835,-0.595185,0.558369,-0.559903
0.7252,0.020103,0.000000,-0.022644,0.022644,0.0000,0.0000,0.0000,-0.002527,-0.039884,0.035282,0.9969,0.8285,-0.1491,0.001534,0.587515,-0.555301,0.556835,-0.595185,0.558369,-0.559903
0.7453,0.020083,0.000000,-0.018438,0.018438,0.0000,0.0000,0.0000,-0.002527,-0.030680,0.032214,0.9969,0.8285,-0.1491,0.001534,0.587515,-0.555301,0.556835,-0.595185,0.558369,-0.559903
0.7659,0.020634,0.000000,-0.014116,0.014116,0.0000,0.0000,0.0000,-0.002527,-0.024544,0.029146,0.9969,0.8285,-0.1491,0.001534,0.587515,-0.555301,0.556835,-0.595185,0.558369,-0.559903
0.7862,0.020218,0.000000,-0.009882,0.009882,0.0000,0.0000,0.0000,-0.002527,-0.019942,0.026078,0.9969,0.8285,-0.1491,0.001534,0.587515,-0.555301,0.556835,-0.595185,0.558369,-0.559903
0.8062,0.020092,0.000000,-0.005674,0.005674,0.0000,0.0000,0.0000,-0.002527,-0.023010,0.019942,0.9969,0.8285,-0.1491,0.001534,0.587515,-0.555301,0.556835,-0.595185,0.558369,-0.559903
0.8263,0.020097,0.000000,-0.001465,0.001465,0.0000,0.0000,0.0000,-0.002527,-0.019942,0.013806,0.9969,0.8285,-0.1491,0.001534,0.587515,-0.555301,0.556835,-0.595185,0.558369,-0.559903
0.8465,0.020113,0.000000,0.002748,-0.002748,0.0000,0.0000,0.0000,-0.002527,-0.013806,0.007670,0.9969,0.8285,-0.1491,0.001534,0.587515,-0.555301,0.556835,-0.595185,0.558369,-0.559903
0.8666,0.020105,0.000000,0.006958,-0.006958,0.0000,0.0000,0.0000,-0.002527,-0.004602,0.006136,0.9969,0.8285,-0.1491,0.001534,0.587515,-0.555301,0.556835,-0.595185,0.558369,-0.559903
0.8867,0.020111,0.000000,0.011170,-0.011170,0.0000,0.0000,0.0000,-0.002527,-0.004602,0.006136,0.9969,0.8285,-0.1491,0.001534,0.587515,-0.555301,0.556835,-0.595185,0.558369,-0.559903
0.9068,0.020101,0.000000,0.015380,-0.015380,0.0000,0.0000,0.0000,-0.002527,0.001534,0.004602,0.9969,0.8285,-0.1491,0.001534,0.587515,-0.555301,0.556835,-0.595185,0.558369,-0.559903
0.9269,0.020105,0.000000,0.019591,-0.019591,0.0000,0.0000,0.0000,-0.002527,0.001534,-0.004602,0.9969,0.8285,-0.1491,0.001534,0.587515,-0.555301,0.556835,-0.595185,0.558369,-0.559903
0.9470,0.020091,0.000000,0.023799,-0.023799,0.0000,0.0000,0.0000,-0.002527,0.007670,-0.012272,0.9969,0.8285,-0.1491,0.001534,0.587515,-0.555301,0.556835,-0.595185,0.558369,-0.559903
0.9684,0.021422,0.000000,0.028286,-0.028286,0.0000,0.0000,0.0000,-0.002527,0.015340,-0.016874,0.9969,0.8285,-0.1491,0.001534,0.587515,-0.555301,0.556835,-0.595185,0.558369,-0.559903
0.9893,0.020888,0.000000,0.032660,-0.032660,0.0000,0.0000,0.0000,-0.002527,0.019942,-0.016874,0.9969,0.8285,-0.1491,0.001534,0.587515,-0.555301,0.556835,-0.595185,0.558369,-0.559903
1.0103,0.020990,0.000000,0.037056,-0.037056,0.0000,0.0000,0.0000,-0.002527,0.019942,-0.018408,0.9969,0.8285,-0.1491,0.001534,0.587515,-0.555301,0.556835,-0.595185,0.558369,-0.559903
1.0304,0.020141,0.000000,0.041275,-0.041275,0.0000,0.0000,0.0000,-0.002527,0.027612,-0.019942,0.9969,0.8285,-0.1491,0.001534,0.587515,-0.555301,0.556835,-0.595185,0.558369,-0.559903
1.0505,0.020107,0.000000,0.045486,-0.045486,0.0000,0.0000,0.0000,-0.002527,0.035282,-0.024544,0.9969,0.8285,-0.1491,0.001534,0.587515,-0.555301,0.556835,-0.595185,0.558369,-0.559903
1.0709,0.020345,0.000000,0.049747,-0.049747,0.0000,0.0000,0.0000,-0.002527,0.038350,-0.032214,0.9969,0.8285,-0.1491,0.001534,0.587515,-0.555301,0.556835,-0.595185,0.558369,-0.559903
1.0913,0.020448,0.000000,0.054029,-0.054029,0.0000,0.0000,0.0000,-0.002527,0.035282,-0.041417,0.9969,0.8285,-0.1491,0.001534,0.587515,-0.555301,0.556835,-0.595185,0.558369,-0.559903
1.1117,0.020376,0.000000,0.058297,-0.058297,0.0000,0.0000,0.0000,-0.002527,0.039884,-0.046019,0.9969,0.8285,-0.1491,0.001534,0.587515,-0.555301,0.556835,-0.595185,0.558369,-0.559903
1.1318,0.020098,0.000000,0.062506,-0.062506,0.0000,0.0000,0.0000,-0.002527,0.049087,-0.046019,0.9969,0.8285,-0.1491,0.001534,0.587515,-0.555301,0.556835,-0.595185,0.558369,-0.559903
1.1519,0.020088,0.000000,0.066713,-0.066713,0.0000,0.0000,0.0000,-0.002527,0.055223,-0.047553,0.9969,0.8285,-0.1491,0.001534,0.587515,-0.555301,0.556835,-0.595185,0.558369,-0.559903
1.1720,0.020085,0.000000,0.070920,-0.070920,0.0000,0.0000,0.0000,-0.002527,0.059825,-0.053689,0.9969,0.8285,-0.1491,0.001534,0.587515,-0.555301,0.556835,-0.595185,0.558369,-0.559903
1.1924,0.020473,0.000000,0.075208,-0.075208,0.0000,0.0000,0.0000,-0.002527,0.059825,-0.059825,0.9969,0.8285,-0.1491,0.001534,0.587515,-0.555301,0.556835,-0.595185,0.558369,-0.559903
1.2125,0.020095,0.000000,0.079417,-0.079417,0.0000,0.0000,0.0000,-0.002527,0.058291,-0.067495,0.9969,0.8285,-0.1491,0.001534,0.587515,-0.555301,0.556835,-0.595185,0.558369,-0.559903
1.2326,0.020106,0.000000,0.083628,-0.083628,0.0000,0.0000,0.0000,-0.002527,0.064427,-0.070563,0.9969,0.8285,-0.1491,0.001534,0.587515,-0.555301,0.556835,-0.595185,0.558369,-0.559903
1.2527,0.020088,0.000000,0.087835,-0.087835,0.0000,0.0000,0.0000,-0.002527,0.073631,-0.072097,0.9969,0.8285,-0.1491,0.001534,0.587515,-0.555301,0.556835,-0.595185,0.558369,-0.559903
1.2729,0.020152,0.000000,0.092055,-0.092055,0.0000,0.0000,0.0000,-0.002527,0.081301,-0.073631,0.9969,0.8285,-0.1491,0.001534,0.587515,-0.555301,0.556835,-0.595185,0.558369,-0.559903
1.2932,0.020329,0.000000,0.096313,-0.096313,0.0000,0.0000,0.0000,-0.002527,0.082835,-0.075165,0.9969,0.8285,-0.1491,0.001534,0.587515,-0.555301,0.556835,-0.595185,0.558369,-0.559903
1.3136,0.020419,0.000000,0.100590,-0.100590,0.0000,0.0000,0.0000,-0.002527,0.081301,-0.075165,0.9969,0.8285,-0.1491,0.001534,0.587515,-0.555301,0.556835,-0.595185,0.558369,-0.559903
1.3337,0.020136,0.000000,0.104807,-0.104807,0.0000,0.0000,0.0000,-0.002527,0.088971,-0.079767,0.9969,0.8285,-0.1491,0.001534,0.587515,-0.555301,0.556835,-0.595185,0.558369,-0.559903
1.3538,0.020095,0.000000,0.109016,-0.109016,0.0000,0.0000,0.0000,-0.002527,0.099709,-0.085903,0.9969,0.8285,-0.1491,0.001534,0.587515,-0.555301,0.556835,-0.595185,0.558369,-0.559903
1.3741,0.020264,0.000000,0.113260,-0.113260,0.0000,0.0000,0.0000,-0.002527,0.099709,-0.095107,0.9969,0.8285,-0.1491,0.001534,0.587515,-0.555301,0.556835,-0.595185,0.558369,-0.559903
1.3942,0.020086,0.000000,0.117467,-0.117467,0.0000,0.0000,0.0000,-0.002527,0.096641,-0.102777,0.9969,0.8285,-0.1491,0.001534,0.587515,-0.555301,0.556835,-0.595185,0.558369,-0.559903
1.4143,0.020152,0.000000,0.121687,-0.121687,0.0000,0.0000,0.0000,-0.002527,0.102777,-0.107379,0.9969,0.8285,-0.1491,0.001534,0.587515,-0.555301,0.556835,-0.595185,0.558369,-0.559903
1.4344,0.020091,0.000000,0.125895,-0.125895,0.0000,0.0000,0.0000,-0.002527,0.113515,-0.111981,0.9969,0.8285,-0.1491,0.001534,0.587515,-0.555301,0.556835,-0.595185,0.558369,-0.559903
1.4545,0.020088,0.000000,0.130103,-0.130103,0.0000,0.0000,0.0000,-0.002527,0.119651,-0.118117,0.9969,0.8285,-0.1491,0.001534,0.587515,-0.555301,0.556835,-0.595185,0.558369,-0.559903
1.4746,0.020088,0.000000,0.134310,-0.134310,0.0000,0.0000,0.0000,-0.002527,0.119651,-0.122718,0.9969,0.8285,-0.1491,0.001534,0.587515,-0.555301,0.556835,-0.595185,0.558369,-0.559903
1.4947,0.020085,0.000000,0.138516,-0.138516,0.0000,0.0000,0.0000,-0.002527,0.118117,-0.124252,0.9969,0.8285,-0.1491,0.001534,0.587515,-0.555301,0.556835,-0.595185,0.558369,-0.559903
1.5148,0.020086,0.000000,0.142723,-0.142723,0.0000,0.0000,0.0000,-0.002527,0.124252,-0.127320,0.9969,0.8285,-0.1491,0.001534,0.587515,-0.555301,0.556835,-0.595185,0.558369,-0.559903
1.5349,0.020096,0.000000,0.146932,-0.146932,0.0000,0.0000,0.0000,-0.002527,0.136524,-0.130388,0.9969,0.8285,-0.1491,0.001534,0.587515,-0.555301,0.556835,-0.595185,0.558369,-0.559903
1.5550,0.020087,0.000000,0.151139,-0.151139,0.0000,0.0000,0.0000,-0.002527,0.138058,-0.134990,0.9969,0.8285,-0.1491,0.001534,0.587515,-0.555301,0.556835,-0.595185,0.558369,-0.559903
1.5751,0.020087,0.000000,0.155346,-0.155346,0.0000,0.0000,0.0000,-0.002527,0.134990,-0.139592,0.9969,0.8285,-0.1491,0.001534,0.587515,-0.555301,0.556835,-0.595185,0.558369,-0.559903
1.5952,0.020111,0.000000,0.159558,-0.159558,0.0000,0.0000,0.0000,-0.002527,0.142660,-0.145728,0.9969,0.8285,-0.1491,0.001534,0.587515,-0.555301,0.556835,-0.595185,0.558369,-0.559903
1.6152,0.020066,0.000000,0.163761,-0.163761,0.0000,0.0000,0.0000,-0.002527,0.153398,-0.151864,0.9969,0.8285,-0.1491,0.001534,0.587515,-0.555301,0.556835,-0.595185,0.558369,-0.559903
1.6358,0.020523,0.000000,0.168059,-0.168059,0.0000,0.0000,0.0000,-0.002527,0.153398,-0.154932,0.9969,0.8285,-0.1491,0.001534,0.587515,-0.555301,0.556835,-0.595185,0.558369,-0.559903
1.6560,0.020221,0.000000,0.172294,-0.172294,0.0000,0.0000,0.0000,-0.002527,0.148796,-0.156466,0.9969,0.8285,-0.1491,0.001534,0.587515,-0.555301,0.556835,-0.595185,0.558369,-0.559903
1.6761,0.020088,0.000000,0.172564,-0.172564,0.0000,0.0000,0.0000,-0.002527,0.153398,-0.159534,0.9969,0.8285,-0.1491,0.001534,0.587515,-0.555301,0.556835,-0.595185,0.558369,-0.559903
1.6962,0.020090,0.000000,0.168357,-0.168357,0.0000,0.0000,0.0000,-0.002527,0.165670,-0.164136,0.9969,0.8285,-0.1491,0.001534,0.587515,-0.555301,0.556835,-0.595185,0.558369,-0.559903
1.7163,0.020095,0.000000,0.164148,-0.164148,0.0000,0.0000,0.0000,-0.002527,0.174874,-0.171806,0.9969,0.8285,-0.1491,0.001534,0.587515,-0.555301,0.556835,-0.595185,0.558369,-0.559903
1.7364,0.020183,0.000000,0.159921,-0.159921,0.0000,0.0000,0.0000,-0.002527,0.165670,-0.173340,0.9969,0.8285,-0.1491,0.001534,0.587515,-0.555301,0.556835,-0.595185,0.558369,-0.559903
1.7571,0.020616,0.000000,0.155603,-0.155603,0.0000,0.0000,0.0000,-0.002527,0.165670,-0.168738,0.9969,0.8285,-0.1491,0.001534,0.587515,-0.555301,0.556835,-0.595185,0.558369,-0.559903
1.7775,0.020438,0.000000,0.151322,-0.151322,0.0000,0.0000,0.0000,-0.002527,0.167204,-0.167204,0.9969,0.8285,-0.1491,0.001534,0.587515,-0.555301,0.556835,-0.595185,0.558369,-0.559903
1.7976,0.020084,0.000000,0.147116,-0.147116,0.0000,0.0000,0.0000,-0.002527,0.162602,-0.165670,0.9969,0.8285,-0.1491,0.001534,0.587515,-0.555301,0.556835,-0.595185,0.558369,-0.559903
1.8177,0.020083,0.000000,0.142910,-0.142910,0.0000,0.0000,0.0000,-0.002527,0.154932,-0.159534,0.9969,0.8285,-0.1491,0.001534,0.587515,-0.555301,0.556835,-0.595185,0.558369,-0.559903
1.8378,0.020099,0.000000,0.138701,-0.138701,0.0000,0.0000,0.0000,-0.002527,0.154932,-0.159534,0.9969,0.8285,-0.1491,0.001534,0.587515,-0.555301,0.556835,-0.595185,0.558369,-0.559903
1.8579,0.020097,0.000000,0.134492,-0.134492,0.0000,0.0000,0.0000,-0.002527,0.147262,-0.153398,0.9969,0.8285,-0.1491,0.001534,0.587515,-0.555301,0.556835,-0.595185,0.558369,-0.559903
1.8779,0.020094,0.000000,0.130283,-0.130283,0.0000,0.0000,0.0000,-0.002527,0.141126,-0.147262,0.9969,0.8285,-0.1491,0.001534,0.587515,-0.555301,0.556835,-0.595185,0.558369,-0.559903
1.8980,0.020100,0.000000,0.126073,-0.126073,0.0000,0.0000,0.0000,-0.002527,0.141126,-0.145728,0.9969,0.8285,-0.1491,0.001534,0.587515,-0.555301,0.556835,-0.595185,0.558369,-0.559903
1.9181,0.020103,0.000000,0.121863,-0.121863,0.0000,0.0000,0.0000,-0.002527,0.141126,-0.144194,0.9969,0.8285,-0.1491,0.001534,0.587515,-0.555301,0.556835,-0.595185,0.558369,-0.559903
1.9387,0.020585,0.000000,0.117552,-0.117552,0.0000,0.0000,0.0000,-0.002527,0.136524,-0.141126,0.9969,0.8285,-0.1491,0.001534,0.587515,-0.555301,0.556835,-0.595185,0.558369,-0.559903
1.9588,0.020106,0.000000,0.113341,-0.113341,0.0000,0.0000,0.0000,-0.002527,0.128854,-0.138058,0.9969,0.8285,-0.1491,0.001534,0.587515,-0.555301,0.556835,-0.595185,0.558369,-0.559903
1.9789,0.020091,0.000000,0.109133,-0.109133,0.0000,0.0000,0.0000,-0.002527,0.122718,-0.130388,0.9969,0.8285,-0.1491,0.001534,0.587515,-0.555301,0.556835,-0.595185,0.558369,-0.559903
1.9990,0.020096,0.000000,0.104924,-0.104924,0.0000,0.0000,0.0000,-0.002527,0.118117,-0.122718,0.9969,0.8285,-0.1491,0.001534,0.587515,-0.555301,0.556835,-0.595185,0.558369,-0.559903
2.0191,0.020098,0.000000,0.100715,-0.100715,0.0000,0.0000,0.0000,-0.002527,0.116583,-0.118117,0.9969,0.8285,-0.1491,0.001534,0.587515,-0.555301,0.556835,-0.595185,0.558369,-0.559903
2.0392,0.020127,0.000000,0.096499,-0.096499,0.0000,0.0000,0.0000,-0.002527,0.113515,-0.116583,0.9969,0.8285,-0.1491,0.001534,0.587515,-0.555301,0.556835,-0.595185,0.558369,-0.559903
2.0594,0.020108,0.000000,0.092288,-0.092288,0.0000,0.0000,0.0000,-0.002527,0.107379,-0.116583,0.9969,0.8285,-0.1491,0.001534,0.587515,-0.555301,0.556835,-0.595185,0.558369,-0.559903
2.0795,0.020092,0.000000,0.088080,-0.088080,0.0000,0.0000,0.0000,-0.002527,0.102777,-0.115049,0.9969,0.8285,-0.1491,0.001534,0.587515,-0.555301,0.556835,-0.595185,0.558369,-0.559903
2.1001,0.020688,0.000000,0.083747,-0.083747,0.0000,0.0000,0.0000,-0.002527,0.096641,-0.108913,0.9969,0.8285,-0.1491,0.001534,0.587515,-0.555301,0.556835,-0.595185,0.558369,-0.559903
2.1202,0.020100,0.000000,0.079537,-0.079537,0.0000,0.0000,0.0000,-0.002527,0.093573,-0.098175,0.9969,0.8285,-0.1491,0.001534,0.587515,-0.555301,0.556835,-0.595185,0.558369,-0.559903
2.1403,0.020096,0.000000,0.075328,-0.075328,0.0000,0.0000,0.0000,-0.002527,0.090505,-0.090505,0.9969,0.8285,-0.1491,0.001534,0.587515,-0.555301,0.556835,-0.595185,0.558369,-0.559903
2.1604,0.020095,0.000000,0.071119,-0.071119,0.0000,0.0000,0.0000,-0.002527,0.085903,-0.087437,0.9969,0.8285,-0.1491,0.001534,0.587515,-0.555301,0.556835,-0.595185,0.558369,-0.559903
2.1805,0.020095,0.000000,0.066911,-0.066911,0.0000,0.0000,0.0000,-0.002527,0.082835,-0.084369,0.9969,0.8285,-0.1491,0.001534,0.587515,-0.555301,0.556835,-0.595185,0.558369,-0.559903
2.2006,0.020096,0.000000,0.062702,-0.062702,0.0000,0.0000,0.0000,-0.002527,0.078233,-0.078233,0.9969,0.8285,-0.1491,0.001534,0.587515,-0.555301,0.556835,-0.595185,0.558369,-0.559903
2.2207,0.020119,0.000000,0.058488,-0.058488,0.0000,0.0000,0.0000,-0.002527,0.072097,-0.072097,0.9969,0.8285,-0.1491,0.001534,0.587515,-0.555301,0.556835,-0.595185,0.558369,-0.559903
2.2408,0.020097,0.000000,0.054279,-0.054279,0.0000,0.0000,0.0000,-0.002527,0.069029,-0.072097,0.9969,0.8285,-0.1491,0.001534,0.587515,-0.555301,0.556835,-0.595185,0.558369,-0.559903
2.2609,0.020099,0.000000,0.050070,-0.050070,0.0000,0.0000,0.0000,-0.002527,0.065961,-0.069029,0.9969,0.8285,-0.1491,0.001534,0.587515,-0.555301,0.556835,-0.595185,0.558369,-0.559903
2.2810,0.020100,0.000000,0.045860,-0.045860,0.0000,0.0000,0.0000,-0.002527,0.061359,-0.062893,0.9969,0.8285,-0.1491,0.001534,0.587515,-0.555301,0.556835,-0.595185,0.558369,-0.559903
2.3012,0.020156,0.000000,0.041639,-0.041639,0.0000,0.0000,0.0000,-0.002527,0.053689,-0.058291,0.9969,0.8285,-0.1491,0.001534,0.587515,-0.555301,0.556835,-0.595185,0.558369,-0.559903
2.3213,0.020092,0.000000,0.037431,-0.037431,0.0000,0.0000,0.0000,-0.002527,0.053689,-0.052155,0.9969,0.8285,-0.1491,0.001534,0.587515,-0.555301,0.556835,-0.595185,0.558369,-0.559903
2.3414,0.020086,0.000000,0.033224,-0.033224,0.0000,0.0000,0.0000,-0.002527,0.055223,-0.047553,0.9969,0.8285,-0.1491,0.001534,0.587515,-0.555301,0.556835,-0.595185,0.558369,-0.559903
2.3615,0.020088,0.000000,0.029017,-0.029017,0.0000,0.0000,0.0000,-0.002527,0.049087,-0.044485,0.9969,0.8285,-0.1491,0.001534,0.587515,-0.555301,0.556835,-0.595185,0.558369,-0.559903
2.3815,0.020088,0.000000,0.024809,-0.024809,0.0000,0.0000,0.0000,-0.002527,0.038350,-0.042951,0.9969,0.8285,-0.1491,0.001534,0.587515,-0.555301,0.556835,-0.595185,0.558369,-0.559903
2.4016,0.020091,0.000000,0.020601,-0.020601,0.0000,0.0000,0.0000,-0.002527,0.030680,-0.038350,0.9969,0.8285,-0.1491,0.001534,0.587515,-0.555301,0.556835,-0.595185,0.558369,-0.559903
2.4217,0.020088,0.000000,0.016394,-0.016394,0.0000,0.0000,0.0000,-0.002527,0.029146,-0.032214,0.9969,0.8285,-0.1491,0.001534,0.587515,-0.555301,0.556835,-0.595185,0.558369,-0.559903
2.4418,0.020081,0.000000,0.012189,-0.012189,0.0000,0.0000,0.0000,-0.002527,0.030680,-0.029146,0.9969,0.8285,-0.1491,0.001534,0.587515,-0.555301,0.556835,-0.595185,0.558369,-0.559903
2.4619,0.020083,0.000000,0.007982,-0.007982,0.0000,0.0000,0.0000,-0.002527,0.027612,-0.023010,0.9969,0.8285,-0.1491,0.001534,0.587515,-0.555301,0.556835,-0.595185,0.558369,-0.559903
2.4820,0.020090,0.000000,0.003775,-0.003775,0.0000,0.0000,0.0000,-0.002527,0.018408,-0.016874,0.9969,0.8285,-0.1491,0.001534,0.587515,-0.555301,0.556835,-0.595185,0.558369,-0.559903
2.5021,0.020089,0.000000,-0.000433,0.000433,0.0000,0.0000,0.0000,-0.002527,0.009204,-0.016874,0.9969,0.8285,-0.1491,0.001534,0.587515,-0.555301,0.556835,-0.595185,0.558369,-0.559903
2.5222,0.020096,0.000000,-0.004641,0.004641,0.0000,0.0000,0.0000,-0.002527,0.007670,-0.015340,0.9969,0.8285,-0.1491,0.001534,0.587515,-0.555301,0.556835,-0.595185,0.558369,-0.559903
2.5422,0.020081,0.000000,-0.008847,0.008847,0.0000,0.0000,0.0000,-0.002527,0.010738,-0.007670,0.9969,0.8285,-0.1491,0.001534,0.587515,-0.555301,0.556835,-0.595185,0.558369,-0.559903
2.5623,0.020085,0.000000,-0.013054,0.013054,0.0000,0.0000,0.0000,-0.002527,0.009204,-0.003068,0.9969,0.8285,-0.1491,0.001534,0.587515,-0.555301,0.556835,-0.595185,0.558369,-0.559903
2.5824,0.020089,0.000000,-0.017261,0.017261,0.0000,0.0000,0.0000,-0.002527,0.000000,0.000000,0.9969,0.8285,-0.1491,0.001534,0.587515,-0.555301,0.556835,-0.595185,0.558369,-0.559903
2.6025,0.020089,0.000000,-0.021468,0.021468,0.0000,0.0000,0.0000,-0.002527,-0.009204,0.003068,0.9969,0.8285,-0.1491,0.001534,0.587515,-0.555301,0.556835,-0.595185,0.558369,-0.559903
2.6226,0.020096,0.000000,-0.025677,0.025677,0.0000,0.0000,0.0000,-0.002527,-0.010738,0.009204,0.9969,0.8285,-0.1491,0.001534,0.587515,-0.555301,0.556835,-0.595185,0.558369,-0.559903
2.6427,0.020084,0.000000,-0.029884,0.029884,0.0000,0.0000,0.0000,-0.002527,-0.010738,0.013806,0.9969,0.8285,-0.1491,0.001534,0.587515,-0.555301,0.556835,-0.595185,0.558369,-0.559903
2.6628,0.020084,0.000000,-0.034090,0.034090,0.0000,0.0000,0.0000,-0.002527,-0.018408,0.019942,0.9969,0.8285,-0.1491,0.001534,0.587515,-0.555301,0.556835,-0.595185,0.558369,-0.559903
2.6829,0.020087,0.000000,-0.038297,0.038297,0.0000,0.0000,0.0000,-0.002527,-0.029146,0.024544,0.9969,0.8285,-0.1491,0.001534,0.587515,-0.555301,0.556835,-0.595185,0.558369,-0.559903
2.7030,0.020096,0.000000,-0.042506,0.042506,0.0000,0.0000,0.0000,-0.002527,-0.032214,0.027612,0.9969,0.8285,-0.1491,0.001534,0.587515,-0.555301,0.556835,-0.595185,0.558369,-0.559903
2.7231,0.020102,0.000000,-0.046716,0.046716,0.0000,0.0000,0.0000,-0.002527,-0.029146,0.033748,0.9969,0.8285,-0.1491,0.001534,0.587515,-0.555301,0.556835,-0.595185,0.558369,-0.559903
2.7431,0.020096,0.000000,-0.050925,0.050925,0.0000,0.0000,0.0000,-0.002527,-0.032214,0.038350,0.9969,0.8285,-0.1491,0.001534,0.587515,-0.555301,0.556835,-0.595185,0.558369,-0.559903
2.7632,0.020097,0.000000,-0.055134,0.055134,0.0000,0.0000,0.0000,-0.002527,-0.041417,0.039884,0.9969,0.8285,-0.1491,0.001534,0.587515,-0.555301,0.556835,-0.595185,0.558369,-0.559903
2.7833,0.020084,0.000000,-0.059340,0.059340,0.0000,0.0000,0.0000,-0.002527,-0.052155,0.041417,0.9969,0.8285,-0.1491,0.001534,0.587515,-0.555301,0.556835,-0.595185,0.558369,-0.559903
2.8034,0.020080,0.000000,-0.063546,0.063546,0.0000,0.0000,0.0000,-0.002527,-0.053689,0.049087,0.9969,0.8285,-0.1491,0.001534,0.587515,-0.555301,0.556835,-0.595185,0.558369,-0.559903
2.8235,0.020084,0.000000,-0.067752,0.067752,0.0000,0.0000,0.0000,-0.002527,-0.050621,0.052155,0.9969,0.8285,-0.1491,0.001534,0.587515,-0.555301,0.556835,-0.595185,0.558369,-0.559903
2.8436,0.020086,0.000000,-0.071959,0.071959,0.0000,0.0000,0.0000,-0.002527,-0.053689,0.055223,0.9969,0.8285,-0.1491,0.001534,0.587515,-0.555301,0.556835,-0.595185,0.558369,-0.559903
2.8637,0.020083,0.000000,-0.076165,0.076165,0.0000,0.0000,0.0000,-0.002527,-0.064427,0.062893,0.9969,0.8285,-0.1491,0.001534,0.587515,-0.555301,0.556835,-0.595185,0.558369,-0.559903
2.8837,0.020080,0.000000,-0.080371,0.080371,0.0000,0.0000,0.0000,-0.002527,-0.072097,0.070563,0.9969,0.8285,-0.1491,0.001534,0.587515,-0.555301,0.556835,-0.595185,0.558369,-0.559903
2.9038,0.020081,0.000000,-0.084577,0.084577,0.0000,0.0000,0.0000,-0.002527,-0.072097,0.069029,0.9969,0.8285,-0.1491,0.001534,0.587515,-0.555301,0.556835,-0.595185,0.558369,-0.559903
2.9239,0.020084,0.000000,-0.088783,0.088783,0.0000,0.0000,0.0000,-0.002527,-0.069029,0.067495,0.9969,0.8285,-0.1491,0.001534,0.587515,-0.555301,0.556835,-0.595185,0.558369,-0.559903
2.9440,0.020086,0.000000,-0.092990,0.092990,0.0000,0.0000,0.0000,-0.002527,-0.075165,0.075165,0.9969,0.8285,-0.1491,0.001534,0.587515,-0.555301,0.556835,-0.595185,0.558369,-0.559903
2.9641,0.020079,0.000000,-0.097195,0.097195,0.0000,0.0000,0.0000,-0.002527,-0.087437,0.084369,0.9969,0.8285,-0.1491,0.001534,0.587515,-0.555301,0.556835,-0.595185,0.558369,-0.559903
2.9842,0.020083,0.000000,-0.101401,0.101401,0.0000,0.0000,0.0000,-0.002527,-0.088971,0.087437,0.9969,0.8285,-0.1491,0.001534,0.587515,-0.555301,0.556835,-0.595185,0.558369,-0.559903
3.0042,0.020082,0.000000,-0.105607,0.105607,0.0000,0.0000,0.0000,-0.002527,-0.085903,0.087437,0.9969,0.8285,-0.1491,0.001534,0.587515,-0.555301,0.556835,-0.595185,0.558369,-0.559903
3.0243,0.020088,0.000000,-0.109814,0.109814,0.0000,0.0000,0.0000,-0.002527,-0.092039,0.092039,0.9969,0.8285,-0.1491,0.001534,0.587515,-0.555301,0.556835,-0.595185,0.558369,-0.559903
3.0444,0.020077,0.000000,-0.114019,0.114019,0.0000,0.0000,0.0000,-0.002527,-0.104311,0.101243,0.9969,0.8285,-0.1491,0.001534,0.587515,-0.555301,0.556835,-0.595185,0.558369,-0.559903
3.0645,0.020076,0.000000,-0.118224,0.118224,0.0000,0.0000,0.0000,-0.002527,-0.108913,0.102777,0.9969,0.8285,-0.1491,0.001534,0.587515,-0.555301,0.556835,-0.595185,0.558369,-0.559903
3.0846,0.020083,0.000000,-0.122430,0.122430,0.0000,0.0000,0.0000,-0.002513,-0.107379,0.101243,1.0358,0.7928,-0.2028,0.001534,0.587515,-0.556835,0.556835,-0.595185,0.558369,-0.559903
3.1046,0.020076,0.000000,-0.126635,0.126635,0.0000,0.0000,0.0000,-0.002501,-0.119651,0.119651,1.0710,0.7609,-0.2504,0.001534,0.587515,-0.558369,0.556835,-0.595185,0.558369,-0.559903
3.1247,0.020080,0.000000,-0.130840,0.130840,0.0000,0.0000,0.0000,-0.002489,-0.125786,0.121184,1.1066,0.7287,-0.2987,0.001534,0.587515,-0.559903,0.556835,-0.595185,0.558369,-0.559903
3.1448,0.020083,0.000000,-0.135047,0.135047,0.0000,0.0000,0.0000,-0.002491,-0.125786,0.119651,1.1028,0.7320,-0.2936,0.001534,0.587515,-0.559903,0.556835,-0.595185,0.558369,-0.559903
3.1649,0.020074,0.000000,-0.139251,0.139251,0.0000,0.0000,0.0000,-0.002491,-0.128854,0.125786,1.1028,0.7320,-0.2936,0.001534,0.587515,-0.559903,0.556835,-0.595185,0.558369,-0.559903
3.1850,0.020082,0.000000,-0.143457,0.143457,0.0000,0.0000,0.0000,-0.002477,-0.138058,0.133456,1.1424,0.6961,-0.3475,0.001534,0.587515,-0.561437,0.556835,-0.595185,0.558369,-0.559903
3.2050,0.020077,0.000000,-0.147662,0.147662,0.0000,0.0000,0.0000,-0.002479,-0.139592,0.136524,1.1383,0.6998,-0.3419,0.001534,0.587515,-0.561437,0.556835,-0.595185,0.558369,-0.559903
3.2251,0.020080,0.000000,-0.151867,0.151867,0.0000,0.0000,0.0000,-0.002479,-0.138058,0.139592,1.1383,0.6998,-0.3419,0.001534,0.587515,-0.561437,0.556835,-0.595185,0.558369,-0.559903
3.2452,0.020083,0.000000,-0.156074,0.156074,0.0000,0.0000,0.0000,-0.002479,-0.145728,0.147262,1.1383,0.6998,-0.3419,0.001534,0.587515,-0.561437,0.556835,-0.595185,0.558369,-0.559903
3.2653,0.020080,0.000000,-0.160279,0.160279,0.0000,0.0000,0.0000,-0.002479,-0.156466,0.150330,1.1383,0.6998,-0.3419,0.001534,0.587515,-0.561437,0.556835,-0.595185,0.558369,-0.559903
3.2854,0.020092,0.000000,-0.164487,0.164487,0.0000,0.0000,0.0000,-0.002479,-0.158000,0.151864,1.1383,0.6998,-0.3419,0.001534,0.587515,-0.561437,0.556835,-0.595185,0.558369,-0.559903
3.3054,0.020077,0.000000,-0.168692,0.168692,0.0000,0.0000,0.0000,-0.002479,-0.156466,0.154932,1.1383,0.6998,-0.3419,0.001534,0.587515,-0.561437,0.556835,-0.595185,0.558369,-0.559903
3.3255,0.020083,0.000000,-0.172898,0.172898,0.0000,0.0000,0.0000,-0.002479,-0.164136,0.159534,1.1383,0.6998,-0.3419,0.001534,0.587515,-0.561437,0.556835,-0.595185,0.558369,-0.559903
3.3456,0.020087,0.000000,-0.171961,0.171961,0.0000,0.0000,0.0000,-0.002465,-0.168738,0.168738,1.1778,0.6639,-0.3958,0.001534,0.587515,-0.562971,0.556835,-0.595185,0.558369,-0.559903
3.3657,0.020074,0.000000,-0.167756,0.167756,0.0000,0.0000,0.0000,-0.002467,-0.168738,0.170272,1.1737,0.6676,-0.3902,0.001534,0.587515,-0.562971,0.556835,-0.595185,0.558369,-0.559903
3.3858,0.020095,0.000000,-0.163548,0.163548,0.0000,0.0000,0.0000,-0.002480,-0.173340,0.170272,1.1350,0.7028,-0.3374,0.001534,0.587515,-0.561437,0.556835,-0.595185,0.558369,-0.559903
3.4059,0.020073,0.000000,-0.159343,0.159343,0.0000,0.0000,0.0000,-0.002478,-0.177942,0.170272,1.1390,0.6991,-0.3429,0.001534,0.587515,-0.561437,0.556835,-0.595185,0.558369,-0.559903
3.4259,0.020077,0.000000,-0.155138,0.155138,0.0000,0.0000,0.0000,-0.002478,-0.176408,0.170272,1.1390,0.6991,-0.3429,0.001534,0.587515,-0.561437,0.556835,-0.595185,0.558369,-0.559903
3.4460,0.020086,0.000000,-0.150932,0.150932,0.0000,0.0000,0.0000,-0.002465,-0.168738,0.165670,1.1777,0.6640,-0.3957,0.001534,0.587515,-0.562971,0.556835,-0.595185,0.558369,-0.559903
3.4661,0.020076,0.000000,-0.146727,0.146727,0.0000,0.0000,0.0000,-0.002480,-0.159534,0.162602,1.1346,0.7032,-0.3368,0.001534,0.587515,-0.561437,0.556835,-0.595185,0.558369,-0.559903
3.4862,0.020100,0.000000,-0.142517,0.142517,0.0000,0.0000,0.0000,-0.002478,-0.153398,0.156466,1.1391,0.6991,-0.3430,0.001534,0.587515,-0.561437,0.556835,-0.595185,0.558369,-0.559903
3.5063,0.020081,0.000000,-0.138312,0.138312,0.0000,0.0000,0.0000,-0.002478,-0.153398,0.151864,1.1391,0.6991,-0.3430,0.001534,0.587515,-0.561437,0.556835,-0.595185,0.558369,-0.559903
3.5264,0.020093,0.000000,-0.134103,0.134103,0.0000,0.0000,0.0000,-0.002478,-0.150330,0.145728,1.1391,0.6991,-0.3430,0.001534,0.587515,-0.561437,0.556835,-0.595185,0.558369,-0.559903
3.5465,0.020086,0.000000,-0.129897,0.129897,0.0000,0.0000,0.0000,-0.002478,-0.145728,0.142660,1.1391,0.6991,-0.3430,0.001534,0.587515,-0.561437,0.556835,-0.595185,0.558369,-0.559903
3.5665,0.020081,0.000000,-0.125691,0.125691,0.0000,0.0000,0.0000,-0.002478,-0.142660,0.142660,1.1391,0.6991,-0.3430,0.001534,0.587515,-0.561437,0.556835,-0.595185,0.558369,-0.559903
3.5866,0.020087,0.000000,-0.121484,0.121484,0.0000,0.0000,0.0000,-0.002478,-0.134990,0.141126,1.1391,0.6991,-0.3430,0.001534,0.587515,-0.561437,0.556835,-0.595185,0.558369,-0.559903
3.6067,0.020082,0.000000,-0.117278,0.117278,0.0000,0.0000,0.0000,-0.002478,-0.127320,0.138058,1.1391,0.6991,-0.4309,0.000000,0.587515,-0.561437,0.556835,-0.595185,0.558369,-0.559903
3.6268,0.020079,0.000000,-0.113072,0.113072,0.0000,0.0000,0.0000,-0.002465,-0.125786,0.130388,1.1777,0.6640,-0.3957,0.001534,0.587515,-0.562971,0.556835,-0.595185,0.558369,-0.559903
3.6469,0.020077,0.000000,-0.108867,0.108867,0.0000,0.0000,0.0000,-0.002480,-0.124252,0.122718,1.1346,0.7032,-0.3368,0.001534,0.587515,-0.561437,0.556835,-0.595185,0.558369,-0.559903
3.6669,0.020076,0.000000,-0.104663,0.104663,0.0000,0.0000,0.0000,-0.002478,-0.122718,0.116583,1.1391,0.6991,-0.3430,0.001534,0.587515,-0.561437,0.556835,-0.595185,0.558369,-0.559903
3.6870,0.020075,0.000000,-0.100458,0.100458,0.0000,0.0000,0.0000,-0.002478,-0.118117,0.113515,1.1391,0.6991,-0.3430,0.001534,0.587515,-0.561437,0.556835,-0.595185,0.558369,-0.559903
3.7071,0.020079,0.000000,-0.096253,0.096253,0.0000,0.0000,0.0000,-0.002478,-0.111981,0.110447,1.1391,0.6991,-0.3430,0.001534,0.587515,-0.561437,0.556835,-0.595185,0.558369,-0.559903
3.7272,0.020090,0.000000,-0.092045,0.092045,0.0000,0.0000,0.0000,-0.002478,-0.104311,0.105845,1.1391,0.6991,-0.3430,0.001534,0.587515,-0.561437,0.556835,-0.595185,0.558369,-0.559903
3.7473,0.020082,0.000000,-0.087839,0.087839,0.0000,0.0000,0.0000,-0.002478,-0.101243,0.098175,1.1391,0.6991,-0.3430,0.001534,0.587515,-0.561437,0.556835,-0.595185,0.558369,-0.559903
3.7674,0.020084,0.000000,-0.083633,0.083633,0.0000,0.0000,0.0000,-0.002478,-0.096641,0.093573,1.1391,0.6991,-0.3430,0.001534,0.587515,-0.561437,0.556835,-0.595185,0.558369,-0.559903
3.7874,0.020082,0.000000,-0.079427,0.079427,0.0000,0.0000,0.0000,-0.002478,-0.093573,0.092039,1.1391,0.6991,-0.3430,0.001534,0.587515,-0.561437,0.556835,-0.595185,0.558369,-0.559903
3.8075,0.020084,0.000000,-0.075220,0.075220,0.0000,0.0000,0.0000,-0.002478,-0.090505,0.090505,1.1391,0.6991,-0.3430,0.001534,0.587515,-0.561437,0.556835,-0.595185,0.558369,-0.559903
3.8277,0.020145,0.000000,-0.071001,0.071001,0.0000,0.0000,0.0000,-0.002478,-0.085903,0.090505,1.1391,0.6991,-0.3430,0.001534,0.587515,-0.561437,0.556835,-0.595185,0.558369,-0.559903
3.8477,0.020075,0.000000,-0.066797,0.066797,0.0000,0.0000,0.0000,-0.002478,-0.076699,0.087437,1.1391,0.6991,-0.3430,0.001534,0.587515,-0.561437,0.556835,-0.595185,0.558369,-0.559903
3.8678,0.020092,0.000000,-0.062588,0.062588,0.0000,0.0000,0.0000,-0.002478,-0.073631,0.081301,1.1391,0.6991,-0.3430,0.001534,0.587515,-0.561437,0.556835,-0.595185,0.558369,-0.559903
3.8880,0.020210,0.000000,-0.058356,0.058356,0.0000,0.0000,0.0000,-0.002478,-0.072097,0.072097,1.1391,0.6991,-0.3430,0.001534,0.587515,-0.561437,0.556835,-0.595185,0.558369,-0.559903
3.9081,0.020078,0.000000,-0.054151,0.054151,0.0000,0.0000,0.0000,-0.002478,-0.069029,0.065961,1.1391,0.6991,-0.3430,0.001534,0.587515,-0.561437,0.556835,-0.595185,0.558369,-0.559903
3.9282,0.020107,0.000000,-0.049939,0.049939,0.0000,0.0000,0.0000,-0.002478,-0.064427,0.059825,1.1391,0.6991,-0.3430,0.001534,0.587515,-0.561437,0.556835,-0.595185,0.558369,-0.559903
3.9483,0.020077,0.000000,-0.045734,0.045734,0.0000,0.0000,0.0000,-0.002478,-0.056757,0.059825,1.1391,0.6991,-0.3430,0.001534,0.587515,-0.561437,0.556835,-0.595185,0.558369,-0.559903
3.9684,0.020146,0.000000,-0.041515,0.041515,0.0000,0.0000,0.0000,-0.002478,-0.050621,0.058291,1.1391,0.6991,-0.3430,0.001534,0.587515,-0.561437,0.556835,-0.595185,0.558369,-0.559903
3.9885,0.020093,0.000000,-0.037307,0.037307,0.0000,0.0000,0.0000,-0.002478,-0.049087,0.053689,1.1391,0.6991,-0.3430,0.001534,0.587515,-0.561437,0.556835,-0.595185,0.558369,-0.559903
4.0086,0.020079,0.000000,-0.033102,0.033102,0.0000,0.0000,0.0000,-0.002478,-0.047553,0.047553,1.1391,0.6991,-0.3430,0.001534,0.587515,-0.561437,0.556835,-0.595185,0.558369,-0.559903
4.0289,0.020280,0.000000,-0.028854,0.028854,0.0000,0.0000,0.0000,-0.002478,-0.042951,0.041417,1.1391,0.6991,-0.3430,0.001534,0.587515,-0.561437,0.556835,-0.595185,0.558369,-0.559903
4.0490,0.020078,0.000000,-0.024649,0.024649,0.0000,0.0000,0.0000,-0.002478,-0.038350,0.036816,1.1391,0.6991,-0.3430,0.001534,0.587515,-0.561437,0.556835,-0.595185,0.558369,-0.559903
4.0691,0.020165,0.000000,-0.020425,0.020425,0.0000,0.0000,0.0000,-0.002478,-0.032214,0.033748,1.1391,0.6991,-0.3430,0.001534,0.587515,-0.561437,0.556835,-0.595185,0.558369,-0.559903
4.0893,0.020110,0.000000,-0.016214,0.016214,0.0000,0.0000,0.0000,-0.002492,-0.026078,0.032214,1.1495,0.6474,-0.3959,0.001534,0.587515,-0.561437,0.555301,-0.595185,0.558369,-0.559903
4.1093,0.020083,0.000000,-0.012007,0.012007,0.0000,0.0000,0.0000,-0.002477,-0.023010,0.029146,1.1375,0.7049,-0.3368,0.001534,0.587515,-0.561437,0.556835,-0.595185,0.558369,-0.559903
4.1297,0.020317,0.000000,-0.007752,0.007752,0.0000,0.0000,0.0000,-0.002479,-0.024544,0.023010,1.1388,0.6989,-0.3430,0.001534,0.587515,-0.561437,0.556835,-0.595185,0.558369,-0.559903
4.1497,0.020081,0.000000,-0.003546,0.003546,0.0000,0.0000,0.0000,-0.002479,-0.019942,0.016874,1.1388,0.6989,-0.3430,0.001534,0.587515,-0.561437,0.556835,-0.595185,0.558369,-0.559903
4.1698,0.020081,0.000000,0.000659,-0.000659,0.0000,0.0000,0.0000,-0.002479,-0.012272,0.009204,1.1388,0.6989,-0.3430,0.001534,0.587515,-0.561437,0.556835,-0.595185,0.558369,-0.559903
4.1899,0.020104,0.000000,0.004870,-0.004870,0.0000,0.0000,0.0000,-0.002479,-0.006136,0.006136,1.1388,0.6989,-0.3430,0.001534,0.587515,-0.561437,0.556835,-0.595185,0.558369,-0.559903
4.2100,0.020076,0.000000,0.009075,-0.009075,0.0000,0.0000,0.0000,-0.002479,0.000000,0.004602,1.1388,0.6989,-0.3430,0.001534,0.587515,-0.561437,0.556835,-0.595185,0.558369,-0.559903
4.2302,0.020213,0.000000,0.013308,-0.013308,0.0000,0.0000,0.0000,-0.002479,0.001534,0.003068,1.1388,0.6989,-0.3430,0.001534,0.587515,-0.561437,0.556835,-0.595185,0.558369,-0.559903
4.2503,0.020076,0.000000,0.017513,-0.017513,0.0000,0.0000,0.0000,-0.002479,0.001534,-0.003068,1.1388,0.6989,-0.3430,0.001534,0.587515,-0.561437,0.556835,-0.595185,0.558369,-0.559903
4.2704,0.020073,0.000000,0.021717,-0.021717,0.0000,0.0000,0.0000,-0.002479,0.007670,-0.009204,1.1388,0.6989,-0.3430,0.001534,0.587515,-0.561437,0.556835,-0.595185,0.558369,-0.559903
4.2904,0.020089,0.000000,0.025924,-0.025924,0.0000,0.0000,0.0000,-0.002465,0.015340,-0.013806,1.1777,0.6640,-0.3957,0.001534,0.587515,-0.562971,0.556835,-0.595185,0.558369,-0.559903
4.3105,0.020081,0.000000,0.030130,-0.030130,0.0000,0.0000,0.0000,-0.002480,0.016874,-0.016874,1.1346,0.7032,-0.3368,0.001534,0.587515,-0.561437,0.556835,-0.595185,0.558369,-0.559903
4.3306,0.020082,0.000000,0.034336,-0.034336,0.0000,0.0000,0.0000,-0.002478,0.015340,-0.018408,1.1391,0.6991,-0.3430,0.001534,0.587515,-0.561437,0.556835,-0.595185,0.558369,-0.559903
4.3507,0.020082,0.000000,0.038542,-0.038542,0.0000,0.0000,0.0000,-0.002478,0.018408,-0.021476,1.1391,0.6991,-0.3430,0.001534,0.587515,-0.561437,0.556835,-0.595185,0.558369,-0.559903
4.3708,0.020080,0.000000,0.042748,-0.042748,0.0000,0.0000,0.0000,-0.002478,0.027612,-0.026078,1.1391,0.6991,-0.3430,0.001534,0.587515,-0.561437,0.556835,-0.595185,0.558369,-0.559903
4.3909,0.020092,0.000000,0.046956,-0.046956,0.0000,0.0000,0.0000,-0.002478,0.038350,-0.033748,1.1391,0.6991,-0.3430,0.001534,0.587515,-0.561437,0.556835,-0.595185,0.558369,-0.559903
4.4109,0.020078,0.000000,0.051161,-0.051161,0.0000,0.0000,0.0000,-0.002478,0.039884,-0.041417,1.1391,0.6991,-0.3430,0.001534,0.587515,-0.561437,0.556835,-0.595185,0.558369,-0.559903
4.4310,0.020085,0.000000,0.055367,-0.055367,0.0000,0.0000,0.0000,-0.002478,0.036816,-0.042951,1.1391,0.6991,-0.3430,0.001534,0.587515,-0.561437,0.556835,-0.595185,0.558369,-0.559903
4.4521,0.021039,0.000000,0.059774,-0.059774,0.0000,0.0000,0.0000,-0.002478,0.039884,-0.042951,1.1391,0.6991,-0.3430,0.001534,0.587515,-0.561437,0.556835,-0.595185,0.558369,-0.559903
4.4721,0.020079,0.000000,0.063979,-0.063979,0.0000,0.0000,0.0000,-0.002478,0.049087,-0.047553,1.1391,0.6991,-0.3430,0.001534,0.587515,-0.561437,0.556835,-0.595185,0.558369,-0.559903
4.4923,0.020107,0.000000,0.068190,-0.068190,0.0000,0.0000,0.0000,-0.002478,0.056757,-0.052155,1.1391,0.6991,-0.3430,0.001534,0.587515,-0.561437,0.556835,-0.595185,0.558369,-0.559903
4.5125,0.020244,0.000000,0.072430,-0.072430,0.0000,0.0000,0.0000,-0.002478,0.061359,-0.058291,1.1391,0.6991,-0.3430,0.001534,0.587515,-0.561437,0.556835,-0.595185,0.558369,-0.559903
4.5326,0.020088,0.000000,0.076637,-0.076637,0.0000,0.0000,0.0000,-0.002478,0.061359,-0.064427,1.1391,0.6991,-0.3430,0.001534,0.587515,-0.561437,0.556835,-0.595185,0.558369,-0.559903
4.5527,0.020101,0.000000,0.080847,-0.080847,0.0000,0.0000,0.0000,-0.002478,0.059825,-0.067495,1.1391,0.6991,-0.3430,0.001534,0.587515,-0.561437,0.556835,-0.595185,0.558369,-0.559903
4.5728,0.020100,0.000000,0.085057,-0.085057,0.0000,0.0000,0.0000,-0.002478,0.065961,-0.069029,1.1391,0.6991,-0.3430,0.001534,0.587515,-0.561437,0.556835,-0.595185,0.558369,-0.559903
4.5929,0.020123,0.000000,0.089271,-0.089271,0.0000,0.0000,0.0000,-0.002478,0.076699,-0.073631,1.1391,0.6991,-0.3430,0.001534,0.587515,-0.561437,0.556835,-0.595185,0.558369,-0.559903
4.6130,0.020081,0.000000,0.093477,-0.093477,0.0000,0.0000,0.0000,-0.002478,0.082835,-0.075165,1.1391,0.6991,-0.3430,0.001534,0.587515,-0.561437,0.556835,-0.595185,0.558369,-0.559903
4.6331,0.020091,0.000000,0.097685,-0.097685,0.0000,0.0000,0.0000,-0.002478,0.081301,-0.076699,1.1391,0.6991,-0.3430,0.001534,0.587515,-0.561437,0.556835,-0.595185,0.558369,-0.559903
4.6532,0.020107,0.000000,0.101896,-0.101896,0.0000,0.0000,0.0000,-0.002478,0.082835,-0.081301,1.1391,0.6991,-0.3430,0.001534,0.587515,-0.561437,0.556835,-0.595185,0.558369,-0.559903
4.6733,0.020085,0.000000,0.106103,-0.106103,0.0000,0.0000,0.0000,-0.002478,0.092039,-0.085903,1.1391,0.6991,-0.3430,0.001534,0.587515,-0.561437,0.556835,-0.595185,0.558369,-0.559903
4.6934,0.020108,0.000000,0.110314,-0.110314,0.0000,0.0000,0.0000,-0.002478,0.099709,-0.093573,1.1391,0.6991,-0.3430,0.001534,0.587515,-0.561437,0.556835,-0.595185,0.558369,-0.559903
4.7135,0.020126,0.000000,0.114529,-0.114529,0.0000,0.0000,0.0000,-0.002478,0.101243,-0.101243,1.1391,0.6991,-0.3430,0.001534,0.587515,-0.561437,0.556835,-0.595185,0.558369,-0.559903
4.7336,0.020112,0.000000,0.118742,-0.118742,0.0000,0.0000,0.0000,-0.002478,0.098175,-0.104311,1.1391,0.6991,-0.3430,0.001534,0.587515,-0.561437,0.556835,-0.595185,0.558369,-0.559903
4.7537,0.020093,0.000000,0.122950,-0.122950,0.0000,0.0000,0.0000,-0.002478,0.102777,-0.107379,1.1391,0.6991,-0.3430,0.001534,0.587515,-0.561437,0.556835,-0.595185,0.558369,-0.559903
4.7738,0.020092,0.000000,0.127158,-0.127158,0.0000,0.0000,0.0000,-0.002465,0.115049,-0.111981,1.1777,0.6640,-0.3957,0.001534,0.587515,-0.562971,0.556835,-0.595185,0.558369,-0.559903
4.7940,0.020164,0.000000,0.131381,-0.131381,0.0000,0.0000,0.0000,-0.002480,0.124252,-0.118117,1.1346,0.7032,-0.3368,0.001534,0.587515,-0.561437,0.556835,-0.595185,0.558369,-0.559903
4.8141,0.020091,0.000000,0.135589,-0.135589,0.0000,0.0000,0.0000,-0.002478,0.122718,-0.125786,1.1391,0.6991,-0.3430,0.001534,0.587515,-0.561437,0.556835,-0.595185,0.558369,-0.559903
4.8372,0.023185,0.000000,0.140445,-0.140445,0.0000,0.0000,0.0000,-0.002478,0.119651,-0.127320,1.1391,0.6991,-0.3430,0.001534,0.587515,-0.561437,0.556835,-0.595185,0.558369,-0.559903
4.8573,0.020086,0.000000,0.144652,-0.144652,0.0000,0.0000,0.0000,-0.002465,0.125786,-0.128854,1.1777,0.6640,-0.3957,0.001534,0.587515,-0.562971,0.556835,-0.595185,0.558369,-0.559903
4.8774,0.020118,0.000000,0.148865,-0.148865,0.0000,0.0000,0.0000,-0.002467,0.138058,-0.131922,1.1737,0.6676,-0.3902,0.001534,0.587515,-0.562971,0.556835,-0.595185,0.558369,-0.559903
4.8975,0.020083,0.000000,0.153071,-0.153071,0.0000,0.0000,0.0000,-0.002467,0.141126,-0.134990,1.1737,0.6676,-0.3902,0.001534,0.587515,-0.562971,0.556835,-0.595185,0.558369,-0.559903
4.9176,0.020092,0.000000,0.157279,-0.157279,0.0000,0.0000,0.0000,-0.002480,0.141126,-0.141126,1.1350,0.7028,-0.3374,0.001534,0.587515,-0.561437,0.556835,-0.595185,0.558369,-0.559903
4.9377,0.020081,0.000000,0.161485,-0.161485,0.0000,0.0000,0.0000,-0.002478,0.144194,-0.150330,1.1390,0.6991,-0.3429,0.001534,0.587515,-0.561437,0.556835,-0.595185,0.558369,-0.559903
4.9578,0.020090,0.000000,0.165693,-0.165693,0.0000,0.0000,0.0000,-0.002478,0.148796,-0.156466,1.1390,0.6991,-0.3429,0.001534,0.587515,-0.561437,0.556835,-0.595185,0.558369,-0.559903
4.9779,0.020087,0.000000,0.169900,-0.169900,0.0000,0.0000,0.0000,-0.002478,0.159534,-0.158000,1.1390,0.6991,-0.3429,0.001534,0.587515,-0.561437,0.556835,-0.595185,0.558369,-0.559903
4.9980,0.020082,0.000000,0.174106,-0.174106,0.0000,0.0000,0.0000,-0.002478,0.162602,-0.158000,1.1390,0.6991,-0.3429,0.001534,0.587515,-0.561437,0.556835,-0.595185,0.558369,-0.559903
5.0181,0.020096,0.000000,0.170751,-0.170751,0.0000,0.0000,0.0000,-0.002478,0.161068,-0.162602,1.1390,0.6991,-0.3429,0.001534,0.587515,-0.561437,0.556835,-0.595185,0.558369,-0.559903
5.0381,0.020081,0.000000,0.166546,-0.166546,0.0000,0.0000,0.0000,-0.002478,0.168738,-0.168738,1.1390,0.6991,-0.3429,0.001534,0.587515,-0.561437,0.556835,-0.595185,0.558369,-0.559903
5.0582,0.020081,0.000000,0.162340,-0.162340,0.0000,0.0000,0.0000,-0.002478,0.177942,-0.176408,1.1390,0.6991,-0.3429,0.001534,0.587515,-0.561437,0.556835,-0.595185,0.558369,-0.559903
5.0783,0.020083,0.000000,0.158134,-0.158134,0.0000,0.0000,0.0000,-0.002478,0.174874,-0.176408,1.1390,0.6991,-0.3429,0.001534,0.587515,-0.561437,0.556835,-0.595185,0.558369,-0.559903
5.0984,0.020079,0.000000,0.153928,-0.153928,0.0000,0.0000,0.0000,-0.002478,0.164136,-0.171806,1.1390,0.6991,-0.3429,0.001534,0.587515,-0.561437,0.556835,-0.595185,0.558369,-0.559903
5.1185,0.020091,0.000000,0.149721,-0.149721,0.0000,0.0000,0.0000,-0.002478,0.162602,-0.167204,1.1390,0.6991,-0.3429,0.001534,0.587515,-0.561437,0.556835,-0.595185,0.558369,-0.559903
5.1385,0.020078,0.000000,0.145515,-0.145515,0.0000,0.0000,0.0000,-0.002465,0.161068,-0.164136,1.1777,0.6640,-0.3957,0.001534,0.587515,-0.562971,0.556835,-0.595185,0.558369,-0.559903
5.1588,0.020270,0.000000,0.141270,-0.141270,0.0000,0.0000,0.0000,-0.002480,0.156466,-0.158000,1.1346,0.7032,-0.3368,0.001534,0.587515,-0.561437,0.556835,-0.595185,0.558369,-0.559903
5.1789,0.020075,0.000000,0.137066,-0.137066,0.0000,0.0000,0.0000,-0.002478,0.148796,-0.153398,1.1391,0.6991,-0.3430,0.001534,0.587515,-0.561437,0.556835,-0.595185,0.558369,-0.559903
5.1990,0.020076,0.000000,0.132861,-0.132861,0.0000,0.0000,0.0000,-0.002478,0.142660,-0.148796,1.1391,0.6991,-0.3430,0.001534,0.587515,-0.561437,0.556835,-0.595185,0.558369,-0.559903
5.2190,0.020077,0.000000,0.128656,-0.128656,0.0000,0.0000,0.0000,-0.002478,0.141126,-0.147262,1.1391,0.6991,-0.3430,0.001534,0.587515,-0.561437,0.556835,-0.595185,0.558369,-0.559903
5.2391,0.020078,0.000000,0.124451,-0.124451,0.0000,0.0000,0.0000,-0.002478,0.141126,-0.145728,1.1391,0.6991,-0.3430,0.001534,0.587515,-0.561437,0.556835,-0.595185,0.558369,-0.559903
5.2592,0.020082,0.000000,0.120245,-0.120245,0.0000,0.0000,0.0000,-0.002478,0.138058,-0.142660,1.1391,0.6991,-0.3430,0.001534,0.587515,-0.561437,0.556835,-0.595185,0.558369,-0.559903
5.2793,0.020082,0.000000,0.116039,-0.116039,0.0000,0.0000,0.0000,-0.002465,0.130388,-0.138058,1.1777,0.6640,-0.3957,0.001534,0.587515,-0.562971,0.556835,-0.595185,0.558369,-0.559903
5.2994,0.020080,0.000000,0.111833,-0.111833,0.0000,0.0000,0.0000,-0.002480,0.121184,-0.131922,1.1346,0.7032,-0.3368,0.001534,0.587515,-0.561437,0.556835,-0.595185,0.558369,-0.559903
5.3195,0.020086,0.000000,0.107627,-0.107627,0.0000,0.0000,0.0000,-0.002465,0.116583,-0.122718,1.1782,0.6636,-0.3964,0.001534,0.587515,-0.562971,0.556835,-0.595185,0.558369,-0.559903
5.3395,0.020082,0.000000,0.103421,-0.103421,0.0000,0.0000,0.0000,-0.002467,0.119651,-0.121184,1.1736,0.6677,-0.3901,0.001534,0.587515,-0.562971,0.556835,-0.595185,0.558369,-0.559903
5.3596,0.020099,0.000000,0.099211,-0.099211,0.0000,0.0000,0.0000,-0.002480,0.116583,-0.119651,1.1350,0.7028,-0.3374,0.001534,0.587515,-0.561437,0.556835,-0.595185,0.558369,-0.559903
5.3797,0.020080,0.000000,0.095005,-0.095005,0.0000,0.0000,0.0000,-0.002478,0.108913,-0.118117,1.1390,0.6991,-0.3429,0.001534,0.587515,-0.561437,0.556835,-0.595185,0.558369,-0.559903
5.3998,0.020080,0.000000,0.090800,-0.090800,0.0000,0.0000,0.0000,-0.002478,0.104311,-0.115049,1.1390,0.6991,-0.3429,0.001534,0.587515,-0.561437,0.556835,-0.595185,0.558369,-0.559903
5.4199,0.020085,0.000000,0.086593,-0.086593,0.0000,0.0000,0.0000,-0.002478,0.098175,-0.111981,1.1390,0.6991,-0.3429,0.001534,0.587515,-0.561437,0.556835,-0.595185,0.558369,-0.559903
5.4400,0.020082,0.000000,0.082387,-0.082387,0.0000,0.0000,0.0000,-0.002478,0.092039,-0.101243,1.1390,0.6991,-0.3429,0.001534,0.587515,-0.561437,0.556835,-0.595185,0.558369,-0.559903
5.4601,0.020168,0.000000,0.078164,-0.078164,0.0000,0.0000,0.0000,-0.002478,0.090505,-0.092039,1.1390,0.6991,-0.3429,0.001534,0.587515,-0.561437,0.556835,-0.595185,0.558369,-0.559903
5.4802,0.020080,0.000000,0.073958,-0.073958,0.0000,0.0000,0.0000,-0.002478,0.093573,-0.087437,1.1390,0.6991,-0.3429,0.001534,0.587515,-0.561437,0.556835,-0.595185,0.558369,-0.559903
5.5005,0.020297,0.000000,0.069707,-0.069707,0.0000,0.0000,0.0000,-0.002478,0.087437,-0.087437,1.1390,0.6991,-0.3429,0.001534,0.587515,-0.561437,0.556835,-0.595185,0.558369,-0.559903
5.5206,0.020091,0.000000,0.065499,-0.065499,0.0000,0.0000,0.0000,-0.002478,0.079767,-0.082835,1.1390,0.6991,-0.3429,0.001534,0.587515,-0.561437,0.556835,-0.595185,0.558369,-0.559903
5.5407,0.020082,0.000000,0.061293,-0.061293,0.0000,0.0000,0.0000,-0.002478,0.073631,-0.072097,1.1390,0.6991,-0.3429,0.001534,0.587515,-0.561437,0.556835,-0.595185,0.558369,-0.559903
5.5609,0.020222,0.000000,0.057058,-0.057058,0.0000,0.0000,0.0000,-0.002465,0.070563,-0.070563,1.1777,0.6640,-0.3957,0.001534,0.587515,-0.562971,0.556835,-0.595185,0.558369,-0.559903
5.5810,0.020081,0.000000,0.052852,-0.052852,0.0000,0.0000,0.0000,-0.002480,0.064427,-0.070563,1.1346,0.7032,-0.3368,0.001534,0.587515,-0.561437,0.556835,-0.595185,0.558369,-0.559903
5.6012,0.020225,0.000000,0.048616,-0.048616,0.0000,0.0000,0.0000,-0.002478,0.062893,-0.067495,1.1391,0.6991,-0.3430,0.001534,0.587515,-0.561437,0.556835,-0.595185,0.558369,-0.559903
5.6213,0.020079,0.000000,0.044411,-0.044411,0.0000,0.0000,0.0000,-0.002478,0.053689,-0.053689,1.1391,0.6991,-0.3430,0.001534,0.587515,-0.561437,0.556835,-0.595185,0.558369,-0.559903
5.6414,0.020084,0.000000,0.040204,-0.040204,0.0000,0.0000,0.0000,-0.002478,0.049087,-0.047553,1.1391,0.6991,-0.3430,0.001534,0.587515,-0.561437,0.556835,-0.595185,0.558369,-0.559903
5.6617,0.020349,0.000000,0.035943,-0.035943,0.0000,0.0000,0.0000,-0.002478,0.041417,-0.044485,1.1391,0.6991,-0.3430,0.001534,0.587515,-0.561437,0.556835,-0.595185,0.558369,-0.559903
5.6818,0.020081,0.000000,0.031737,-0.031737,0.0000,0.0000,0.0000,-0.002478,0.038350,-0.042951,1.1391,0.6991,-0.3430,0.001534,0.587515,-0.561437,0.556835,-0.595185,0.558369,-0.559903
5.7019,0.020081,0.000000,0.027531,-0.027531,0.0000,0.0000,0.0000,-0.002478,0.038350,-0.039884,1.1391,0.6991,-0.3430,0.001534,0.587515,-0.561437,0.556835,-0.595185,0.558369,-0.559903
5.7220,0.020077,0.000000,0.023326,-0.023326,0.0000,0.0000,0.0000,-0.002478,0.033748,-0.033748,1.1391,0.6991,-0.3430,0.001534,0.587515,-0.561437,0.556835,-0.595185,0.558369,-0.559903
5.7420,0.020088,0.000000,0.019119,-0.019119,0.0000,0.0000,0.0000,-0.002478,0.027612,-0.029146,1.1391,0.6991,-0.3430,0.001534,0.587515,-0.561437,0.556835,-0.595185,0.558369,-0.559903
5.7621,0.020084,0.000000,0.014913,-0.014913,0.0000,0.0000,0.0000,-0.002478,0.021476,-0.021476,1.1391,0.6991,-0.3430,0.001534,0.587515,-0.561437,0.556835,-0.595185,0.558369,-0.559903
5.7822,0.020079,0.000000,0.010707,-0.010707,0.0000,0.0000,0.0000,-0.002478,0.018408,-0.019942,1.1391,0.6991,-0.3430,0.001534,0.587515,-0.561437,0.556835,-0.595185,0.558369,-0.559903
5.8023,0.020078,0.000000,0.006502,-0.006502,0.0000,0.0000,0.0000,-0.002478,0.018408,-0.019942,1.1391,0.6991,-0.3430,0.001534,0.587515,-0.561437,0.556835,-0.595185,0.558369,-0.559903
5.8224,0.020096,0.000000,0.002293,-0.002293,0.0000,0.0000,0.0000,-0.002478,0.010738,-0.013806,1.1391,0.6991,-0.3430,0.001534,0.587515,-0.561437,0.556835,-0.595185,0.558369,-0.559903
5.8428,0.020407,0.000000,-0.001981,0.001981,0.0000,0.0000,0.0000,-0.002478,0.001534,-0.004602,1.1391,0.6991,-0.3430,0.001534,0.587515,-0.561437,0.556835,-0.595185,0.558369,-0.559903
5.8629,0.020101,0.000000,-0.006191,0.006191,0.0000,0.0000,0.0000,-0.002478,0.001534,-0.004602,1.1391,0.6991,-0.3430,0.001534,0.587515,-0.561437,0.556835,-0.595185,0.558369,-0.559903
5.8832,0.020292,0.000000,-0.010441,0.010441,0.0000,0.0000,0.0000,-0.002478,0.004602,-0.004602,1.1391,0.6991,-0.3430,0.001534,0.587515,-0.561437,0.556835,-0.595185,0.558369,-0.559903
5.9033,0.020079,0.000000,-0.014646,0.014646,0.0000,0.0000,0.0000,-0.002478,0.001534,-0.001534,1.1391,0.6991,-0.3430,0.001534,0.587515,-0.561437,0.556835,-0.595185,0.558369,-0.559903
5.9234,0.020090,0.000000,-0.018854,0.018854,0.0000,0.0000,0.0000,-0.002478,-0.004602,0.007670,1.1391,0.6991,-0.3430,0.001534,0.587515,-0.561437,0.556835,-0.595185,0.558369,-0.559903
5.9434,0.020082,0.000000,-0.023060,0.023060,0.0000,0.0000,0.0000,-0.002478,-0.013806,0.013806,1.1391,0.6991,-0.3430,0.001534,0.587515,-0.561437,0.556835,-0.595185,0.558369,-0.559903
5.9635,0.020078,0.000000,-0.027265,0.027265,0.0000,0.0000,0.0000,-0.002478,-0.021476,0.013806,1.1391,0.6991,-0.3430,0.001534,0.587515,-0.561437,0.556835,-0.595185,0.558369,-0.559903
5.9836,0.020085,0.000000,-0.031471,0.031471,0.0000,0.0000,0.0000,-0.002478,-0.021476,0.013806,1.1391,0.6991,-0.3430,0.001534,0.587515,-0.561437,0.556835,-0.595185,0.558369,-0.559903
6.0037,0.020086,0.000000,-0.035678,0.035678,0.0000,0.0000,0.0000,-0.002478,-0.021476,0.021476,1.1391,0.6991,-0.3430,0.001534,0.587515,-0.561437,0.556835,-0.595185,0.558369,-0.559903
6.0238,0.020084,0.000000,-0.039885,0.039885,0.0000,0.0000,0.0000,-0.002478,-0.027612,0.027612,1.1391,0.6991,-0.3430,0.001534,0.587515,-0.561437,0.556835,-0.595185,0.558369,-0.559903
6.0438,0.020080,0.000000,-0.044090,0.044090,0.0000,0.0000,0.0000,-0.002478,-0.036816,0.035282,1.1391,0.6991,-0.3430,0.001534,0.587515,-0.561437,0.556835,-0.595185,0.558369,-0.559903
6.0639,0.020078,0.000000,-0.048295,0.048295,0.0000,0.0000,0.0000,-0.002478,-0.038350,0.036816,1.1391,0.6991,-0.3430,0.001534,0.587515,-0.561437,0.556835,-0.595185,0.558369,-0.559903
6.0840,0.020089,0.000000,-0.052503,0.052503,0.0000,0.0000,0.0000,-0.002478,-0.038350,0.036816,1.1391,0.6991,-0.3430,0.001534,0.587515,-0.561437,0.556835,-0.595185,0.558369,-0.559903
6.1041,0.020078,0.000000,-0.056708,0.056708,0.0000,0.0000,0.0000,-0.002478,-0.046019,0.044485,1.1391,0.6991,-0.3430,0.001534,0.587515,-0.561437,0.556835,-0.595185,0.558369,-0.559903
6.1242,0.020087,0.000000,-0.060915,0.060915,0.0000,0.0000,0.0000,-0.002478,-0.055223,0.049087,1.1391,0.6991,-0.3430,0.001534,0.587515,-0.561437,0.556835,-0.595185,0.558369,-0.559903
6.1443,0.020078,0.000000,-0.065120,0.065120,0.0000,0.0000,0.0000,-0.002478,-0.055223,0.050621,1.1391,0.6991,-0.3430,0.001534,0.587515,-0.561437,0.556835,-0.595185,0.558369,-0.559903
6.1643,0.020076,0.000000,-0.069325,0.069325,0.0000,0.0000,0.0000,-0.002465,-0.050621,0.052155,1.1777,0.6640,-0.3957,0.001534,0.587515,-0.562971,0.556835,-0.595185,0.558369,-0.559903
6.1844,0.020099,0.000000,-0.073534,0.073534,0.0000,0.0000,0.0000,-0.002480,-0.055223,0.058291,1.1346,0.7032,-0.3368,0.001534,0.587515,-0.561437,0.556835,-0.595185,0.558369,-0.559903
6.2045,0.020076,0.000000,-0.077739,0.077739,0.0000,0.0000,0.0000,-0.002478,-0.065961,0.069029,1.1391,0.6991,-0.3430,0.001534,0.587515,-0.561437,0.556835,-0.595185,0.558369,-0.559903
6.2246,0.020084,0.000000,-0.081945,0.081945,0.0000,0.0000,0.0000,-0.002465,-0.076699,0.070563,1.1777,0.6640,-0.3957,0.001534,0.587515,-0.562971,0.556835,-0.595185,0.558369,-0.559903
6.2447,0.020078,0.000000,-0.086150,0.086150,0.0000,0.0000,0.0000,-0.002480,-0.078233,0.067495,1.1346,0.7032,-0.3368,0.001534,0.587515,-0.561437,0.556835,-0.595185,0.558369,-0.559903
6.2647,0.020077,0.000000,-0.090355,0.090355,0.0000,0.0000,0.0000,-0.002478,-0.073631,0.070563,1.1391,0.6991,-0.3430,0.001534,0.587515,-0.561437,0.556835,-0.595185,0.558369,-0.559903
6.2848,0.020095,0.000000,-0.094564,0.094564,0.0000,0.0000,0.0000,-0.002478,-0.078233,0.081301,1.1391,0.6991,-0.3430,0.001534,0.587515,-0.561437,0.556835,-0.595185,0.558369,-0.559903
6.3049,0.020076,0.000000,-0.098769,0.098769,0.0000,0.0000,0.0000,-0.002478,-0.088971,0.088971,1.1391,0.6991,-0.3430,0.001534,0.587515,-0.561437,0.556835,-0.595185,0.558369,-0.559903
6.3250,0.020094,0.000000,-0.102977,0.102977,0.0000,0.0000,0.0000,-0.002478,-0.093573,0.090505,1.1391,0.6991,-0.3430,0.001534,0.587515,-0.561437,0.556835,-0.595185,0.558369,-0.559903
6.3451,0.020077,0.000000,-0.107182,0.107182,0.0000,0.0000,0.0000,-0.002478,-0.093573,0.090505,1.1391,0.6991,-0.3430,0.001534,0.587515,-0.561437,0.556835,-0.595185,0.558369,-0.559903
6.3652,0.020079,0.000000,-0.111387,0.111387,0.0000,0.0000,0.0000,-0.002478,-0.095107,0.099709,1.1391,0.6991,-0.4309,0.000000,0.587515,-0.561437,0.556835,-0.595185,0.558369,-0.559903
6.3853,0.020088,0.000000,-0.115595,0.115595,0.0000,0.0000,0.0000,-0.002478,-0.105845,0.102777,1.1391,0.6991,-0.3430,0.001534,0.587515,-0.561437,0.556835,-0.595185,0.558369,-0.559903
6.4053,0.020079,0.000000,-0.119800,0.119800,0.0000,0.0000,0.0000,-0.002478,-0.111981,0.104311,1.1391,0.6991,-0.3430,0.001534,0.587515,-0.561437,0.556835,-0.595185,0.558369,-0.559903
6.4254,0.020112,0.000000,-0.124012,0.124012,0.0000,0.0000,0.0000,-0.002478,-0.110447,0.105845,1.1391,0.6991,-0.3430,0.001534,0.587515,-0.561437,0.556835,-0.595185,0.558369,-0.559903
6.4455,0.020076,0.000000,-0.128217,0.128217,0.0000,0.0000,0.0000,-0.002478,-0.111981,0.113515,1.1391,0.6991,-0.3430,0.001534,0.587515,-0.561437,0.556835,-0.595185,0.558369,-0.559903
6.4656,0.020075,0.000000,-0.132421,0.132421,0.0000,0.0000,0.0000,-0.002465,-0.122718,0.124252,1.1777,0.6640,-0.3957,0.001534,0.587515,-0.562971,0.556835,-0.595185,0.558369,-0.559903
6.4857,0.020099,0.000000,-0.136631,0.136631,0.0000,0.0000,0.0000,-0.002480,-0.128854,0.124252,1.1346,0.7032,-0.3368,0.001534,0.587515,-0.561437,0.556835,-0.595185,0.558369,-0.559903
6.5058,0.020080,0.000000,-0.140836,0.140836,0.0000,0.0000,0.0000,-0.002465,-0.128854,0.122718,1.1782,0.6636,-0.3964,0.001534,0.587515,-0.562971,0.556835,-0.595185,0.558369,-0.559903
6.5259,0.020102,0.000000,-0.145046,0.145046,0.0000,0.0000,0.0000,-0.002480,-0.130388,0.130388,1.1345,0.7032,-0.3368,0.001534,0.587515,-0.561437,0.556835,-0.595185,0.558369,-0.559903
6.5460,0.020082,0.000000,-0.149252,0.149252,0.0000,0.0000,0.0000,-0.002478,-0.141126,0.138058,1.1391,0.6991,-0.3430,0.001534,0.587515,-0.561437,0.556835,-0.595185,0.558369,-0.559903
