t,loop_dt,cmd_z,cmd_ant_l,cmd_ant_r,cmd_roll,cmd_pitch,cmd_yaw,pres_z,pres_ant_l,pres_ant_r,pres_roll,pres_pitch,pres_yaw,pres_j0,pres_j1,pres_j2,pres_j3,pres_j4,pres_j5,pres_j6
0.0000,0.000001,0.000000,-0.174533,0.174533,0.0000,0.0000,0.0000,-0.002592,-0.004602,0.007670,1.3155,0.8549,-0.1501,0.001534,0.582913,-0.561437,0.556835,-0.595185,0.558369,-0.549165
0.0202,0.020164,0.000000,-0.171717,0.171717,0.0000,0.0000,0.0000,-0.002592,-0.006136,0.006136,1.3155,0.8549,-0.1501,0.001534,0.582913,-0.561437,0.556835,-0.595185,0.558369,-0.549165
0.0402,0.020084,0.000000,-0.168913,0.168913,0.0000,0.0000,0.0000,-0.002605,-0.001534,0.004602,1.3261,0.8034,-0.2031,0.001534,0.582913,-0.561437,0.555301,-0.595185,0.558369,-0.549165
0.0603,0.020079,0.000000,-0.166110,0.166110,0.0000,0.0000,0.0000,-0.002590,-0.006136,0.012272,1.3143,0.8609,-0.1440,0.001534,0.582913,-0.561437,0.556835,-0.595185,0.558369,-0.549165
0.0806,0.020226,0.000000,-0.163286,0.163286,0.0000,0.0000,0.0000,-0.002579,-0.139592,0.141126,1.2662,0.8368,-0.2036,0.001534,0.582913,-0.561437,0.556835,-0.595185,0.558369,-0.550699
0.1007,0.020104,0.000000,-0.160478,0.160478,0.0000,0.0000,0.0000,-0.002580,-0.193282,0.190214,1.2712,0.8394,-0.1974,0.001534,0.582913,-0.561437,0.556835,-0.595185,0.558369,-0.550699
0.1208,0.020168,0.000000,-0.157663,0.157663,0.0000,0.0000,0.0000,-0.002553,-0.199418,0.194816,1.2604,0.7854,-0.3049,0.001534,0.582913,-0.562971,0.556835,-0.595185,0.558369,-0.552233
0.1412,0.020402,0.000000,-0.154814,0.154814,0.0000,0.0000,0.0000,-0.002558,-0.177942,0.181010,1.2724,0.8113,-0.1864,0.001534,0.584447,-0.561437,0.556835,-0.595185,0.558369,-0.552233
0.1613,0.020092,0.000000,-0.152009,0.152009,0.0000,0.0000,0.0000,-0.002533,-0.162602,0.167204,1.2716,0.7752,-0.1983,0.001534,0.585981,-0.561437,0.556835,-0.595185,0.558369,-0.553767
0.1814,0.020105,0.000000,-0.149201,0.149201,0.0000,0.0000,0.0000,-0.002523,-0.153398,0.154932,1.2225,0.7609,-0.2506,0.001534,0.585981,-0.561437,0.556835,-0.595185,0.558369,-0.555301
0.2015,0.020075,0.000000,-0.146398,0.146398,0.0000,0.0000,0.0000,-0.002487,-0.154932,0.150330,1.1790,0.7110,-0.2983,0.001534,0.587515,-0.561437,0.556835,-0.595185,0.558369,-0.558369
0.2216,0.020093,0.000000,-0.143593,0.143593,0.0000,0.0000,0.0000,-0.002478,-0.156466,0.150330,1.1344,0.6983,-0.3470,0.001534,0.587515,-0.561437,0.556835,-0.595185,0.558369,-0.559903
0.2417,0.020082,0.000000,-0.140789,0.140789,0.0000,0.0000,0.0000,-0.002479,-0.151864,0.150330,1.1391,0.6996,-0.3419,0.001534,0.587515,-0.561437,0.556835,-0.595185,0.558369,-0.559903
0.2618,0.020080,0.000000,-0.137985,0.137985,0.0000,0.0000,0.0000,-0.002479,-0.145728,0.148796,1.1391,0.6996,-0.3419,0.001534,0.587515,-0.561437,0.556835,-0.595185,0.558369,-0.559903
0.2818,0.020088,0.000000,-0.135180,0.135180,0.0000,0.0000,0.0000,-0.002479,-0.145728,0.147262,1.1391,0.6996,-0.3419,0.001534,0.587515,-0.561437,0.556835,-0.595185,0.558369,-0.559903
0.3019,0.020082,0.000000,-0.132376,0.132376,0.0000,0.0000,0.0000,-0.002479,-0.145728,0.145728,1.1391,0.6996,-0.3419,0.001534,0.587515,-0.561437,0.556835,-0.595185,0.558369,-0.559903
0.3220,0.020111,0.000000,-0.129568,0.129568,0.0000,0.0000,0.0000,-0.002465,-0.144194,0.144194,1.1777,0.6639,-0.3958,0.001534,0.587515,-0.562971,0.556835,-0.595185,0.558369,-0.559903
0.3421,0.020082,0.000000,-0.126764,0.126764,0.0000,0.0000,0.0000,-0.002480,-0.141126,0.144194,1.1346,0.7032,-0.3368,0.001534,0.587515,-0.561437,0.556835,-0.595185,0.558369,-0.559903
0.3626,0.020443,0.000000,-0.123910,0.123910,0.0000,0.0000,0.0000,-0.002478,-0.133456,0.142660,1.1391,0.6991,-0.3430,0.001534,0.587515,-0.561437,0.556835,-0.595185,0.558369,-0.559903
0.3826,0.020078,0.000000,-0.121107,0.121107,0.0000,0.0000,0.0000,-0.002465,-0.128854,0.139592,1.1777,0.6640,-0.3957,0.001534,0.587515,-0.562971,0.556835,-0.595185,0.558369,-0.559903
0.4027,0.020078,0.000000,-0.118303,0.118303,0.0000,0.0000,0.0000,-0.002480,-0.127320,0.134990,1.1346,0.7032,-0.3368,0.001534,0.587515,-0.561437,0.556835,-0.595185,0.558369,-0.559903
0.4229,0.020210,0.000000,-0.115481,0.115481,0.0000,0.0000,0.0000,-0.002465,-0.125786,0.127320,1.1782,0.6636,-0.3964,0.001534,0.587515,-0.562971,0.556835,-0.595185,0.558369,-0.559903
0.4430,0.020081,0.000000,-0.112678,0.112678,0.0000,0.0000,0.0000,-0.002480,-0.122718,0.119651,1.1345,0.7032,-0.3368,0.001534,0.587515,-0.561437,0.556835,-0.595185,0.558369,-0.559903
0.4631,0.020083,0.000000,-0.109873,0.109873,0.0000,0.0000,0.0000,-0.002478,-0.121184,0.116583,1.1391,0.6991,-0.3430,0.001534,0.587515,-0.561437,0.556835,-0.595185,0.558369,-0.559903
0.4832,0.020084,0.000000,-0.107069,0.107069,0.0000,0.0000,0.0000,-0.002478,-0.121184,0.116583,1.1391,0.6991,-0.3430,0.001534,0.587515,-0.561437,0.556835,-0.595185,0.558369,-0.559903
0.5033,0.020086,0.000000,-0.104265,0.104265,0.0000,0.0000,0.0000,-0.002478,-0.121184,0.116583,1.1391,0.6991,-0.3430,0.001534,0.587515,-0.561437,0.556835,-0.595185,0.558369,-0.559903
0.5233,0.020073,0.000000,-0.101462,0.101462,0.0000,0.0000,0.0000,-0.002478,-0.119651,0.115049,1.1391,0.6991,-0.3430,0.001534,0.587515,-0.561437,0.556835,-0.595185,0.558369,-0.559903
0.5435,0.020177,0.000000,-0.098645,0.098645,0.0000,0.0000,0.0000,-0.002478,-0.115049,0.115049,1.1391,0.6991,-0.3430,0.001534,0.587515,-0.561437,0.556835,-0.595185,0.558369,-0.559903
0.5636,0.020083,0.000000,-0.095841,0.095841,0.0000,0.0000,0.0000,-0.002478,-0.107379,0.111981,1.1391,0.6991,-0.3430,0.001534,0.587515,-0.561437,0.556835,-0.595185,0.558369,-0.559903
0.5837,0.020089,0.000000,-0.093036,0.093036,0.0000,0.0000,0.0000,-0.002465,-0.101243,0.107379,1.1777,0.6640,-0.3957,0.001534,0.587515,-0.562971,0.556835,-0.595185,0.558369,-0.559903
0.6038,0.020082,0.000000,-0.090232,0.090232,0.0000,0.0000,0.0000,-0.002480,-0.101243,0.099709,1.1346,0.7032,-0.3368,0.001534,0.587515,-0.561437,0.556835,-0.595185,0.558369,-0.559903
0.6239,0.020087,0.000000,-0.087427,0.087427,0.0000,0.0000,0.0000,-0.002478,-0.099709,0.093573,1.1391,0.6991,-0.3430,0.001534,0.587515,-0.561437,0.556835,-0.595185,0.558369,-0.559903
0.6439,0.020077,0.000000,-0.084624,0.084624,0.0000,0.0000,0.0000,-0.002478,-0.095107,0.090505,1.1391,0.6991,-0.3430,0.001534,0.587515,-0.561437,0.556835,-0.595185,0.558369,-0.559903
0.6640,0.020077,0.000000,-0.081820,0.081820,0.0000,0.0000,0.0000,-0.002478,-0.092039,0.090505,1.1391,0.6991,-0.3430,0.001534,0.587515,-0.561437,0.556835,-0.595185,0.558369,-0.559903
0.6841,0.020080,0.000000,-0.079017,0.079017,0.0000,0.0000,0.0000,-0.002478,-0.088971,0.090505,1.1391,0.6991,-0.3430,0.001534,0.587515,-0.561437,0.556835,-0.595185,0.558369,-0.559903
0.7042,0.020080,0.000000,-0.076213,0.076213,0.0000,0.0000,0.0000,-0.002478,-0.082835,0.088971,1.1391,0.6991,-0.3430,0.001534,0.587515,-0.561437,0.556835,-0.595185,0.558369,-0.559903
0.7243,0.020089,0.000000,-0.073408,0.073408,0.0000,0.0000,0.0000,-0.002465,-0.079767,0.087437,1.1777,0.6640,-0.3957,0.001534,0.587515,-0.562971,0.556835,-0.595185,0.558369,-0.559903
0.7443,0.020075,0.000000,-0.070605,0.070605,0.0000,0.0000,0.0000,-0.002480,-0.081301,0.084369,1.1346,0.7032,-0.3368,0.001534,0.587515,-0.561437,0.556835,-0.595185,0.558369,-0.559903
0.7644,0.020073,0.000000,-0.067802,0.067802,0.0000,0.0000,0.0000,-0.002478,-0.079767,0.081301,1.1391,0.6991,-0.3430,0.001534,0.587515,-0.561437,0.556835,-0.595185,0.558369,-0.559903
0.7845,0.020077,0.000000,-0.064999,0.064999,0.0000,0.0000,0.0000,-0.002478,-0.075165,0.073631,1.1391,0.6991,-0.3430,0.001534,0.587515,-0.561437,0.556835,-0.595185,0.558369,-0.559903
0.8046,0.020088,0.000000,-0.062194,0.062194,0.0000,0.0000,0.0000,-0.002478,-0.070563,0.069029,1.1391,0.6991,-0.3430,0.001534,0.587515,-0.561437,0.556835,-0.595185,0.558369,-0.559903
0.8247,0.020088,0.000000,-0.059389,0.059389,0.0000,0.0000,0.0000,-0.002478,-0.069029,0.067495,1.1391,0.6991,-0.3430,0.001534,0.587515,-0.561437,0.556835,-0.595185,0.558369,-0.559903
0.8447,0.020076,0.000000,-0.056586,0.056586,0.0000,0.0000,0.0000,-0.002478,-0.069029,0.067495,1.1391,0.6991,-0.3430,0.001534,0.587515,-0.561437,0.556835,-0.595185,0.558369,-0.559903
0.8648,0.020081,0.000000,-0.053782,0.053782,0.0000,0.0000,0.0000,-0.002478,-0.067495,0.064427,1.1391,0.6991,-0.3430,0.001534,0.587515,-0.561437,0.556835,-0.595185,0.558369,-0.559903
0.8849,0.020083,0.000000,-0.050978,0.050978,0.0000,0.0000,0.0000,-0.002465,-0.067495,0.062893,1.1777,0.6640,-0.3957,0.001534,0.587515,-0.562971,0.556835,-0.595185,0.558369,-0.559903
0.9050,0.020080,0.000000,-0.048175,0.048175,0.0000,0.0000,0.0000,-0.002480,-0.061359,0.061359,1.1346,0.7032,-0.3368,0.001534,0.587515,-0.561437,0.556835,-0.595185,0.558369,-0.559903
0.9251,0.020095,0.000000,-0.045369,0.045369,0.0000,0.0000,0.0000,-0.002478,-0.053689,0.059825,1.1391,0.6991,-0.3430,0.001534,0.587515,-0.561437,0.556835,-0.595185,0.558369,-0.559903
0.9452,0.020083,0.000000,-0.042565,0.042565,0.0000,0.0000,0.0000,-0.002478,-0.047553,0.053689,1.1391,0.6991,-0.3430,0.001534,0.587515,-0.561437,0.556835,-0.595185,0.558369,-0.559903
0.9652,0.020078,0.000000,-0.039761,0.039761,0.0000,0.0000,0.0000,-0.002478,-0.047553,0.049087,1.1391,0.6991,-0.3430,0.001534,0.587515,-0.561437,0.556835,-0.595185,0.558369,-0.559903
0.9853,0.020102,0.000000,-0.036955,0.036955,0.0000,0.0000,0.0000,-0.002478,-0.047553,0.044485,1.1391,0.6991,-0.3430,0.001534,0.587515,-0.561437,0.556835,-0.595185,0.558369,-0.559903
1.0054,0.020083,0.000000,-0.034151,0.034151,0.0000,0.0000,0.0000,-0.002478,-0.041417,0.041417,1.1391,0.6991,-0.3430,0.001534,0.587515,-0.561437,0.556835,-0.595185,0.558369,-0.559903
1.0255,0.020079,0.000000,-0.031347,0.031347,0.0000,0.0000,0.0000,-0.002478,-0.039884,0.038350,1.1391,0.6991,-0.3430,0.001534,0.587515,-0.561437,0.556835,-0.595185,0.558369,-0.559903
1.0457,0.020202,0.000000,-0.028526,0.028526,0.0000,0.0000,0.0000,-0.002478,-0.038350,0.036816,1.1391,0.6991,-0.3430,0.001534,0.587515,-0.561437,0.556835,-0.595185,0.558369,-0.559903
1.0658,0.020075,0.000000,-0.025723,0.025723,0.0000,0.0000,0.0000,-0.002478,-0.035282,0.035282,1.1391,0.6991,-0.3430,0.001534,0.587515,-0.561437,0.556835,-0.595185,0.558369,-0.559903
1.0859,0.020101,0.000000,-0.022917,0.022917,0.0000,0.0000,0.0000,-0.002478,-0.027612,0.035282,1.1391,0.6991,-0.3430,0.001534,0.587515,-0.561437,0.556835,-0.595185,0.558369,-0.559903
1.1060,0.020081,0.000000,-0.020113,0.020113,0.0000,0.0000,0.0000,-0.002478,-0.027612,0.033748,1.1391,0.6991,-0.3430,0.001534,0.587515,-0.561437,0.556835,-0.595185,0.558369,-0.559903
1.1260,0.020081,0.000000,-0.017309,0.017309,0.0000,0.0000,0.0000,-0.002478,-0.027612,0.032214,1.1391,0.6991,-0.3430,0.001534,0.587515,-0.561437,0.556835,-0.595185,0.558369,-0.559903
1.1461,0.020094,0.000000,-0.014503,0.014503,0.0000,0.0000,0.0000,-0.002478,-0.026078,0.029146,1.1391,0.6991,-0.3430,0.001534,0.587515,-0.561437,0.556835,-0.595185,0.558369,-0.559903
1.1662,0.020087,0.000000,-0.011699,0.011699,0.0000,0.0000,0.0000,-0.002478,-0.019942,0.021476,1.1391,0.6991,-0.3430,0.001534,0.587515,-0.561437,0.556835,-0.595185,0.558369,-0.559903
1.1863,0.020097,0.000000,-0.008893,0.008893,0.0000,0.0000,0.0000,-0.002478,-0.018408,0.016874,1.1391,0.6991,-0.3430,0.001534,0.587515,-0.561437,0.556835,-0.595185,0.558369,-0.559903
1.2064,0.020093,0.000000,-0.006087,0.006087,0.0000,0.0000,0.0000,-0.002478,-0.016874,0.013806,1.1391,0.6991,-0.3430,0.001534,0.587515,-0.561437,0.556835,-0.595185,0.558369,-0.559903
1.2265,0.020076,0.000000,-0.003284,0.003284,0.0000,0.0000,0.0000,-0.002478,-0.013806,0.010738,1.1391,0.6991,-0.3430,0.001534,0.587515,-0.561437,0.556835,-0.595185,0.558369,-0.559903
1.2466,0.020087,0.000000,-0.000479,0.000479,0.0000,0.0000,0.0000,-0.002478,-0.009204,0.009204,1.1391,0.6991,-0.3430,0.001534,0.587515,-0.561437,0.556835,-0.595185,0.558369,-0.559903
1.2667,0.020083,0.000000,0.002325,-0.002325,0.0000,0.0000,0.0000,-0.002478,-0.003068,0.006136,1.1391,0.6991,-0.3430,0.001534,0.587515,-0.561437,0.556835,-0.595185,0.558369,-0.559903
1.2868,0.020119,0.000000,0.005134,-0.005134,0.0000,0.0000,0.0000,-0.002478,0.000000,0.004602,1.1391,0.6991,-0.3430,0.001534,0.587515,-0.561437,0.556835,-0.595185,0.558369,-0.559903
1.3068,0.020073,0.000000,0.007937,-0.007937,0.0000,0.0000,0.0000,-0.002465,-0.001534,0.003068,1.1777,0.6640,-0.3957,0.001534,0.587515,-0.562971,0.556835,-0.595185,0.558369,-0.559903
1.3269,0.020077,0.000000,0.010740,-0.010740,0.0000,0.0000,0.0000,-0.002467,-0.001534,-0.001534,1.1737,0.6676,-0.3902,0.001534,0.587515,-0.562971,0.556835,-0.595185,0.558369,-0.559903
1.3474,0.020441,0.000000,0.013594,-0.013594,0.0000,0.0000,0.0000,-0.002480,0.004602,-0.004602,1.1350,0.7028,-0.4253,0.000000,0.587515,-0.561437,0.556835,-0.595185,0.558369,-0.559903
1.3674,0.020067,0.000000,0.016396,-0.016396,0.0000,0.0000,0.0000,-0.002465,0.009204,-0.009204,1.1781,0.6636,-0.3963,0.001534,0.587515,-0.562971,0.556835,-0.595185,0.558369,-0.559903
1.3875,0.020091,0.000000,0.019201,-0.019201,0.0000,0.0000,0.0000,-0.002480,0.006136,-0.010738,1.1345,0.7032,-0.3368,0.001534,0.587515,-0.561437,0.556835,-0.595185,0.558369,-0.559903
1.4076,0.020080,0.000000,0.022005,-0.022005,0.0000,0.0000,0.0000,-0.002478,0.007670,-0.012272,1.1391,0.6991,-0.3430,0.001534,0.587515,-0.561437,0.556835,-0.595185,0.558369,-0.559903
1.4277,0.020075,0.000000,0.024808,-0.024808,0.0000,0.0000,0.0000,-0.002478,0.015340,-0.013806,1.1391,0.6991,-0.3430,0.001534,0.587515,-0.561437,0.556835,-0.595185,0.558369,-0.559903
1.4478,0.020084,0.000000,0.027612,-0.027612,0.0000,0.0000,0.0000,-0.002478,0.019942,-0.016874,1.1391,0.6991,-0.3430,0.001534,0.587515,-0.561437,0.556835,-0.595185,0.558369,-0.559903
1.4678,0.020073,0.000000,0.030415,-0.030415,0.0000,0.0000,0.0000,-0.002465,0.019942,-0.019942,1.1777,0.6640,-0.3957,0.001534,0.587515,-0.562971,0.556835,-0.595185,0.558369,-0.559903
1.4879,0.020086,0.000000,0.033219,-0.033219,0.0000,0.0000,0.0000,-0.002480,0.018408,-0.021476,1.1346,0.7032,-0.3368,0.001534,0.587515,-0.561437,0.556835,-0.595185,0.558369,-0.559903
1.5080,0.020078,0.000000,0.036023,-0.036023,0.0000,0.0000,0.0000,-0.002478,0.026078,-0.026078,1.1391,0.6991,-0.3430,0.001534,0.587515,-0.561437,0.556835,-0.595185,0.558369,-0.559903
1.5281,0.020078,0.000000,0.038826,-0.038826,0.0000,0.0000,0.0000,-0.002478,0.033748,-0.030680,1.1391,0.6991,-0.3430,0.001534,0.587515,-0.561437,0.556835,-0.595185,0.558369,-0.559903
1.5481,0.020078,0.000000,0.041629,-0.041629,0.0000,0.0000,0.0000,-0.002478,0.032214,-0.033748,1.1391,0.6991,-0.3430,0.001534,0.587515,-0.561437,0.556835,-0.595185,0.558369,-0.559903
1.5682,0.020089,0.000000,0.044434,-0.044434,0.0000,0.0000,0.0000,-0.002478,0.027612,-0.032214,1.1391,0.6991,-0.3430,0.001534,0.587515,-0.561437,0.556835,-0.595185,0.558369,-0.559903
1.5883,0.020084,0.000000,0.047239,-0.047239,0.0000,0.0000,0.0000,-0.002478,0.032214,-0.036816,1.1391,0.6991,-0.3430,0.001534,0.587515,-0.561437,0.556835,-0.595185,0.558369,-0.559903
1.6084,0.020077,0.000000,0.050042,-0.050042,0.0000,0.0000,0.0000,-0.002465,0.042951,-0.042951,1.1777,0.6640,-0.3957,0.001534,0.587515,-0.562971,0.556835,-0.595185,0.558369,-0.559903
1.6285,0.020088,0.000000,0.052847,-0.052847,0.0000,0.0000,0.0000,-0.002480,0.044485,-0.042951,1.1346,0.7032,-0.3368,0.001534,0.587515,-0.561437,0.556835,-0.595185,0.558369,-0.559903
1.6486,0.020159,0.000000,0.055661,-0.055661,0.0000,0.0000,0.0000,-0.002478,0.039884,-0.044485,1.1391,0.6991,-0.3430,0.001534,0.587515,-0.561437,0.556835,-0.595185,0.558369,-0.559903
1.6687,0.020097,0.000000,0.058467,-0.058467,0.0000,0.0000,0.0000,-0.002478,0.042951,-0.046019,1.1391,0.6991,-0.3430,0.001534,0.587515,-0.561437,0.556835,-0.595185,0.558369,-0.559903
1.6891,0.020315,0.000000,0.061304,-0.061304,0.0000,0.0000,0.0000,-0.002478,0.050621,-0.049087,1.1391,0.6991,-0.3430,0.001534,0.587515,-0.561437,0.556835,-0.595185,0.558369,-0.559903
1.7091,0.020083,0.000000,0.064108,-0.064108,0.0000,0.0000,0.0000,-0.002478,0.058291,-0.052155,1.1391,0.6991,-0.3430,0.001534,0.587515,-0.561437,0.556835,-0.595185,0.558369,-0.559903
1.7292,0.020082,0.000000,0.066912,-0.066912,0.0000,0.0000,0.0000,-0.002478,0.059825,-0.058291,1.1391,0.6991,-0.3430,0.001534,0.587515,-0.561437,0.556835,-0.595185,0.558369,-0.559903
1.7493,0.020079,0.000000,0.069715,-0.069715,0.0000,0.0000,0.0000,-0.002478,0.058291,-0.061359,1.1391,0.6991,-0.3430,0.001534,0.587515,-0.561437,0.556835,-0.595185,0.558369,-0.559903
1.7694,0.020089,0.000000,0.072520,-0.072520,0.0000,0.0000,0.0000,-0.002478,0.058291,-0.061359,1.1391,0.6991,-0.3430,0.001534,0.587515,-0.561437,0.556835,-0.595185,0.558369,-0.559903
1.7895,0.020100,0.000000,0.075327,-0.075327,0.0000,0.0000,0.0000,-0.002478,0.062893,-0.065961,1.1391,0.6991,-0.3430,0.001534,0.587515,-0.561437,0.556835,-0.595185,0.558369,-0.559903
1.8096,0.020083,0.000000,0.078131,-0.078131,0.0000,0.0000,0.0000,-0.002478,0.070563,-0.069029,1.1391,0.6991,-0.3430,0.001534,0.587515,-0.561437,0.556835,-0.595185,0.558369,-0.559903
1.8297,0.020080,0.000000,0.080935,-0.080935,0.0000,0.0000,0.0000,-0.002478,0.073631,-0.070563,1.1391,0.6991,-0.3430,0.001534,0.587515,-0.561437,0.556835,-0.595185,0.558369,-0.559903
1.8499,0.020273,0.000000,0.083765,-0.083765,0.0000,0.0000,0.0000,-0.002478,0.070563,-0.072097,1.1391,0.6991,-0.4309,0.000000,0.587515,-0.561437,0.556835,-0.595185,0.558369,-0.559903
1.8700,0.020081,0.000000,0.086569,-0.086569,0.0000,0.0000,0.0000,-0.002478,0.070563,-0.073631,1.1391,0.6991,-0.3430,0.001534,0.587515,-0.561437,0.556835,-0.595185,0.558369,-0.559903
1.8901,0.020091,0.000000,0.089375,-0.089375,0.0000,0.0000,0.0000,-0.002478,0.076699,-0.073631,1.1391,0.6991,-0.3430,0.001534,0.587515,-0.561437,0.556835,-0.595185,0.558369,-0.559903
1.9102,0.020088,0.000000,0.092179,-0.092179,0.0000,0.0000,0.0000,-0.002478,0.084369,-0.075165,1.1391,0.6991,-0.3430,0.001534,0.587515,-0.561437,0.556835,-0.595185,0.558369,-0.559903
1.9303,0.020080,0.000000,0.094983,-0.094983,0.0000,0.0000,0.0000,-0.002478,0.087437,-0.075165,1.1391,0.6991,-0.3430,0.001534,0.587515,-0.561437,0.556835,-0.595185,0.558369,-0.559903
1.9505,0.020195,0.000000,0.097803,-0.097803,0.0000,0.0000,0.0000,-0.002478,0.087437,-0.075165,1.1391,0.6991,-0.3430,0.001534,0.587515,-0.561437,0.556835,-0.595185,0.558369,-0.559903
1.9706,0.020165,0.000000,0.100618,-0.100618,0.0000,0.0000,0.0000,-0.002478,0.085903,-0.079767,1.1391,0.6991,-0.3430,0.001534,0.587515,-0.561437,0.556835,-0.595185,0.558369,-0.559903
1.9908,0.020151,0.000000,0.103432,-0.103432,0.0000,0.0000,0.0000,-0.002478,0.096641,-0.085903,1.1391,0.6991,-0.3430,0.001534,0.587515,-0.562971,0.556835,-0.595185,0.558369,-0.559903
2.0109,0.020083,0.000000,0.106236,-0.106236,0.0000,0.0000,0.0000,-0.002480,0.096641,-0.093573,1.1346,0.7032,-0.3368,0.001534,0.587515,-0.561437,0.556835,-0.595185,0.558369,-0.559903
2.0309,0.020086,0.000000,0.109041,-0.109041,0.0000,0.0000,0.0000,-0.002480,0.096641,-0.093573,1.1346,0.7032,-0.3368,0.001534,0.587515,-0.561437,0.556835,-0.595185,0.558369,-0.559903
2.0510,0.020096,0.000000,0.111847,-0.111847,0.0000,0.0000,0.0000,-0.002478,0.093573,-0.099709,1.1391,0.6991,-0.3430,0.001534,0.587515,-0.561437,0.556835,-0.595185,0.558369,-0.559903
2.0711,0.020092,0.000000,0.114652,-0.114652,0.0000,0.0000,0.0000,-0.002478,0.096641,-0.102777,1.1391,0.6991,-0.3430,0.001534,0.587515,-0.561437,0.556835,-0.595185,0.558369,-0.559903
2.0912,0.020088,0.000000,0.117457,-0.117457,0.0000,0.0000,0.0000,-0.002478,0.110447,-0.102777,1.1391,0.6991,-0.3430,0.001534,0.587515,-0.561437,0.556835,-0.595185,0.558369,-0.559903
2.1113,0.020086,0.000000,0.120261,-0.120261,0.0000,0.0000,0.0000,-0.002465,0.110447,-0.104311,1.1777,0.6640,-0.3957,0.001534,0.587515,-0.562971,0.556835,-0.595185,0.558369,-0.559903
2.1314,0.020087,0.000000,0.123066,-0.123066,0.0000,0.0000,0.0000,-0.002480,0.107379,-0.107379,1.1346,0.7032,-0.3368,0.001534,0.587515,-0.561437,0.556835,-0.595185,0.558369,-0.559903
2.1515,0.020112,0.000000,0.125874,-0.125874,0.0000,0.0000,0.0000,-0.002478,0.115049,-0.110447,1.1391,0.6991,-0.3430,0.001534,0.587515,-0.561437,0.556835,-0.595185,0.558369,-0.559903
2.1716,0.020088,0.000000,0.128679,-0.128679,0.0000,0.0000,0.0000,-0.002478,0.121184,-0.124252,1.1391,0.6991,-0.3430,0.001534,0.587515,-0.561437,0.556835,-0.595185,0.558369,-0.559903
2.1917,0.020090,0.000000,0.131484,-0.131484,0.0000,0.0000,0.0000,-0.002478,0.118117,-0.127320,1.1391,0.6991,-0.3430,0.001534,0.587515,-0.561437,0.556835,-0.595185,0.558369,-0.559903
2.2118,0.020098,0.000000,0.134291,-0.134291,0.0000,0.0000,0.0000,-0.002478,0.124252,-0.127320,1.1391,0.6991,-0.3430,0.001534,0.587515,-0.561437,0.556835,-0.595185,0.558369,-0.559903
2.2319,0.020088,0.000000,0.137095,-0.137095,0.0000,0.0000,0.0000,-0.002478,0.133456,-0.130388,1.1391,0.6991,-0.3430,0.001534,0.587515,-0.561437,0.556835,-0.595185,0.558369,-0.559903
2.2520,0.020100,0.000000,0.139902,-0.139902,0.0000,0.0000,0.0000,-0.002478,0.133456,-0.130388,1.1391,0.6991,-0.3430,0.001534,0.587515,-0.561437,0.556835,-0.595185,0.558369,-0.559903
2.2721,0.020095,0.000000,0.142708,-0.142708,0.0000,0.0000,0.0000,-0.002478,0.128854,-0.133456,1.1391,0.6991,-0.3430,0.001534,0.587515,-0.561437,0.556835,-0.595185,0.558369,-0.559903
2.2922,0.020095,0.000000,0.145514,-0.145514,0.0000,0.0000,0.0000,-0.002478,0.134990,-0.134990,1.1391,0.6991,-0.3430,0.001534,0.587515,-0.562971,0.556835,-0.595185,0.558369,-0.559903
2.3124,0.020255,0.000000,0.148342,-0.148342,0.0000,0.0000,0.0000,-0.002465,0.134990,-0.134990,1.1777,0.6640,-0.3957,0.001534,0.587515,-0.562971,0.556835,-0.595185,0.558369,-0.559903
2.3325,0.020094,0.000000,0.151147,-0.151147,0.0000,0.0000,0.0000,-0.002467,0.147262,-0.147262,1.1737,0.6676,-0.3902,0.001534,0.587515,-0.562971,0.556835,-0.595185,0.558369,-0.559903
2.3526,0.020106,0.000000,0.153955,-0.153955,0.0000,0.0000,0.0000,-0.002467,0.147262,-0.147262,1.1737,0.6676,-0.3902,0.001534,0.587515,-0.562971,0.556835,-0.595185,0.558369,-0.559903
2.3727,0.020097,0.000000,0.156761,-0.156761,0.0000,0.0000,0.0000,-0.002480,0.141126,-0.148796,1.1350,0.7028,-0.3374,0.001534,0.587515,-0.561437,0.556835,-0.595185,0.558369,-0.559903
2.3928,0.020087,0.000000,0.159565,-0.159565,0.0000,0.0000,0.0000,-0.002478,0.141126,-0.148796,1.1390,0.6991,-0.3429,0.001534,0.587515,-0.561437,0.556835,-0.595185,0.558369,-0.559903
2.4129,0.020099,0.000000,0.162372,-0.162372,0.0000,0.0000,0.0000,-0.002478,0.148796,-0.153398,1.1390,0.6991,-0.3429,0.001534,0.587515,-0.561437,0.556835,-0.595185,0.558369,-0.559903
2.4330,0.020089,0.000000,0.165177,-0.165177,0.0000,0.0000,0.0000,-0.002478,0.158000,-0.158000,1.1390,0.6991,-0.3429,0.001534,0.587515,-0.561437,0.556835,-0.595185,0.558369,-0.559903
2.4531,0.020100,0.000000,0.167983,-0.167983,0.0000,0.0000,0.0000,-0.002478,0.158000,-0.159534,1.1390,0.6991,-0.3429,0.001534,0.587515,-0.561437,0.556835,-0.595185,0.558369,-0.559903
2.4732,0.020096,0.000000,0.170789,-0.170789,0.0000,0.0000,0.0000,-0.002478,0.153398,-0.159534,1.1390,0.6991,-0.3429,0.001534,0.587515,-0.561437,0.556835,-0.595185,0.558369,-0.559903
2.4935,0.020350,0.000000,0.173631,-0.173631,0.0000,0.0000,0.0000,-0.002478,0.158000,-0.162602,1.1390,0.6991,-0.3429,0.001534,0.587515,-0.561437,0.556835,-0.595185,0.558369,-0.559903
2.5139,0.020412,0.000000,0.172585,-0.172585,0.0000,0.0000,0.0000,-0.002478,0.167204,-0.167204,1.1390,0.6991,-0.3429,0.001534,0.587515,-0.561437,0.556835,-0.595185,0.558369,-0.559903
2.5340,0.020092,0.000000,0.169780,-0.169780,0.0000,0.0000,0.0000,-0.002478,0.171806,-0.171806,1.1390,0.6991,-0.3429,0.001534,0.587515,-0.561437,0.556835,-0.595185,0.558369,-0.559903
2.5541,0.020092,0.000000,0.166974,-0.166974,0.0000,0.0000,0.0000,-0.002478,0.171806,-0.171806,1.1390,0.6991,-0.3429,0.001534,0.587515,-0.561437,0.556835,-0.595185,0.558369,-0.559903
2.5742,0.020084,0.000000,0.164170,-0.164170,0.0000,0.0000,0.0000,-0.002465,0.167204,-0.174874,1.1777,0.6640,-0.3957,0.001534,0.587515,-0.562971,0.556835,-0.595185,0.558369,-0.559903
2.5943,0.020076,0.000000,0.161367,-0.161367,0.0000,0.0000,0.0000,-0.002480,0.173340,-0.176408,1.1346,0.7032,-0.3368,0.001534,0.587515,-0.561437,0.556835,-0.595185,0.558369,-0.559903
2.6144,0.020084,0.000000,0.158563,-0.158563,0.0000,0.0000,0.0000,-0.002478,0.173340,-0.173340,1.1391,0.6991,-0.3430,0.001534,0.587515,-0.561437,0.556835,-0.595185,0.558369,-0.559903
2.6345,0.020080,0.000000,0.155759,-0.155759,0.0000,0.0000,0.0000,-0.002478,0.165670,-0.168738,1.1391,0.6991,-0.3430,0.001534,0.587515,-0.561437,0.556835,-0.595185,0.558369,-0.559903
2.6546,0.020094,0.000000,0.152953,-0.152953,0.0000,0.0000,0.0000,-0.002478,0.162602,-0.167204,1.1391,0.6991,-0.3430,0.001534,0.587515,-0.561437,0.556835,-0.595185,0.558369,-0.559903
2.6746,0.020083,0.000000,0.150149,-0.150149,0.0000,0.0000,0.0000,-0.002478,0.162602,-0.167204,1.1391,0.6991,-0.3430,0.001534,0.587515,-0.561437,0.556835,-0.595185,0.558369,-0.559903
2.6947,0.020077,0.000000,0.147346,-0.147346,0.0000,0.0000,0.0000,-0.002478,0.159534,-0.165670,1.1391,0.6991,-0.3430,0.001534,0.587515,-0.561437,0.556835,-0.595185,0.558369,-0.559903
2.7148,0.020077,0.000000,0.144543,-0.144543,0.0000,0.0000,0.0000,-0.002478,0.153398,-0.162602,1.1391,0.6991,-0.3430,0.001534,0.587515,-0.561437,0.556835,-0.595185,0.558369,-0.559903
2.7349,0.020084,0.000000,0.141739,-0.141739,0.0000,0.0000,0.0000,-0.002478,0.148796,-0.154932,1.1391,0.6991,-0.3430,0.001534,0.587515,-0.561437,0.556835,-0.595185,0.558369,-0.559903
2.7550,0.020086,0.000000,0.138934,-0.138934,0.0000,0.0000,0.0000,-0.002465,0.148796,-0.150330,1.1777,0.6640,-0.3957,0.001534,0.587515,-0.562971,0.556835,-0.595185,0.558369,-0.559903
2.7750,0.020086,0.000000,0.136129,-0.136129,0.0000,0.0000,0.0000,-0.002480,0.147262,-0.150330,1.1346,0.7032,-0.3368,0.001534,0.587515,-0.561437,0.556835,-0.595185,0.558369,-0.559903
2.7951,0.020081,0.000000,0.133326,-0.133326,0.0000,0.0000,0.0000,-0.002465,0.144194,-0.150330,1.1782,0.6636,-0.3964,0.001534,0.587515,-0.562971,0.556835,-0.595185,0.558369,-0.559903
2.8152,0.020085,0.000000,0.130521,-0.130521,0.0000,0.0000,0.0000,-0.002480,0.141126,-0.148796,1.1345,0.7032,-0.3368,0.001534,0.587515,-0.561437,0.556835,-0.595185,0.558369,-0.559903
2.8353,0.020079,0.000000,0.127718,-0.127718,0.0000,0.0000,0.0000,-0.002478,0.136524,-0.147262,1.1391,0.6991,-0.4309,0.000000,0.587515,-0.561437,0.556835,-0.595185,0.558369,-0.559903
2.8554,0.020080,0.000000,0.124914,-0.124914,0.0000,0.0000,0.0000,-0.002478,0.131922,-0.144194,1.1391,0.6991,-0.3430,0.001534,0.587515,-0.561437,0.556835,-0.595185,0.558369,-0.559903
2.8754,0.020077,0.000000,0.122111,-0.122111,0.0000,0.0000,0.0000,-0.002478,0.127320,-0.138058,1.1391,0.6991,-0.3430,0.001534,0.587515,-0.561437,0.556835,-0.595185,0.558369,-0.559903
2.8955,0.020077,0.000000,0.119307,-0.119307,0.0000,0.0000,0.0000,-0.002478,0.127320,-0.130388,1.1391,0.6991,-0.3430,0.001534,0.587515,-0.561437,0.556835,-0.595185,0.558369,-0.559903
2.9156,0.020075,0.000000,0.116504,-0.116504,0.0000,0.0000,0.0000,-0.002478,0.124252,-0.125786,1.1391,0.6991,-0.3430,0.001534,0.587515,-0.561437,0.556835,-0.595185,0.558369,-0.559903
2.9357,0.020076,0.000000,0.113701,-0.113701,0.0000,0.0000,0.0000,-0.002478,0.119651,-0.124252,1.1391,0.6991,-0.3430,0.001534,0.587515,-0.561437,0.556835,-0.595185,0.558369,-0.559903
2.9558,0.020083,0.000000,0.110897,-0.110897,0.0000,0.0000,0.0000,-0.002478,0.118117,-0.124252,1.1391,0.6991,-0.3430,0.001534,0.587515,-0.561437,0.556835,-0.595185,0.558369,-0.559903
2.9758,0.020079,0.000000,0.108094,-0.108094,0.0000,0.0000,0.0000,-0.002478,0.116583,-0.122718,1.1391,0.6991,-0.3430,0.001534,0.587515,-0.561437,0.556835,-0.595185,0.558369,-0.559903
2.9959,0.020078,0.000000,0.105290,-0.105290,0.0000,0.0000,0.0000,-0.002478,0.113515,-0.121184,1.1391,0.6991,-0.3430,0.001534,0.587515,-0.561437,0.556835,-0.595185,0.558369,-0.559903
3.0160,0.020090,0.000000,0.102485,-0.102485,0.0000,0.0000,0.0000,-0.002478,0.110447,-0.119651,1.1391,0.6991,-0.3430,0.001534,0.587515,-0.561437,0.556835,-0.595185,0.558369,-0.559903
3.0361,0.020088,0.000000,0.099680,-0.099680,0.0000,0.0000,0.0000,-0.002465,0.105845,-0.116583,1.1777,0.6640,-0.3957,0.001534,0.587515,-0.562971,0.556835,-0.595185,0.558369,-0.559903
3.0562,0.020083,0.000000,0.096876,-0.096876,0.0000,0.0000,0.0000,-0.002480,0.102777,-0.115049,1.1346,0.7032,-0.3368,0.001534,0.587515,-0.561437,0.556835,-0.595185,0.558369,-0.559903
3.0763,0.020165,0.000000,0.094060,-0.094060,0.0000,0.0000,0.0000,-0.002478,0.101243,-0.110447,1.1391,0.6991,-0.3430,0.001534,0.587515,-0.561437,0.556835,-0.595185,0.558369,-0.559903
3.0964,0.020084,0.000000,0.091256,-0.091256,0.0000,0.0000,0.0000,-0.002478,0.096641,-0.101243,1.1391,0.6991,-0.3430,0.001534,0.587515,-0.561437,0.556835,-0.595185,0.558369,-0.559903
3.1165,0.020089,0.000000,0.088451,-0.088451,0.0000,0.0000,0.0000,-0.002478,0.095107,-0.095107,1.1391,0.6991,-0.3430,0.001534,0.587515,-0.561437,0.556835,-0.595185,0.558369,-0.559903
3.1366,0.020087,0.000000,0.085647,-0.085647,0.0000,0.0000,0.0000,-0.002478,0.093573,-0.095107,1.1391,0.6991,-0.3430,0.001534,0.587515,-0.561437,0.556835,-0.595185,0.558369,-0.559903
3.1567,0.020073,0.000000,0.082844,-0.082844,0.0000,0.0000,0.0000,-0.002478,0.090505,-0.095107,1.1391,0.6991,-0.3430,0.001534,0.587515,-0.561437,0.556835,-0.595185,0.558369,-0.559903
3.1768,0.020083,0.000000,0.080040,-0.080040,0.0000,0.0000,0.0000,-0.002478,0.085903,-0.092039,1.1391,0.6991,-0.3430,0.001534,0.587515,-0.561437,0.556835,-0.595185,0.558369,-0.559903
3.1968,0.020076,0.000000,0.077236,-0.077236,0.0000,0.0000,0.0000,-0.002478,0.085903,-0.087437,1.1391,0.6991,-0.3430,0.001534,0.587515,-0.561437,0.556835,-0.595185,0.558369,-0.559903
3.2169,0.020090,0.000000,0.074431,-0.074431,0.0000,0.0000,0.0000,-0.002478,0.085903,-0.082835,1.1391,0.6991,-0.3430,0.001534,0.587515,-0.561437,0.556835,-0.595185,0.558369,-0.559903
3.2370,0.020082,0.000000,0.071627,-0.071627,0.0000,0.0000,0.0000,-0.002465,0.082835,-0.079767,1.1777,0.6640,-0.3957,0.001534,0.587515,-0.562971,0.556835,-0.595185,0.558369,-0.559903
3.2571,0.020072,0.000000,0.068825,-0.068825,0.0000,0.0000,0.0000,-0.002480,0.076699,-0.078233,1.1346,0.7032,-0.3368,0.001534,0.587515,-0.561437,0.556835,-0.595185,0.558369,-0.559903
3.2772,0.020079,0.000000,0.066021,-0.066021,0.0000,0.0000,0.0000,-0.002465,0.072097,-0.075165,1.1782,0.6636,-0.3964,0.001534,0.587515,-0.562971,0.556835,-0.595185,0.558369,-0.559903
3.2972,0.020077,0.000000,0.063218,-0.063218,0.0000,0.0000,0.0000,-0.002467,0.069029,-0.070563,1.1736,0.6677,-0.3901,0.001534,0.587515,-0.562971,0.556835,-0.595185,0.558369,-0.559903
3.3173,0.020082,0.000000,0.060414,-0.060414,0.0000,0.0000,0.0000,-0.002480,0.069029,-0.067495,1.1350,0.7028,-0.3374,0.001534,0.587515,-0.561437,0.556835,-0.595185,0.558369,-0.559903
3.3374,0.020078,0.000000,0.057611,-0.057611,0.0000,0.0000,0.0000,-0.002478,0.065961,-0.067495,1.1390,0.6991,-0.3429,0.001534,0.587515,-0.561437,0.556835,-0.595185,0.558369,-0.559903
3.3575,0.020076,0.000000,0.054808,-0.054808,0.0000,0.0000,0.0000,-0.002478,0.061359,-0.067495,1.1390,0.6991,-0.3429,0.001534,0.587515,-0.561437,0.556835,-0.595185,0.558369,-0.559903
3.3776,0.020084,0.000000,0.052003,-0.052003,0.0000,0.0000,0.0000,-0.002465,0.058291,-0.064427,1.1777,0.6640,-0.3957,0.001534,0.587515,-0.562971,0.556835,-0.595185,0.558369,-0.559903
3.3976,0.020075,0.000000,0.049200,-0.049200,0.0000,0.0000,0.0000,-0.002480,0.058291,-0.058291,1.1346,0.7032,-0.3368,0.001534,0.587515,-0.561437,0.556835,-0.595185,0.558369,-0.559903
3.4177,0.020090,0.000000,0.046395,-0.046395,0.0000,0.0000,0.0000,-0.002465,0.056757,-0.052155,1.1782,0.6636,-0.3964,0.001534,0.587515,-0.562971,0.556835,-0.595185,0.558369,-0.559903
3.4378,0.020084,0.000000,0.043591,-0.043591,0.0000,0.0000,0.0000,-0.002480,0.052155,-0.049087,1.1345,0.7032,-0.3368,0.001534,0.587515,-0.561437,0.556835,-0.595185,0.558369,-0.559903
3.4579,0.020073,0.000000,0.040788,-0.040788,0.0000,0.0000,0.0000,-0.002478,0.046019,-0.050621,1.1391,0.6991,-0.3430,0.001534,0.587515,-0.561437,0.556835,-0.595185,0.558369,-0.559903
3.4780,0.020091,0.000000,0.037983,-0.037983,0.0000,0.0000,0.0000,-0.002478,0.044485,-0.047553,1.1391,0.6991,-0.3430,0.001534,0.587515,-0.561437,0.556835,-0.595185,0.558369,-0.559903
3.4980,0.020075,0.000000,0.035180,-0.035180,0.0000,0.0000,0.0000,-0.002478,0.044485,-0.042951,1.1391,0.6991,-0.3430,0.001534,0.587515,-0.561437,0.556835,-0.595185,0.558369,-0.559903
3.5181,0.020081,0.000000,0.032376,-0.032376,0.0000,0.0000,0.0000,-0.002478,0.038350,-0.041417,1.1391,0.6991,-0.3430,0.001534,0.587515,-0.561437,0.556835,-0.595185,0.558369,-0.559903
3.5382,0.020081,0.000000,0.029572,-0.029572,0.0000,0.0000,0.0000,-0.002478,0.035282,-0.039884,1.1391,0.6991,-0.3430,0.001534,0.587515,-0.561437,0.556835,-0.595185,0.558369,-0.559903
3.5583,0.020074,0.000000,0.026769,-0.026769,0.0000,0.0000,0.0000,-0.002478,0.033748,-0.038350,1.1391,0.6991,-0.3430,0.001534,0.587515,-0.561437,0.556835,-0.595185,0.558369,-0.559903
3.5784,0.020089,0.000000,0.023964,-0.023964,0.0000,0.0000,0.0000,-0.002478,0.035282,-0.033748,1.1391,0.6991,-0.3430,0.001534,0.587515,-0.561437,0.556835,-0.595185,0.558369,-0.559903
3.5984,0.020077,0.000000,0.021161,-0.021161,0.0000,0.0000,0.0000,-0.002465,0.030680,-0.030680,1.1777,0.6640,-0.3957,0.001534,0.587515,-0.562971,0.556835,-0.595185,0.558369,-0.559903
3.6185,0.020084,0.000000,0.018357,-0.018357,0.0000,0.0000,0.0000,-0.002480,0.024544,-0.029146,1.1346,0.7032,-0.3368,0.001534,0.587515,-0.561437,0.556835,-0.595185,0.558369,-0.559903
3.6386,0.020079,0.000000,0.015553,-0.015553,0.0000,0.0000,0.0000,-0.002478,0.021476,-0.023010,1.1391,0.6991,-0.3430,0.001534,0.587515,-0.561437,0.556835,-0.595185,0.558369,-0.559903
3.6587,0.020076,0.000000,0.012750,-0.012750,0.0000,0.0000,0.0000,-0.002465,0.021476,-0.018408,1.1777,0.6640,-0.3957,0.001534,0.587515,-0.562971,0.556835,-0.595185,0.558369,-0.559903
3.6788,0.020091,0.000000,0.009945,-0.009945,0.0000,0.0000,0.0000,-0.002480,0.015340,-0.019942,1.1346,0.7032,-0.3368,0.001534,0.587515,-0.561437,0.556835,-0.595185,0.558369,-0.559903
3.6989,0.020077,0.000000,0.007142,-0.007142,0.0000,0.0000,0.0000,-0.002478,0.009204,-0.018408,1.1391,0.6991,-0.3430,0.001534,0.587515,-0.561437,0.556835,-0.595185,0.558369,-0.559903
3.7189,0.020087,0.000000,0.004337,-0.004337,0.0000,0.0000,0.0000,-0.002478,0.009204,-0.012272,1.1391,0.6991,-0.3430,0.001534,0.587515,-0.561437,0.556835,-0.595185,0.558369,-0.559903
3.7390,0.020091,0.000000,0.001532,-0.001532,0.0000,0.0000,0.0000,-0.002478,0.012272,-0.009204,1.1391,0.6991,-0.3430,0.001534,0.587515,-0.561437,0.556835,-0.595185,0.558369,-0.559903
3.7591,0.020082,0.000000,-0.001272,0.001272,0.0000,0.0000,0.0000,-0.002465,0.006136,-0.010738,1.1777,0.6640,-0.3957,0.001534,0.587515,-0.562971,0.556835,-0.595185,0.558369,-0.559903
3.7792,0.020091,0.000000,-0.004077,0.004077,0.0000,0.0000,0.0000,-0.002480,-0.001534,-0.006136,1.1346,0.7032,-0.3368,0.001534,0.587515,-0.561437,0.556835,-0.595185,0.558369,-0.559903
3.7993,0.020082,0.000000,-0.006881,0.006881,0.0000,0.0000,0.0000,-0.002478,-0.001534,-0.001534,1.1391,0.6991,-0.3430,0.001534,0.587515,-0.561437,0.556835,-0.595185,0.558369,-0.559903
3.8194,0.020088,0.000000,-0.009686,0.009686,0.0000,0.0000,0.0000,-0.002478,0.001534,0.000000,1.1391,0.6991,-0.3430,0.001534,0.587515,-0.561437,0.556835,-0.595185,0.558369,-0.559903
3.8395,0.020082,0.000000,-0.012490,0.012490,0.0000,0.0000,0.0000,-0.002465,-0.001534,0.000000,1.1777,0.6640,-0.3957,0.001534,0.587515,-0.562971,0.556835,-0.595185,0.558369,-0.559903
3.8595,0.020081,0.000000,-0.015294,0.015294,0.0000,0.0000,0.0000,-0.002480,-0.004602,0.003068,1.1346,0.7032,-0.3368,0.001534,0.587515,-0.561437,0.556835,-0.595185,0.558369,-0.559903
3.8796,0.020089,0.000000,-0.018099,0.018099,0.0000,0.0000,0.0000,-0.002465,-0.010738,0.012272,1.1782,0.6636,-0.3964,0.001534,0.587515,-0.562971,0.556835,-0.595185,0.558369,-0.559903
3.8997,0.020082,0.000000,-0.020903,0.020903,0.0000,0.0000,0.0000,-0.002480,-0.016874,0.012272,1.1345,0.7032,-0.3368,0.001534,0.587515,-0.561437,0.556835,-0.595185,0.558369,-0.559903
3.9198,0.020095,0.000000,-0.023709,0.023709,0.0000,0.0000,0.0000,-0.002478,-0.015340,0.010738,1.1391,0.6991,-0.3430,0.001534,0.587515,-0.561437,0.556835,-0.595185,0.558369,-0.559903
3.9399,0.020083,0.000000,-0.026513,0.026513,0.0000,0.0000,0.0000,-0.002478,-0.013806,0.013806,1.1391,0.6991,-0.3430,0.001534,0.587515,-0.561437,0.556835,-0.595185,0.558369,-0.559903
3.9600,0.020083,0.000000,-0.029317,0.029317,0.0000,0.0000,0.0000,-0.002478,-0.019942,0.019942,1.1391,0.6991,-0.3430,0.001534,0.587515,-0.561437,0.556835,-0.595185,0.558369,-0.559903
3.9801,0.020087,0.000000,-0.032122,0.032122,0.0000,0.0000,0.0000,-0.002465,-0.027612,0.021476,1.1777,0.6640,-0.3957,0.001534,0.587515,-0.562971,0.556835,-0.595185,0.558369,-0.559903
4.0001,0.020081,0.000000,-0.034925,0.034925,0.0000,0.0000,0.0000,-0.002467,-0.027612,0.021476,1.1737,0.6676,-0.3902,0.001534,0.587515,-0.562971,0.556835,-0.595185,0.558369,-0.559903
4.0202,0.020089,0.000000,-0.037730,0.037730,0.0000,0.0000,0.0000,-0.002480,-0.024544,0.023010,1.1350,0.7028,-0.3374,0.001534,0.587515,-0.561437,0.556835,-0.595185,0.558369,-0.559903
4.0403,0.020080,0.000000,-0.040534,0.040534,0.0000,0.0000,0.0000,-0.002478,-0.027612,0.029146,1.1390,0.6991,-0.3429,0.001534,0.587515,-0.561437,0.556835,-0.595185,0.558369,-0.559903
4.0604,0.020083,0.000000,-0.043338,0.043338,0.0000,0.0000,0.0000,-0.002478,-0.035282,0.035282,1.1390,0.6991,-0.3429,0.001534,0.587515,-0.561437,0.556835,-0.595185,0.558369,-0.559903
4.0805,0.020085,0.000000,-0.046143,0.046143,0.0000,0.0000,0.0000,-0.002478,-0.041417,0.035282,1.1390,0.6991,-0.3429,0.001534,0.587515,-0.561437,0.556835,-0.595185,0.558369,-0.559903
4.1006,0.020081,0.000000,-0.048946,0.048946,0.0000,0.0000,0.0000,-0.002465,-0.041417,0.033748,1.1777,0.6640,-0.3957,0.001534,0.587515,-0.562971,0.556835,-0.595185,0.558369,-0.559903
4.1206,0.020089,0.000000,-0.051751,0.051751,0.0000,0.0000,0.0000,-0.002480,-0.038350,0.039884,1.1346,0.7032,-0.3368,0.001534,0.587515,-0.561437,0.556835,-0.595185,0.558369,-0.559903
4.1407,0.020082,0.000000,-0.054555,0.054555,0.0000,0.0000,0.0000,-0.002478,-0.042951,0.046019,1.1391,0.6991,-0.3430,0.001534,0.587515,-0.561437,0.556835,-0.595185,0.558369,-0.559903
4.1608,0.020080,0.000000,-0.057359,0.057359,0.0000,0.0000,0.0000,-0.002478,-0.053689,0.046019,1.1391,0.6991,-0.3430,0.001534,0.587515,-0.561437,0.556835,-0.595185,0.558369,-0.559903
4.1809,0.020081,0.000000,-0.060163,0.060163,0.0000,0.0000,0.0000,-0.002465,-0.053689,0.046019,1.1777,0.6640,-0.3957,0.001534,0.587515,-0.562971,0.556835,-0.595185,0.558369,-0.559903
4.2010,0.020083,0.000000,-0.062967,0.062967,0.0000,0.0000,0.0000,-0.002480,-0.047553,0.050621,1.1346,0.7032,-0.3368,0.001534,0.587515,-0.561437,0.556835,-0.595185,0.558369,-0.559903
4.2211,0.020089,0.000000,-0.065772,0.065772,0.0000,0.0000,0.0000,-0.002478,-0.052155,0.056757,1.1391,0.6991,-0.3430,0.001534,0.587515,-0.561437,0.556835,-0.595185,0.558369,-0.559903
4.2411,0.020076,0.000000,-0.068575,0.068575,0.0000,0.0000,0.0000,-0.002478,-0.065961,0.058291,1.1391,0.6991,-0.3430,0.001534,0.587515,-0.561437,0.556835,-0.595185,0.558369,-0.559903
4.2612,0.020074,0.000000,-0.071378,0.071378,0.0000,0.0000,0.0000,-0.002478,-0.065961,0.058291,1.1391,0.6991,-0.3430,0.001534,0.587515,-0.561437,0.556835,-0.595185,0.558369,-0.559903
4.2813,0.020080,0.000000,-0.074182,0.074182,0.0000,0.0000,0.0000,-0.002478,-0.062893,0.064427,1.1391,0.6991,-0.3430,0.001534,0.587515,-0.561437,0.556835,-0.595185,0.558369,-0.559903
4.3014,0.020078,0.000000,-0.076985,0.076985,0.0000,0.0000,0.0000,-0.002478,-0.075165,0.065961,1.1391,0.6991,-0.3430,0.001534,0.587515,-0.561437,0.556835,-0.595185,0.558369,-0.559903
4.3214,0.020085,0.000000,-0.079789,0.079789,0.0000,0.0000,0.0000,-0.002478,-0.078233,0.070563,1.1391,0.6991,-0.3430,0.001534,0.587515,-0.561437,0.556835,-0.595185,0.558369,-0.559903
4.3415,0.020078,0.000000,-0.082593,0.082593,0.0000,0.0000,0.0000,-0.002478,-0.073631,0.076699,1.1391,0.6991,-0.3430,0.001534,0.587515,-0.561437,0.556835,-0.595185,0.558369,-0.559903
4.3616,0.020078,0.000000,-0.085396,0.085396,0.0000,0.0000,0.0000,-0.002478,-0.075165,0.076699,1.1391,0.6991,-0.3430,0.001534,0.587515,-0.561437,0.556835,-0.595185,0.558369,-0.559903
4.3817,0.020077,0.000000,-0.088200,0.088200,0.0000,0.0000,0.0000,-0.002478,-0.084369,0.076699,1.1391,0.6991,-0.3430,0.001534,0.587515,-0.561437,0.556835,-0.595185,0.558369,-0.559903
4.4018,0.020071,0.000000,-0.091002,0.091002,0.0000,0.0000,0.0000,-0.002478,-0.085903,0.082835,1.1391,0.6991,-0.3430,0.001534,0.587515,-0.561437,0.556835,-0.595185,0.558369,-0.559903
4.4218,0.020083,0.000000,-0.093806,0.093806,0.0000,0.0000,0.0000,-0.002478,-0.082835,0.085903,1.1391,0.6991,-0.3430,0.001534,0.587515,-0.561437,0.556835,-0.595185,0.558369,-0.559903
4.4419,0.020071,0.000000,-0.096609,0.096609,0.0000,0.0000,0.0000,-0.002465,-0.085903,0.085903,1.1777,0.6640,-0.3957,0.001534,0.587515,-0.562971,0.556835,-0.595185,0.558369,-0.559903
4.4620,0.020087,0.000000,-0.099413,0.099413,0.0000,0.0000,0.0000,-0.002480,-0.096641,0.092039,1.1346,0.7032,-0.3368,0.001534,0.587515,-0.561437,0.556835,-0.595185,0.558369,-0.559903
4.4821,0.020079,0.000000,-0.102217,0.102217,0.0000,0.0000,0.0000,-0.002478,-0.099709,0.096641,1.1391,0.6991,-0.3430,0.001534,0.587515,-0.561437,0.556835,-0.595185,0.558369,-0.559903
4.5022,0.020079,0.000000,-0.105020,0.105020,0.0000,0.0000,0.0000,-0.002478,-0.096641,0.095107,1.1391,0.6991,-0.3430,0.001534,0.587515,-0.561437,0.556835,-0.595185,0.558369,-0.559903
4.5222,0.020081,0.000000,-0.107824,0.107824,0.0000,0.0000,0.0000,-0.002478,-0.099709,0.095107,1.1391,0.6991,-0.3430,0.001534,0.587515,-0.561437,0.556835,-0.595185,0.558369,-0.559903
4.5423,0.020084,0.000000,-0.110628,0.110628,0.0000,0.0000,0.0000,-0.002478,-0.108913,0.104311,1.1391,0.6991,-0.3430,0.001534,0.587515,-0.561437,0.556835,-0.595185,0.558369,-0.559903
4.5624,0.020079,0.000000,-0.113432,0.113432,0.0000,0.0000,0.0000,-0.002478,-0.108913,0.105845,1.1391,0.6991,-0.3430,0.001534,0.587515,-0.561437,0.556835,-0.595185,0.558369,-0.559903
4.5825,0.020077,0.000000,-0.116235,0.116235,0.0000,0.0000,0.0000,-0.002478,-0.107379,0.105845,1.1391,0.6991,-0.3430,0.001534,0.587515,-0.561437,0.556835,-0.595185,0.558369,-0.559903
4.6026,0.020129,0.000000,-0.119046,0.119046,0.0000,0.0000,0.0000,-0.002465,-0.113515,0.108913,1.1777,0.6640,-0.3957,0.001534,0.587515,-0.562971,0.556835,-0.595185,0.558369,-0.559903
4.6228,0.020177,0.000000,-0.121863,0.121863,0.0000,0.0000,0.0000,-0.002480,-0.116583,0.115049,1.1346,0.7032,-0.3368,0.001534,0.587515,-0.561437,0.556835,-0.595185,0.558369,-0.559903
4.6429,0.020079,0.000000,-0.124667,0.124667,0.0000,0.0000,0.0000,-0.002478,-0.118117,0.115049,1.1391,0.6991,-0.3430,0.001534,0.587515,-0.561437,0.556835,-0.595185,0.558369,-0.559903
4.6629,0.020078,0.000000,-0.127470,0.127470,0.0000,0.0000,0.0000,-0.002478,-0.121184,0.116583,1.1391,0.6991,-0.3430,0.001534,0.587515,-0.561437,0.556835,-0.595185,0.558369,-0.559903
4.6830,0.020083,0.000000,-0.130274,0.130274,0.0000,0.0000,0.0000,-0.002478,-0.127320,0.122718,1.1391,0.6991,-0.3430,0.001534,0.587515,-0.561437,0.556835,-0.595185,0.558369,-0.559903
4.7031,0.020080,0.000000,-0.133078,0.133078,0.0000,0.0000,0.0000,-0.002478,-0.127320,0.124252,1.1391,0.6991,-0.3430,0.001534,0.587515,-0.561437,0.556835,-0.595185,0.558369,-0.559903
4.7232,0.020074,0.000000,-0.135881,0.135881,0.0000,0.0000,0.0000,-0.002478,-0.128854,0.124252,1.1391,0.6991,-0.3430,0.001534,0.587515,-0.561437,0.556835,-0.595185,0.558369,-0.559903
4.7433,0.020082,0.000000,-0.138685,0.138685,0.0000,0.0000,0.0000,-0.002478,-0.134990,0.130388,1.1391,0.6991,-0.3430,0.001534,0.587515,-0.561437,0.556835,-0.595185,0.558369,-0.559903
4.7633,0.020081,0.000000,-0.141488,0.141488,0.0000,0.0000,0.0000,-0.002478,-0.136524,0.131922,1.1391,0.6991,-0.3430,0.001534,0.587515,-0.561437,0.556835,-0.595185,0.558369,-0.559903
4.7834,0.020086,0.000000,-0.144293,0.144293,0.0000,0.0000,0.0000,-0.002478,-0.134990,0.133456,1.1391,0.6991,-0.3430,0.001534,0.587515,-0.561437,0.556835,-0.595185,0.558369,-0.559903
4.8035,0.020082,0.000000,-0.147097,0.147097,0.0000,0.0000,0.0000,-0.002478,-0.141126,0.138058,1.1391,0.6991,-0.3430,0.001534,0.587515,-0.561437,0.556835,-0.595185,0.558369,-0.559903
4.8236,0.020080,0.000000,-0.149901,0.149901,0.0000,0.0000,0.0000,-0.002478,-0.147262,0.144194,1.1391,0.6991,-0.3430,0.001534,0.587515,-0.561437,0.556835,-0.595185,0.558369,-0.559903
4.8437,0.020082,0.000000,-0.152705,0.152705,0.0000,0.0000,0.0000,-0.002478,-0.147262,0.144194,1.1391,0.6991,-0.3430,0.001534,0.587515,-0.561437,0.556835,-0.595185,0.558369,-0.559903
4.8637,0.020078,0.000000,-0.155508,0.155508,0.0000,0.0000,0.0000,-0.002478,-0.147262,0.144194,1.1391,0.6991,-0.3430,0.001534,0.587515,-0.561437,0.556835,-0.595185,0.558369,-0.559903
4.8838,0.020078,0.000000,-0.158311,0.158311,0.0000,0.0000,0.0000,-0.002478,-0.153398,0.151864,1.1391,0.6991,-0.3430,0.001534,0.587515,-0.561437,0.556835,-0.595185,0.558369,-0.559903
4.9039,0.020076,0.000000,-0.161115,0.161115,0.0000,0.0000,0.0000,-0.002478,-0.158000,0.153398,1.1391,0.6991,-0.3430,0.001534,0.587515,-0.561437,0.556835,-0.595185,0.558369,-0.559903
4.9243,0.020409,0.000000,-0.163964,0.163964,0.0000,0.0000,0.0000,-0.002478,-0.158000,0.151864,1.1391,0.6991,-0.3430,0.001534,0.587515,-0.561437,0.556835,-0.595185,0.558369,-0.559903
4.9444,0.020085,0.000000,-0.166769,0.166769,0.0000,0.0000,0.0000,-0.002478,-0.159534,0.156466,1.1391,0.6991,-0.3430,0.001534,0.587515,-0.561437,0.556835,-0.595185,0.558369,-0.559903
4.9645,0.020076,0.000000,-0.169572,0.169572,0.0000,0.0000,0.0000,-0.002465,-0.167204,0.162602,1.1777,0.6640,-0.3957,0.001534,0.587515,-0.562971,0.556835,-0.595185,0.558369,-0.559903
4.9846,0.020081,0.000000,-0.172376,0.172376,0.0000,0.0000,0.0000,-0.002480,-0.165670,0.162602,1.1346,0.7032,-0.3368,0.001534,0.587515,-0.561437,0.556835,-0.595185,0.558369,-0.559903
5.0046,0.020079,0.000000,-0.173887,0.173887,0.0000,0.0000,0.0000,-0.002465,-0.164136,0.165670,1.1782,0.6636,-0.3964,0.001534,0.587515,-0.562971,0.556835,-0.595185,0.558369,-0.559903
5.0247,0.020082,0.000000,-0.171083,0.171083,0.0000,0.0000,0.0000,-0.002480,-0.171806,0.173340,1.1345,0.7032,-0.3368,0.001534,0.587515,-0.561437,0.556835,-0.595185,0.558369,-0.559903
5.0448,0.020102,0.000000,-0.168276,0.168276,0.0000,0.0000,0.0000,-0.002478,-0.177942,0.173340,1.1391,0.6991,-0.3430,0.001534,0.587515,-0.561437,0.556835,-0.595185,0.558369,-0.559903
5.0649,0.020075,0.000000,-0.165473,0.165473,0.0000,0.0000,0.0000,-0.002478,-0.176408,0.170272,1.1391,0.6991,-0.3430,0.001534,0.587515,-0.561437,0.556835,-0.595185,0.558369,-0.559903
5.0850,0.020105,0.000000,-0.162666,0.162666,0.0000,0.0000,0.0000,-0.002478,-0.173340,0.171806,1.1391,0.6991,-0.3430,0.001534,0.587515,-0.561437,0.556835,-0.595185,0.558369,-0.559903
5.1051,0.020082,0.000000,-0.159862,0.159862,0.0000,0.0000,0.0000,-0.002478,-0.173340,0.171806,1.1391,0.6991,-0.3430,0.001534,0.587515,-0.561437,0.556835,-0.595185,0.558369,-0.559903
5.1253,0.020270,0.000000,-0.157031,0.157031,0.0000,0.0000,0.0000,-0.002478,-0.173340,0.168738,1.1391,0.6991,-0.3430,0.001534,0.587515,-0.561437,0.556835,-0.595185,0.558369,-0.559903
5.1454,0.020081,0.000000,-0.154228,0.154228,0.0000,0.0000,0.0000,-0.002478,-0.168738,0.168738,1.1391,0.6991,-0.3430,0.001534,0.587515,-0.561437,0.556835,-0.595185,0.558369,-0.559903
5.1656,0.020169,0.000000,-0.151411,0.151411,0.0000,0.0000,0.0000,-0.002478,-0.162602,0.167204,1.1391,0.6991,-0.4309,0.000000,0.587515,-0.561437,0.556835,-0.595185,0.558369,-0.559903
5.1857,0.020100,0.000000,-0.148605,0.148605,0.0000,0.0000,0.0000,-0.002478,-0.158000,0.164136,1.1391,0.6991,-0.3430,0.001534,0.587515,-0.561437,0.556835,-0.595185,0.558369,-0.559903
5.2058,0.020090,0.000000,-0.145800,0.145800,0.0000,0.0000,0.0000,-0.002478,-0.156466,0.158000,1.1391,0.6991,-0.3430,0.001534,0.587515,-0.561437,0.556835,-0.595185,0.558369,-0.559903
5.2259,0.020099,0.000000,-0.142993,0.142993,0.0000,0.0000,0.0000,-0.002478,-0.153398,0.153398,1.1391,0.6991,-0.3430,0.001534,0.587515,-0.561437,0.556835,-0.595185,0.558369,-0.559903
5.2460,0.020105,0.000000,-0.140186,0.140186,0.0000,0.0000,0.0000,-0.002478,-0.148796,0.147262,1.1391,0.6991,-0.3430,0.001534,0.587515,-0.561437,0.556835,-0.595185,0.558369,-0.559903
5.2661,0.020094,0.000000,-0.137381,0.137381,0.0000,0.0000,0.0000,-0.002478,-0.148796,0.145728,1.1391,0.6991,-0.3430,0.001534,0.587515,-0.561437,0.556835,-0.595185,0.558369,-0.559903
5.2862,0.020102,0.000000,-0.134574,0.134574,0.0000,0.0000,0.0000,-0.002465,-0.148796,0.145728,1.1777,0.6640,-0.3957,0.001534,0.587515,-0.562971,0.556835,-0.595185,0.558369,-0.559903
5.3063,0.020096,0.000000,-0.131768,0.131768,0.0000,0.0000,0.0000,-0.002480,-0.148796,0.145728,1.1346,0.7032,-0.3368,0.001534,0.587515,-0.561437,0.556835,-0.595185,0.558369,-0.559903
5.3266,0.020291,0.000000,-0.128935,0.128935,0.0000,0.0000,0.0000,-0.002478,-0.147262,0.144194,1.1391,0.6991,-0.3430,0.001534,0.587515,-0.561437,0.556835,-0.595185,0.558369,-0.559903
5.3468,0.020224,0.000000,-0.126111,0.126111,0.0000,0.0000,0.0000,-0.002478,-0.145728,0.144194,1.1391,0.6991,-0.3430,0.001534,0.587515,-0.561437,0.556835,-0.595185,0.558369,-0.559903
5.3669,0.020089,0.000000,-0.123306,0.123306,0.0000,0.0000,0.0000,-0.002478,-0.144194,0.142660,1.1391,0.6991,-0.3430,0.001534,0.587515,-0.561437,0.556835,-0.595185,0.558369,-0.559903
5.3870,0.020084,0.000000,-0.120502,0.120502,0.0000,0.0000,0.0000,-0.002478,-0.134990,0.141126,1.1391,0.6991,-0.3430,0.001534,0.587515,-0.561437,0.556835,-0.595185,0.558369,-0.559903
5.4071,0.020092,0.000000,-0.117696,0.117696,0.0000,0.0000,0.0000,-0.002478,-0.127320,0.136524,1.1391,0.6991,-0.3430,0.001534,0.587515,-0.561437,0.556835,-0.595185,0.558369,-0.559903
5.4272,0.020099,0.000000,-0.114890,0.114890,0.0000,0.0000,0.0000,-0.002478,-0.124252,0.128854,1.1391,0.6991,-0.3430,0.001534,0.587515,-0.561437,0.556835,-0.595185,0.558369,-0.559903
5.4473,0.020098,0.000000,-0.112084,0.112084,0.0000,0.0000,0.0000,-0.002478,-0.122718,0.121184,1.1391,0.6991,-0.3430,0.001534,0.587515,-0.561437,0.556835,-0.595185,0.558369,-0.559903
5.4673,0.020089,0.000000,-0.109279,0.109279,0.0000,0.0000,0.0000,-0.002465,-0.122718,0.116583,1.1777,0.6640,-0.3957,0.001534,0.587515,-0.562971,0.556835,-0.595185,0.558369,-0.559903
5.4874,0.020099,0.000000,-0.106472,0.106472,0.0000,0.0000,0.0000,-0.002480,-0.119651,0.115049,1.1346,0.7032,-0.3368,0.001534,0.587515,-0.561437,0.556835,-0.595185,0.558369,-0.559903
5.5075,0.020084,0.000000,-0.103668,0.103668,0.0000,0.0000,0.0000,-0.002478,-0.118117,0.113515,1.1391,0.6991,-0.3430,0.001534,0.587515,-0.561437,0.556835,-0.595185,0.558369,-0.559903
5.5276,0.020100,0.000000,-0.100862,0.100862,0.0000,0.0000,0.0000,-0.002478,-0.115049,0.113515,1.1391,0.6991,-0.3430,0.001534,0.587515,-0.561437,0.556835,-0.595185,0.558369,-0.559903
5.5477,0.020094,0.000000,-0.098056,0.098056,0.0000,0.0000,0.0000,-0.002478,-0.107379,0.111981,1.1391,0.6991,-0.3430,0.001534,0.587515,-0.561437,0.556835,-0.595185,0.558369,-0.559903
5.5678,0.020094,0.000000,-0.095251,0.095251,0.0000,0.0000,0.0000,-0.002465,-0.104311,0.108913,1.1777,0.6640,-0.3957,0.001534,0.587515,-0.562971,0.556835,-0.595185,0.558369,-0.559903
5.5882,0.020429,0.000000,-0.092398,0.092398,0.0000,0.0000,0.0000,-0.002480,-0.102777,0.102777,1.1346,0.7032,-0.3368,0.001534,0.587515,-0.561437,0.556835,-0.595185,0.558369,-0.559903
5.6084,0.020151,0.000000,-0.089584,0.089584,0.0000,0.0000,0.0000,-0.002478,-0.101243,0.096641,1.1391,0.6991,-0.3430,0.001534,0.587515,-0.561437,0.556835,-0.595185,0.558369,-0.559903
5.6285,0.020085,0.000000,-0.086780,0.086780,0.0000,0.0000,0.0000,-0.002465,-0.096641,0.093573,1.1777,0.6640,-0.3957,0.001534,0.587515,-0.562971,0.556835,-0.595185,0.558369,-0.559903
5.6486,0.020123,0.000000,-0.083970,0.083970,0.0000,0.0000,0.0000,-0.002465,-0.095107,0.092039,1.1777,0.6640,-0.3957,0.001534,0.587515,-0.561437,0.556835,-0.595185,0.558369,-0.559903
5.6687,0.020088,0.000000,-0.081166,0.081166,0.0000,0.0000,0.0000,-0.002480,-0.095107,0.092039,1.1346,0.7032,-0.3368,0.001534,0.587515,-0.561437,0.556835,-0.595185,0.558369,-0.559903
5.6888,0.020099,0.000000,-0.078359,0.078359,0.0000,0.0000,0.0000,-0.002478,-0.093573,0.090505,1.1391,0.6991,-0.3430,0.001534,0.587515,-0.561437,0.556835,-0.595185,0.558369,-0.559903
5.7089,0.020090,0.000000,-0.075554,0.075554,0.0000,0.0000,0.0000,-0.002478,-0.092039,0.090505,1.1391,0.6991,-0.3430,0.001534,0.587515,-0.561437,0.556835,-0.595185,0.558369,-0.559903
5.7290,0.020089,0.000000,-0.072749,0.072749,0.0000,0.0000,0.0000,-0.002478,-0.088971,0.088971,1.1391,0.6991,-0.3430,0.001534,0.587515,-0.561437,0.556835,-0.595185,0.558369,-0.559903
5.7491,0.020122,0.000000,-0.069940,0.069940,0.0000,0.0000,0.0000,-0.002465,-0.079767,0.087437,1.1777,0.6640,-0.3957,0.001534,0.587515,-0.562971,0.556835,-0.595185,0.558369,-0.559903
5.7692,0.020103,0.000000,-0.067133,0.067133,0.0000,0.0000,0.0000,-0.002480,-0.076699,0.085903,1.1346,0.7032,-0.3368,0.001534,0.587515,-0.561437,0.556835,-0.595185,0.558369,-0.559903
5.7894,0.020242,0.000000,-0.064307,0.064307,0.0000,0.0000,0.0000,-0.002465,-0.078233,0.075165,1.1782,0.6636,-0.3964,0.001534,0.587515,-0.561437,0.556835,-0.595185,0.558369,-0.559903
5.8095,0.020090,0.000000,-0.061502,0.061502,0.0000,0.0000,0.0000,-0.002480,-0.078233,0.075165,1.1345,0.7032,-0.3368,0.001534,0.587515,-0.561437,0.556835,-0.595185,0.558369,-0.559903
5.8296,0.020099,0.000000,-0.058695,0.058695,0.0000,0.0000,0.0000,-0.002478,-0.072097,0.069029,1.1391,0.6991,-0.3430,0.001534,0.587515,-0.561437,0.556835,-0.595185,0.558369,-0.559903
5.8497,0.020099,0.000000,-0.055889,0.055889,0.0000,0.0000,0.0000,-0.002478,-0.069029,0.067495,1.1391,0.6991,-0.3430,0.001534,0.587515,-0.561437,0.556835,-0.595185,0.558369,-0.559903
5.8698,0.020099,0.000000,-0.053083,0.053083,0.0000,0.0000,0.0000,-0.002478,-0.067495,0.065961,1.1391,0.6991,-0.3430,0.001534,0.587515,-0.561437,0.556835,-0.595185,0.558369,-0.559903
5.8899,0.020093,0.000000,-0.050277,0.050277,0.0000,0.0000,0.0000,-0.002478,-0.061359,0.064427,1.1391,0.6991,-0.3430,0.001534,0.587515,-0.561437,0.556835,-0.595185,0.558369,-0.559903
5.9100,0.020109,0.000000,-0.047469,0.047469,0.0000,0.0000,0.0000,-0.002478,-0.055223,0.062893,1.1391,0.6991,-0.3430,0.001534,0.587515,-0.561437,0.556835,-0.595185,0.558369,-0.559903
5.9301,0.020097,0.000000,-0.044663,0.044663,0.0000,0.0000,0.0000,-0.002478,-0.052155,0.061359,1.1391,0.6991,-0.4309,0.000000,0.587515,-0.561437,0.556835,-0.595185,0.558369,-0.559903
5.9502,0.020096,0.000000,-0.041857,0.041857,0.0000,0.0000,0.0000,-0.002478,-0.055223,0.059825,1.1391,0.6991,-0.3430,0.001534,0.587515,-0.561437,0.556835,-0.595185,0.558369,-0.559903
5.9703,0.020107,0.000000,-0.039050,0.039050,0.0000,0.0000,0.0000,-0.002478,-0.052155,0.053689,1.1391,0.6991,-0.3430,0.001534,0.587515,-0.561437,0.556835,-0.595185,0.558369,-0.559903
5.9904,0.020095,0.000000,-0.036244,0.036244,0.0000,0.0000,0.0000,-0.002478,-0.044485,0.047553,1.1391,0.6991,-0.3430,0.001534,0.587515,-0.561437,0.556835,-0.595185,0.558369,-0.559903
6.0105,0.020093,0.000000,-0.033438,0.033438,0.0000,0.0000,0.0000,-0.002478,-0.041417,0.041417,1.1391,0.6991,-0.3430,0.001534,0.587515,-0.561437,0.556835,-0.595185,0.558369,-0.559903
6.0306,0.020096,0.000000,-0.030633,0.030633,0.0000,0.0000,0.0000,-0.002478,-0.042951,0.039884,1.1391,0.6991,-0.3430,0.001534,0.587515,-0.561437,0.556835,-0.595185,0.558369,-0.559903
6.0507,0.020096,0.000000,-0.027827,0.027827,0.0000,0.0000,0.0000,-0.002465,-0.041417,0.036816,1.1777,0.6640,-0.3957,0.001534,0.587515,-0.562971,0.556835,-0.595185,0.558369,-0.559903
6.0708,0.020093,0.000000,-0.025021,0.025021,0.0000,0.0000,0.0000,-0.002480,-0.038350,0.036816,1.1346,0.7032,-0.3368,0.001534,0.587515,-0.561437,0.556835,-0.595185,0.558369,-0.559903
6.0909,0.020091,0.000000,-0.022216,0.022216,0.0000,0.0000,0.0000,-0.002478,-0.030680,0.035282,1.1391,0.6991,-0.3430,0.001534,0.587515,-0.561437,0.556835,-0.595185,0.558369,-0.559903
6.1110,0.020096,0.000000,-0.019410,0.019410,0.0000,0.0000,0.0000,-0.002478,-0.024544,0.033748,1.1391,0.6991,-0.3430,0.001534,0.587515,-0.561437,0.556835,-0.595185,0.558369,-0.559903
6.1311,0.020097,0.000000,-0.016604,0.016604,0.0000,0.0000,0.0000,-0.002478,-0.024544,0.032214,1.1391,0.6991,-0.3430,0.001534,0.587515,-0.561437,0.556835,-0.595185,0.558369,-0.559903
6.1512,0.020093,0.000000,-0.013798,0.013798,0.0000,0.0000,0.0000,-0.002478,-0.029146,0.029146,1.1391,0.6991,-0.3430,0.001534,0.587515,-0.561437,0.556835,-0.595185,0.558369,-0.559903
6.1713,0.020118,0.000000,-0.010989,0.010989,0.0000,0.0000,0.0000,-0.002478,-0.024544,0.024544,1.1391,0.6991,-0.3430,0.001534,0.587515,-0.561437,0.556835,-0.595185,0.558369,-0.559903
6.1914,0.020094,0.000000,-0.008184,0.008184,0.0000,0.0000,0.0000,-0.002478,-0.018408,0.018408,1.1391,0.6991,-0.3430,0.001534,0.587515,-0.561437,0.556835,-0.595185,0.558369,-0.559903
6.2115,0.020097,0.000000,-0.005378,0.005378,0.0000,0.0000,0.0000,-0.002478,-0.013806,0.012272,1.1391,0.6991,-0.3430,0.001534,0.587515,-0.561437,0.556835,-0.595185,0.558369,-0.559903
6.2316,0.020095,0.000000,-0.002572,0.002572,0.0000,0.0000,0.0000,-0.002478,-0.012272,0.009204,1.1391,0.6991,-0.3430,0.001534,0.587515,-0.561437,0.556835,-0.595185,0.558369,-0.559903
6.2516,0.020064,0.000000,0.000230,-0.000230,0.0000,0.0000,0.0000,-0.002478,-0.012272,0.010738,1.1391,0.6991,-0.3430,0.001534,0.587515,-0.561437,0.556835,-0.595185,0.558369,-0.559903
6.2717,0.020099,0.000000,0.003036,-0.003036,0.0000,0.0000,0.0000,-0.002478,-0.012272,0.009204,1.1391,0.6991,-0.3430,0.001534,0.587515,-0.561437,0.556835,-0.595185,0.558369,-0.559903
6.2918,0.020083,0.000000,0.005840,-0.005840,0.0000,0.0000,0.0000,-0.002478,-0.004602,0.006136,1.1391,0.6991,-0.3430,0.001534,0.587515,-0.561437,0.556835,-0.595185,0.558369,-0.559903
6.3148,0.022991,0.000000,0.009050,-0.009050,0.0000,0.0000,0.0000,-0.002478,0.006136,0.003068,1.1391,0.6991,-0.4309,0.000000,0.587515,-0.561437,0.556835,-0.595185,0.558369,-0.559903
6.3349,0.020120,0.000000,0.011860,-0.011860,0.0000,0.0000,0.0000,-0.002465,0.004602,-0.001534,1.1777,0.6640,-0.3957,0.001534,0.587515,-0.562971,0.556835,-0.595185,0.558369,-0.559903
6.3550,0.020088,0.000000,0.014664,-0.014664,0.0000,0.0000,0.0000,-0.002480,-0.001534,-0.004602,1.1346,0.7032,-0.3368,0.001534,0.587515,-0.561437,0.556835,-0.595185,0.558369,-0.559903
6.3751,0.020093,0.000000,0.017470,-0.017470,0.0000,0.0000,0.0000,-0.002478,0.001534,-0.007670,1.1391,0.6991,-0.3430,0.001534,0.587515,-0.561437,0.556835,-0.595185,0.558369,-0.559903
6.3952,0.020087,0.000000,0.020275,-0.020275,0.0000,0.0000,0.0000,-0.002478,0.007670,-0.007670,1.1391,0.6991,-0.3430,0.001534,0.587515,-0.561437,0.556835,-0.595185,0.558369,-0.559903
6.4153,0.020097,0.000000,0.023081,-0.023081,0.0000,0.0000,0.0000,-0.002478,0.012272,-0.012272,1.1391,0.6991,-0.3430,0.001534,0.587515,-0.561437,0.556835,-0.595185,0.558369,-0.559903
6.4354,0.020089,0.000000,0.025886,-0.025886,0.0000,0.0000,0.0000,-0.002465,0.013806,-0.015340,1.1777,0.6640,-0.3957,0.001534,0.587515,-0.562971,0.556835,-0.595185,0.558369,-0.559903
6.4555,0.020090,0.000000,0.028691,-0.028691,0.0000,0.0000,0.0000,-0.002480,0.018408,-0.018408,1.1346,0.7032,-0.3368,0.001534,0.587515,-0.561437,0.556835,-0.595185,0.558369,-0.559903
6.4756,0.020088,0.000000,0.031496,-0.031496,0.0000,0.0000,0.0000,-0.002478,0.026078,-0.021476,1.1391,0.6991,-0.3430,0.001534,0.587515,-0.561437,0.556835,-0.595185,0.558369,-0.559903
6.4957,0.020097,0.000000,0.034302,-0.034302,0.0000,0.0000,0.0000,-0.002465,0.029146,-0.023010,1.1777,0.6640,-0.3957,0.001534,0.587515,-0.562971,0.556835,-0.595185,0.558369,-0.559903
6.5158,0.020090,0.000000,0.037107,-0.037107,0.0000,0.0000,0.0000,-0.002480,0.024544,-0.029146,1.1346,0.7032,-0.3368,0.001534,0.587515,-0.561437,0.556835,-0.595185,0.558369,-0.559903
6.5359,0.020093,0.000000,0.039912,-0.039912,0.0000,0.0000,0.0000,-0.002478,0.026078,-0.032214,1.1391,0.6991,-0.3430,0.001534,0.587515,-0.561437,0.556835,-0.595185,0.558369,-0.559903
