t,loop_dt,cmd_z,cmd_ant_l,cmd_ant_r,cmd_roll,cmd_pitch,cmd_yaw,pres_z,pres_ant_l,pres_ant_r,pres_roll,pres_pitch,pres_yaw,pres_j0,pres_j1,pres_j2,pres_j3,pres_j4,pres_j5,pres_j6
0.0000,0.000001,0.000000,-0.174533,0.174533,0.0000,0.0000,0.0000,-0.002737,0.000000,0.000000,0.9121,0.9619,-0.0128,0.001534,0.576777,-0.552233,0.555301,-0.592117,0.558369,-0.549165
0.0201,0.020088,0.000000,-0.174182,0.174182,0.0000,0.0000,0.0000,-0.002711,0.004602,0.000000,0.9500,1.0038,0.1001,0.001534,0.578311,-0.552233,0.556835,-0.592117,0.558369,-0.549165
0.0402,0.020086,0.000000,-0.173832,0.173832,0.0000,0.0000,0.0000,-0.002713,0.000000,0.000000,0.9460,0.9994,0.0883,0.001534,0.578311,-0.552233,0.556835,-0.592117,0.558369,-0.549165
0.0603,0.020086,0.000000,-0.173481,0.173481,0.0000,0.0000,0.0000,-0.002702,-0.039884,0.030680,0.9577,0.9145,0.0366,0.001534,0.579845,-0.552233,0.555301,-0.592117,0.558369,-0.550699
0.0803,0.020086,0.000000,-0.173131,0.173131,0.0000,0.0000,0.0000,-0.002664,-0.104311,0.099709,0.8469,0.9391,-0.0117,0.001534,0.579845,-0.552233,0.556835,-0.592117,0.558369,-0.553767
0.1004,0.020094,0.000000,-0.172780,0.172780,0.0000,0.0000,0.0000,-0.002604,-0.177942,0.173340,0.8886,0.8139,-0.1658,0.001534,0.581379,-0.555301,0.556835,-0.592117,0.558369,-0.556835
0.1209,0.020419,0.000000,-0.172424,0.172424,0.0000,0.0000,0.0000,-0.002587,-0.208621,0.202485,0.8848,0.7935,-0.1493,0.001534,0.582913,-0.555301,0.556835,-0.592117,0.558369,-0.558369
0.1410,0.020111,0.000000,-0.172073,0.172073,0.0000,0.0000,0.0000,-0.002576,-0.202485,0.200951,0.8360,0.7777,-0.2047,0.001534,0.582913,-0.555301,0.556835,-0.592117,0.558369,-0.559903
0.1611,0.020106,0.000000,-0.171722,0.171722,0.0000,0.0000,0.0000,-0.002566,-0.184078,0.187146,0.8908,0.7638,-0.1449,0.001534,0.584447,-0.555301,0.556835,-0.592117,0.558369,-0.559903
0.1812,0.020097,0.000000,-0.171371,0.171371,0.0000,0.0000,0.0000,-0.002567,-0.173340,0.176408,0.8851,0.7652,-0.1511,0.001534,0.584447,-0.555301,0.556835,-0.592117,0.558369,-0.559903
0.2013,0.020159,0.000000,-0.171019,0.171019,0.0000,0.0000,0.0000,-0.002555,-0.170272,0.168738,0.9353,0.7495,-0.0965,0.001534,0.585981,-0.555301,0.556835,-0.592117,0.558369,-0.559903
0.2214,0.020086,0.000000,-0.170668,0.170668,0.0000,0.0000,0.0000,-0.002546,-0.176408,0.171806,0.9797,0.7356,-0.0481,0.001534,0.587515,-0.555301,0.556835,-0.592117,0.558369,-0.559903
0.2415,0.020098,0.000000,-0.170318,0.170318,0.0000,0.0000,0.0000,-0.002547,-0.176408,0.171806,0.9751,0.7371,-0.0532,0.001534,0.587515,-0.555301,0.556835,-0.592117,0.558369,-0.559903
0.2616,0.020093,0.000000,-0.169967,0.169967,0.0000,0.0000,0.0000,-0.002547,-0.171806,0.170272,0.9751,0.7371,-0.0532,0.001534,0.587515,-0.555301,0.556835,-0.592117,0.558369,-0.559903
0.2817,0.020102,0.000000,-0.169616,0.169616,0.0000,0.0000,0.0000,-0.002547,-0.173340,0.171806,0.9751,0.7371,-0.0532,0.001534,0.587515,-0.555301,0.556835,-0.592117,0.558369,-0.559903
0.3018,0.020089,0.000000,-0.169265,0.169265,0.0000,0.0000,0.0000,-0.002547,-0.174874,0.171806,0.9751,0.7371,-0.0532,0.001534,0.587515,-0.555301,0.556835,-0.592117,0.558369,-0.559903
0.3219,0.020086,0.000000,-0.168915,0.168915,0.0000,0.0000,0.0000,-0.002547,-0.173340,0.171806,0.9751,0.7371,-0.0532,0.001534,0.587515,-0.555301,0.556835,-0.592117,0.558369,-0.559903
0.3420,0.020121,0.000000,-0.168564,0.168564,0.0000,0.0000,0.0000,-0.002547,-0.173340,0.171806,0.9751,0.7371,-0.0532,0.001534,0.587515,-0.555301,0.556835,-0.592117,0.558369,-0.559903
0.3621,0.020093,0.000000,-0.168213,0.168213,0.0000,0.0000,0.0000,-0.002547,-0.173340,0.171806,0.9751,0.7371,-0.0532,0.001534,0.587515,-0.555301,0.556835,-0.592117,0.558369,-0.559903
0.3822,0.020082,0.000000,-0.167863,0.167863,0.0000,0.0000,0.0000,-0.002547,-0.173340,0.171806,0.9751,0.7371,-0.0532,0.001534,0.587515,-0.555301,0.556835,-0.592117,0.558369,-0.559903
0.4023,0.020087,0.000000,-0.167512,0.167512,0.0000,0.0000,0.0000,-0.002547,-0.173340,0.171806,0.9751,0.7371,-0.0532,0.001534,0.587515,-0.555301,0.556835,-0.592117,0.558369,-0.559903
0.4224,0.020087,0.000000,-0.167161,0.167161,0.0000,0.0000,0.0000,-0.002547,-0.173340,0.171806,0.9751,0.7371,-0.0532,0.001534,0.587515,-0.555301,0.556835,-0.592117,0.558369,-0.559903
0.4424,0.020091,0.000000,-0.166811,0.166811,0.0000,0.0000,0.0000,-0.002547,-0.173340,0.171806,0.9751,0.7371,-0.0532,0.001534,0.587515,-0.555301,0.556835,-0.592117,0.558369,-0.559903
0.4633,0.020820,0.000000,-0.166447,0.166447,0.0000,0.0000,0.0000,-0.002547,-0.171806,0.171806,0.9751,0.7371,-0.0532,0.001534,0.587515,-0.555301,0.556835,-0.592117,0.558369,-0.559903
0.4834,0.020092,0.000000,-0.166097,0.166097,0.0000,0.0000,0.0000,-0.002547,-0.168738,0.171806,0.9751,0.7371,-0.0532,0.001534,0.587515,-0.555301,0.556835,-0.592117,0.558369,-0.559903
0.5035,0.020092,0.000000,-0.165746,0.165746,0.0000,0.0000,0.0000,-0.002547,-0.168738,0.171806,0.9751,0.7371,-0.0532,0.001534,0.587515,-0.555301,0.556835,-0.592117,0.558369,-0.559903
0.5237,0.020203,0.000000,-0.165393,0.165393,0.0000,0.0000,0.0000,-0.002547,-0.168738,0.171806,0.9751,0.7371,-0.0532,0.001534,0.587515,-0.555301,0.556835,-0.592117,0.558369,-0.559903
0.5437,0.020090,0.000000,-0.165043,0.165043,0.0000,0.0000,0.0000,-0.002547,-0.168738,0.171806,0.9751,0.7371,-0.0532,0.001534,0.587515,-0.555301,0.556835,-0.592117,0.558369,-0.559903
0.5638,0.020095,0.000000,-0.164692,0.164692,0.0000,0.0000,0.0000,-0.002547,-0.167204,0.171806,0.9751,0.7371,-0.0532,0.001534,0.587515,-0.555301,0.556835,-0.592117,0.558369,-0.559903
0.5839,0.020093,0.000000,-0.164341,0.164341,0.0000,0.0000,0.0000,-0.002547,-0.167204,0.171806,0.9751,0.7371,-0.0532,0.001534,0.587515,-0.555301,0.556835,-0.592117,0.558369,-0.559903
0.6040,0.020104,0.000000,-0.163991,0.163991,0.0000,0.0000,0.0000,-0.002547,-0.167204,0.171806,0.9751,0.7371,-0.0532,0.001534,0.587515,-0.555301,0.556835,-0.592117,0.558369,-0.559903
0.6246,0.020582,0.000000,-0.163631,0.163631,0.0000,0.0000,0.0000,-0.002547,-0.167204,0.171806,0.9751,0.7371,-0.0532,0.001534,0.587515,-0.555301,0.556835,-0.592117,0.558369,-0.559903
0.6447,0.020106,0.000000,-0.163280,0.163280,0.0000,0.0000,0.0000,-0.002547,-0.165670,0.171806,0.9751,0.7371,-0.0532,0.001534,0.587515,-0.555301,0.556835,-0.592117,0.558369,-0.559903
0.6648,0.020102,0.000000,-0.162930,0.162930,0.0000,0.0000,0.0000,-0.002547,-0.165670,0.171806,0.9751,0.7371,-0.0532,0.001534,0.587515,-0.555301,0.556835,-0.592117,0.558369,-0.559903
0.6852,0.020327,0.000000,-0.162575,0.162575,0.0000,0.0000,0.0000,-0.002547,-0.165670,0.171806,0.9751,0.7371,-0.0532,0.001534,0.587515,-0.555301,0.556835,-0.592117,0.558369,-0.559903
0.7057,0.020586,0.000000,-0.162215,0.162215,0.0000,0.0000,0.0000,-0.002547,-0.165670,0.171806,0.9751,0.7371,-0.0532,0.001534,0.587515,-0.555301,0.556835,-0.592117,0.558369,-0.559903
0.7258,0.020089,0.000000,-0.161865,0.161865,0.0000,0.0000,0.0000,-0.002547,-0.164136,0.171806,0.9751,0.7371,-0.0532,0.001534,0.587515,-0.555301,0.556835,-0.592117,0.558369,-0.559903
0.7459,0.020086,0.000000,-0.161514,0.161514,0.0000,0.0000,0.0000,-0.002547,-0.164136,0.171806,0.9751,0.7371,-0.0532,0.001534,0.587515,-0.555301,0.556835,-0.592117,0.558369,-0.559903
0.7662,0.020271,0.000000,-0.161160,0.161160,0.0000,0.0000,0.0000,-0.002547,-0.164136,0.171806,0.9751,0.7371,-0.0532,0.001534,0.587515,-0.555301,0.556835,-0.592117,0.558369,-0.559903
0.7863,0.020088,0.000000,-0.160810,0.160810,0.0000,0.0000,0.0000,-0.002547,-0.164136,0.171806,0.9751,0.7371,-0.0532,0.001534,0.587515,-0.555301,0.556835,-0.592117,0.558369,-0.559903
0.8064,0.020093,0.000000,-0.160459,0.160459,0.0000,0.0000,0.0000,-0.002547,-0.164136,0.171806,0.9751,0.7371,-0.0532,0.001534,0.587515,-0.555301,0.556835,-0.592117,0.558369,-0.559903
0.8267,0.020286,0.000000,-0.160105,0.160105,0.0000,0.0000,0.0000,-0.002547,-0.164136,0.171806,0.9751,0.7371,-0.0532,0.001534,0.587515,-0.555301,0.556835,-0.592117,0.558369,-0.559903
0.8468,0.020104,0.000000,-0.159754,0.159754,0.0000,0.0000,0.0000,-0.002547,-0.162602,0.171806,0.9751,0.7371,-0.0532,0.001534,0.587515,-0.555301,0.556835,-0.592117,0.558369,-0.559903
0.8670,0.020262,0.000000,-0.159401,0.159401,0.0000,0.0000,0.0000,-0.002547,-0.162602,0.170272,0.9751,0.7371,-0.0532,0.001534,0.587515,-0.555301,0.556835,-0.592117,0.558369,-0.559903
0.8871,0.020097,0.000000,-0.159050,0.159050,0.0000,0.0000,0.0000,-0.002547,-0.162602,0.170272,0.9751,0.7371,-0.0532,0.001534,0.587515,-0.555301,0.556835,-0.592117,0.558369,-0.559903
0.9073,0.020209,0.000000,-0.158697,0.158697,0.0000,0.0000,0.0000,-0.002547,-0.162602,0.170272,0.9751,0.7371,-0.0532,0.001534,0.587515,-0.555301,0.556835,-0.592117,0.558369,-0.559903
0.9275,0.020224,0.000000,-0.158344,0.158344,0.0000,0.0000,0.0000,-0.002547,-0.161068,0.170272,0.9751,0.7371,-0.0532,0.001534,0.587515,-0.555301,0.556835,-0.592117,0.558369,-0.559903
0.9479,0.020348,0.000000,-0.157989,0.157989,0.0000,0.0000,0.0000,-0.002547,-0.161068,0.170272,0.9751,0.7371,-0.0532,0.001534,0.587515,-0.555301,0.556835,-0.592117,0.558369,-0.559903
0.9681,0.020245,0.000000,-0.157636,0.157636,0.0000,0.0000,0.0000,-0.002547,-0.161068,0.170272,0.9751,0.7371,-0.0532,0.001534,0.587515,-0.555301,0.556835,-0.592117,0.558369,-0.559903
0.9882,0.020088,0.000000,-0.157285,0.157285,0.0000,0.0000,0.0000,-0.002547,-0.161068,0.170272,0.9751,0.7371,-0.0532,0.001534,0.587515,-0.555301,0.556835,-0.592117,0.558369,-0.559903
1.0085,0.020301,0.000000,-0.156931,0.156931,0.0000,0.0000,0.0000,-0.002547,-0.161068,0.170272,0.9751,0.7371,-0.0532,0.001534,0.587515,-0.555301,0.556835,-0.592117,0.558369,-0.559903
1.0286,0.020086,0.000000,-0.156580,0.156580,0.0000,0.0000,0.0000,-0.002547,-0.159534,0.170272,0.9751,0.7371,-0.0532,0.001534,0.587515,-0.555301,0.556835,-0.592117,0.558369,-0.559903
1.0487,0.020085,0.000000,-0.156230,0.156230,0.0000,0.0000,0.0000,-0.002547,-0.161068,0.168738,0.9751,0.7371,-0.0532,0.001534,0.587515,-0.555301,0.556835,-0.592117,0.558369,-0.559903
1.0688,0.020087,0.000000,-0.155879,0.155879,0.0000,0.0000,0.0000,-0.002547,-0.159534,0.168738,0.9751,0.7371,-0.0532,0.001534,0.587515,-0.555301,0.556835,-0.592117,0.558369,-0.559903
1.0889,0.020091,0.000000,-0.155528,0.155528,0.0000,0.0000,0.0000,-0.002547,-0.159534,0.167204,0.9751,0.7371,-0.0532,0.001534,0.587515,-0.555301,0.556835,-0.592117,0.558369,-0.559903
1.1090,0.020099,0.000000,-0.155178,0.155178,0.0000,0.0000,0.0000,-0.002547,-0.159534,0.165670,0.9751,0.7371,-0.0532,0.001534,0.587515,-0.555301,0.556835,-0.592117,0.558369,-0.559903
1.1294,0.020472,0.000000,-0.154820,0.154820,0.0000,0.0000,0.0000,-0.002547,-0.159534,0.161068,0.9751,0.7371,-0.0532,0.001534,0.587515,-0.555301,0.556835,-0.592117,0.558369,-0.559903
1.1497,0.020243,0.000000,-0.154467,0.154467,0.0000,0.0000,0.0000,-0.002547,-0.159534,0.156466,0.9751,0.7371,-0.0532,0.001534,0.587515,-0.555301,0.556835,-0.592117,0.558369,-0.559903
1.1699,0.020192,0.000000,-0.154115,0.154115,0.0000,0.0000,0.0000,-0.002547,-0.159534,0.156466,0.9751,0.7371,-0.0532,0.001534,0.587515,-0.555301,0.556835,-0.592117,0.558369,-0.559903
1.1900,0.020098,0.000000,-0.153764,0.153764,0.0000,0.0000,0.0000,-0.002547,-0.158000,0.154932,0.9751,0.7371,-0.0532,0.001534,0.587515,-0.555301,0.556835,-0.592117,0.558369,-0.559903
1.2103,0.020328,0.000000,-0.153409,0.153409,0.0000,0.0000,0.0000,-0.002547,-0.156466,0.153398,0.9751,0.7371,-0.0532,0.001534,0.587515,-0.555301,0.556835,-0.592117,0.558369,-0.559903
1.2304,0.020097,0.000000,-0.153058,0.153058,0.0000,0.0000,0.0000,-0.002547,-0.156466,0.153398,0.9751,0.7371,-0.0532,0.001534,0.587515,-0.555301,0.556835,-0.592117,0.558369,-0.559903
1.2505,0.020089,0.000000,-0.152708,0.152708,0.0000,0.0000,0.0000,-0.002547,-0.156466,0.153398,0.9751,0.7371,-0.0532,0.001534,0.587515,-0.555301,0.556835,-0.592117,0.558369,-0.559903
1.2706,0.020113,0.000000,-0.152357,0.152357,0.0000,0.0000,0.0000,-0.002547,-0.156466,0.153398,0.9751,0.7371,-0.0532,0.001534,0.587515,-0.555301,0.556835,-0.592117,0.558369,-0.559903
1.2907,0.020094,0.000000,-0.152006,0.152006,0.0000,0.0000,0.0000,-0.002547,-0.154932,0.151864,0.9751,0.7371,-0.0532,0.001534,0.587515,-0.555301,0.556835,-0.592117,0.558369,-0.559903
1.3108,0.020097,0.000000,-0.151655,0.151655,0.0000,0.0000,0.0000,-0.002547,-0.154932,0.151864,0.9751,0.7371,-0.0532,0.001534,0.587515,-0.555301,0.556835,-0.592117,0.558369,-0.559903
1.3320,0.021194,0.000000,-0.151285,0.151285,0.0000,0.0000,0.0000,-0.002547,-0.154932,0.151864,0.9751,0.7371,-0.0532,0.001534,0.587515,-0.555301,0.556835,-0.592117,0.558369,-0.559903
1.3521,0.020107,0.000000,-0.150934,0.150934,0.0000,0.0000,0.0000,-0.002547,-0.154932,0.151864,0.9751,0.7371,-0.0532,0.001534,0.587515,-0.555301,0.556835,-0.592117,0.558369,-0.559903
1.3722,0.020103,0.000000,-0.150583,0.150583,0.0000,0.0000,0.0000,-0.002547,-0.153398,0.151864,0.9751,0.7371,-0.0532,0.001534,0.587515,-0.555301,0.556835,-0.592117,0.558369,-0.559903
1.3923,0.020109,0.000000,-0.150232,0.150232,0.0000,0.0000,0.0000,-0.002547,-0.153398,0.151864,0.9751,0.7371,-0.0532,0.001534,0.587515,-0.555301,0.556835,-0.592117,0.558369,-0.559903
1.4124,0.020093,0.000000,-0.149882,0.149882,0.0000,0.0000,0.0000,-0.002547,-0.153398,0.150330,0.9751,0.7371,-0.0532,0.001534,0.587515,-0.555301,0.556835,-0.592117,0.558369,-0.559903
1.4325,0.020108,0.000000,-0.149531,0.149531,0.0000,0.0000,0.0000,-0.002547,-0.153398,0.150330,0.9751,0.7371,-0.0532,0.001534,0.587515,-0.555301,0.556835,-0.592117,0.558369,-0.559903
1.4527,0.020143,0.000000,-0.149179,0.149179,0.0000,0.0000,0.0000,-0.002547,-0.151864,0.150330,0.9751,0.7371,-0.0532,0.001534,0.587515,-0.555301,0.556835,-0.592117,0.558369,-0.559903
1.4728,0.020101,0.000000,-0.148828,0.148828,0.0000,0.0000,0.0000,-0.002547,-0.153398,0.150330,0.9751,0.7371,-0.0532,0.001534,0.587515,-0.555301,0.556835,-0.592117,0.558369,-0.559903
1.4928,0.020066,0.000000,-0.148478,0.148478,0.0000,0.0000,0.0000,-0.002547,-0.151864,0.150330,0.9751,0.7371,-0.0532,0.001534,0.587515,-0.555301,0.556835,-0.592117,0.558369,-0.559903
1.5131,0.020298,0.000000,-0.148124,0.148124,0.0000,0.0000,0.0000,-0.002547,-0.151864,0.150330,0.9751,0.7371,-0.0532,0.001534,0.587515,-0.555301,0.556835,-0.592117,0.558369,-0.559903
1.5333,0.020152,0.000000,-0.147772,0.147772,0.0000,0.0000,0.0000,-0.002547,-0.153398,0.150330,0.9751,0.7371,-0.0532,0.000000,0.587515,-0.555301,0.556835,-0.592117,0.558369,-0.559903
1.5534,0.020093,0.000000,-0.147422,0.147422,0.0000,0.0000,0.0000,-0.002547,-0.151864,0.150330,0.9751,0.7371,-0.0532,0.001534,0.587515,-0.555301,0.556835,-0.592117,0.558369,-0.559903
1.5735,0.020104,0.000000,-0.147071,0.147071,0.0000,0.0000,0.0000,-0.002547,-0.151864,0.150330,0.9751,0.7371,-0.0532,0.001534,0.587515,-0.555301,0.556835,-0.592117,0.558369,-0.559903
1.5936,0.020103,0.000000,-0.146720,0.146720,0.0000,0.0000,0.0000,-0.002547,-0.150330,0.150330,0.9751,0.7371,-0.0532,0.001534,0.587515,-0.555301,0.556835,-0.592117,0.558369,-0.559903
1.6137,0.020096,0.000000,-0.146369,0.146369,0.0000,0.0000,0.0000,-0.002547,-0.150330,0.150330,0.9751,0.7371,-0.0532,0.001534,0.587515,-0.555301,0.556835,-0.592117,0.558369,-0.559903
1.6338,0.020103,0.000000,-0.146018,0.146018,0.0000,0.0000,0.0000,-0.002547,-0.150330,0.150330,0.9751,0.7371,-0.0532,0.001534,0.587515,-0.555301,0.556835,-0.592117,0.558369,-0.559903
1.6539,0.020109,0.000000,-0.145667,0.145667,0.0000,0.0000,0.0000,-0.002547,-0.148796,0.150330,0.9751,0.7371,-0.0532,0.001534,0.587515,-0.555301,0.556835,-0.592117,0.558369,-0.559903
1.6740,0.020113,0.000000,-0.145316,0.145316,0.0000,0.0000,0.0000,-0.002547,-0.148796,0.148796,0.9751,0.7371,-0.0532,0.001534,0.587515,-0.555301,0.556835,-0.592117,0.558369,-0.559903
1.6941,0.020086,0.000000,-0.144966,0.144966,0.0000,0.0000,0.0000,-0.002547,-0.148796,0.148796,0.9751,0.7371,-0.0532,0.001534,0.587515,-0.555301,0.556835,-0.592117,0.558369,-0.559903
1.7142,0.020092,0.000000,-0.144615,0.144615,0.0000,0.0000,0.0000,-0.002547,-0.148796,0.148796,0.9751,0.7371,-0.0532,0.001534,0.587515,-0.555301,0.556835,-0.592117,0.558369,-0.559903
1.7343,0.020106,0.000000,-0.144264,0.144264,0.0000,0.0000,0.0000,-0.002547,-0.148796,0.148796,0.9751,0.7371,-0.0532,0.001534,0.587515,-0.555301,0.556835,-0.592117,0.558369,-0.559903
1.7544,0.020119,0.000000,-0.143913,0.143913,0.0000,0.0000,0.0000,-0.002547,-0.148796,0.147262,0.9751,0.7371,-0.0532,0.001534,0.587515,-0.555301,0.556835,-0.592117,0.558369,-0.559903
1.7757,0.021320,0.000000,-0.143541,0.143541,0.0000,0.0000,0.0000,-0.002547,-0.148796,0.147262,0.9751,0.7371,-0.0532,0.001534,0.587515,-0.555301,0.556835,-0.592117,0.558369,-0.559903
1.7958,0.020098,0.000000,-0.143190,0.143190,0.0000,0.0000,0.0000,-0.002547,-0.148796,0.147262,0.9751,0.7371,-0.0532,0.001534,0.587515,-0.555301,0.556835,-0.592117,0.558369,-0.559903
1.8159,0.020097,0.000000,-0.142839,0.142839,0.0000,0.0000,0.0000,-0.002547,-0.148796,0.147262,0.9751,0.7371,-0.0532,0.001534,0.587515,-0.555301,0.556835,-0.592117,0.558369,-0.559903
1.8360,0.020106,0.000000,-0.142488,0.142488,0.0000,0.0000,0.0000,-0.002547,-0.148796,0.147262,0.9751,0.7371,-0.0532,0.001534,0.587515,-0.555301,0.556835,-0.592117,0.558369,-0.559903
1.8561,0.020097,0.000000,-0.142138,0.142138,0.0000,0.0000,0.0000,-0.002547,-0.148796,0.147262,0.9751,0.7371,-0.0532,0.001534,0.587515,-0.555301,0.556835,-0.592117,0.558369,-0.559903
1.8762,0.020116,0.000000,-0.141786,0.141786,0.0000,0.0000,0.0000,-0.002547,-0.148796,0.147262,0.9751,0.7371,-0.0532,0.001534,0.587515,-0.555301,0.556835,-0.592117,0.558369,-0.559903
1.8964,0.020142,0.000000,-0.141435,0.141435,0.0000,0.0000,0.0000,-0.002547,-0.148796,0.147262,0.9751,0.7371,-0.0532,0.001534,0.587515,-0.555301,0.556835,-0.592117,0.558369,-0.559903
1.9165,0.020110,0.000000,-0.141084,0.141084,0.0000,0.0000,0.0000,-0.002547,-0.148796,0.147262,0.9751,0.7371,-0.0532,0.001534,0.587515,-0.555301,0.556835,-0.592117,0.558369,-0.559903
1.9366,0.020112,0.000000,-0.140733,0.140733,0.0000,0.0000,0.0000,-0.002547,-0.148796,0.147262,0.9751,0.7371,-0.0532,0.001534,0.587515,-0.555301,0.556835,-0.592117,0.558369,-0.559903
1.9567,0.020100,0.000000,-0.140382,0.140382,0.0000,0.0000,0.0000,-0.002547,-0.148796,0.145728,0.9751,0.7371,-0.0532,0.001534,0.587515,-0.555301,0.556835,-0.592117,0.558369,-0.559903
1.9768,0.020109,0.000000,-0.140031,0.140031,0.0000,0.0000,0.0000,-0.002547,-0.148796,0.145728,0.9751,0.7371,-0.0532,0.001534,0.587515,-0.555301,0.556835,-0.592117,0.558369,-0.559903
1.9969,0.020102,0.000000,-0.139680,0.139680,0.0000,0.0000,0.0000,-0.002547,-0.148796,0.145728,0.9751,0.7371,-0.0532,0.001534,0.587515,-0.555301,0.556835,-0.592117,0.558369,-0.559903
2.0170,0.020086,0.000000,-0.139330,0.139330,0.0000,0.0000,0.0000,-0.002547,-0.148796,0.145728,0.9751,0.7371,-0.0532,0.001534,0.587515,-0.555301,0.556835,-0.592117,0.558369,-0.559903
2.0371,0.020120,0.000000,-0.138979,0.138979,0.0000,0.0000,0.0000,-0.002547,-0.148796,0.145728,0.9751,0.7371,-0.0532,0.001534,0.587515,-0.555301,0.556835,-0.592117,0.558369,-0.559903
2.0572,0.020089,0.000000,-0.138628,0.138628,0.0000,0.0000,0.0000,-0.002547,-0.148796,0.145728,0.9751,0.7371,-0.0532,0.001534,0.587515,-0.555301,0.556835,-0.592117,0.558369,-0.559903
2.0774,0.020164,0.000000,-0.138276,0.138276,0.0000,0.0000,0.0000,-0.002547,-0.148796,0.145728,0.9751,0.7371,-0.0532,0.001534,0.587515,-0.555301,0.556835,-0.592117,0.558369,-0.559903
2.0977,0.020287,0.000000,-0.137922,0.137922,0.0000,0.0000,0.0000,-0.002547,-0.148796,0.145728,0.9751,0.7371,-0.0532,0.001534,0.587515,-0.555301,0.556835,-0.592117,0.558369,-0.559903
2.1177,0.020087,0.000000,-0.137571,0.137571,0.0000,0.0000,0.0000,-0.002547,-0.148796,0.145728,0.9751,0.7371,-0.0532,0.001534,0.587515,-0.555301,0.556835,-0.592117,0.558369,-0.559903
2.1378,0.020109,0.000000,-0.137220,0.137220,0.0000,0.0000,0.0000,-0.002547,-0.148796,0.145728,0.9751,0.7371,-0.0532,0.001534,0.587515,-0.555301,0.556835,-0.592117,0.558369,-0.559903
2.1579,0.020076,0.000000,-0.136870,0.136870,0.0000,0.0000,0.0000,-0.002547,-0.148796,0.145728,0.9751,0.7371,-0.0532,0.001534,0.587515,-0.555301,0.556835,-0.592117,0.558369,-0.559903
2.1780,0.020097,0.000000,-0.136519,0.136519,0.0000,0.0000,0.0000,-0.002547,-0.148796,0.145728,0.9751,0.7371,-0.0532,0.001534,0.587515,-0.555301,0.556835,-0.592117,0.558369,-0.559903
2.1981,0.020104,0.000000,-0.136168,0.136168,0.0000,0.0000,0.0000,-0.002547,-0.148796,0.145728,0.9751,0.7371,-0.0532,0.001534,0.587515,-0.555301,0.556835,-0.592117,0.558369,-0.559903
2.2182,0.020090,0.000000,-0.135818,0.135818,0.0000,0.0000,0.0000,-0.002547,-0.148796,0.145728,0.9751,0.7371,-0.0532,0.001534,0.587515,-0.555301,0.556835,-0.592117,0.558369,-0.559903
2.2384,0.020142,0.000000,-0.135466,0.135466,0.0000,0.0000,0.0000,-0.002547,-0.147262,0.145728,0.9751,0.7371,-0.0532,0.001534,0.587515,-0.555301,0.556835,-0.592117,0.558369,-0.559903
2.2585,0.020097,0.000000,-0.135115,0.135115,0.0000,0.0000,0.0000,-0.002547,-0.147262,0.145728,0.9751,0.7371,-0.0532,0.001534,0.587515,-0.555301,0.556835,-0.592117,0.558369,-0.559903
2.2785,0.020082,0.000000,-0.134765,0.134765,0.0000,0.0000,0.0000,-0.002547,-0.147262,0.145728,0.9751,0.7371,-0.0532,0.001534,0.587515,-0.555301,0.556835,-0.592117,0.558369,-0.559903
2.2986,0.020098,0.000000,-0.134414,0.134414,0.0000,0.0000,0.0000,-0.002547,-0.147262,0.145728,0.9751,0.7371,-0.0532,0.001534,0.587515,-0.555301,0.556835,-0.592117,0.558369,-0.559903
2.3188,0.020126,0.000000,-0.134063,0.134063,0.0000,0.0000,0.0000,-0.002547,-0.147262,0.145728,0.9751,0.7371,-0.0532,0.001534,0.587515,-0.555301,0.556835,-0.592117,0.558369,-0.559903
2.3389,0.020145,0.000000,-0.133711,0.133711,0.0000,0.0000,0.0000,-0.002547,-0.145728,0.145728,0.9751,0.7371,-0.0532,0.001534,0.587515,-0.555301,0.556835,-0.592117,0.558369,-0.559903
2.3592,0.020321,0.000000,-0.133357,0.133357,0.0000,0.0000,0.0000,-0.002547,-0.145728,0.145728,0.9751,0.7371,-0.0532,0.001534,0.587515,-0.555301,0.556835,-0.592117,0.558369,-0.559903
2.3794,0.020158,0.000000,-0.133005,0.133005,0.0000,0.0000,0.0000,-0.002547,-0.142660,0.145728,0.9751,0.7371,-0.0532,0.001534,0.587515,-0.555301,0.556835,-0.592117,0.558369,-0.559903
2.3996,0.020229,0.000000,-0.132652,0.132652,0.0000,0.0000,0.0000,-0.002547,-0.133456,0.145728,0.9751,0.7371,-0.0532,0.001534,0.587515,-0.555301,0.556835,-0.592117,0.558369,-0.559903
2.4197,0.020099,0.000000,-0.132301,0.132301,0.0000,0.0000,0.0000,-0.002547,-0.136524,0.144194,0.9751,0.7371,-0.0532,0.001534,0.587515,-0.555301,0.556835,-0.592117,0.558369,-0.559903
2.4398,0.020107,0.000000,-0.131950,0.131950,0.0000,0.0000,0.0000,-0.002547,-0.134990,0.144194,0.9751,0.7371,-0.0532,0.001534,0.587515,-0.555301,0.556835,-0.592117,0.558369,-0.559903
2.4600,0.020145,0.000000,-0.131598,0.131598,0.0000,0.0000,0.0000,-0.002547,-0.134990,0.144194,0.9751,0.7371,-0.0532,0.001534,0.587515,-0.555301,0.556835,-0.592117,0.558369,-0.559903
2.4801,0.020091,0.000000,-0.131248,0.131248,0.0000,0.0000,0.0000,-0.002547,-0.134990,0.144194,0.9751,0.7371,-0.0532,0.001534,0.587515,-0.555301,0.556835,-0.592117,0.558369,-0.559903
2.5002,0.020112,0.000000,-0.130897,0.130897,0.0000,0.0000,0.0000,-0.002547,-0.134990,0.144194,0.9751,0.7371,-0.0532,0.001534,0.587515,-0.555301,0.556835,-0.592117,0.558369,-0.559903
2.5203,0.020104,0.000000,-0.130546,0.130546,0.0000,0.0000,0.0000,-0.002547,-0.134990,0.144194,0.9751,0.7371,-0.0532,0.001534,0.587515,-0.555301,0.556835,-0.592117,0.558369,-0.559903
2.5404,0.020105,0.000000,-0.130195,0.130195,0.0000,0.0000,0.0000,-0.002547,-0.134990,0.144194,0.9751,0.7371,-0.0532,0.001534,0.587515,-0.555301,0.556835,-0.592117,0.558369,-0.559903
2.5605,0.020108,0.000000,-0.129844,0.129844,0.0000,0.0000,0.0000,-0.002547,-0.134990,0.144194,0.9751,0.7371,-0.0532,0.001534,0.587515,-0.555301,0.556835,-0.592117,0.558369,-0.559903
2.5806,0.020102,0.000000,-0.129493,0.129493,0.0000,0.0000,0.0000,-0.002547,-0.134990,0.142660,0.9751,0.7371,-0.0532,0.001534,0.587515,-0.555301,0.556835,-0.592117,0.558369,-0.559903
2.6007,0.020105,0.000000,-0.129142,0.129142,0.0000,0.0000,0.0000,-0.002547,-0.134990,0.142660,0.9751,0.7371,-0.0532,0.001534,0.587515,-0.555301,0.556835,-0.592117,0.558369,-0.559903
2.6208,0.020100,0.000000,-0.128792,0.128792,0.0000,0.0000,0.0000,-0.002547,-0.133456,0.139592,0.9751,0.7371,-0.0532,0.001534,0.587515,-0.555301,0.556835,-0.592117,0.558369,-0.559903
2.6409,0.020108,0.000000,-0.128441,0.128441,0.0000,0.0000,0.0000,-0.002547,-0.131922,0.134990,0.9751,0.7371,-0.0532,0.001534,0.587515,-0.555301,0.556835,-0.592117,0.558369,-0.559903
2.6610,0.020110,0.000000,-0.128090,0.128090,0.0000,0.0000,0.0000,-0.002547,-0.131922,0.130388,0.9751,0.7371,-0.0532,0.001534,0.587515,-0.555301,0.556835,-0.592117,0.558369,-0.559903
2.6811,0.020099,0.000000,-0.127739,0.127739,0.0000,0.0000,0.0000,-0.002547,-0.131922,0.128854,0.9751,0.7371,-0.0532,0.001534,0.587515,-0.555301,0.556835,-0.592117,0.558369,-0.559903
2.7012,0.020103,0.000000,-0.127388,0.127388,0.0000,0.0000,0.0000,-0.002547,-0.130388,0.127320,0.9751,0.7371,-0.0532,0.001534,0.587515,-0.555301,0.556835,-0.592117,0.558369,-0.559903
2.7213,0.020132,0.000000,-0.127037,0.127037,0.0000,0.0000,0.0000,-0.002547,-0.130388,0.127320,0.9751,0.7371,-0.0532,0.001534,0.587515,-0.555301,0.556835,-0.592117,0.558369,-0.559903
2.7415,0.020108,0.000000,-0.126686,0.126686,0.0000,0.0000,0.0000,-0.002547,-0.130388,0.127320,0.9751,0.7371,-0.0532,0.001534,0.587515,-0.555301,0.556835,-0.592117,0.558369,-0.559903
2.7616,0.020104,0.000000,-0.126335,0.126335,0.0000,0.0000,0.0000,-0.002547,-0.130388,0.127320,0.9751,0.7371,-0.0532,0.001534,0.587515,-0.555301,0.556835,-0.592117,0.558369,-0.559903
2.7816,0.020090,0.000000,-0.125984,0.125984,0.0000,0.0000,0.0000,-0.002547,-0.128854,0.127320,0.9751,0.7371,-0.0532,0.001534,0.587515,-0.555301,0.556835,-0.592117,0.558369,-0.559903
2.8017,0.020103,0.000000,-0.125633,0.125633,0.0000,0.0000,0.0000,-0.002547,-0.128854,0.125786,0.9751,0.7371,-0.0532,0.001534,0.587515,-0.555301,0.556835,-0.592117,0.558369,-0.559903
2.8237,0.021903,0.000000,-0.125251,0.125251,0.0000,0.0000,0.0000,-0.002547,-0.128854,0.125786,0.9751,0.7371,-0.0532,0.001534,0.587515,-0.555301,0.556835,-0.592117,0.558369,-0.559903
2.8438,0.020116,0.000000,-0.124900,0.124900,0.0000,0.0000,0.0000,-0.002547,-0.127320,0.125786,0.9751,0.7371,-0.0532,0.001534,0.587515,-0.555301,0.556835,-0.592117,0.558369,-0.559903
2.8639,0.020111,0.000000,-0.124549,0.124549,0.0000,0.0000,0.0000,-0.002547,-0.127320,0.124252,0.9751,0.7371,-0.0532,0.001534,0.587515,-0.555301,0.556835,-0.592117,0.558369,-0.559903
2.8840,0.020094,0.000000,-0.124198,0.124198,0.0000,0.0000,0.0000,-0.002547,-0.127320,0.124252,0.9751,0.7371,-0.0532,0.001534,0.587515,-0.555301,0.556835,-0.592117,0.558369,-0.559903
2.9041,0.020098,0.000000,-0.123847,0.123847,0.0000,0.0000,0.0000,-0.002547,-0.127320,0.124252,0.9751,0.7371,-0.0532,0.001534,0.587515,-0.555301,0.556835,-0.592117,0.558369,-0.559903
2.9242,0.020099,0.000000,-0.123497,0.123497,0.0000,0.0000,0.0000,-0.002547,-0.127320,0.124252,0.9751,0.7371,-0.0532,0.001534,0.587515,-0.555301,0.556835,-0.592117,0.558369,-0.559903
2.9443,0.020099,0.000000,-0.123146,0.123146,0.0000,0.0000,0.0000,-0.002547,-0.125786,0.122718,0.9751,0.7371,-0.0532,0.001534,0.587515,-0.555301,0.556835,-0.592117,0.558369,-0.559903
2.9644,0.020102,0.000000,-0.122795,0.122795,0.0000,0.0000,0.0000,-0.002547,-0.125786,0.122718,0.9751,0.7371,-0.0532,0.001534,0.587515,-0.555301,0.556835,-0.592117,0.558369,-0.559903
2.9845,0.020096,0.000000,-0.122444,0.122444,0.0000,0.0000,0.0000,-0.002547,-0.125786,0.122718,0.9751,0.7371,-0.0532,0.001534,0.587515,-0.555301,0.556835,-0.592117,0.558369,-0.559903
3.0046,0.020109,0.000000,-0.122093,0.122093,0.0000,0.0000,0.0000,-0.002547,-0.125786,0.122718,0.9751,0.7371,-0.0532,0.001534,0.587515,-0.555301,0.556835,-0.592117,0.558369,-0.559903
3.0247,0.020100,0.000000,-0.121742,0.121742,0.0000,0.0000,0.0000,-0.002547,-0.125786,0.122718,0.9751,0.7371,-0.0532,0.001534,0.587515,-0.555301,0.556835,-0.592117,0.558369,-0.559903
3.0448,0.020099,0.000000,-0.121392,0.121392,0.0000,0.0000,0.0000,-0.002547,-0.125786,0.122718,0.9751,0.7371,-0.0532,0.001534,0.587515,-0.555301,0.556835,-0.592117,0.558369,-0.559903
3.0649,0.020099,0.000000,-0.121041,0.121041,0.0000,0.0000,0.0000,-0.002547,-0.124252,0.122718,0.9751,0.7371,-0.0532,0.001534,0.587515,-0.555301,0.556835,-0.592117,0.558369,-0.559903
3.0850,0.020102,0.000000,-0.120690,0.120690,0.0000,0.0000,0.0000,-0.002547,-0.124252,0.122718,0.9751,0.7371,-0.0532,0.001534,0.587515,-0.555301,0.556835,-0.592117,0.558369,-0.559903
3.1051,0.020103,0.000000,-0.120339,0.120339,0.0000,0.0000,0.0000,-0.002547,-0.124252,0.122718,0.9751,0.7371,-0.0532,0.001534,0.587515,-0.555301,0.556835,-0.592117,0.558369,-0.559903
3.1251,0.020056,0.000000,-0.119989,0.119989,0.0000,0.0000,0.0000,-0.002547,-0.124252,0.122718,0.9751,0.7371,-0.0532,0.001534,0.587515,-0.555301,0.556835,-0.592117,0.558369,-0.559903
3.1452,0.020101,0.000000,-0.119638,0.119638,0.0000,0.0000,0.0000,-0.002547,-0.122718,0.122718,0.9751,0.7371,-0.1411,0.000000,0.587515,-0.555301,0.556835,-0.592117,0.558369,-0.559903
3.1653,0.020104,0.000000,-0.119287,0.119287,0.0000,0.0000,0.0000,-0.002547,-0.122718,0.122718,0.9751,0.7371,-0.0532,0.001534,0.587515,-0.555301,0.556835,-0.592117,0.558369,-0.559903
3.1854,0.020098,0.000000,-0.118937,0.118937,0.0000,0.0000,0.0000,-0.002547,-0.122718,0.122718,0.9751,0.7371,-0.0532,0.001534,0.587515,-0.555301,0.556835,-0.592117,0.558369,-0.559903
3.2056,0.020164,0.000000,-0.118585,0.118585,0.0000,0.0000,0.0000,-0.002547,-0.122718,0.121184,0.9751,0.7371,-0.0532,0.001534,0.587515,-0.555301,0.556835,-0.592117,0.558369,-0.559903
3.2257,0.020098,0.000000,-0.118234,0.118234,0.0000,0.0000,0.0000,-0.002547,-0.121184,0.121184,0.9751,0.7371,-0.0532,0.001534,0.587515,-0.555301,0.556835,-0.592117,0.558369,-0.559903
3.2458,0.020089,0.000000,-0.117883,0.117883,0.0000,0.0000,0.0000,-0.002547,-0.121184,0.121184,0.9751,0.7371,-0.0532,0.001534,0.587515,-0.555301,0.556835,-0.592117,0.558369,-0.559903
3.2659,0.020098,0.000000,-0.117532,0.117532,0.0000,0.0000,0.0000,-0.002547,-0.121184,0.119651,0.9751,0.7371,-0.0532,0.001534,0.587515,-0.555301,0.556835,-0.592117,0.558369,-0.559903
3.2860,0.020098,0.000000,-0.117182,0.117182,0.0000,0.0000,0.0000,-0.002547,-0.121184,0.119651,0.9751,0.7371,-0.0532,0.001534,0.587515,-0.555301,0.556835,-0.592117,0.558369,-0.559903
3.3061,0.020087,0.000000,-0.116831,0.116831,0.0000,0.0000,0.0000,-0.002547,-0.121184,0.119651,0.9751,0.7371,-0.1411,0.000000,0.587515,-0.555301,0.556835,-0.592117,0.558369,-0.559903
3.3265,0.020472,0.000000,-0.116474,0.116474,0.0000,0.0000,0.0000,-0.002547,-0.121184,0.118117,0.9751,0.7371,-0.0532,0.001534,0.587515,-0.555301,0.556835,-0.592117,0.558369,-0.559903
3.3466,0.020086,0.000000,-0.116123,0.116123,0.0000,0.0000,0.0000,-0.002547,-0.121184,0.118117,0.9751,0.7371,-0.0532,0.001534,0.587515,-0.555301,0.556835,-0.592117,0.558369,-0.559903
3.3667,0.020085,0.000000,-0.115773,0.115773,0.0000,0.0000,0.0000,-0.002547,-0.121184,0.118117,0.9751,0.7371,-0.0532,0.001534,0.587515,-0.555301,0.556835,-0.592117,0.558369,-0.559903
3.3868,0.020093,0.000000,-0.115422,0.115422,0.0000,0.0000,0.0000,-0.002547,-0.121184,0.118117,0.9751,0.7371,-0.0532,0.001534,0.587515,-0.555301,0.556835,-0.592117,0.558369,-0.559903
3.4071,0.020335,0.000000,-0.115067,0.115067,0.0000,0.0000,0.0000,-0.002547,-0.121184,0.118117,0.9751,0.7371,-0.0532,0.001534,0.587515,-0.555301,0.556835,-0.592117,0.558369,-0.559903
3.4272,0.020097,0.000000,-0.114716,0.114716,0.0000,0.0000,0.0000,-0.002547,-0.121184,0.118117,0.9751,0.7371,-0.0532,0.001534,0.587515,-0.555301,0.556835,-0.592117,0.558369,-0.559903
3.4473,0.020079,0.000000,-0.114366,0.114366,0.0000,0.0000,0.0000,-0.002547,-0.122718,0.118117,0.9751,0.7371,-0.0532,0.001534,0.587515,-0.555301,0.556835,-0.592117,0.558369,-0.559903
3.4674,0.020086,0.000000,-0.114015,0.114015,0.0000,0.0000,0.0000,-0.002547,-0.121184,0.118117,0.9751,0.7371,-0.0532,0.001534,0.587515,-0.555301,0.556835,-0.592117,0.558369,-0.559903
3.4875,0.020086,0.000000,-0.113665,0.113665,0.0000,0.0000,0.0000,-0.002547,-0.121184,0.118117,0.9751,0.7371,-0.0532,0.001534,0.587515,-0.555301,0.556835,-0.592117,0.558369,-0.559903
3.5076,0.020094,0.000000,-0.113314,0.113314,0.0000,0.0000,0.0000,-0.002547,-0.121184,0.118117,0.9751,0.7371,-0.0532,0.001534,0.587515,-0.555301,0.556835,-0.592117,0.558369,-0.559903
3.5283,0.020682,0.000000,-0.112953,0.112953,0.0000,0.0000,0.0000,-0.002547,-0.121184,0.118117,0.9751,0.7371,-0.0532,0.001534,0.587515,-0.555301,0.556835,-0.592117,0.558369,-0.559903
3.5484,0.020094,0.000000,-0.112602,0.112602,0.0000,0.0000,0.0000,-0.002547,-0.122718,0.118117,0.9751,0.7371,-0.0532,0.001534,0.587515,-0.555301,0.556835,-0.592117,0.558369,-0.559903
3.5684,0.020048,0.000000,-0.112252,0.112252,0.0000,0.0000,0.0000,-0.002547,-0.121184,0.118117,0.9751,0.7371,-0.0532,0.001534,0.587515,-0.555301,0.556835,-0.592117,0.558369,-0.559903
3.5885,0.020091,0.000000,-0.111902,0.111902,0.0000,0.0000,0.0000,-0.002547,-0.121184,0.118117,0.9751,0.7371,-0.0532,0.001534,0.587515,-0.555301,0.556835,-0.592117,0.558369,-0.559903
3.6086,0.020094,0.000000,-0.111551,0.111551,0.0000,0.0000,0.0000,-0.002547,-0.121184,0.118117,0.9751,0.7371,-0.0532,0.001534,0.587515,-0.555301,0.556835,-0.592117,0.558369,-0.559903
3.6287,0.020105,0.000000,-0.111200,0.111200,0.0000,0.0000,0.0000,-0.002547,-0.121184,0.118117,0.9751,0.7371,-0.0532,0.001534,0.587515,-0.555301,0.556835,-0.592117,0.558369,-0.559903
3.6488,0.020095,0.000000,-0.110849,0.110849,0.0000,0.0000,0.0000,-0.002558,-0.121184,0.118117,0.9260,0.7524,-0.1067,0.001534,0.585981,-0.555301,0.556835,-0.592117,0.558369,-0.559903
3.6688,0.020050,0.000000,-0.110500,0.110500,0.0000,0.0000,0.0000,-0.002545,-0.121184,0.118117,0.9807,0.7353,-0.0471,0.001534,0.587515,-0.555301,0.556835,-0.592117,0.558369,-0.559903
3.6889,0.020090,0.000000,-0.110149,0.110149,0.0000,0.0000,0.0000,-0.002547,-0.121184,0.118117,0.9750,0.7371,-0.0533,0.001534,0.587515,-0.555301,0.556835,-0.592117,0.558369,-0.559903
3.7090,0.020085,0.000000,-0.109798,0.109798,0.0000,0.0000,0.0000,-0.002547,-0.121184,0.118117,0.9750,0.7371,-0.0533,0.001534,0.587515,-0.555301,0.556835,-0.592117,0.558369,-0.559903
3.7291,0.020091,0.000000,-0.109448,0.109448,0.0000,0.0000,0.0000,-0.002547,-0.121184,0.118117,0.9750,0.7371,-0.0533,0.001534,0.587515,-0.555301,0.556835,-0.592117,0.558369,-0.559903
3.7492,0.020096,0.000000,-0.109097,0.109097,0.0000,0.0000,0.0000,-0.002547,-0.121184,0.118117,0.9750,0.7371,-0.0533,0.001534,0.587515,-0.555301,0.556835,-0.592117,0.558369,-0.559903
3.7693,0.020116,0.000000,-0.108746,0.108746,0.0000,0.0000,0.0000,-0.002547,-0.121184,0.118117,0.9750,0.7371,-0.0533,0.001534,0.587515,-0.555301,0.556835,-0.592117,0.558369,-0.559903
3.7894,0.020093,0.000000,-0.108395,0.108395,0.0000,0.0000,0.0000,-0.002547,-0.121184,0.118117,0.9750,0.7371,-0.0533,0.001534,0.587515,-0.555301,0.556835,-0.592117,0.558369,-0.559903
3.8095,0.020091,0.000000,-0.108045,0.108045,0.0000,0.0000,0.0000,-0.002547,-0.118117,0.118117,0.9750,0.7371,-0.0533,0.001534,0.587515,-0.555301,0.556835,-0.592117,0.558369,-0.559903
3.8296,0.020090,0.000000,-0.107694,0.107694,0.0000,0.0000,0.0000,-0.002547,-0.113515,0.118117,0.9750,0.7371,-0.0533,0.001534,0.587515,-0.555301,0.556835,-0.592117,0.558369,-0.559903
3.8497,0.020093,0.000000,-0.107343,0.107343,0.0000,0.0000,0.0000,-0.002547,-0.107379,0.118117,0.9750,0.7371,-0.0533,0.001534,0.587515,-0.555301,0.556835,-0.592117,0.558369,-0.559903
3.8698,0.020088,0.000000,-0.106993,0.106993,0.0000,0.0000,0.0000,-0.002547,-0.110447,0.116583,0.9750,0.7371,-0.0533,0.001534,0.587515,-0.555301,0.556835,-0.592117,0.558369,-0.559903
3.8899,0.020090,0.000000,-0.106642,0.106642,0.0000,0.0000,0.0000,-0.002547,-0.110447,0.116583,0.9750,0.7371,-0.0533,0.001534,0.587515,-0.555301,0.556835,-0.592117,0.558369,-0.559903
3.9100,0.020089,0.000000,-0.106291,0.106291,0.0000,0.0000,0.0000,-0.002547,-0.108913,0.115049,0.9750,0.7371,-0.0533,0.001534,0.587515,-0.555301,0.556835,-0.592117,0.558369,-0.559903
3.9300,0.020090,0.000000,-0.105941,0.105941,0.0000,0.0000,0.0000,-0.002547,-0.107379,0.113515,0.9750,0.7371,-0.0533,0.001534,0.587515,-0.555301,0.556835,-0.592117,0.558369,-0.559903
3.9501,0.020089,0.000000,-0.105590,0.105590,0.0000,0.0000,0.0000,-0.002547,-0.108913,0.111981,0.9750,0.7371,-0.0533,0.001534,0.587515,-0.555301,0.556835,-0.592117,0.558369,-0.559903
3.9705,0.020325,0.000000,-0.105235,0.105235,0.0000,0.0000,0.0000,-0.002547,-0.108913,0.108913,0.9750,0.7371,-0.0533,0.001534,0.587515,-0.555301,0.556835,-0.592117,0.558369,-0.559903
3.9905,0.020089,0.000000,-0.104885,0.104885,0.0000,0.0000,0.0000,-0.002547,-0.108913,0.105845,0.9750,0.7371,-0.0533,0.001534,0.587515,-0.555301,0.556835,-0.592117,0.558369,-0.559903
4.0106,0.020082,0.000000,-0.104534,0.104534,0.0000,0.0000,0.0000,-0.002547,-0.108913,0.104311,0.9750,0.7371,-0.0533,0.001534,0.587515,-0.555301,0.556835,-0.592117,0.558369,-0.559903
4.0307,0.020086,0.000000,-0.104184,0.104184,0.0000,0.0000,0.0000,-0.002547,-0.107379,0.104311,0.9750,0.7371,-0.0533,0.001534,0.587515,-0.555301,0.556835,-0.592117,0.558369,-0.559903
4.0508,0.020091,0.000000,-0.103833,0.103833,0.0000,0.0000,0.0000,-0.002547,-0.107379,0.104311,0.9750,0.7371,-0.0533,0.001534,0.587515,-0.555301,0.556835,-0.592117,0.558369,-0.559903
4.0709,0.020083,0.000000,-0.103482,0.103482,0.0000,0.0000,0.0000,-0.002547,-0.107379,0.104311,0.9750,0.7371,-0.0533,0.001534,0.587515,-0.555301,0.556835,-0.592117,0.558369,-0.559903
4.0911,0.020187,0.000000,-0.103130,0.103130,0.0000,0.0000,0.0000,-0.002547,-0.107379,0.104311,0.9750,0.7371,-0.0533,0.001534,0.587515,-0.555301,0.556835,-0.592117,0.558369,-0.559903
4.1112,0.020101,0.000000,-0.102779,0.102779,0.0000,0.0000,0.0000,-0.002547,-0.107379,0.104311,0.9750,0.7371,-0.0533,0.001534,0.587515,-0.555301,0.556835,-0.592117,0.558369,-0.559903
4.1313,0.020088,0.000000,-0.102429,0.102429,0.0000,0.0000,0.0000,-0.002547,-0.107379,0.104311,0.9750,0.7371,-0.0533,0.001534,0.587515,-0.555301,0.556835,-0.592117,0.558369,-0.559903
4.1514,0.020090,0.000000,-0.102078,0.102078,0.0000,0.0000,0.0000,-0.002547,-0.105845,0.104311,0.9750,0.7371,-0.0533,0.001534,0.587515,-0.555301,0.556835,-0.592117,0.558369,-0.559903
4.1714,0.020090,0.000000,-0.101727,0.101727,0.0000,0.0000,0.0000,-0.002547,-0.105845,0.104311,0.9750,0.7371,-0.0533,0.001534,0.587515,-0.555301,0.556835,-0.592117,0.558369,-0.559903
4.1916,0.020141,0.000000,-0.101376,0.101376,0.0000,0.0000,0.0000,-0.002547,-0.105845,0.104311,0.9750,0.7371,-0.0533,0.001534,0.587515,-0.555301,0.556835,-0.592117,0.558369,-0.559903
4.2117,0.020086,0.000000,-0.101025,0.101025,0.0000,0.0000,0.0000,-0.002547,-0.105845,0.104311,0.9750,0.7371,-0.0533,0.001534,0.587515,-0.555301,0.556835,-0.592117,0.558369,-0.559903
4.2318,0.020087,0.000000,-0.100675,0.100675,0.0000,0.0000,0.0000,-0.002547,-0.104311,0.104311,0.9750,0.7371,-0.0533,0.001534,0.587515,-0.555301,0.556835,-0.592117,0.558369,-0.559903
4.2518,0.020083,0.000000,-0.100324,0.100324,0.0000,0.0000,0.0000,-0.002547,-0.104311,0.104311,0.9750,0.7371,-0.0533,0.001534,0.587515,-0.555301,0.556835,-0.592117,0.558369,-0.559903
4.2719,0.020081,0.000000,-0.099974,0.099974,0.0000,0.0000,0.0000,-0.002547,-0.104311,0.104311,0.9750,0.7371,-0.0533,0.001534,0.587515,-0.555301,0.556835,-0.592117,0.558369,-0.559903
4.2947,0.022790,0.000000,-0.099576,0.099576,0.0000,0.0000,0.0000,-0.002547,-0.102777,0.104311,0.9750,0.7371,-0.0533,0.001534,0.587515,-0.555301,0.556835,-0.592117,0.558369,-0.559903
4.3150,0.020253,0.000000,-0.099223,0.099223,0.0000,0.0000,0.0000,-0.002547,-0.102777,0.104311,0.9750,0.7371,-0.0533,0.001534,0.587515,-0.555301,0.556835,-0.592117,0.558369,-0.559903
4.3353,0.020316,0.000000,-0.098868,0.098868,0.0000,0.0000,0.0000,-0.002547,-0.102777,0.104311,0.9750,0.7371,-0.0533,0.001534,0.587515,-0.555301,0.556835,-0.592117,0.558369,-0.559903
4.3554,0.020082,0.000000,-0.098517,0.098517,0.0000,0.0000,0.0000,-0.002547,-0.101243,0.104311,0.9750,0.7371,-0.0533,0.001534,0.587515,-0.555301,0.556835,-0.592117,0.558369,-0.559903
4.3758,0.020396,0.000000,-0.098162,0.098162,0.0000,0.0000,0.0000,-0.002547,-0.101243,0.104311,0.9750,0.7371,-0.0533,0.001534,0.587515,-0.555301,0.556835,-0.592117,0.558369,-0.559903
4.3959,0.020120,0.000000,-0.097810,0.097810,0.0000,0.0000,0.0000,-0.002547,-0.101243,0.104311,0.9750,0.7371,-0.0533,0.001534,0.587515,-0.555301,0.556835,-0.592117,0.558369,-0.559903
4.4160,0.020089,0.000000,-0.097460,0.097460,0.0000,0.0000,0.0000,-0.002547,-0.101243,0.104311,0.9750,0.7371,-0.0533,0.001534,0.587515,-0.555301,0.556835,-0.592117,0.558369,-0.559903
4.4361,0.020102,0.000000,-0.097109,0.097109,0.0000,0.0000,0.0000,-0.002547,-0.101243,0.104311,0.9750,0.7371,-0.0533,0.001534,0.587515,-0.555301,0.556835,-0.592117,0.558369,-0.559903
4.4562,0.020117,0.000000,-0.096758,0.096758,0.0000,0.0000,0.0000,-0.002547,-0.099709,0.102777,0.9750,0.7371,-0.0533,0.001534,0.587515,-0.555301,0.556835,-0.592117,0.558369,-0.559903
4.4764,0.020247,0.000000,-0.096404,0.096404,0.0000,0.0000,0.0000,-0.002547,-0.099709,0.102777,0.9750,0.7371,-0.0533,0.001534,0.587515,-0.555301,0.556835,-0.592117,0.558369,-0.559903
4.4965,0.020099,0.000000,-0.096054,0.096054,0.0000,0.0000,0.0000,-0.002547,-0.099709,0.098175,0.9750,0.7371,-0.0533,0.001534,0.587515,-0.555301,0.556835,-0.592117,0.558369,-0.559903
4.5166,0.020094,0.000000,-0.095703,0.095703,0.0000,0.0000,0.0000,-0.002547,-0.099709,0.096641,0.9750,0.7371,-0.0533,0.001534,0.587515,-0.555301,0.556835,-0.592117,0.558369,-0.559903
4.5367,0.020095,0.000000,-0.095352,0.095352,0.0000,0.0000,0.0000,-0.002547,-0.099709,0.096641,0.9750,0.7371,-0.0533,0.001534,0.587515,-0.555301,0.556835,-0.592117,0.558369,-0.559903
4.5568,0.020101,0.000000,-0.095001,0.095001,0.0000,0.0000,0.0000,-0.002547,-0.096641,0.095107,0.9750,0.7371,-0.0533,0.001534,0.587515,-0.555301,0.556835,-0.592117,0.558369,-0.559903
4.5769,0.020098,0.000000,-0.094651,0.094651,0.0000,0.0000,0.0000,-0.002547,-0.096641,0.095107,0.9750,0.7371,-0.0533,0.001534,0.587515,-0.555301,0.556835,-0.592117,0.558369,-0.559903
4.5970,0.020094,0.000000,-0.094300,0.094300,0.0000,0.0000,0.0000,-0.002547,-0.096641,0.095107,0.9750,0.7371,-0.0533,0.001534,0.587515,-0.555301,0.556835,-0.592117,0.558369,-0.559903
4.6171,0.020093,0.000000,-0.093949,0.093949,0.0000,0.0000,0.0000,-0.002547,-0.096641,0.093573,0.9750,0.7371,-0.0533,0.001534,0.587515,-0.555301,0.556835,-0.592117,0.558369,-0.559903
4.6372,0.020085,0.000000,-0.093599,0.093599,0.0000,0.0000,0.0000,-0.002547,-0.095107,0.093573,0.9750,0.7371,-0.0533,0.001534,0.587515,-0.555301,0.556835,-0.592117,0.558369,-0.559903
4.6573,0.020091,0.000000,-0.093248,0.093248,0.0000,0.0000,0.0000,-0.002547,-0.095107,0.093573,0.9750,0.7371,-0.0533,0.001534,0.587515,-0.555301,0.556835,-0.592117,0.558369,-0.559903
4.6774,0.020086,0.000000,-0.092897,0.092897,0.0000,0.0000,0.0000,-0.002547,-0.095107,0.093573,0.9750,0.7371,-0.0533,0.001534,0.587515,-0.555301,0.556835,-0.592117,0.558369,-0.559903
4.6975,0.020090,0.000000,-0.092547,0.092547,0.0000,0.0000,0.0000,-0.002547,-0.095107,0.093573,0.9750,0.7371,-0.0533,0.001534,0.587515,-0.555301,0.556835,-0.592117,0.558369,-0.559903
4.7176,0.020094,0.000000,-0.092196,0.092196,0.0000,0.0000,0.0000,-0.002547,-0.095107,0.092039,0.9750,0.7371,-0.0533,0.001534,0.587515,-0.555301,0.556835,-0.592117,0.558369,-0.559903
4.7377,0.020176,0.000000,-0.091844,0.091844,0.0000,0.0000,0.0000,-0.002547,-0.093573,0.092039,0.9750,0.7371,-0.0533,0.001534,0.587515,-0.555301,0.556835,-0.592117,0.558369,-0.559903
4.7578,0.020104,0.000000,-0.091493,0.091493,0.0000,0.0000,0.0000,-0.002547,-0.095107,0.092039,0.9750,0.7371,-0.0533,0.001534,0.587515,-0.555301,0.556835,-0.592117,0.558369,-0.559903
4.7779,0.020081,0.000000,-0.091143,0.091143,0.0000,0.0000,0.0000,-0.002547,-0.093573,0.092039,0.9750,0.7371,-0.0533,0.001534,0.587515,-0.555301,0.556835,-0.592117,0.558369,-0.559903
4.7980,0.020096,0.000000,-0.090792,0.090792,0.0000,0.0000,0.0000,-0.002547,-0.093573,0.092039,0.9750,0.7371,-0.0533,0.001534,0.587515,-0.555301,0.556835,-0.592117,0.558369,-0.559903
4.8181,0.020099,0.000000,-0.090441,0.090441,0.0000,0.0000,0.0000,-0.002547,-0.093573,0.092039,0.9750,0.7371,-0.0533,0.001534,0.587515,-0.555301,0.556835,-0.592117,0.558369,-0.559903
4.8382,0.020103,0.000000,-0.090090,0.090090,0.0000,0.0000,0.0000,-0.002547,-0.093573,0.090505,0.9750,0.7371,-0.0533,0.001534,0.587515,-0.555301,0.556835,-0.592117,0.558369,-0.559903
4.8583,0.020092,0.000000,-0.089739,0.089739,0.0000,0.0000,0.0000,-0.002547,-0.093573,0.092039,0.9750,0.7371,-0.0533,0.001534,0.587515,-0.555301,0.556835,-0.592117,0.558369,-0.559903
4.8784,0.020095,0.000000,-0.089389,0.089389,0.0000,0.0000,0.0000,-0.002547,-0.093573,0.092039,0.9750,0.7371,-0.0533,0.001534,0.587515,-0.555301,0.556835,-0.592117,0.558369,-0.559903
4.8985,0.020124,0.000000,-0.089038,0.089038,0.0000,0.0000,0.0000,-0.002547,-0.093573,0.090505,0.9750,0.7371,-0.0533,0.001534,0.587515,-0.555301,0.556835,-0.592117,0.558369,-0.559903
4.9187,0.020209,0.000000,-0.088685,0.088685,0.0000,0.0000,0.0000,-0.002547,-0.093573,0.090505,0.9750,0.7371,-0.1412,0.000000,0.587515,-0.555301,0.556835,-0.592117,0.558369,-0.559903
4.9388,0.020106,0.000000,-0.088334,0.088334,0.0000,0.0000,0.0000,-0.002547,-0.093573,0.090505,0.9750,0.7371,-0.0533,0.001534,0.587515,-0.555301,0.556835,-0.592117,0.558369,-0.559903
4.9589,0.020100,0.000000,-0.087983,0.087983,0.0000,0.0000,0.0000,-0.002547,-0.093573,0.092039,0.9750,0.7371,-0.0533,0.001534,0.587515,-0.555301,0.556835,-0.592117,0.558369,-0.559903
4.9790,0.020089,0.000000,-0.087632,0.087632,0.0000,0.0000,0.0000,-0.002547,-0.093573,0.090505,0.9750,0.7371,-0.0533,0.001534,0.587515,-0.555301,0.556835,-0.592117,0.558369,-0.559903
4.9991,0.020091,0.000000,-0.087282,0.087282,0.0000,0.0000,0.0000,-0.002547,-0.093573,0.090505,0.9750,0.7371,-0.0533,0.001534,0.587515,-0.555301,0.556835,-0.592117,0.558369,-0.559903
5.0192,0.020089,0.000000,-0.086931,0.086931,0.0000,0.0000,0.0000,-0.002547,-0.093573,0.090505,0.9750,0.7371,-0.0533,0.001534,0.587515,-0.555301,0.556835,-0.592117,0.558369,-0.559903
5.0400,0.020768,0.000000,-0.086569,0.086569,0.0000,0.0000,0.0000,-0.002547,-0.093573,0.090505,0.9750,0.7371,-0.0533,0.001534,0.587515,-0.555301,0.556835,-0.592117,0.558369,-0.559903
5.0601,0.020104,0.000000,-0.086218,0.086218,0.0000,0.0000,0.0000,-0.002547,-0.093573,0.090505,0.9750,0.7371,-0.0533,0.001534,0.587515,-0.555301,0.556835,-0.592117,0.558369,-0.559903
5.0802,0.020091,0.000000,-0.085867,0.085867,0.0000,0.0000,0.0000,-0.002547,-0.092039,0.090505,0.9750,0.7371,-0.0533,0.001534,0.587515,-0.555301,0.556835,-0.592117,0.558369,-0.559903
5.1003,0.020096,0.000000,-0.085516,0.085516,0.0000,0.0000,0.0000,-0.002547,-0.092039,0.090505,0.9750,0.7371,-0.0533,0.001534,0.587515,-0.555301,0.556835,-0.592117,0.558369,-0.559903
5.1204,0.020088,0.000000,-0.085166,0.085166,0.0000,0.0000,0.0000,-0.002547,-0.090505,0.090505,0.9750,0.7371,-0.0533,0.001534,0.587515,-0.555301,0.556835,-0.592117,0.558369,-0.559903
5.1405,0.020100,0.000000,-0.084815,0.084815,0.0000,0.0000,0.0000,-0.002547,-0.087437,0.090505,0.9750,0.7371,-0.0533,0.001534,0.587515,-0.555301,0.556835,-0.592117,0.558369,-0.559903
5.1606,0.020110,0.000000,-0.084464,0.084464,0.0000,0.0000,0.0000,-0.002547,-0.082835,0.090505,0.9750,0.7371,-0.0533,0.001534,0.587515,-0.555301,0.556835,-0.592117,0.558369,-0.559903
5.1807,0.020085,0.000000,-0.084114,0.084114,0.0000,0.0000,0.0000,-0.002547,-0.084369,0.090505,0.9750,0.7371,-0.0533,0.001534,0.587515,-0.555301,0.556835,-0.592117,0.558369,-0.559903
5.2007,0.020090,0.000000,-0.083763,0.083763,0.0000,0.0000,0.0000,-0.002547,-0.087437,0.088971,0.9750,0.7371,-0.0533,0.001534,0.587515,-0.555301,0.556835,-0.592117,0.558369,-0.559903
5.2208,0.020092,0.000000,-0.083412,0.083412,0.0000,0.0000,0.0000,-0.002547,-0.084369,0.088971,0.9750,0.7371,-0.0533,0.001534,0.587515,-0.555301,0.556835,-0.592117,0.558369,-0.559903
5.2409,0.020095,0.000000,-0.083061,0.083061,0.0000,0.0000,0.0000,-0.002547,-0.081301,0.088971,0.9750,0.7371,-0.0533,0.001534,0.587515,-0.555301,0.556835,-0.592117,0.558369,-0.559903
5.2610,0.020105,0.000000,-0.082711,0.082711,0.0000,0.0000,0.0000,-0.002547,-0.085903,0.088971,0.9750,0.7371,-0.0533,0.001534,0.587515,-0.555301,0.556835,-0.592117,0.558369,-0.559903
5.2811,0.020091,0.000000,-0.082360,0.082360,0.0000,0.0000,0.0000,-0.002547,-0.084369,0.087437,0.9750,0.7371,-0.0533,0.001534,0.587515,-0.555301,0.556835,-0.592117,0.558369,-0.559903
5.3019,0.020816,0.000000,-0.081997,0.081997,0.0000,0.0000,0.0000,-0.002547,-0.081301,0.087437,0.9750,0.7371,-0.0533,0.001534,0.587515,-0.555301,0.556835,-0.592117,0.558369,-0.559903
5.3220,0.020095,0.000000,-0.081646,0.081646,0.0000,0.0000,0.0000,-0.002547,-0.084369,0.087437,0.9750,0.7371,-0.0533,0.001534,0.587515,-0.555301,0.556835,-0.592117,0.558369,-0.559903
5.3421,0.020105,0.000000,-0.081295,0.081295,0.0000,0.0000,0.0000,-0.002547,-0.082835,0.087437,0.9750,0.7371,-0.0533,0.001534,0.587515,-0.555301,0.556835,-0.592117,0.558369,-0.559903
5.3629,0.020788,0.000000,-0.080932,0.080932,0.0000,0.0000,0.0000,-0.002547,-0.081301,0.085903,0.9750,0.7371,-0.0533,0.001534,0.587515,-0.555301,0.556835,-0.592117,0.558369,-0.559903
5.3830,0.020085,0.000000,-0.080582,0.080582,0.0000,0.0000,0.0000,-0.002547,-0.081301,0.084369,0.9750,0.7371,-0.0533,0.001534,0.587515,-0.555301,0.556835,-0.592117,0.558369,-0.559903
5.4031,0.020133,0.000000,-0.080230,0.080230,0.0000,0.0000,0.0000,-0.002547,-0.082835,0.082835,0.9750,0.7371,-0.0533,0.001534,0.587515,-0.555301,0.556835,-0.592117,0.558369,-0.559903
5.4232,0.020082,0.000000,-0.079880,0.079880,0.0000,0.0000,0.0000,-0.002547,-0.081301,0.079767,0.9750,0.7371,-0.0533,0.001534,0.587515,-0.555301,0.556835,-0.592117,0.558369,-0.559903
5.4434,0.020193,0.000000,-0.079527,0.079527,0.0000,0.0000,0.0000,-0.002547,-0.079767,0.078233,0.9750,0.7371,-0.0533,0.001534,0.587515,-0.555301,0.556835,-0.592117,0.558369,-0.559903
5.4635,0.020105,0.000000,-0.079176,0.079176,0.0000,0.0000,0.0000,-0.002547,-0.079767,0.078233,0.9750,0.7371,-0.0533,0.001534,0.587515,-0.555301,0.556835,-0.592117,0.558369,-0.559903
5.4836,0.020109,0.000000,-0.078825,0.078825,0.0000,0.0000,0.0000,-0.002547,-0.079767,0.078233,0.9750,0.7371,-0.0533,0.001534,0.587515,-0.555301,0.556835,-0.592117,0.558369,-0.559903
5.5037,0.020110,0.000000,-0.078474,0.078474,0.0000,0.0000,0.0000,-0.002547,-0.079767,0.078233,0.9750,0.7371,-0.0533,0.001534,0.587515,-0.555301,0.556835,-0.592117,0.558369,-0.559903
5.5238,0.020104,0.000000,-0.078124,0.078124,0.0000,0.0000,0.0000,-0.002547,-0.081301,0.078233,0.9750,0.7371,-0.0533,0.001534,0.587515,-0.555301,0.556835,-0.592117,0.558369,-0.559903
5.5439,0.020094,0.000000,-0.077773,0.077773,0.0000,0.0000,0.0000,-0.002547,-0.079767,0.078233,0.9750,0.7371,-0.0533,0.001534,0.587515,-0.555301,0.556835,-0.592117,0.558369,-0.559903
5.5645,0.020541,0.000000,-0.077414,0.077414,0.0000,0.0000,0.0000,-0.002547,-0.079767,0.078233,0.9750,0.7371,-0.0533,0.001534,0.587515,-0.555301,0.556835,-0.592117,0.558369,-0.559903
5.5846,0.020098,0.000000,-0.077064,0.077064,0.0000,0.0000,0.0000,-0.002547,-0.078233,0.078233,0.9750,0.7371,-0.0533,0.001534,0.587515,-0.555301,0.556835,-0.592117,0.558369,-0.559903
5.6047,0.020109,0.000000,-0.076713,0.076713,0.0000,0.0000,0.0000,-0.002547,-0.078233,0.078233,0.9750,0.7371,-0.0533,0.001534,0.587515,-0.555301,0.556835,-0.592117,0.558369,-0.559903
5.6248,0.020106,0.000000,-0.076362,0.076362,0.0000,0.0000,0.0000,-0.002547,-0.078233,0.078233,0.9750,0.7371,-0.0533,0.001534,0.587515,-0.555301,0.556835,-0.592117,0.558369,-0.559903
5.6449,0.020098,0.000000,-0.076011,0.076011,0.0000,0.0000,0.0000,-0.002547,-0.078233,0.076699,0.9750,0.7371,-0.0533,0.001534,0.587515,-0.555301,0.556835,-0.592117,0.558369,-0.559903
5.6650,0.020102,0.000000,-0.075660,0.075660,0.0000,0.0000,0.0000,-0.002547,-0.078233,0.076699,0.9750,0.7371,-0.0533,0.001534,0.587515,-0.555301,0.556835,-0.592117,0.558369,-0.559903
5.6851,0.020111,0.000000,-0.075309,0.075309,0.0000,0.0000,0.0000,-0.002547,-0.078233,0.076699,0.9750,0.7371,-0.0533,0.001534,0.587515,-0.555301,0.556835,-0.592117,0.558369,-0.559903
5.7052,0.020103,0.000000,-0.074958,0.074958,0.0000,0.0000,0.0000,-0.002547,-0.078233,0.076699,0.9750,0.7371,-0.0533,0.001534,0.587515,-0.555301,0.556835,-0.592117,0.558369,-0.559903
5.7253,0.020136,0.000000,-0.074607,0.074607,0.0000,0.0000,0.0000,-0.002547,-0.075165,0.076699,0.9750,0.7371,-0.0533,0.001534,0.587515,-0.555301,0.556835,-0.592117,0.558369,-0.559903
5.7454,0.020093,0.000000,-0.074256,0.074256,0.0000,0.0000,0.0000,-0.002547,-0.076699,0.076699,0.9750,0.7371,-0.0533,0.001534,0.587515,-0.555301,0.556835,-0.592117,0.558369,-0.559903
5.7655,0.020099,0.000000,-0.073905,0.073905,0.0000,0.0000,0.0000,-0.002547,-0.075165,0.076699,0.9750,0.7371,-0.0533,0.001534,0.587515,-0.555301,0.556835,-0.592117,0.558369,-0.559903
5.7856,0.020101,0.000000,-0.073554,0.073554,0.0000,0.0000,0.0000,-0.002547,-0.075165,0.076699,0.9750,0.7371,-0.0533,0.001534,0.587515,-0.555301,0.556835,-0.592117,0.558369,-0.559903
5.8060,0.020360,0.000000,-0.073199,0.073199,0.0000,0.0000,0.0000,-0.002547,-0.075165,0.076699,0.9750,0.7371,-0.0533,0.001534,0.587515,-0.555301,0.556835,-0.592117,0.558369,-0.559903
5.8263,0.020312,0.000000,-0.072845,0.072845,0.0000,0.0000,0.0000,-0.002547,-0.075165,0.076699,0.9750,0.7371,-0.0533,0.001534,0.587515,-0.555301,0.556835,-0.592117,0.558369,-0.559903
5.8464,0.020112,0.000000,-0.072494,0.072494,0.0000,0.0000,0.0000,-0.002547,-0.073631,0.076699,0.9750,0.7371,-0.0533,0.001534,0.587515,-0.555301,0.556835,-0.592117,0.558369,-0.559903
5.8665,0.020107,0.000000,-0.072143,0.072143,0.0000,0.0000,0.0000,-0.002547,-0.073631,0.076699,0.9750,0.7371,-0.0533,0.001534,0.587515,-0.555301,0.556835,-0.592117,0.558369,-0.559903
5.8866,0.020099,0.000000,-0.071792,0.071792,0.0000,0.0000,0.0000,-0.002547,-0.073631,0.076699,0.9750,0.7371,-0.0533,0.001534,0.587515,-0.555301,0.556835,-0.592117,0.558369,-0.559903
5.9067,0.020112,0.000000,-0.071441,0.071441,0.0000,0.0000,0.0000,-0.002547,-0.073631,0.076699,0.9750,0.7371,-0.0533,0.001534,0.587515,-0.555301,0.556835,-0.592117,0.558369,-0.559903
5.9268,0.020105,0.000000,-0.071090,0.071090,0.0000,0.0000,0.0000,-0.002547,-0.073631,0.075165,0.9750,0.7371,-0.0533,0.001534,0.587515,-0.555301,0.556835,-0.592117,0.558369,-0.559903
5.9470,0.020104,0.000000,-0.070739,0.070739,0.0000,0.0000,0.0000,-0.002547,-0.073631,0.070563,0.9750,0.7371,-0.0533,0.001534,0.587515,-0.555301,0.556835,-0.592117,0.558369,-0.559903
5.9671,0.020108,0.000000,-0.070388,0.070388,0.0000,0.0000,0.0000,-0.002547,-0.072097,0.070563,0.9750,0.7371,-0.0533,0.001534,0.587515,-0.555301,0.556835,-0.592117,0.558369,-0.559903
5.9872,0.020097,0.000000,-0.070037,0.070037,0.0000,0.0000,0.0000,-0.002547,-0.072097,0.070563,0.9750,0.7371,-0.0533,0.001534,0.587515,-0.555301,0.556835,-0.592117,0.558369,-0.559903
6.0073,0.020109,0.000000,-0.069686,0.069686,0.0000,0.0000,0.0000,-0.002547,-0.072097,0.070563,0.9750,0.7371,-0.0533,0.001534,0.587515,-0.555301,0.556835,-0.592117,0.558369,-0.559903
6.0274,0.020105,0.000000,-0.069335,0.069335,0.0000,0.0000,0.0000,-0.002547,-0.072097,0.070563,0.9750,0.7371,-0.0533,0.001534,0.587515,-0.555301,0.556835,-0.592117,0.558369,-0.559903
6.0475,0.020106,0.000000,-0.068985,0.068985,0.0000,0.0000,0.0000,-0.002547,-0.070563,0.070563,0.9750,0.7371,-0.0533,0.001534,0.587515,-0.555301,0.556835,-0.592117,0.558369,-0.559903
6.0676,0.020103,0.000000,-0.068634,0.068634,0.0000,0.0000,0.0000,-0.002547,-0.070563,0.069029,0.9750,0.7371,-0.0533,0.001534,0.587515,-0.555301,0.556835,-0.592117,0.558369,-0.559903
6.0877,0.020099,0.000000,-0.068283,0.068283,0.0000,0.0000,0.0000,-0.002547,-0.070563,0.069029,0.9750,0.7371,-0.0533,0.001534,0.587515,-0.555301,0.556835,-0.592117,0.558369,-0.559903
6.1078,0.020106,0.000000,-0.067932,0.067932,0.0000,0.0000,0.0000,-0.002547,-0.070563,0.069029,0.9750,0.7371,-0.0533,0.001534,0.587515,-0.555301,0.556835,-0.592117,0.558369,-0.559903
6.1279,0.020106,0.000000,-0.067581,0.067581,0.0000,0.0000,0.0000,-0.002547,-0.069029,0.067495,0.9750,0.7371,-0.0533,0.001534,0.587515,-0.555301,0.556835,-0.592117,0.558369,-0.559903
6.1480,0.020091,0.000000,-0.067230,0.067230,0.0000,0.0000,0.0000,-0.002547,-0.069029,0.067495,0.9750,0.7371,-0.1412,0.000000,0.587515,-0.555301,0.556835,-0.592117,0.558369,-0.559903
6.1681,0.020091,0.000000,-0.066880,0.066880,0.0000,0.0000,0.0000,-0.002547,-0.069029,0.067495,0.9750,0.7371,-0.0533,0.001534,0.587515,-0.555301,0.556835,-0.592117,0.558369,-0.559903
6.1882,0.020096,0.000000,-0.066529,0.066529,0.0000,0.0000,0.0000,-0.002547,-0.069029,0.067495,0.9750,0.7371,-0.0533,0.001534,0.587515,-0.555301,0.556835,-0.592117,0.558369,-0.559903
6.2083,0.020101,0.000000,-0.066178,0.066178,0.0000,0.0000,0.0000,-0.002547,-0.069029,0.067495,0.9750,0.7371,-0.0533,0.001534,0.587515,-0.555301,0.556835,-0.592117,0.558369,-0.559903
6.2284,0.020101,0.000000,-0.065827,0.065827,0.0000,0.0000,0.0000,-0.002547,-0.069029,0.067495,0.9750,0.7371,-0.0533,0.001534,0.587515,-0.555301,0.556835,-0.592117,0.558369,-0.559903
6.2485,0.020086,0.000000,-0.065477,0.065477,0.0000,0.0000,0.0000,-0.002547,-0.069029,0.065961,0.9750,0.7371,-0.0533,0.001534,0.587515,-0.555301,0.556835,-0.592117,0.558369,-0.559903
6.2685,0.020082,0.000000,-0.065126,0.065126,0.0000,0.0000,0.0000,-0.002547,-0.069029,0.065961,0.9750,0.7371,-0.0533,0.001534,0.587515,-0.555301,0.556835,-0.592117,0.558369,-0.559903
6.2886,0.020066,0.000000,-0.064776,0.064776,0.0000,0.0000,0.0000,-0.002547,-0.069029,0.065961,0.9750,0.7371,-0.0533,0.001534,0.587515,-0.555301,0.556835,-0.592117,0.558369,-0.559903
6.3087,0.020117,0.000000,-0.064425,0.064425,0.0000,0.0000,0.0000,-0.002547,-0.069029,0.065961,0.9750,0.7371,-0.0533,0.001534,0.587515,-0.555301,0.556835,-0.592117,0.558369,-0.559903
6.3288,0.020097,0.000000,-0.064074,0.064074,0.0000,0.0000,0.0000,-0.002547,-0.069029,0.064427,0.9750,0.7371,-0.0533,0.001534,0.587515,-0.555301,0.556835,-0.592117,0.558369,-0.559903
6.3489,0.020094,0.000000,-0.063724,0.063724,0.0000,0.0000,0.0000,-0.002547,-0.069029,0.064427,0.9750,0.7371,-0.0533,0.001534,0.587515,-0.555301,0.556835,-0.592117,0.558369,-0.559903
6.3690,0.020094,0.000000,-0.063373,0.063373,0.0000,0.0000,0.0000,-0.002547,-0.069029,0.064427,0.9750,0.7371,-0.0533,0.001534,0.587515,-0.555301,0.556835,-0.592117,0.558369,-0.559903
6.3891,0.020102,0.000000,-0.063022,0.063022,0.0000,0.0000,0.0000,-0.002547,-0.069029,0.064427,0.9750,0.7371,-0.0533,0.001534,0.587515,-0.555301,0.556835,-0.592117,0.558369,-0.559903
6.4092,0.020095,0.000000,-0.062671,0.062671,0.0000,0.0000,0.0000,-0.002547,-0.069029,0.064427,0.9750,0.7371,-0.0533,0.001534,0.587515,-0.555301,0.556835,-0.592117,0.558369,-0.559903
6.4293,0.020090,0.000000,-0.062321,0.062321,0.0000,0.0000,0.0000,-0.002547,-0.069029,0.064427,0.9750,0.7371,-0.0533,0.001534,0.587515,-0.555301,0.556835,-0.592117,0.558369,-0.559903
6.4494,0.020086,0.000000,-0.061970,0.061970,0.0000,0.0000,0.0000,-0.002547,-0.069029,0.064427,0.9750,0.7371,-0.0533,0.001534,0.587515,-0.555301,0.556835,-0.592117,0.558369,-0.559903
6.4695,0.020082,0.000000,-0.061620,0.061620,0.0000,0.0000,0.0000,-0.002547,-0.067495,0.064427,0.9750,0.7371,-0.0533,0.001534,0.587515,-0.555301,0.556835,-0.592117,0.558369,-0.559903
6.4895,0.020082,0.000000,-0.061269,0.061269,0.0000,0.0000,0.0000,-0.002547,-0.067495,0.064427,0.9750,0.7371,-0.0533,0.001534,0.587515,-0.555301,0.556835,-0.592117,0.558369,-0.559903
6.5096,0.020080,0.000000,-0.060919,0.060919,0.0000,0.0000,0.0000,-0.002547,-0.064427,0.064427,0.9750,0.7371,-0.0533,0.001534,0.587515,-0.555301,0.556835,-0.592117,0.558369,-0.559903
6.5297,0.020094,0.000000,-0.060568,0.060568,0.0000,0.0000,0.0000,-0.002547,-0.061359,0.064427,0.9750,0.7371,-0.0533,0.001534,0.587515,-0.555301,0.556835,-0.592117,0.558369,-0.559903
6.5498,0.020099,0.000000,-0.060217,0.060217,0.0000,0.0000,0.0000,-0.002547,-0.059825,0.064427,0.9750,0.7371,-0.0533,0.001534,0.587515,-0.555301,0.556835,-0.592117,0.558369,-0.559903
