t,loop_dt,cmd_z,cmd_ant_l,cmd_ant_r,cmd_roll,cmd_pitch,cmd_yaw,pres_z,pres_ant_l,pres_ant_r,pres_roll,pres_pitch,pres_yaw,pres_j0,pres_j1,pres_j2,pres_j3,pres_j4,pres_j5,pres_j6
0.0000,0.000001,0.000000,-1.745328,1.745328,0.0000,0.0000,0.0000,-0.002675,-1.599942,1.601476,1.1387,1.0796,0.0912,0.001534,0.582913,-0.552233,0.556835,-0.595185,0.556835,-0.549165
0.0201,0.020103,0.000000,-1.727785,1.727785,0.0000,0.0000,0.0000,-0.002675,-1.599942,1.601476,1.1387,1.0796,0.0912,0.001534,0.582913,-0.552233,0.556835,-0.595185,0.556835,-0.549165
0.0402,0.020113,0.000000,-1.710233,1.710233,0.0000,0.0000,0.0000,-0.002675,-1.599942,1.601476,1.1387,1.0796,0.0912,0.001534,0.582913,-0.552233,0.556835,-0.595185,0.556835,-0.549165
0.0603,0.020092,0.000000,-1.692699,1.692699,0.0000,0.0000,0.0000,-0.002675,-1.599942,1.604544,1.1387,1.0796,0.0912,0.001534,0.582913,-0.552233,0.556835,-0.595185,0.556835,-0.549165
0.0804,0.020089,0.000000,-1.675168,1.675168,0.0000,0.0000,0.0000,-0.002675,-1.638291,1.647495,1.1387,1.0796,0.0912,0.001534,0.582913,-0.552233,0.556835,-0.595185,0.556835,-0.549165
0.1005,0.020096,0.000000,-1.657631,1.657631,0.0000,0.0000,0.0000,-0.002662,-1.701185,1.702719,1.0982,1.0467,0.1443,0.001534,0.582913,-0.552233,0.556835,-0.595185,0.558369,-0.549165
0.1206,0.020092,0.000000,-1.640098,1.640098,0.0000,0.0000,0.0000,-0.002663,-1.751806,1.744136,1.1025,1.0502,0.1387,0.001534,0.582913,-0.552233,0.556835,-0.595185,0.558369,-0.549165
0.1407,0.020088,0.000000,-1.622567,1.622567,0.0000,0.0000,0.0000,-0.002676,-1.747204,1.739534,1.1424,1.0833,0.0869,0.001534,0.582913,-0.552233,0.556835,-0.595185,0.556835,-0.549165
0.1608,0.020084,0.000000,-1.605041,1.605041,0.0000,0.0000,0.0000,-0.002622,-1.725728,1.725728,1.1274,0.9565,-0.0149,0.001534,0.582913,-0.555301,0.556835,-0.595185,0.558369,-0.550699
0.1808,0.020090,0.000000,-1.587509,1.587509,0.0000,0.0000,0.0000,-0.002615,-1.704253,1.710389,1.0796,0.9516,-0.0578,0.001534,0.582913,-0.555301,0.556835,-0.595185,0.558369,-0.552233
0.2009,0.020084,0.000000,-1.569982,1.569982,0.0000,0.0000,0.0000,-0.002604,-1.676641,1.684311,1.1255,0.9522,-0.1053,0.001534,0.584447,-0.555301,0.556835,-0.595185,0.556835,-0.553767
0.2210,0.020100,0.000000,-1.552442,1.552442,0.0000,0.0000,0.0000,-0.002580,-1.653631,1.661301,1.0310,0.9005,-0.1015,0.001534,0.584447,-0.555301,0.556835,-0.595185,0.558369,-0.555301
0.2411,0.020091,0.000000,-1.534908,1.534908,0.0000,0.0000,0.0000,-0.002558,-1.635224,1.641359,1.0414,0.8724,-0.1014,0.001534,0.585981,-0.555301,0.556835,-0.595185,0.558369,-0.556835
0.2612,0.020088,0.000000,-1.517379,1.517379,0.0000,0.0000,0.0000,-0.002547,-1.616816,1.621418,0.9912,0.8573,-0.1551,0.001534,0.585981,-0.555301,0.556835,-0.595185,0.558369,-0.558369
0.2813,0.020092,0.000000,-1.499845,1.499845,0.0000,0.0000,0.0000,-0.002525,-1.593806,1.595340,0.9970,0.8253,-0.1490,0.001534,0.587515,-0.555301,0.556835,-0.595185,0.558369,-0.559903
0.3014,0.020084,0.000000,-1.482319,1.482319,0.0000,0.0000,0.0000,-0.002540,-1.575398,1.578466,1.0369,0.8622,-0.2022,0.001534,0.587515,-0.555301,0.556835,-0.595185,0.556835,-0.559903
0.3215,0.020082,0.000000,-1.464794,1.464794,0.0000,0.0000,0.0000,-0.002525,-1.552389,1.558524,0.9922,0.8248,-0.1441,0.001534,0.587515,-0.555301,0.556835,-0.595185,0.558369,-0.559903
0.3416,0.020088,0.000000,-1.447263,1.447263,0.0000,0.0000,0.0000,-0.002527,-1.535515,1.543185,0.9969,0.8287,-0.1502,0.001534,0.587515,-0.555301,0.556835,-0.595185,0.558369,-0.559903
0.3616,0.020085,0.000000,-1.429735,1.429735,0.0000,0.0000,0.0000,-0.002540,-1.517107,1.524777,1.0075,0.7763,-0.2030,0.001534,0.587515,-0.555301,0.555301,-0.595185,0.558369,-0.559903
0.3817,0.020092,0.000000,-1.412202,1.412202,0.0000,0.0000,0.0000,-0.002538,-1.500233,1.506369,1.0358,0.8673,-0.1965,0.001534,0.587515,-0.555301,0.556835,-0.595185,0.556835,-0.559903
0.4018,0.020080,0.000000,-1.397848,1.397848,0.0000,0.0000,0.0000,-0.002526,-1.480291,1.487961,0.9923,0.8243,-0.1447,0.001534,0.587515,-0.555301,0.556835,-0.595185,0.558369,-0.559903
0.4219,0.020089,0.000000,-1.415379,1.415379,0.0000,0.0000,0.0000,-0.002527,-1.463418,1.466486,0.9969,0.8288,-0.1501,0.001534,0.587515,-0.555301,0.556835,-0.595185,0.558369,-0.559903
0.4420,0.020085,0.000000,-1.432906,1.432906,0.0000,0.0000,0.0000,-0.002527,-1.446544,1.448078,0.9969,0.8288,-0.1501,0.001534,0.587515,-0.555301,0.556835,-0.595185,0.558369,-0.559903
0.4621,0.020087,0.000000,-1.450436,1.450436,0.0000,0.0000,0.0000,-0.002527,-1.431204,1.431204,0.9969,0.8288,-0.1501,0.001534,0.587515,-0.555301,0.556835,-0.595185,0.558369,-0.559903
0.4822,0.020103,0.000000,-1.467979,1.467979,0.0000,0.0000,0.0000,-0.002527,-1.423534,1.422000,0.9969,0.8288,-0.1501,0.001534,0.587515,-0.555301,0.556835,-0.595185,0.558369,-0.559903
0.5023,0.020081,0.000000,-1.485503,1.485503,0.0000,0.0000,0.0000,-0.002527,-1.432738,1.429670,0.9969,0.8288,-0.1501,0.001534,0.587515,-0.555301,0.556835,-0.595185,0.558369,-0.559903
0.5223,0.020089,0.000000,-1.503034,1.503034,0.0000,0.0000,0.0000,-0.002527,-1.452680,1.448078,0.9969,0.8288,-0.1501,0.001534,0.587515,-0.555301,0.556835,-0.595185,0.558369,-0.559903
0.5424,0.020084,0.000000,-1.520560,1.520560,0.0000,0.0000,0.0000,-0.002527,-1.475690,1.471088,0.9969,0.8288,-0.1501,0.001534,0.587515,-0.555301,0.556835,-0.595185,0.558369,-0.559903
0.5625,0.020090,0.000000,-1.538093,1.538093,0.0000,0.0000,0.0000,-0.002527,-1.492563,1.491029,0.9969,0.8288,-0.1501,0.001534,0.587515,-0.555301,0.556835,-0.595185,0.558369,-0.559903
0.5830,0.020501,0.000000,-1.555983,1.555983,0.0000,0.0000,0.0000,-0.002527,-1.507903,1.504835,0.9969,0.8288,-0.1501,0.001534,0.587515,-0.555301,0.556835,-0.595185,0.558369,-0.559903
0.6031,0.020082,0.000000,-1.573508,1.573508,0.0000,0.0000,0.0000,-0.002527,-1.526311,1.517107,0.9969,0.8288,-0.1501,0.001534,0.587515,-0.555301,0.556835,-0.595185,0.558369,-0.559903
0.6232,0.020083,0.000000,-1.591033,1.591033,0.0000,0.0000,0.0000,-0.002527,-1.543185,1.532447,0.9969,0.8288,-0.1501,0.001534,0.587515,-0.555301,0.556835,-0.595185,0.558369,-0.559903
0.6433,0.020096,0.000000,-1.608570,1.608570,0.0000,0.0000,0.0000,-0.002527,-1.560058,1.555457,0.9969,0.8288,-0.1501,0.001534,0.587515,-0.555301,0.556835,-0.595185,0.558369,-0.559903
0.6634,0.020094,0.000000,-1.626105,1.626105,0.0000,0.0000,0.0000,-0.002527,-1.576932,1.576932,0.9969,0.8288,-0.1501,0.001534,0.587515,-0.555301,0.556835,-0.595185,0.558369,-0.559903
0.6835,0.020095,0.000000,-1.643641,1.643641,0.0000,0.0000,0.0000,-0.002527,-1.589204,1.592272,0.9969,0.8288,-0.1501,0.001534,0.587515,-0.555301,0.556835,-0.595185,0.558369,-0.559903
0.7036,0.020083,0.000000,-1.661167,1.661167,0.0000,0.0000,0.0000,-0.002527,-1.607612,1.607612,0.9969,0.8288,-0.1501,0.001534,0.587515,-0.555301,0.556835,-0.595185,0.558369,-0.559903
0.7236,0.020089,0.000000,-1.678698,1.678698,0.0000,0.0000,0.0000,-0.002527,-1.627554,1.624486,0.9969,0.8288,-0.1501,0.001534,0.587515,-0.555301,0.556835,-0.595185,0.558369,-0.559903
0.7437,0.020086,0.000000,-1.696226,1.696226,0.0000,0.0000,0.0000,-0.002527,-1.647495,1.645961,0.9969,0.8288,-0.1501,0.001534,0.587515,-0.555301,0.556835,-0.595185,0.558369,-0.559903
0.7638,0.020089,0.000000,-1.713757,1.713757,0.0000,0.0000,0.0000,-0.002527,-1.664369,1.664369,0.9969,0.8288,-0.1501,0.001534,0.587515,-0.555301,0.556835,-0.595185,0.558369,-0.559903
0.7839,0.020104,0.000000,-1.731301,1.731301,0.0000,0.0000,0.0000,-0.002527,-1.684311,1.679709,0.9969,0.8288,-0.1501,0.001534,0.587515,-0.555301,0.556835,-0.595185,0.558369,-0.559903
0.8040,0.020081,0.000000,-1.741833,1.741833,0.0000,0.0000,0.0000,-0.002527,-1.696583,1.691981,0.9969,0.8288,-0.1501,0.001534,0.587515,-0.555301,0.556835,-0.595185,0.558369,-0.559903
0.8241,0.020087,0.000000,-1.724304,1.724304,0.0000,0.0000,0.0000,-0.002527,-1.716525,1.710389,0.9969,0.8288,-0.2380,0.000000,0.587515,-0.555301,0.556835,-0.595185,0.558369,-0.559903
0.8442,0.020093,0.000000,-1.706769,1.706769,0.0000,0.0000,0.0000,-0.002527,-1.736466,1.733398,0.9969,0.8288,-0.1501,0.001534,0.587515,-0.555301,0.556835,-0.595185,0.558369,-0.559903
0.8643,0.020085,0.000000,-1.689242,1.689242,0.0000,0.0000,0.0000,-0.002527,-1.750272,1.747204,0.9969,0.8288,-0.1501,0.001534,0.587515,-0.555301,0.556835,-0.595185,0.558369,-0.559903
0.8844,0.020096,0.000000,-1.671704,1.671704,0.0000,0.0000,0.0000,-0.002527,-1.750272,1.745670,0.9969,0.8288,-0.1501,0.001534,0.587515,-0.555301,0.556835,-0.595185,0.558369,-0.559903
0.9045,0.020083,0.000000,-1.654179,1.654179,0.0000,0.0000,0.0000,-0.002527,-1.745670,1.742602,0.9969,0.8288,-0.1501,0.001534,0.587515,-0.555301,0.556835,-0.595185,0.558369,-0.559903
0.9245,0.020085,0.000000,-1.636652,1.636652,0.0000,0.0000,0.0000,-0.002527,-1.738000,1.741068,0.9969,0.8288,-0.1501,0.001534,0.587515,-0.555301,0.556835,-0.595185,0.558369,-0.559903
0.9446,0.020080,0.000000,-1.619128,1.619128,0.0000,0.0000,0.0000,-0.002527,-1.725728,1.736466,0.9969,0.8288,-0.1501,0.001534,0.587515,-0.555301,0.556835,-0.595185,0.558369,-0.559903
0.9647,0.020094,0.000000,-1.601593,1.601593,0.0000,0.0000,0.0000,-0.002527,-1.707321,1.722660,0.9969,0.8288,-0.1501,0.001534,0.587515,-0.555301,0.556835,-0.595185,0.558369,-0.559903
0.9848,0.020070,0.000000,-1.584078,1.584078,0.0000,0.0000,0.0000,-0.002527,-1.685845,1.698117,0.9969,0.8288,-0.1501,0.001534,0.587515,-0.555301,0.556835,-0.595185,0.558369,-0.559903
1.0049,0.020096,0.000000,-1.566541,1.566541,0.0000,0.0000,0.0000,-0.002527,-1.659767,1.668971,0.9969,0.8288,-0.1501,0.001534,0.587515,-0.555301,0.556835,-0.595185,0.558369,-0.559903
1.0250,0.020089,0.000000,-1.549010,1.549010,0.0000,0.0000,0.0000,-0.002527,-1.638291,1.642893,0.9969,0.8288,-0.1501,0.001534,0.587515,-0.555301,0.556835,-0.595185,0.558369,-0.559903
1.0451,0.020085,0.000000,-1.531482,1.531482,0.0000,0.0000,0.0000,-0.002527,-1.619884,1.622952,0.9969,0.8288,-0.1501,0.001534,0.587515,-0.555301,0.556835,-0.595185,0.558369,-0.559903
1.0651,0.020085,0.000000,-1.513954,1.513954,0.0000,0.0000,0.0000,-0.002527,-1.606078,1.604544,0.9969,0.8288,-0.1501,0.001534,0.587515,-0.555301,0.556835,-0.595185,0.558369,-0.559903
1.0852,0.020087,0.000000,-1.496425,1.496425,0.0000,0.0000,0.0000,-0.002527,-1.590738,1.590738,0.9969,0.8288,-0.1501,0.001534,0.587515,-0.555301,0.556835,-0.595185,0.558369,-0.559903
1.1053,0.020083,0.000000,-1.478899,1.478899,0.0000,0.0000,0.0000,-0.002527,-1.578466,1.580000,0.9969,0.8288,-0.1501,0.001534,0.587515,-0.555301,0.556835,-0.595185,0.558369,-0.559903
1.1254,0.020088,0.000000,-1.461369,1.461369,0.0000,0.0000,0.0000,-0.002527,-1.561592,1.567728,0.9969,0.8288,-0.1501,0.001534,0.587515,-0.555301,0.556835,-0.595185,0.558369,-0.559903
1.1455,0.020084,0.000000,-1.443843,1.443843,0.0000,0.0000,0.0000,-0.002527,-1.543185,1.550855,0.9969,0.8288,-0.1501,0.001534,0.587515,-0.555301,0.556835,-0.595185,0.558369,-0.559903
1.1656,0.020082,0.000000,-1.426318,1.426318,0.0000,0.0000,0.0000,-0.002527,-1.523243,1.532447,0.9969,0.8288,-0.1501,0.001534,0.587515,-0.555301,0.556835,-0.595185,0.558369,-0.559903
1.1856,0.020086,0.000000,-1.408790,1.408790,0.0000,0.0000,0.0000,-0.002527,-1.504835,1.514039,0.9969,0.8288,-0.1501,0.001534,0.587515,-0.555301,0.556835,-0.595185,0.558369,-0.559903
1.2057,0.020089,0.000000,-1.401268,1.401268,0.0000,0.0000,0.0000,-0.002527,-1.484893,1.491029,0.9969,0.8288,-0.1501,0.001534,0.587515,-0.555301,0.556835,-0.595185,0.558369,-0.559903
1.2258,0.020084,0.000000,-1.418795,1.418795,0.0000,0.0000,0.0000,-0.002527,-1.466486,1.471088,0.9969,0.8288,-0.1501,0.001534,0.587515,-0.555301,0.556835,-0.595185,0.558369,-0.559903
1.2459,0.020081,0.000000,-1.436319,1.436319,0.0000,0.0000,0.0000,-0.002527,-1.449612,1.452680,0.9969,0.8288,-0.1501,0.001534,0.587515,-0.555301,0.556835,-0.595185,0.558369,-0.559903
1.2660,0.020084,0.000000,-1.453845,1.453845,0.0000,0.0000,0.0000,-0.002527,-1.434272,1.434272,0.9969,0.8288,-0.1501,0.001534,0.587515,-0.555301,0.556835,-0.595185,0.558369,-0.559903
1.2861,0.020091,0.000000,-1.471378,1.471378,0.0000,0.0000,0.0000,-0.002540,-1.423534,1.422000,1.0369,0.8619,-0.2021,0.001534,0.587515,-0.555301,0.556835,-0.595185,0.556835,-0.559903
1.3062,0.020085,0.000000,-1.488905,1.488905,0.0000,0.0000,0.0000,-0.002525,-1.428136,1.425068,0.9922,0.8249,-0.1441,0.001534,0.587515,-0.555301,0.556835,-0.595185,0.558369,-0.559903
1.3262,0.020085,0.000000,-1.506433,1.506433,0.0000,0.0000,0.0000,-0.002527,-1.469554,1.463418,0.9969,0.8287,-0.1502,0.001534,0.587515,-0.555301,0.556835,-0.595185,0.558369,-0.559903
1.3463,0.020090,0.000000,-1.523965,1.523965,0.0000,0.0000,0.0000,-0.002527,-1.491029,1.487961,0.9969,0.8287,-0.1502,0.001534,0.587515,-0.555301,0.556835,-0.595185,0.558369,-0.559903
1.3664,0.020091,0.000000,-1.541498,1.541498,0.0000,0.0000,0.0000,-0.002527,-1.506369,1.504835,0.9969,0.8287,-0.1502,0.001534,0.587515,-0.555301,0.556835,-0.595185,0.558369,-0.559903
1.3866,0.020180,0.000000,-1.559109,1.559109,0.0000,0.0000,0.0000,-0.002527,-1.521709,1.515573,0.9969,0.8287,-0.1502,0.001534,0.587515,-0.555301,0.556835,-0.595185,0.558369,-0.559903
1.4067,0.020085,0.000000,-1.576637,1.576637,0.0000,0.0000,0.0000,-0.002527,-1.538583,1.529379,0.9969,0.8287,-0.1502,0.001534,0.587515,-0.555301,0.556835,-0.595185,0.558369,-0.559903
1.4268,0.020084,0.000000,-1.594163,1.594163,0.0000,0.0000,0.0000,-0.002527,-1.556990,1.550855,0.9969,0.8287,-0.1502,0.001534,0.587515,-0.555301,0.556835,-0.595185,0.558369,-0.559903
1.4469,0.020088,0.000000,-1.611693,1.611693,0.0000,0.0000,0.0000,-0.002527,-1.576932,1.575398,0.9969,0.8287,-0.1502,0.001534,0.587515,-0.555301,0.556835,-0.595185,0.558369,-0.559903
1.4669,0.020083,0.000000,-1.629220,1.629220,0.0000,0.0000,0.0000,-0.002527,-1.589204,1.593806,0.9969,0.8287,-0.1502,0.001534,0.587515,-0.555301,0.556835,-0.595185,0.558369,-0.559903
1.4870,0.020082,0.000000,-1.646745,1.646745,0.0000,0.0000,0.0000,-0.002527,-1.604544,1.607612,0.9969,0.8287,-0.1502,0.001534,0.587515,-0.555301,0.556835,-0.595185,0.558369,-0.559903
1.5071,0.020089,0.000000,-1.664276,1.664276,0.0000,0.0000,0.0000,-0.002527,-1.626020,1.621418,0.9969,0.8287,-0.1502,0.001534,0.587515,-0.555301,0.556835,-0.595185,0.558369,-0.559903
1.5272,0.020086,0.000000,-1.681804,1.681804,0.0000,0.0000,0.0000,-0.002527,-1.645961,1.641359,0.9969,0.8287,-0.1502,0.001534,0.587515,-0.555301,0.556835,-0.595185,0.558369,-0.559903
1.5473,0.020103,0.000000,-1.699347,1.699347,0.0000,0.0000,0.0000,-0.002527,-1.664369,1.661301,0.9969,0.8287,-0.1502,0.001534,0.587515,-0.555301,0.556835,-0.595185,0.558369,-0.559903
1.5674,0.020084,0.000000,-1.716874,1.716874,0.0000,0.0000,0.0000,-0.002527,-1.681243,1.678175,0.9969,0.8287,-0.1502,0.001534,0.587515,-0.555301,0.556835,-0.595185,0.558369,-0.559903
1.5875,0.020089,0.000000,-1.734404,1.734404,0.0000,0.0000,0.0000,-0.002527,-1.696583,1.693515,0.9969,0.8287,-0.1502,0.001534,0.587515,-0.555301,0.556835,-0.595185,0.558369,-0.559903
1.6076,0.020089,0.000000,-1.738723,1.738723,0.0000,0.0000,0.0000,-0.002527,-1.716525,1.708855,0.9969,0.8287,-0.1502,0.001534,0.587515,-0.555301,0.556835,-0.595185,0.558369,-0.559903
1.6277,0.020094,0.000000,-1.721188,1.721188,0.0000,0.0000,0.0000,-0.002527,-1.733398,1.728796,0.9969,0.8287,-0.1502,0.001534,0.587515,-0.555301,0.556835,-0.595185,0.558369,-0.559903
1.6478,0.020095,0.000000,-1.703651,1.703651,0.0000,0.0000,0.0000,-0.002527,-1.744136,1.741068,0.9969,0.8287,-0.1502,0.001534,0.587515,-0.555301,0.556835,-0.595185,0.558369,-0.559903
1.6682,0.020432,0.000000,-1.685821,1.685821,0.0000,0.0000,0.0000,-0.002527,-1.742602,1.742602,0.9969,0.8287,-0.1502,0.001534,0.587515,-0.555301,0.556835,-0.595185,0.558369,-0.559903
1.6884,0.020169,0.000000,-1.668221,1.668221,0.0000,0.0000,0.0000,-0.002527,-1.734932,1.741068,0.9969,0.8287,-0.1502,0.001534,0.587515,-0.555301,0.556835,-0.595185,0.558369,-0.559903
1.7085,0.020090,0.000000,-1.650688,1.650688,0.0000,0.0000,0.0000,-0.002527,-1.728796,1.739534,0.9969,0.8287,-0.1502,0.001534,0.587515,-0.555301,0.556835,-0.595185,0.558369,-0.559903
1.7285,0.020094,0.000000,-1.633153,1.633153,0.0000,0.0000,0.0000,-0.002527,-1.719592,1.730330,0.9969,0.8287,-0.2381,0.000000,0.587515,-0.555301,0.556835,-0.595185,0.558369,-0.559903
1.7486,0.020095,0.000000,-1.615617,1.615617,0.0000,0.0000,0.0000,-0.002527,-1.702719,1.714991,0.9969,0.8287,-0.1502,0.001534,0.587515,-0.555301,0.556835,-0.595185,0.558369,-0.559903
1.7687,0.020090,0.000000,-1.598085,1.598085,0.0000,0.0000,0.0000,-0.002527,-1.685845,1.691981,0.9969,0.8287,-0.1502,0.001534,0.587515,-0.555301,0.556835,-0.595185,0.558369,-0.559903
1.7888,0.020091,0.000000,-1.580552,1.580552,0.0000,0.0000,0.0000,-0.002527,-1.665903,1.670505,0.9969,0.8287,-0.1502,0.001534,0.587515,-0.555301,0.556835,-0.595185,0.558369,-0.559903
1.8089,0.020079,0.000000,-1.563030,1.563030,0.0000,0.0000,0.0000,-0.002527,-1.645961,1.647495,0.9969,0.8287,-0.1502,0.001534,0.587515,-0.555301,0.556835,-0.595185,0.558369,-0.559903
1.8290,0.020080,0.000000,-1.545507,1.545507,0.0000,0.0000,0.0000,-0.002540,-1.627554,1.629088,1.0075,0.7763,-0.2030,0.001534,0.587515,-0.555301,0.555301,-0.595185,0.558369,-0.559903
1.8491,0.020091,0.000000,-1.527975,1.527975,0.0000,0.0000,0.0000,-0.002525,-1.610680,1.612214,0.9953,0.8338,-0.1440,0.001534,0.587515,-0.555301,0.556835,-0.595185,0.558369,-0.559903
1.8692,0.020121,0.000000,-1.510416,1.510416,0.0000,0.0000,0.0000,-0.002527,-1.593806,1.595340,0.9966,0.8278,-0.1502,0.001534,0.587515,-0.555301,0.556835,-0.595185,0.558369,-0.559903
1.8893,0.020095,0.000000,-1.492879,1.492879,0.0000,0.0000,0.0000,-0.002527,-1.576932,1.581534,0.9966,0.8278,-0.1502,0.001534,0.587515,-0.555301,0.556835,-0.595185,0.558369,-0.559903
1.9094,0.020099,0.000000,-1.475339,1.475339,0.0000,0.0000,0.0000,-0.002527,-1.560058,1.567728,0.9966,0.8278,-0.1502,0.001534,0.587515,-0.555301,0.556835,-0.595185,0.558369,-0.559903
1.9295,0.020090,0.000000,-1.457808,1.457808,0.0000,0.0000,0.0000,-0.002527,-1.544719,1.553923,0.9966,0.8278,-0.1502,0.001534,0.587515,-0.555301,0.556835,-0.595185,0.558369,-0.559903
1.9496,0.020096,0.000000,-1.440270,1.440270,0.0000,0.0000,0.0000,-0.002527,-1.524777,1.535515,0.9966,0.8278,-0.1502,0.001534,0.587515,-0.555301,0.556835,-0.595185,0.558369,-0.559903
1.9697,0.020085,0.000000,-1.422743,1.422743,0.0000,0.0000,0.0000,-0.002527,-1.506369,1.514039,0.9966,0.8278,-0.1502,0.001534,0.587515,-0.555301,0.556835,-0.595185,0.558369,-0.559903
1.9897,0.020088,0.000000,-1.405213,1.405213,0.0000,0.0000,0.0000,-0.002527,-1.489495,1.497165,0.9966,0.8278,-0.1502,0.001534,0.587515,-0.555301,0.556835,-0.595185,0.558369,-0.559903
2.0098,0.020091,0.000000,-1.404846,1.404846,0.0000,0.0000,0.0000,-0.002527,-1.471088,1.475690,0.9966,0.8278,-0.1502,0.001534,0.587515,-0.555301,0.556835,-0.595185,0.558369,-0.559903
2.0299,0.020094,0.000000,-1.422382,1.422382,0.0000,0.0000,0.0000,-0.002527,-1.454214,1.455748,0.9966,0.8278,-0.1502,0.001534,0.587515,-0.555301,0.556835,-0.595185,0.558369,-0.559903
2.0513,0.021383,0.000000,-1.441043,1.441043,0.0000,0.0000,0.0000,-0.002527,-1.437340,1.437340,0.9966,0.8278,-0.1502,0.001534,0.587515,-0.555301,0.556835,-0.595185,0.558369,-0.559903
2.0714,0.020085,0.000000,-1.458570,1.458570,0.0000,0.0000,0.0000,-0.002527,-1.425068,1.423534,0.9966,0.8278,-0.1502,0.001534,0.587515,-0.555301,0.556835,-0.595185,0.558369,-0.559903
2.0915,0.020095,0.000000,-1.476107,1.476107,0.0000,0.0000,0.0000,-0.002527,-1.425068,1.423534,0.9966,0.8278,-0.1502,0.001534,0.587515,-0.555301,0.556835,-0.595185,0.558369,-0.559903
2.1116,0.020093,0.000000,-1.493641,1.493641,0.0000,0.0000,0.0000,-0.002527,-1.438874,1.435806,0.9966,0.8278,-0.1502,0.001534,0.587515,-0.555301,0.556835,-0.595185,0.558369,-0.559903
2.1317,0.020091,0.000000,-1.511174,1.511174,0.0000,0.0000,0.0000,-0.002527,-1.461884,1.457282,0.9966,0.8278,-0.1502,0.001534,0.587515,-0.555301,0.556835,-0.595185,0.558369,-0.559903
2.1518,0.020169,0.000000,-1.528774,1.528774,0.0000,0.0000,0.0000,-0.002527,-1.486427,1.481825,0.9966,0.8278,-0.1502,0.001534,0.587515,-0.555301,0.556835,-0.595185,0.558369,-0.559903
2.1719,0.020057,0.000000,-1.546277,1.546277,0.0000,0.0000,0.0000,-0.002527,-1.504835,1.501767,0.9966,0.8278,-0.1502,0.001534,0.587515,-0.555301,0.556835,-0.595185,0.558369,-0.559903
2.1920,0.020088,0.000000,-1.563807,1.563807,0.0000,0.0000,0.0000,-0.002527,-1.517107,1.514039,0.9966,0.8278,-0.1502,0.001534,0.587515,-0.555301,0.556835,-0.595185,0.558369,-0.559903
2.2121,0.020086,0.000000,-1.581336,1.581336,0.0000,0.0000,0.0000,-0.002527,-1.532447,1.527845,0.9966,0.8278,-0.1502,0.001534,0.587515,-0.555301,0.556835,-0.595185,0.558369,-0.559903
2.2322,0.020087,0.000000,-1.598865,1.598865,0.0000,0.0000,0.0000,-0.002527,-1.553923,1.549321,0.9966,0.8278,-0.1502,0.001534,0.587515,-0.555301,0.556835,-0.595185,0.558369,-0.559903
2.2522,0.020054,0.000000,-1.616365,1.616365,0.0000,0.0000,0.0000,-0.002540,-1.573864,1.570796,1.0370,0.8620,-0.2021,0.001534,0.587515,-0.555301,0.556835,-0.595185,0.556835,-0.559903
2.2723,0.020092,0.000000,-1.633899,1.633899,0.0000,0.0000,0.0000,-0.002538,-1.587670,1.589204,1.0328,0.8584,-0.1967,0.001534,0.587515,-0.555301,0.556835,-0.595185,0.556835,-0.559903
2.2924,0.020099,0.000000,-1.651439,1.651439,0.0000,0.0000,0.0000,-0.002526,-1.601476,1.601476,0.9927,0.8252,-0.1447,0.001534,0.587515,-0.555301,0.556835,-0.595185,0.558369,-0.559903
2.3126,0.020147,0.000000,-1.669021,1.669021,0.0000,0.0000,0.0000,-0.002527,-1.619884,1.619884,0.9969,0.8287,-0.1501,0.001534,0.587515,-0.555301,0.556835,-0.595185,0.558369,-0.559903
2.3326,0.020085,0.000000,-1.686548,1.686548,0.0000,0.0000,0.0000,-0.002527,-1.639825,1.638291,0.9969,0.8287,-0.1501,0.001534,0.587515,-0.555301,0.556835,-0.595185,0.558369,-0.559903
2.3527,0.020092,0.000000,-1.704081,1.704081,0.0000,0.0000,0.0000,-0.002527,-1.659767,1.656699,0.9969,0.8287,-0.1501,0.001534,0.587515,-0.555301,0.556835,-0.595185,0.558369,-0.559903
2.3728,0.020086,0.000000,-1.721610,1.721610,0.0000,0.0000,0.0000,-0.002540,-1.678175,1.675107,1.0369,0.8619,-0.2021,0.001534,0.587515,-0.555301,0.556835,-0.595185,0.556835,-0.559903
2.3929,0.020110,0.000000,-1.739159,1.739159,0.0000,0.0000,0.0000,-0.002525,-1.688913,1.685845,0.9922,0.8249,-0.1441,0.001534,0.587515,-0.555301,0.556835,-0.595185,0.558369,-0.559903
2.4130,0.020118,0.000000,-1.733943,1.733943,0.0000,0.0000,0.0000,-0.002527,-1.708855,1.705787,0.9969,0.8287,-0.1502,0.001534,0.587515,-0.555301,0.556835,-0.595185,0.558369,-0.559903
2.4332,0.020137,0.000000,-1.716370,1.716370,0.0000,0.0000,0.0000,-0.002527,-1.728796,1.725728,0.9969,0.8287,-0.1502,0.001534,0.587515,-0.555301,0.556835,-0.595185,0.558369,-0.559903
2.4536,0.020384,0.000000,-1.698582,1.698582,0.0000,0.0000,0.0000,-0.002527,-1.747204,1.742602,0.9969,0.8287,-0.1502,0.001534,0.587515,-0.555301,0.556835,-0.595185,0.558369,-0.559903
2.4737,0.020090,0.000000,-1.681051,1.681051,0.0000,0.0000,0.0000,-0.002527,-1.748738,1.745670,0.9969,0.8287,-0.1502,0.001534,0.587515,-0.555301,0.556835,-0.595185,0.558369,-0.559903
2.4937,0.020087,0.000000,-1.663521,1.663521,0.0000,0.0000,0.0000,-0.002527,-1.745670,1.742602,0.9969,0.8287,-0.1502,0.001534,0.587515,-0.555301,0.556835,-0.595185,0.558369,-0.559903
2.5138,0.020089,0.000000,-1.645990,1.645990,0.0000,0.0000,0.0000,-0.002527,-1.734932,1.738000,0.9969,0.8287,-0.1502,0.001534,0.587515,-0.555301,0.556835,-0.595185,0.558369,-0.559903
2.5339,0.020080,0.000000,-1.628467,1.628467,0.0000,0.0000,0.0000,-0.002527,-1.725728,1.730330,0.9969,0.8287,-0.1502,0.001534,0.587515,-0.555301,0.556835,-0.595185,0.558369,-0.559903
2.5540,0.020086,0.000000,-1.610938,1.610938,0.0000,0.0000,0.0000,-0.002527,-1.707321,1.713457,0.9969,0.8287,-0.1502,0.001534,0.587515,-0.555301,0.556835,-0.595185,0.558369,-0.559903
2.5741,0.020093,0.000000,-1.593404,1.593404,0.0000,0.0000,0.0000,-0.002527,-1.687379,1.693515,0.9969,0.8287,-0.1502,0.001534,0.587515,-0.555301,0.556835,-0.595185,0.558369,-0.559903
2.5942,0.020091,0.000000,-1.575871,1.575871,0.0000,0.0000,0.0000,-0.002527,-1.664369,1.670505,0.9969,0.8287,-0.1502,0.001534,0.587515,-0.555301,0.556835,-0.595185,0.558369,-0.559903
2.6143,0.020097,0.000000,-1.558334,1.558334,0.0000,0.0000,0.0000,-0.002527,-1.645961,1.650563,0.9969,0.8287,-0.1502,0.001534,0.587515,-0.555301,0.556835,-0.595185,0.558369,-0.559903
2.6344,0.020087,0.000000,-1.540805,1.540805,0.0000,0.0000,0.0000,-0.002527,-1.629088,1.630622,0.9969,0.8287,-0.1502,0.001534,0.587515,-0.555301,0.556835,-0.595185,0.558369,-0.559903
2.6545,0.020088,0.000000,-1.523275,1.523275,0.0000,0.0000,0.0000,-0.002527,-1.612214,1.615282,0.9969,0.8287,-0.1502,0.001534,0.587515,-0.555301,0.556835,-0.595185,0.558369,-0.559903
2.6746,0.020095,0.000000,-1.505738,1.505738,0.0000,0.0000,0.0000,-0.002527,-1.598408,1.599942,0.9969,0.8287,-0.1502,0.001534,0.587515,-0.555301,0.556835,-0.595185,0.558369,-0.559903
2.6946,0.020088,0.000000,-1.488208,1.488208,0.0000,0.0000,0.0000,-0.002527,-1.583068,1.586136,0.9969,0.8287,-0.1502,0.001534,0.587515,-0.555301,0.556835,-0.595185,0.558369,-0.559903
2.7147,0.020104,0.000000,-1.470664,1.470664,0.0000,0.0000,0.0000,-0.002527,-1.564660,1.570796,0.9969,0.8287,-0.1502,0.001534,0.587515,-0.555301,0.556835,-0.595185,0.558369,-0.559903
2.7348,0.020091,0.000000,-1.453131,1.453131,0.0000,0.0000,0.0000,-0.002527,-1.546253,1.555457,0.9969,0.8287,-0.1502,0.001534,0.587515,-0.555301,0.556835,-0.595185,0.558369,-0.559903
2.7549,0.020070,0.000000,-1.435617,1.435617,0.0000,0.0000,0.0000,-0.002527,-1.529379,1.540117,0.9969,0.8287,-0.1502,0.001534,0.587515,-0.555301,0.556835,-0.595185,0.558369,-0.559903
2.7750,0.020095,0.000000,-1.418080,1.418080,0.0000,0.0000,0.0000,-0.002527,-1.509437,1.517107,0.9969,0.8287,-0.1502,0.001534,0.587515,-0.555301,0.556835,-0.595185,0.558369,-0.559903
2.7951,0.020089,0.000000,-1.400550,1.400550,0.0000,0.0000,0.0000,-0.002527,-1.491029,1.497165,0.9969,0.8287,-0.1502,0.001534,0.587515,-0.555301,0.556835,-0.595185,0.558369,-0.559903
2.8152,0.020094,0.000000,-1.409513,1.409513,0.0000,0.0000,0.0000,-0.002540,-1.472622,1.477223,1.0369,0.8619,-0.2021,0.001534,0.587515,-0.555301,0.556835,-0.595185,0.556835,-0.559903
2.8353,0.020094,0.000000,-1.427048,1.427048,0.0000,0.0000,0.0000,-0.002525,-1.454214,1.455748,0.9922,0.8249,-0.1441,0.001534,0.587515,-0.555301,0.556835,-0.595185,0.558369,-0.559903
2.8554,0.020089,0.000000,-1.444579,1.444579,0.0000,0.0000,0.0000,-0.002527,-1.437340,1.437340,0.9969,0.8287,-0.1502,0.001534,0.587515,-0.555301,0.556835,-0.595185,0.558369,-0.559903
2.8755,0.020091,0.000000,-1.462112,1.462112,0.0000,0.0000,0.0000,-0.002527,-1.425068,1.423534,0.9969,0.8287,-0.1502,0.001534,0.587515,-0.555301,0.556835,-0.595185,0.558369,-0.559903
2.8955,0.020090,0.000000,-1.479644,1.479644,0.0000,0.0000,0.0000,-0.002527,-1.428136,1.426602,0.9969,0.8287,-0.1502,0.001534,0.587515,-0.555301,0.556835,-0.595185,0.558369,-0.559903
2.9160,0.020432,0.000000,-1.497474,1.497474,0.0000,0.0000,0.0000,-0.002527,-1.443476,1.437340,0.9969,0.8287,-0.1502,0.001534,0.587515,-0.555301,0.556835,-0.595185,0.558369,-0.559903
2.9361,0.020082,0.000000,-1.514999,1.514999,0.0000,0.0000,0.0000,-0.002527,-1.466486,1.458816,0.9969,0.8287,-0.1502,0.001534,0.587515,-0.555301,0.556835,-0.595185,0.558369,-0.559903
2.9561,0.020082,0.000000,-1.532524,1.532524,0.0000,0.0000,0.0000,-0.002527,-1.481825,1.478757,0.9969,0.8287,-0.1502,0.001534,0.587515,-0.555301,0.556835,-0.595185,0.558369,-0.559903
2.9762,0.020086,0.000000,-1.550052,1.550052,0.0000,0.0000,0.0000,-0.002527,-1.495631,1.495631,0.9969,0.8287,-0.1502,0.001534,0.587515,-0.555301,0.556835,-0.595185,0.558369,-0.559903
2.9963,0.020098,0.000000,-1.567591,1.567591,0.0000,0.0000,0.0000,-0.002527,-1.510971,1.507903,0.9969,0.8287,-0.1502,0.001534,0.587515,-0.555301,0.556835,-0.595185,0.558369,-0.559903
3.0167,0.020395,0.000000,-1.585389,1.585389,0.0000,0.0000,0.0000,-0.002527,-1.530913,1.523243,0.9969,0.8287,-0.1502,0.001534,0.587515,-0.555301,0.556835,-0.595185,0.558369,-0.559903
3.0368,0.020093,0.000000,-1.602923,1.602923,0.0000,0.0000,0.0000,-0.002527,-1.552389,1.544719,0.9969,0.8287,-0.1502,0.001534,0.587515,-0.555301,0.556835,-0.595185,0.558369,-0.559903
3.0569,0.020093,0.000000,-1.620457,1.620457,0.0000,0.0000,0.0000,-0.002527,-1.566194,1.566194,0.9969,0.8287,-0.1502,0.001534,0.587515,-0.555301,0.556835,-0.595185,0.558369,-0.559903
3.0770,0.020089,0.000000,-1.637988,1.637988,0.0000,0.0000,0.0000,-0.002527,-1.580000,1.581534,0.9969,0.8287,-0.1502,0.001534,0.587515,-0.555301,0.556835,-0.595185,0.558369,-0.559903
3.0972,0.020225,0.000000,-1.655638,1.655638,0.0000,0.0000,0.0000,-0.002527,-1.596874,1.596874,0.9969,0.8287,-0.1502,0.001534,0.587515,-0.555301,0.556835,-0.595185,0.558369,-0.559903
3.1173,0.020105,0.000000,-1.673182,1.673182,0.0000,0.0000,0.0000,-0.002527,-1.615282,1.615282,0.9969,0.8287,-0.1502,0.001534,0.587515,-0.555301,0.556835,-0.595185,0.558369,-0.559903
3.1374,0.020094,0.000000,-1.690717,1.690717,0.0000,0.0000,0.0000,-0.002527,-1.635224,1.633690,0.9969,0.8287,-0.1502,0.001534,0.587515,-0.555301,0.556835,-0.595185,0.558369,-0.559903
3.1580,0.020537,0.000000,-1.708639,1.708639,0.0000,0.0000,0.0000,-0.002527,-1.672039,1.670505,0.9969,0.8287,-0.1502,0.001534,0.587515,-0.555301,0.556835,-0.595185,0.558369,-0.559903
3.1780,0.020088,0.000000,-1.726169,1.726169,0.0000,0.0000,0.0000,-0.002527,-1.688913,1.685845,0.9969,0.8287,-0.1502,0.001534,0.587515,-0.555301,0.556835,-0.595185,0.558369,-0.559903
3.1981,0.020092,0.000000,-1.743702,1.743702,0.0000,0.0000,0.0000,-0.002527,-1.707321,1.702719,0.9969,0.8287,-0.1502,0.001534,0.587515,-0.555301,0.556835,-0.595185,0.558369,-0.559903
3.2182,0.020093,0.000000,-1.729422,1.729422,0.0000,0.0000,0.0000,-0.002527,-1.725728,1.721126,0.9969,0.8287,-0.1502,0.001534,0.587515,-0.555301,0.556835,-0.595185,0.558369,-0.559903
3.2383,0.020087,0.000000,-1.711893,1.711893,0.0000,0.0000,0.0000,-0.002527,-1.742602,1.739534,0.9969,0.8287,-0.1502,0.001534,0.587515,-0.555301,0.556835,-0.595185,0.558369,-0.559903
3.2584,0.020087,0.000000,-1.694363,1.694363,0.0000,0.0000,0.0000,-0.002527,-1.751806,1.748738,0.9969,0.8287,-0.1502,0.001534,0.587515,-0.555301,0.556835,-0.595185,0.558369,-0.559903
3.2785,0.020087,0.000000,-1.676834,1.676834,0.0000,0.0000,0.0000,-0.002527,-1.750272,1.747204,0.9969,0.8287,-0.1502,0.001534,0.587515,-0.555301,0.556835,-0.595185,0.558369,-0.559903
3.2987,0.020238,0.000000,-1.659173,1.659173,0.0000,0.0000,0.0000,-0.002527,-1.739534,1.738000,0.9969,0.8287,-0.1502,0.001534,0.587515,-0.555301,0.556835,-0.595185,0.558369,-0.559903
3.3188,0.020095,0.000000,-1.641637,1.641637,0.0000,0.0000,0.0000,-0.002527,-1.727262,1.730330,0.9969,0.8287,-0.1502,0.001534,0.587515,-0.555301,0.556835,-0.595185,0.558369,-0.559903
3.3389,0.020087,0.000000,-1.624108,1.624108,0.0000,0.0000,0.0000,-0.002527,-1.708855,1.713457,0.9969,0.8287,-0.1502,0.001534,0.587515,-0.555301,0.556835,-0.595185,0.558369,-0.559903
3.3591,0.020220,0.000000,-1.606462,1.606462,0.0000,0.0000,0.0000,-0.002527,-1.690447,1.695049,0.9969,0.8287,-0.1502,0.001534,0.587515,-0.555301,0.556835,-0.595185,0.558369,-0.559903
3.3792,0.020085,0.000000,-1.588935,1.588935,0.0000,0.0000,0.0000,-0.002527,-1.667437,1.673573,0.9969,0.8287,-0.1502,0.001534,0.587515,-0.555301,0.556835,-0.595185,0.558369,-0.559903
3.3995,0.020303,0.000000,-1.571217,1.571217,0.0000,0.0000,0.0000,-0.002527,-1.647495,1.653631,0.9969,0.8287,-0.1502,0.001534,0.587515,-0.555301,0.556835,-0.595185,0.558369,-0.559903
3.4196,0.020100,0.000000,-1.553677,1.553677,0.0000,0.0000,0.0000,-0.002527,-1.630622,1.633690,0.9969,0.8287,-0.1502,0.001534,0.587515,-0.555301,0.556835,-0.595185,0.558369,-0.559903
3.4397,0.020097,0.000000,-1.536139,1.536139,0.0000,0.0000,0.0000,-0.002527,-1.615282,1.619884,0.9969,0.8287,-0.1502,0.001534,0.587515,-0.555301,0.556835,-0.595185,0.558369,-0.559903
3.4598,0.020117,0.000000,-1.518583,1.518583,0.0000,0.0000,0.0000,-0.002527,-1.601476,1.603010,0.9969,0.8287,-0.1502,0.001534,0.587515,-0.555301,0.556835,-0.595185,0.558369,-0.559903
3.4802,0.020340,0.000000,-1.500833,1.500833,0.0000,0.0000,0.0000,-0.002527,-1.601476,1.603010,0.9969,0.8287,-0.1502,0.001534,0.587515,-0.555301,0.556835,-0.595185,0.558369,-0.559903
3.5010,0.020859,0.000000,-1.482630,1.482630,0.0000,0.0000,0.0000,-0.002527,-1.569262,1.573864,0.9969,0.8287,-0.1502,0.001534,0.587515,-0.555301,0.556835,-0.595185,0.558369,-0.559903
3.5213,0.020226,0.000000,-1.464980,1.464980,0.0000,0.0000,0.0000,-0.002527,-1.550855,1.556990,0.9969,0.8287,-0.1502,0.001534,0.587515,-0.555301,0.556835,-0.595185,0.558369,-0.559903
3.5414,0.020102,0.000000,-1.447438,1.447438,0.0000,0.0000,0.0000,-0.002527,-1.529379,1.538583,0.9969,0.8287,-0.1502,0.001534,0.587515,-0.555301,0.556835,-0.595185,0.558369,-0.559903
3.5615,0.020120,0.000000,-1.429879,1.429879,0.0000,0.0000,0.0000,-0.002527,-1.509437,1.518641,0.9969,0.8287,-0.1502,0.001534,0.587515,-0.555301,0.556835,-0.595185,0.558369,-0.559903
3.5816,0.020113,0.000000,-1.412327,1.412327,0.0000,0.0000,0.0000,-0.002527,-1.491029,1.498699,0.9969,0.8287,-0.1502,0.001534,0.587515,-0.555301,0.556835,-0.595185,0.558369,-0.559903
3.6017,0.020114,0.000000,-1.397752,1.397752,0.0000,0.0000,0.0000,-0.002527,-1.472622,1.477223,0.9969,0.8287,-0.1502,0.001534,0.587515,-0.555301,0.556835,-0.595185,0.558369,-0.559903
3.6218,0.020091,0.000000,-1.415285,1.415285,0.0000,0.0000,0.0000,-0.002527,-1.455748,1.457282,0.9969,0.8287,-0.1502,0.001534,0.587515,-0.555301,0.556835,-0.595185,0.558369,-0.559903
3.6419,0.020087,0.000000,-1.432814,1.432814,0.0000,0.0000,0.0000,-0.002527,-1.441942,1.440408,0.9969,0.8287,-0.1502,0.001534,0.587515,-0.555301,0.556835,-0.595185,0.558369,-0.559903
3.6620,0.020099,0.000000,-1.450354,1.450354,0.0000,0.0000,0.0000,-0.002527,-1.425068,1.423534,0.9969,0.8287,-0.1502,0.001534,0.587515,-0.555301,0.556835,-0.595185,0.558369,-0.559903
3.6821,0.020106,0.000000,-1.467900,1.467900,0.0000,0.0000,0.0000,-0.002527,-1.423534,1.422000,0.9969,0.8287,-0.1502,0.001534,0.587515,-0.555301,0.556835,-0.595185,0.558369,-0.559903
3.7022,0.020092,0.000000,-1.485434,1.485434,0.0000,0.0000,0.0000,-0.002527,-1.437340,1.432738,0.9969,0.8287,-0.1502,0.001534,0.587515,-0.555301,0.556835,-0.595185,0.558369,-0.559903
3.7223,0.020103,0.000000,-1.502977,1.502977,0.0000,0.0000,0.0000,-0.002527,-1.460350,1.454214,0.9969,0.8287,-0.1502,0.001534,0.587515,-0.555301,0.556835,-0.595185,0.558369,-0.559903
3.7424,0.020096,0.000000,-1.520514,1.520514,0.0000,0.0000,0.0000,-0.002527,-1.478757,1.477223,0.9969,0.8287,-0.1502,0.001534,0.587515,-0.555301,0.556835,-0.595185,0.558369,-0.559903
3.7625,0.020107,0.000000,-1.538060,1.538060,0.0000,0.0000,0.0000,-0.002527,-1.478757,1.477223,0.9969,0.8287,-0.1502,0.001534,0.587515,-0.555301,0.556835,-0.595185,0.558369,-0.559903
3.7826,0.020107,0.000000,-1.555607,1.555607,0.0000,0.0000,0.0000,-0.002527,-1.512505,1.507903,0.9969,0.8287,-0.1502,0.001534,0.587515,-0.555301,0.556835,-0.595185,0.558369,-0.559903
3.8027,0.020116,0.000000,-1.573161,1.573161,0.0000,0.0000,0.0000,-0.002527,-1.532447,1.518641,0.9969,0.8287,-0.1502,0.001534,0.587515,-0.555301,0.556835,-0.595185,0.558369,-0.559903
3.8228,0.020097,0.000000,-1.590700,1.590700,0.0000,0.0000,0.0000,-0.002527,-1.549321,1.538583,0.9969,0.8287,-0.1502,0.001534,0.587515,-0.555301,0.556835,-0.595185,0.558369,-0.559903
3.8429,0.020097,0.000000,-1.608238,1.608238,0.0000,0.0000,0.0000,-0.002527,-1.566194,1.563126,0.9969,0.8287,-0.2381,0.000000,0.587515,-0.555301,0.556835,-0.595185,0.558369,-0.559903
3.8630,0.020128,0.000000,-1.625803,1.625803,0.0000,0.0000,0.0000,-0.002527,-1.581534,1.584602,0.9969,0.8287,-0.1502,0.001534,0.587515,-0.555301,0.556835,-0.595185,0.558369,-0.559903
3.8831,0.020112,0.000000,-1.643354,1.643354,0.0000,0.0000,0.0000,-0.002527,-1.596874,1.598408,0.9969,0.8287,-0.1502,0.001534,0.587515,-0.555301,0.556835,-0.595185,0.558369,-0.559903
3.9032,0.020092,0.000000,-1.660887,1.660887,0.0000,0.0000,0.0000,-0.002527,-1.615282,1.613748,0.9969,0.8287,-0.1502,0.001534,0.587515,-0.555301,0.556835,-0.595185,0.558369,-0.559903
3.9233,0.020097,0.000000,-1.678425,1.678425,0.0000,0.0000,0.0000,-0.002527,-1.615282,1.613748,0.9969,0.8287,-0.1502,0.001534,0.587515,-0.555301,0.556835,-0.595185,0.558369,-0.559903
3.9436,0.020234,0.000000,-1.696083,1.696083,0.0000,0.0000,0.0000,-0.002527,-1.635224,1.633690,0.9969,0.8287,-0.1502,0.001534,0.587515,-0.555301,0.556835,-0.595185,0.558369,-0.559903
3.9637,0.020092,0.000000,-1.713616,1.713616,0.0000,0.0000,0.0000,-0.002527,-1.652097,1.650563,0.9969,0.8287,-0.1502,0.001534,0.587515,-0.555301,0.556835,-0.595185,0.558369,-0.559903
3.9838,0.020094,0.000000,-1.731151,1.731151,0.0000,0.0000,0.0000,-0.002527,-1.665903,1.665903,0.9969,0.8287,-0.1502,0.001534,0.587515,-0.555301,0.556835,-0.595185,0.558369,-0.559903
4.0038,0.020085,0.000000,-1.741980,1.741980,0.0000,0.0000,0.0000,-0.002527,-1.684311,1.681243,0.9969,0.8287,-0.1502,0.001534,0.587515,-0.555301,0.556835,-0.595185,0.558369,-0.559903
4.0239,0.020088,0.000000,-1.724449,1.724449,0.0000,0.0000,0.0000,-0.002527,-1.707321,1.704253,0.9969,0.8287,-0.1502,0.001534,0.587515,-0.555301,0.556835,-0.595185,0.558369,-0.559903
4.0440,0.020089,0.000000,-1.706918,1.706918,0.0000,0.0000,0.0000,-0.002527,-1.741068,1.734932,0.9969,0.8287,-0.1502,0.001534,0.587515,-0.555301,0.556835,-0.595185,0.558369,-0.559903
4.0641,0.020087,0.000000,-1.689389,1.689389,0.0000,0.0000,0.0000,-0.002527,-1.753340,1.750272,0.9969,0.8287,-0.1502,0.001534,0.587515,-0.555301,0.556835,-0.595185,0.558369,-0.559903
4.0842,0.020103,0.000000,-1.671846,1.671846,0.0000,0.0000,0.0000,-0.002527,-1.751806,1.748738,0.9969,0.8287,-0.1502,0.001534,0.587515,-0.555301,0.556835,-0.595185,0.558369,-0.559903
4.1043,0.020085,0.000000,-1.654318,1.654318,0.0000,0.0000,0.0000,-0.002527,-1.742602,1.741068,0.9969,0.8287,-0.1502,0.001534,0.587515,-0.555301,0.556835,-0.595185,0.558369,-0.559903
4.1244,0.020085,0.000000,-1.636791,1.636791,0.0000,0.0000,0.0000,-0.002527,-1.733398,1.736466,0.9969,0.8287,-0.1502,0.001534,0.587515,-0.555301,0.556835,-0.595185,0.558369,-0.559903
4.1445,0.020087,0.000000,-1.619262,1.619262,0.0000,0.0000,0.0000,-0.002527,-1.718058,1.724194,0.9969,0.8287,-0.1502,0.001534,0.587515,-0.555301,0.556835,-0.595185,0.558369,-0.559903
4.1645,0.020083,0.000000,-1.601736,1.601736,0.0000,0.0000,0.0000,-0.002527,-1.699651,1.707321,0.9969,0.8287,-0.1502,0.001534,0.587515,-0.555301,0.556835,-0.595185,0.558369,-0.559903
4.1846,0.020092,0.000000,-1.584202,1.584202,0.0000,0.0000,0.0000,-0.002527,-1.679709,1.685845,0.9969,0.8287,-0.1502,0.001534,0.587515,-0.555301,0.556835,-0.595185,0.558369,-0.559903
4.2047,0.020098,0.000000,-1.566663,1.566663,0.0000,0.0000,0.0000,-0.002527,-1.658233,1.662835,0.9969,0.8287,-0.1502,0.001534,0.587515,-0.555301,0.556835,-0.595185,0.558369,-0.559903
4.2248,0.020086,0.000000,-1.549135,1.549135,0.0000,0.0000,0.0000,-0.002527,-1.639825,1.642893,0.9969,0.8287,-0.1502,0.001534,0.587515,-0.555301,0.556835,-0.595185,0.558369,-0.559903
4.2449,0.020059,0.000000,-1.531630,1.531630,0.0000,0.0000,0.0000,-0.002527,-1.621418,1.626020,0.9969,0.8287,-0.1502,0.001534,0.587515,-0.555301,0.556835,-0.595185,0.558369,-0.559903
4.2650,0.020090,0.000000,-1.514098,1.514098,0.0000,0.0000,0.0000,-0.002527,-1.607612,1.609146,0.9969,0.8287,-0.1502,0.001534,0.587515,-0.555301,0.556835,-0.595185,0.558369,-0.559903
4.2851,0.020093,0.000000,-1.496563,1.496563,0.0000,0.0000,0.0000,-0.002527,-1.590738,1.593806,0.9969,0.8287,-0.1502,0.001534,0.587515,-0.555301,0.556835,-0.595185,0.558369,-0.559903
4.3052,0.020096,0.000000,-1.479026,1.479026,0.0000,0.0000,0.0000,-0.002527,-1.573864,1.576932,0.9969,0.8287,-0.1502,0.001534,0.587515,-0.555301,0.556835,-0.595185,0.558369,-0.559903
4.3252,0.020085,0.000000,-1.461499,1.461499,0.0000,0.0000,0.0000,-0.002540,-1.556990,1.563126,1.0369,0.8619,-0.2021,0.001534,0.587515,-0.555301,0.556835,-0.595185,0.556835,-0.559903
4.3453,0.020090,0.000000,-1.443967,1.443967,0.0000,0.0000,0.0000,-0.002525,-1.537049,1.546253,0.9922,0.8249,-0.1441,0.001534,0.587515,-0.555301,0.556835,-0.595185,0.558369,-0.559903
4.3654,0.020087,0.000000,-1.426438,1.426438,0.0000,0.0000,0.0000,-0.002527,-1.518641,1.526311,0.9969,0.8287,-0.1502,0.001534,0.587515,-0.555301,0.556835,-0.595185,0.558369,-0.559903
4.3855,0.020090,0.000000,-1.408906,1.408906,0.0000,0.0000,0.0000,-0.002527,-1.498699,1.504835,0.9969,0.8287,-0.1502,0.001534,0.587515,-0.555301,0.556835,-0.595185,0.558369,-0.559903
4.4056,0.020089,0.000000,-1.401152,1.401152,0.0000,0.0000,0.0000,-0.002527,-1.480291,1.486427,0.9969,0.8287,-0.1502,0.001534,0.587515,-0.555301,0.556835,-0.595185,0.558369,-0.559903
4.4257,0.020121,0.000000,-1.418711,1.418711,0.0000,0.0000,0.0000,-0.002527,-1.461884,1.464952,0.9969,0.8287,-0.1502,0.001534,0.587515,-0.555301,0.556835,-0.595185,0.558369,-0.559903
4.4458,0.020076,0.000000,-1.436231,1.436231,0.0000,0.0000,0.0000,-0.002527,-1.446544,1.446544,0.9969,0.8287,-0.1502,0.001534,0.587515,-0.555301,0.556835,-0.595185,0.558369,-0.559903
4.4659,0.020086,0.000000,-1.453759,1.453759,0.0000,0.0000,0.0000,-0.002527,-1.431204,1.431204,0.9969,0.8287,-0.1502,0.001534,0.587515,-0.555301,0.556835,-0.595185,0.558369,-0.559903
4.4860,0.020083,0.000000,-1.471285,1.471285,0.0000,0.0000,0.0000,-0.002527,-1.423534,1.422000,0.9969,0.8287,-0.1502,0.001534,0.587515,-0.555301,0.556835,-0.595185,0.558369,-0.559903
4.5061,0.020097,0.000000,-1.488823,1.488823,0.0000,0.0000,0.0000,-0.002527,-1.428136,1.425068,0.9969,0.8287,-0.1502,0.001534,0.587515,-0.555301,0.556835,-0.595185,0.558369,-0.559903
4.5262,0.020092,0.000000,-1.506357,1.506357,0.0000,0.0000,0.0000,-0.002527,-1.446544,1.441942,0.9969,0.8287,-0.1502,0.001534,0.587515,-0.555301,0.556835,-0.595185,0.558369,-0.559903
4.5462,0.020088,0.000000,-1.523887,1.523887,0.0000,0.0000,0.0000,-0.002527,-1.471088,1.464952,0.9969,0.8287,-0.1502,0.001534,0.587515,-0.555301,0.556835,-0.595185,0.558369,-0.559903
4.5663,0.020093,0.000000,-1.541422,1.541422,0.0000,0.0000,0.0000,-0.002527,-1.491029,1.487961,0.9969,0.8287,-0.1502,0.001534,0.587515,-0.555301,0.556835,-0.595185,0.558369,-0.559903
4.5864,0.020090,0.000000,-1.558953,1.558953,0.0000,0.0000,0.0000,-0.002527,-1.506369,1.503301,0.9969,0.8287,-0.1502,0.001534,0.587515,-0.555301,0.556835,-0.595185,0.558369,-0.559903
4.6065,0.020084,0.000000,-1.576480,1.576480,0.0000,0.0000,0.0000,-0.002527,-1.520175,1.512505,0.9969,0.8287,-0.1502,0.001534,0.587515,-0.555301,0.556835,-0.595185,0.558369,-0.559903
4.6266,0.020076,0.000000,-1.593999,1.593999,0.0000,0.0000,0.0000,-0.002527,-1.537049,1.524777,0.9969,0.8287,-0.1502,0.001534,0.587515,-0.555301,0.556835,-0.595185,0.558369,-0.559903
4.6467,0.020085,0.000000,-1.611526,1.611526,0.0000,0.0000,0.0000,-0.002527,-1.558524,1.547787,0.9969,0.8287,-0.1502,0.001534,0.587515,-0.555301,0.556835,-0.595185,0.558369,-0.559903
4.6667,0.020075,0.000000,-1.629045,1.629045,0.0000,0.0000,0.0000,-0.002527,-1.576932,1.573864,0.9969,0.8287,-0.1502,0.001534,0.587515,-0.555301,0.556835,-0.595185,0.558369,-0.559903
4.6868,0.020083,0.000000,-1.646570,1.646570,0.0000,0.0000,0.0000,-0.002527,-1.587670,1.595340,0.9969,0.8287,-0.1502,0.001534,0.587515,-0.555301,0.556835,-0.595185,0.558369,-0.559903
4.7069,0.020078,0.000000,-1.664092,1.664092,0.0000,0.0000,0.0000,-0.002527,-1.624486,1.621418,0.9969,0.8287,-0.1502,0.001534,0.587515,-0.555301,0.556835,-0.595185,0.558369,-0.559903
4.7270,0.020073,0.000000,-1.681609,1.681609,0.0000,0.0000,0.0000,-0.002527,-1.644427,1.639825,0.9969,0.8287,-0.1502,0.001534,0.587515,-0.555301,0.556835,-0.595185,0.558369,-0.559903
4.7473,0.020342,0.000000,-1.699362,1.699362,0.0000,0.0000,0.0000,-0.002527,-1.664369,1.661301,0.9969,0.8287,-0.1502,0.001534,0.587515,-0.555301,0.556835,-0.595185,0.558369,-0.559903
4.7674,0.020082,0.000000,-1.716886,1.716886,0.0000,0.0000,0.0000,-0.002527,-1.681243,1.679709,0.9969,0.8287,-0.1502,0.001534,0.587515,-0.555301,0.556835,-0.595185,0.558369,-0.559903
4.7875,0.020084,0.000000,-1.734413,1.734413,0.0000,0.0000,0.0000,-0.002527,-1.695049,1.693515,0.9969,0.8287,-0.1502,0.001534,0.587515,-0.555301,0.556835,-0.595185,0.558369,-0.559903
4.8075,0.020045,0.000000,-1.738754,1.738754,0.0000,0.0000,0.0000,-0.002527,-1.714991,1.708855,0.9969,0.8287,-0.1502,0.001534,0.587515,-0.555301,0.556835,-0.595185,0.558369,-0.559903
4.8276,0.020077,0.000000,-1.721233,1.721233,0.0000,0.0000,0.0000,-0.002527,-1.734932,1.728796,0.9969,0.8287,-0.1502,0.001534,0.587515,-0.555301,0.556835,-0.595185,0.558369,-0.559903
4.8477,0.020090,0.000000,-1.703701,1.703701,0.0000,0.0000,0.0000,-0.002527,-1.744136,1.744136,0.9969,0.8287,-0.1502,0.001534,0.587515,-0.555301,0.556835,-0.595185,0.558369,-0.559903
4.8678,0.020082,0.000000,-1.686176,1.686176,0.0000,0.0000,0.0000,-0.002527,-1.742602,1.744136,0.9969,0.8287,-0.1502,0.001534,0.587515,-0.555301,0.556835,-0.595185,0.558369,-0.559903
4.8879,0.020085,0.000000,-1.668649,1.668649,0.0000,0.0000,0.0000,-0.002527,-1.733398,1.739534,0.9969,0.8287,-0.1502,0.001534,0.587515,-0.555301,0.556835,-0.595185,0.558369,-0.559903
4.9079,0.020074,0.000000,-1.651131,1.651131,0.0000,0.0000,0.0000,-0.002527,-1.727262,1.738000,0.9969,0.8287,-0.1502,0.001534,0.587515,-0.555301,0.556835,-0.595185,0.558369,-0.559903
4.9281,0.020122,0.000000,-1.633572,1.633572,0.0000,0.0000,0.0000,-0.002527,-1.716525,1.727262,0.9969,0.8287,-0.1502,0.001534,0.587515,-0.555301,0.556835,-0.595185,0.558369,-0.559903
4.9481,0.020085,0.000000,-1.616044,1.616044,0.0000,0.0000,0.0000,-0.002527,-1.701185,1.711923,0.9969,0.8287,-0.1502,0.001534,0.587515,-0.555301,0.556835,-0.595185,0.558369,-0.559903
4.9682,0.020080,0.000000,-1.598521,1.598521,0.0000,0.0000,0.0000,-0.002527,-1.682777,1.687379,0.9969,0.8287,-0.1502,0.001534,0.587515,-0.555301,0.556835,-0.595185,0.558369,-0.559903
4.9883,0.020084,0.000000,-1.580995,1.580995,0.0000,0.0000,0.0000,-0.002527,-1.664369,1.667437,0.9969,0.8287,-0.1502,0.001534,0.587515,-0.555301,0.556835,-0.595185,0.558369,-0.559903
5.0084,0.020075,0.000000,-1.563477,1.563477,0.0000,0.0000,0.0000,-0.002527,-1.642893,1.644427,0.9969,0.8287,-0.1502,0.001534,0.587515,-0.555301,0.556835,-0.595185,0.558369,-0.559903
5.0284,0.020026,0.000000,-1.546001,1.546001,0.0000,0.0000,0.0000,-0.002527,-1.627554,1.629088,0.9969,0.8287,-0.1502,0.001534,0.587515,-0.555301,0.556835,-0.595185,0.558369,-0.559903
5.0485,0.020078,0.000000,-1.528480,1.528480,0.0000,0.0000,0.0000,-0.002527,-1.609146,1.612214,0.9969,0.8287,-0.1502,0.001534,0.587515,-0.555301,0.556835,-0.595185,0.558369,-0.559903
5.0686,0.020074,0.000000,-1.510962,1.510962,0.0000,0.0000,0.0000,-0.002527,-1.595340,1.596874,0.9969,0.8287,-0.1502,0.001534,0.587515,-0.555301,0.556835,-0.595185,0.558369,-0.559903
5.0886,0.020081,0.000000,-1.493438,1.493438,0.0000,0.0000,0.0000,-0.002527,-1.580000,1.581534,0.9969,0.8287,-0.1502,0.001534,0.587515,-0.555301,0.556835,-0.595185,0.558369,-0.559903
5.1087,0.020073,0.000000,-1.475921,1.475921,0.0000,0.0000,0.0000,-0.002527,-1.564660,1.570796,0.9969,0.8287,-0.1502,0.001534,0.587515,-0.555301,0.556835,-0.595185,0.558369,-0.559903
5.1288,0.020075,0.000000,-1.458402,1.458402,0.0000,0.0000,0.0000,-0.002527,-1.541651,1.550855,0.9969,0.8287,-0.1502,0.001534,0.587515,-0.555301,0.556835,-0.595185,0.558369,-0.559903
5.1489,0.020079,0.000000,-1.440879,1.440879,0.0000,0.0000,0.0000,-0.002527,-1.521709,1.530913,0.9969,0.8287,-0.1502,0.001534,0.587515,-0.555301,0.556835,-0.595185,0.558369,-0.559903
5.1690,0.020077,0.000000,-1.423359,1.423359,0.0000,0.0000,0.0000,-0.002527,-1.501767,1.512505,0.9969,0.8287,-0.1502,0.001534,0.587515,-0.555301,0.556835,-0.595185,0.558369,-0.559903
5.1890,0.020090,0.000000,-1.405828,1.405828,0.0000,0.0000,0.0000,-0.002527,-1.486427,1.492563,0.9969,0.8287,-0.1502,0.001534,0.587515,-0.555301,0.556835,-0.595185,0.558369,-0.559903
5.2091,0.020077,0.000000,-1.404219,1.404219,0.0000,0.0000,0.0000,-0.002527,-1.469554,1.472622,0.9969,0.8287,-0.1502,0.001534,0.587515,-0.555301,0.556835,-0.595185,0.558369,-0.559903
5.2292,0.020077,0.000000,-1.421740,1.421740,0.0000,0.0000,0.0000,-0.002527,-1.452680,1.452680,0.9969,0.8287,-0.1502,0.001534,0.587515,-0.555301,0.556835,-0.595185,0.558369,-0.559903
5.2493,0.020077,0.000000,-1.439260,1.439260,0.0000,0.0000,0.0000,-0.002527,-1.434272,1.434272,0.9969,0.8287,-0.1502,0.001534,0.587515,-0.555301,0.556835,-0.595185,0.558369,-0.559903
5.2693,0.020079,0.000000,-1.456782,1.456782,0.0000,0.0000,0.0000,-0.002527,-1.425068,1.423534,0.9969,0.8287,-0.1502,0.001534,0.587515,-0.555301,0.556835,-0.595185,0.558369,-0.559903
5.2894,0.020075,0.000000,-1.474301,1.474301,0.0000,0.0000,0.0000,-0.002527,-1.425068,1.423534,0.9969,0.8287,-0.1502,0.001534,0.587515,-0.555301,0.556835,-0.595185,0.558369,-0.559903
5.3095,0.020094,0.000000,-1.491837,1.491837,0.0000,0.0000,0.0000,-0.002527,-1.441942,1.438874,0.9969,0.8287,-0.1502,0.001534,0.587515,-0.555301,0.556835,-0.595185,0.558369,-0.559903
5.3296,0.020093,0.000000,-1.509371,1.509371,0.0000,0.0000,0.0000,-0.002527,-1.463418,1.460350,0.9969,0.8287,-0.1502,0.001534,0.587515,-0.555301,0.556835,-0.595185,0.558369,-0.559903
5.3497,0.020079,0.000000,-1.526893,1.526893,0.0000,0.0000,0.0000,-0.002527,-1.487961,1.484893,0.9969,0.8287,-0.1502,0.001534,0.587515,-0.555301,0.556835,-0.595185,0.558369,-0.559903
5.3698,0.020133,0.000000,-1.544463,1.544463,0.0000,0.0000,0.0000,-0.002527,-1.504835,1.501767,0.9969,0.8287,-0.1502,0.001534,0.587515,-0.555301,0.556835,-0.595185,0.558369,-0.559903
5.3899,0.020105,0.000000,-1.562007,1.562007,0.0000,0.0000,0.0000,-0.002527,-1.517107,1.512505,0.9969,0.8287,-0.1502,0.001534,0.587515,-0.555301,0.556835,-0.595185,0.558369,-0.559903
5.4100,0.020085,0.000000,-1.579535,1.579535,0.0000,0.0000,0.0000,-0.002527,-1.530913,1.524777,0.9969,0.8287,-0.1502,0.001534,0.587515,-0.555301,0.556835,-0.595185,0.558369,-0.559903
5.4313,0.021304,0.000000,-1.598125,1.598125,0.0000,0.0000,0.0000,-0.002527,-1.552389,1.544719,0.9969,0.8287,-0.1502,0.001534,0.587515,-0.555301,0.556835,-0.595185,0.558369,-0.559903
5.4514,0.020081,0.000000,-1.615650,1.615650,0.0000,0.0000,0.0000,-0.002527,-1.578466,1.575398,0.9969,0.8287,-0.1502,0.001534,0.587515,-0.555301,0.556835,-0.595185,0.558369,-0.559903
5.4715,0.020075,0.000000,-1.633169,1.633169,0.0000,0.0000,0.0000,-0.002527,-1.586136,1.589204,0.9969,0.8287,-0.1502,0.001534,0.587515,-0.555301,0.556835,-0.595185,0.558369,-0.559903
5.4915,0.020071,0.000000,-1.650683,1.650683,0.0000,0.0000,0.0000,-0.002527,-1.603010,1.603010,0.9969,0.8287,-0.1502,0.001534,0.587515,-0.555301,0.556835,-0.595185,0.558369,-0.559903
5.5116,0.020092,0.000000,-1.668217,1.668217,0.0000,0.0000,0.0000,-0.002527,-1.621418,1.619884,0.9969,0.8287,-0.1502,0.001534,0.587515,-0.555301,0.556835,-0.595185,0.558369,-0.559903
5.5317,0.020081,0.000000,-1.685740,1.685740,0.0000,0.0000,0.0000,-0.002527,-1.642893,1.641359,0.9969,0.8287,-0.1502,0.001534,0.587515,-0.555301,0.556835,-0.595185,0.558369,-0.559903
5.5520,0.020303,0.000000,-1.703458,1.703458,0.0000,0.0000,0.0000,-0.002527,-1.662835,1.661301,0.9969,0.8287,-0.1502,0.001534,0.587515,-0.555301,0.556835,-0.595185,0.558369,-0.559903
5.5721,0.020074,0.000000,-1.720976,1.720976,0.0000,0.0000,0.0000,-0.002527,-1.678175,1.675107,0.9969,0.8287,-0.1502,0.001534,0.587515,-0.555301,0.556835,-0.595185,0.558369,-0.559903
5.5922,0.020076,0.000000,-1.738496,1.738496,0.0000,0.0000,0.0000,-0.002527,-1.691981,1.688913,0.9969,0.8287,-0.1502,0.001534,0.587515,-0.555301,0.556835,-0.595185,0.558369,-0.559903
5.6123,0.020114,0.000000,-1.734609,1.734609,0.0000,0.0000,0.0000,-0.002527,-1.708855,1.705787,0.9969,0.8287,-0.1502,0.001534,0.587515,-0.555301,0.556835,-0.595185,0.558369,-0.559903
5.6324,0.020075,0.000000,-1.717090,1.717090,0.0000,0.0000,0.0000,-0.002527,-1.730330,1.727262,0.9969,0.8287,-0.1502,0.001534,0.587515,-0.555301,0.556835,-0.595185,0.558369,-0.559903
5.6524,0.020087,0.000000,-1.699561,1.699561,0.0000,0.0000,0.0000,-0.002527,-1.748738,1.744136,0.9969,0.8287,-0.1502,0.001534,0.587515,-0.555301,0.556835,-0.595185,0.558369,-0.559903
5.6725,0.020076,0.000000,-1.682041,1.682041,0.0000,0.0000,0.0000,-0.002527,-1.750272,1.745670,0.9969,0.8287,-0.1502,0.001534,0.587515,-0.555301,0.556835,-0.595185,0.558369,-0.559903
5.6928,0.020273,0.000000,-1.664350,1.664350,0.0000,0.0000,0.0000,-0.002527,-1.747204,1.744136,0.9969,0.8287,-0.1502,0.001534,0.587515,-0.555301,0.556835,-0.595185,0.558369,-0.559903
5.7129,0.020079,0.000000,-1.646828,1.646828,0.0000,0.0000,0.0000,-0.002527,-1.736466,1.738000,0.9969,0.8287,-0.1502,0.001534,0.587515,-0.555301,0.556835,-0.595185,0.558369,-0.559903
5.7330,0.020077,0.000000,-1.629307,1.629307,0.0000,0.0000,0.0000,-0.002527,-1.725728,1.730330,0.9969,0.8287,-0.1502,0.001534,0.587515,-0.555301,0.556835,-0.595185,0.558369,-0.559903
5.7530,0.020096,0.000000,-1.611770,1.611770,0.0000,0.0000,0.0000,-0.002527,-1.705787,1.711923,0.9969,0.8287,-0.1502,0.001534,0.587515,-0.555301,0.556835,-0.595185,0.558369,-0.559903
5.7731,0.020079,0.000000,-1.594248,1.594248,0.0000,0.0000,0.0000,-0.002527,-1.687379,1.690447,0.9969,0.8287,-0.1502,0.001534,0.587515,-0.555301,0.556835,-0.595185,0.558369,-0.559903
5.7932,0.020080,0.000000,-1.576724,1.576724,0.0000,0.0000,0.0000,-0.002527,-1.662835,1.668971,0.9969,0.8287,-0.1502,0.001534,0.587515,-0.555301,0.556835,-0.595185,0.558369,-0.559903
5.8134,0.020156,0.000000,-1.559135,1.559135,0.0000,0.0000,0.0000,-0.002527,-1.644427,1.649029,0.9969,0.8287,-0.1502,0.001534,0.587515,-0.555301,0.556835,-0.595185,0.558369,-0.559903
5.8334,0.020072,0.000000,-1.541619,1.541619,0.0000,0.0000,0.0000,-0.002527,-1.626020,1.629088,0.9969,0.8287,-0.1502,0.001534,0.587515,-0.555301,0.556835,-0.595185,0.558369,-0.559903
5.8536,0.020122,0.000000,-1.524059,1.524059,0.0000,0.0000,0.0000,-0.002527,-1.609146,1.613748,0.9969,0.8287,-0.1502,0.001534,0.587515,-0.555301,0.556835,-0.595185,0.558369,-0.559903
5.8736,0.020087,0.000000,-1.506530,1.506530,0.0000,0.0000,0.0000,-0.002527,-1.595340,1.598408,0.9969,0.8287,-0.1502,0.001534,0.587515,-0.555301,0.556835,-0.595185,0.558369,-0.559903
5.8937,0.020081,0.000000,-1.489006,1.489006,0.0000,0.0000,0.0000,-0.002527,-1.580000,1.583068,0.9969,0.8287,-0.1502,0.001534,0.587515,-0.555301,0.556835,-0.595185,0.558369,-0.559903
5.9138,0.020088,0.000000,-1.471475,1.471475,0.0000,0.0000,0.0000,-0.002527,-1.563126,1.570796,0.9969,0.8287,-0.1502,0.001534,0.587515,-0.555301,0.556835,-0.595185,0.558369,-0.559903
5.9339,0.020091,0.000000,-1.453943,1.453943,0.0000,0.0000,0.0000,-0.002527,-1.546253,1.555457,0.9969,0.8287,-0.1502,0.001534,0.587515,-0.555301,0.556835,-0.595185,0.558369,-0.559903
5.9540,0.020095,0.000000,-1.436407,1.436407,0.0000,0.0000,0.0000,-0.002527,-1.526311,1.535515,0.9969,0.8287,-0.1502,0.001534,0.587515,-0.555301,0.556835,-0.595185,0.558369,-0.559903
5.9740,0.020035,0.000000,-1.418923,1.418923,0.0000,0.0000,0.0000,-0.002527,-1.506369,1.517107,0.9969,0.8287,-0.1502,0.001534,0.587515,-0.555301,0.556835,-0.595185,0.558369,-0.559903
5.9941,0.020085,0.000000,-1.401395,1.401395,0.0000,0.0000,0.0000,-0.002527,-1.487961,1.495631,0.9969,0.8287,-0.1502,0.001534,0.587515,-0.555301,0.556835,-0.595185,0.558369,-0.559903
6.0142,0.020086,0.000000,-1.408660,1.408660,0.0000,0.0000,0.0000,-0.002527,-1.469554,1.472622,0.9969,0.8287,-0.1502,0.001534,0.587515,-0.555301,0.556835,-0.595185,0.558369,-0.559903
6.0343,0.020087,0.000000,-1.426190,1.426190,0.0000,0.0000,0.0000,-0.002527,-1.452680,1.452680,0.9969,0.8287,-0.1502,0.001534,0.587515,-0.555301,0.556835,-0.595185,0.558369,-0.559903
6.0544,0.020099,0.000000,-1.443729,1.443729,0.0000,0.0000,0.0000,-0.002527,-1.435806,1.435806,0.9969,0.8287,-0.1502,0.001534,0.587515,-0.555301,0.556835,-0.595185,0.558369,-0.559903
6.0745,0.020083,0.000000,-1.461255,1.461255,0.0000,0.0000,0.0000,-0.002527,-1.425068,1.423534,0.9969,0.8287,-0.1502,0.001534,0.587515,-0.555301,0.556835,-0.595185,0.558369,-0.559903
6.0946,0.020091,0.000000,-1.478788,1.478788,0.0000,0.0000,0.0000,-0.002527,-1.429670,1.426602,0.9969,0.8287,-0.1502,0.001534,0.587515,-0.555301,0.556835,-0.595185,0.558369,-0.559903
6.1147,0.020087,0.000000,-1.496317,1.496317,0.0000,0.0000,0.0000,-0.002527,-1.445010,1.437340,0.9969,0.8287,-0.1502,0.001534,0.587515,-0.555301,0.556835,-0.595185,0.558369,-0.559903
6.1347,0.020081,0.000000,-1.513841,1.513841,0.0000,0.0000,0.0000,-0.002527,-1.464952,1.458816,0.9969,0.8287,-0.1502,0.001534,0.587515,-0.555301,0.556835,-0.595185,0.558369,-0.559903
6.1548,0.020097,0.000000,-1.531379,1.531379,0.0000,0.0000,0.0000,-0.002527,-1.487961,1.483359,0.9969,0.8287,-0.1502,0.001534,0.587515,-0.555301,0.556835,-0.595185,0.558369,-0.559903
6.1749,0.020079,0.000000,-1.548901,1.548901,0.0000,0.0000,0.0000,-0.002527,-1.504835,1.501767,0.9969,0.8287,-0.1502,0.001534,0.587515,-0.555301,0.556835,-0.595185,0.558369,-0.559903
6.1950,0.020078,0.000000,-1.566422,1.566422,0.0000,0.0000,0.0000,-0.002527,-1.517107,1.514039,0.9969,0.8287,-0.1502,0.001534,0.587515,-0.555301,0.556835,-0.595185,0.558369,-0.559903
6.2151,0.020088,0.000000,-1.583952,1.583952,0.0000,0.0000,0.0000,-0.002527,-1.532447,1.526311,0.9969,0.8287,-0.1502,0.001534,0.587515,-0.555301,0.556835,-0.595185,0.558369,-0.559903
6.2352,0.020076,0.000000,-1.601472,1.601472,0.0000,0.0000,0.0000,-0.002527,-1.553923,1.546253,0.9969,0.8287,-0.1502,0.001534,0.587515,-0.555301,0.556835,-0.595185,0.558369,-0.559903
6.2552,0.020083,0.000000,-1.618998,1.618998,0.0000,0.0000,0.0000,-0.002527,-1.572330,1.570796,0.9969,0.8287,-0.1502,0.001534,0.587515,-0.555301,0.556835,-0.595185,0.558369,-0.559903
6.2753,0.020043,0.000000,-1.636489,1.636489,0.0000,0.0000,0.0000,-0.002527,-1.586136,1.586136,0.9969,0.8287,-0.1502,0.001534,0.587515,-0.555301,0.556835,-0.595185,0.558369,-0.559903
6.2954,0.020084,0.000000,-1.654016,1.654016,0.0000,0.0000,0.0000,-0.002527,-1.601476,1.599942,0.9969,0.8287,-0.1502,0.001534,0.587515,-0.555301,0.556835,-0.595185,0.558369,-0.559903
6.3154,0.020085,0.000000,-1.671544,1.671544,0.0000,0.0000,0.0000,-0.002527,-1.616816,1.615282,0.9969,0.8287,-0.1502,0.001534,0.587515,-0.555301,0.556835,-0.595185,0.558369,-0.559903
6.3355,0.020079,0.000000,-1.689066,1.689066,0.0000,0.0000,0.0000,-0.002527,-1.638291,1.638291,0.9969,0.8287,-0.1502,0.001534,0.587515,-0.555301,0.556835,-0.595185,0.558369,-0.559903
6.3556,0.020086,0.000000,-1.706594,1.706594,0.0000,0.0000,0.0000,-0.002527,-1.659767,1.656699,0.9969,0.8287,-0.1502,0.001534,0.587515,-0.555301,0.556835,-0.595185,0.558369,-0.559903
6.3757,0.020086,0.000000,-1.724122,1.724122,0.0000,0.0000,0.0000,-0.002527,-1.676641,1.672039,0.9969,0.8287,-0.1502,0.001534,0.587515,-0.555301,0.556835,-0.595185,0.558369,-0.559903
6.3958,0.020081,0.000000,-1.741646,1.741646,0.0000,0.0000,0.0000,-0.002527,-1.690447,1.687379,0.9969,0.8287,-0.1502,0.001534,0.587515,-0.555301,0.556835,-0.595185,0.558369,-0.559903
6.4166,0.020826,0.000000,-1.730839,1.730839,0.0000,0.0000,0.0000,-0.002527,-1.708855,1.705787,0.9969,0.8287,-0.1502,0.001534,0.587515,-0.555301,0.556835,-0.595185,0.558369,-0.559903
6.4367,0.020097,0.000000,-1.713301,1.713301,0.0000,0.0000,0.0000,-0.002527,-1.730330,1.725728,0.9969,0.8287,-0.1502,0.001534,0.587515,-0.555301,0.556835,-0.595185,0.558369,-0.559903
6.4568,0.020050,0.000000,-1.695804,1.695804,0.0000,0.0000,0.0000,-0.002527,-1.745670,1.741068,0.9969,0.8287,-0.1502,0.001534,0.587515,-0.555301,0.556835,-0.595185,0.558369,-0.559903
6.4769,0.020102,0.000000,-1.678262,1.678262,0.0000,0.0000,0.0000,-0.002527,-1.750272,1.745670,0.9969,0.8287,-0.1502,0.001534,0.587515,-0.555301,0.556835,-0.595185,0.558369,-0.559903
6.4969,0.020083,0.000000,-1.660736,1.660736,0.0000,0.0000,0.0000,-0.002527,-1.748738,1.745670,0.9969,0.8287,-0.1502,0.001534,0.587515,-0.555301,0.556835,-0.595185,0.558369,-0.559903
6.5170,0.020087,0.000000,-1.643206,1.643206,0.0000,0.0000,0.0000,-0.002527,-1.738000,1.736466,0.9969,0.8287,-0.1502,0.001534,0.587515,-0.555301,0.556835,-0.595185,0.558369,-0.559903
6.5371,0.020086,0.000000,-1.625678,1.625678,0.0000,0.0000,0.0000,-0.002527,-1.727262,1.728796,0.9969,0.8287,-0.1502,0.001534,0.587515,-0.555301,0.556835,-0.595185,0.558369,-0.559903
