t,loop_dt,cmd_z,cmd_ant_l,cmd_ant_r,cmd_roll,cmd_pitch,cmd_yaw,pres_z,pres_ant_l,pres_ant_r,pres_roll,pres_pitch,pres_yaw,pres_j0,pres_j1,pres_j2,pres_j3,pres_j4,pres_j5,pres_j6
0.0000,0.000002,0.000000,-1.745329,1.745329,0.0000,0.0000,0.0000,-0.002692,-1.613748,1.604544,0.9630,1.0882,-0.0026,0.001534,0.578311,-0.552233,0.556835,-0.595185,0.558369,-0.549165
0.0201,0.020116,0.000000,-1.742520,1.742520,0.0000,0.0000,0.0000,-0.002706,-1.612214,1.604544,1.0076,1.1253,-0.0604,0.001534,0.578311,-0.552233,0.556835,-0.595185,0.556835,-0.549165
0.0402,0.020095,0.000000,-1.739715,1.739715,0.0000,0.0000,0.0000,-0.002705,-1.621418,1.613748,1.0029,1.1214,-0.0544,0.001534,0.578311,-0.552233,0.556835,-0.595185,0.556835,-0.549165
0.0604,0.020156,0.000000,-1.736900,1.736900,0.0000,0.0000,0.0000,-0.002692,-1.662835,1.655165,0.9630,1.0882,-0.0026,0.001534,0.578311,-0.552233,0.556835,-0.595185,0.558369,-0.549165
0.0805,0.020089,0.000000,-1.734095,1.734095,0.0000,0.0000,0.0000,-0.002706,-1.733398,1.725728,1.0076,1.1253,-0.0604,0.001534,0.578311,-0.552233,0.556835,-0.595185,0.556835,-0.549165
0.1005,0.020087,0.000000,-1.731291,1.731291,0.0000,0.0000,0.0000,-0.002705,-1.776350,1.768680,1.0029,1.1214,-0.0544,0.001534,0.578311,-0.552233,0.556835,-0.595185,0.556835,-0.549165
0.1206,0.020095,0.000000,-1.728485,1.728485,0.0000,0.0000,0.0000,-0.002679,-1.777884,1.771748,1.0024,1.0525,-0.0555,0.001534,0.578311,-0.553767,0.556835,-0.595185,0.558369,-0.549165
0.1407,0.020089,0.000000,-1.725680,1.725680,0.0000,0.0000,0.0000,-0.002657,-1.768680,1.765612,1.0916,1.0086,-0.0545,0.001534,0.579845,-0.555301,0.556835,-0.595185,0.558369,-0.549165
0.1608,0.020083,0.000000,-1.722876,1.722876,0.0000,0.0000,0.0000,-0.002659,-1.756408,1.761010,1.0733,1.0286,-0.1605,0.001534,0.579845,-0.555301,0.556835,-0.595185,0.556835,-0.550699
0.1809,0.020088,0.000000,-1.720071,1.720071,0.0000,0.0000,0.0000,-0.002633,-1.750272,1.757942,0.9856,0.9749,-0.1506,0.001534,0.579845,-0.555301,0.556835,-0.595185,0.558369,-0.552233
0.2010,0.020091,0.000000,-1.717266,1.717266,0.0000,0.0000,0.0000,-0.002636,-1.745670,1.753340,0.9947,0.9805,-0.1516,0.001534,0.579845,-0.555301,0.556835,-0.595185,0.558369,-0.552233
0.2211,0.020102,0.000000,-1.714459,1.714459,0.0000,0.0000,0.0000,-0.002623,-1.744136,1.751806,0.9445,0.9619,-0.2051,0.001534,0.579845,-0.555301,0.556835,-0.595185,0.558369,-0.553767
0.2412,0.020088,0.000000,-1.711654,1.711654,0.0000,0.0000,0.0000,-0.002611,-1.739534,1.750272,0.9006,0.9459,-0.2531,0.001534,0.579845,-0.555301,0.556835,-0.595185,0.558369,-0.555301
0.2613,0.020092,0.000000,-1.708849,1.708849,0.0000,0.0000,0.0000,-0.002599,-1.738000,1.747204,0.8560,0.9297,-0.3017,0.001534,0.579845,-0.555301,0.556835,-0.595185,0.558369,-0.556835
0.2814,0.020087,0.000000,-1.706044,1.706044,0.0000,0.0000,0.0000,-0.002588,-1.736466,1.745670,0.8115,0.9135,-0.3502,0.001534,0.579845,-0.555301,0.556835,-0.595185,0.558369,-0.558369
0.3014,0.020086,0.000000,-1.703239,1.703239,0.0000,0.0000,0.0000,-0.002589,-1.736466,1.744136,0.8161,0.9152,-0.3452,0.001534,0.579845,-0.555301,0.556835,-0.595185,0.558369,-0.558369
0.3215,0.020092,0.000000,-1.700434,1.700434,0.0000,0.0000,0.0000,-0.002576,-1.736466,1.742602,0.7666,0.8972,-0.3994,0.001534,0.579845,-0.555301,0.556835,-0.595185,0.558369,-0.559903
0.3416,0.020088,0.000000,-1.697629,1.697629,0.0000,0.0000,0.0000,-0.002577,-1.736466,1.742602,0.7718,0.8991,-0.3937,0.001534,0.579845,-0.555301,0.556835,-0.595185,0.558369,-0.559903
0.3617,0.020096,0.000000,-1.694823,1.694823,0.0000,0.0000,0.0000,-0.002577,-1.736466,1.741068,0.7718,0.8991,-0.3937,0.001534,0.579845,-0.555301,0.556835,-0.595185,0.558369,-0.559903
0.3818,0.020084,0.000000,-1.692019,1.692019,0.0000,0.0000,0.0000,-0.002577,-1.736466,1.741068,0.7718,0.8991,-0.3937,0.001534,0.579845,-0.555301,0.556835,-0.595185,0.558369,-0.559903
0.4019,0.020088,0.000000,-1.689214,1.689214,0.0000,0.0000,0.0000,-0.002577,-1.733398,1.741068,0.7718,0.8991,-0.3937,0.001534,0.579845,-0.555301,0.556835,-0.595185,0.558369,-0.559903
0.4220,0.020087,0.000000,-1.686409,1.686409,0.0000,0.0000,0.0000,-0.002577,-1.731864,1.741068,0.7718,0.8991,-0.3937,0.001534,0.579845,-0.555301,0.556835,-0.595185,0.558369,-0.559903
0.4421,0.020134,0.000000,-1.683598,1.683598,0.0000,0.0000,0.0000,-0.002577,-1.724194,1.741068,0.7718,0.8991,-0.3937,0.001534,0.579845,-0.555301,0.556835,-0.595185,0.558369,-0.559903
0.4622,0.020092,0.000000,-1.680793,1.680793,0.0000,0.0000,0.0000,-0.002577,-1.719592,1.739534,0.7718,0.8991,-0.3937,0.001534,0.579845,-0.555301,0.556835,-0.595185,0.558369,-0.559903
0.4823,0.020089,0.000000,-1.677988,1.677988,0.0000,0.0000,0.0000,-0.002577,-1.713457,1.738000,0.7718,0.8991,-0.3937,0.001534,0.579845,-0.555301,0.556835,-0.595185,0.558369,-0.559903
0.5024,0.020091,0.000000,-1.675183,1.675183,0.0000,0.0000,0.0000,-0.002577,-1.708855,1.731864,0.7718,0.8991,-0.3937,0.001534,0.579845,-0.555301,0.556835,-0.595185,0.558369,-0.559903
0.5225,0.020089,0.000000,-1.672378,1.672378,0.0000,0.0000,0.0000,-0.002577,-1.704253,1.721126,0.7718,0.8991,-0.3937,0.001534,0.579845,-0.555301,0.556835,-0.595185,0.558369,-0.559903
0.5426,0.020096,0.000000,-1.669572,1.669572,0.0000,0.0000,0.0000,-0.002577,-1.699651,1.707321,0.7718,0.8991,-0.3937,0.001534,0.579845,-0.555301,0.556835,-0.595185,0.558369,-0.559903
0.5627,0.020112,0.000000,-1.666764,1.666764,0.0000,0.0000,0.0000,-0.002577,-1.699651,1.707321,0.7718,0.8991,-0.3937,0.001534,0.579845,-0.555301,0.556835,-0.595185,0.558369,-0.559903
0.5828,0.020109,0.000000,-1.663956,1.663956,0.0000,0.0000,0.0000,-0.002577,-1.696583,1.691981,0.7718,0.8991,-0.3937,0.001534,0.579845,-0.555301,0.556835,-0.595185,0.558369,-0.559903
0.6029,0.020126,0.000000,-1.661146,1.661146,0.0000,0.0000,0.0000,-0.002577,-1.696583,1.691981,0.7718,0.8991,-0.3937,0.001534,0.579845,-0.555301,0.556835,-0.595185,0.558369,-0.559903
0.6230,0.020092,0.000000,-1.658340,1.658340,0.0000,0.0000,0.0000,-0.002577,-1.696583,1.690447,0.7718,0.8991,-0.3937,0.001534,0.579845,-0.555301,0.556835,-0.595185,0.558369,-0.559903
0.6431,0.020098,0.000000,-1.655534,1.655534,0.0000,0.0000,0.0000,-0.002577,-1.696583,1.690447,0.7718,0.8991,-0.3937,0.001534,0.579845,-0.555301,0.556835,-0.595185,0.558369,-0.559903
0.6632,0.020104,0.000000,-1.652727,1.652727,0.0000,0.0000,0.0000,-0.002577,-1.695049,1.690447,0.7718,0.8991,-0.3937,0.001534,0.579845,-0.555301,0.556835,-0.595185,0.558369,-0.559903
0.6833,0.020106,0.000000,-1.649920,1.649920,0.0000,0.0000,0.0000,-0.002577,-1.695049,1.690447,0.7718,0.8991,-0.3937,0.001534,0.579845,-0.555301,0.556835,-0.595185,0.558369,-0.559903
0.7034,0.020085,0.000000,-1.647116,1.647116,0.0000,0.0000,0.0000,-0.002577,-1.695049,1.688913,0.7718,0.8991,-0.3937,0.001534,0.579845,-0.555301,0.556835,-0.595185,0.558369,-0.559903
0.7235,0.020110,0.000000,-1.644308,1.644308,0.0000,0.0000,0.0000,-0.002577,-1.695049,1.688913,0.7718,0.8991,-0.3937,0.001534,0.579845,-0.555301,0.556835,-0.595185,0.558369,-0.559903
0.7446,0.021066,0.000000,-1.641366,1.641366,0.0000,0.0000,0.0000,-0.002577,-1.691981,1.688913,0.7718,0.8991,-0.3937,0.001534,0.579845,-0.555301,0.556835,-0.595185,0.558369,-0.559903
0.7648,0.020199,0.000000,-1.638546,1.638546,0.0000,0.0000,0.0000,-0.002577,-1.682777,1.688913,0.7718,0.8991,-0.3937,0.001534,0.579845,-0.555301,0.556835,-0.595185,0.558369,-0.559903
0.7849,0.020096,0.000000,-1.635740,1.635740,0.0000,0.0000,0.0000,-0.002577,-1.672039,1.687379,0.7718,0.8991,-0.3937,0.001534,0.579845,-0.555301,0.556835,-0.595185,0.558369,-0.559903
0.8050,0.020103,0.000000,-1.632933,1.632933,0.0000,0.0000,0.0000,-0.002577,-1.664369,1.685845,0.7718,0.8991,-0.3937,0.001534,0.579845,-0.555301,0.556835,-0.595185,0.558369,-0.559903
0.8251,0.020095,0.000000,-1.630127,1.630127,0.0000,0.0000,0.0000,-0.002577,-1.662835,1.684311,0.7718,0.8991,-0.3937,0.001534,0.579845,-0.555301,0.556835,-0.595185,0.558369,-0.559903
0.8451,0.020066,0.000000,-1.627326,1.627326,0.0000,0.0000,0.0000,-0.002577,-1.656699,1.673573,0.7718,0.8991,-0.3937,0.001534,0.579845,-0.555301,0.556835,-0.595185,0.558369,-0.559903
0.8652,0.020103,0.000000,-1.624519,1.624519,0.0000,0.0000,0.0000,-0.002577,-1.653631,1.664369,0.7718,0.8991,-0.3937,0.001534,0.579845,-0.555301,0.556835,-0.595185,0.558369,-0.559903
0.8853,0.020102,0.000000,-1.621712,1.621712,0.0000,0.0000,0.0000,-0.002577,-1.652097,1.658233,0.7718,0.8991,-0.3937,0.001534,0.579845,-0.555301,0.556835,-0.595185,0.558369,-0.559903
0.9062,0.020898,0.000000,-1.618794,1.618794,0.0000,0.0000,0.0000,-0.002577,-1.652097,1.656699,0.7718,0.8991,-0.3937,0.001534,0.579845,-0.555301,0.556835,-0.595185,0.558369,-0.559903
0.9264,0.020110,0.000000,-1.615986,1.615986,0.0000,0.0000,0.0000,-0.002577,-1.652097,1.655165,0.7718,0.8991,-0.3937,0.001534,0.579845,-0.555301,0.556835,-0.595185,0.558369,-0.559903
0.9464,0.020098,0.000000,-1.613180,1.613180,0.0000,0.0000,0.0000,-0.002577,-1.652097,1.652097,0.7718,0.8991,-0.3937,0.001534,0.579845,-0.555301,0.556835,-0.595185,0.558369,-0.559903
0.9665,0.020096,0.000000,-1.610374,1.610374,0.0000,0.0000,0.0000,-0.002577,-1.650563,1.649029,0.7718,0.8991,-0.3937,0.001534,0.579845,-0.555301,0.556835,-0.595185,0.558369,-0.559903
0.9866,0.020099,0.000000,-1.607568,1.607568,0.0000,0.0000,0.0000,-0.002577,-1.647495,1.645961,0.7718,0.8991,-0.3937,0.001534,0.579845,-0.555301,0.556835,-0.595185,0.558369,-0.559903
1.0068,0.020114,0.000000,-1.604759,1.604759,0.0000,0.0000,0.0000,-0.002577,-1.641359,1.645961,0.7718,0.8991,-0.3937,0.001534,0.579845,-0.555301,0.556835,-0.595185,0.558369,-0.559903
1.0269,0.020108,0.000000,-1.601952,1.601952,0.0000,0.0000,0.0000,-0.002577,-1.641359,1.645961,0.7718,0.8991,-0.3937,0.001534,0.579845,-0.555301,0.556835,-0.595185,0.558369,-0.559903
1.0470,0.020099,0.000000,-1.599145,1.599145,0.0000,0.0000,0.0000,-0.002577,-1.638291,1.645961,0.7718,0.8991,-0.3937,0.001534,0.579845,-0.555301,0.556835,-0.595185,0.558369,-0.559903
1.0671,0.020093,0.000000,-1.596340,1.596340,0.0000,0.0000,0.0000,-0.002577,-1.638291,1.642893,0.7718,0.8991,-0.3937,0.001534,0.579845,-0.555301,0.556835,-0.595185,0.558369,-0.559903
1.0872,0.020102,0.000000,-1.593533,1.593533,0.0000,0.0000,0.0000,-0.002577,-1.638291,1.636758,0.7718,0.8991,-0.3937,0.001534,0.579845,-0.555301,0.556835,-0.595185,0.558369,-0.559903
1.1073,0.020104,0.000000,-1.590726,1.590726,0.0000,0.0000,0.0000,-0.002577,-1.638291,1.632156,0.7718,0.8991,-0.3937,0.001534,0.579845,-0.555301,0.556835,-0.595185,0.558369,-0.559903
1.1274,0.020096,0.000000,-1.587920,1.587920,0.0000,0.0000,0.0000,-0.002577,-1.638291,1.627554,0.7718,0.8991,-0.3937,0.001534,0.579845,-0.555301,0.556835,-0.595185,0.558369,-0.559903
1.1475,0.020104,0.000000,-1.585113,1.585113,0.0000,0.0000,0.0000,-0.002577,-1.632156,1.624486,0.7718,0.8991,-0.3937,0.001534,0.579845,-0.555301,0.556835,-0.595185,0.558369,-0.559903
1.1676,0.020099,0.000000,-1.582306,1.582306,0.0000,0.0000,0.0000,-0.002577,-1.624486,1.619884,0.7718,0.8991,-0.3937,0.001534,0.579845,-0.555301,0.556835,-0.595185,0.558369,-0.559903
1.1877,0.020098,0.000000,-1.579500,1.579500,0.0000,0.0000,0.0000,-0.002577,-1.615282,1.616816,0.7718,0.8991,-0.3937,0.001534,0.579845,-0.555301,0.556835,-0.595185,0.558369,-0.559903
1.2081,0.020400,0.000000,-1.576652,1.576652,0.0000,0.0000,0.0000,-0.002577,-1.612214,1.613748,0.7718,0.8991,-0.3937,0.001534,0.579845,-0.555301,0.556835,-0.595185,0.558369,-0.559903
1.2282,0.020112,0.000000,-1.573844,1.573844,0.0000,0.0000,0.0000,-0.002577,-1.612214,1.610680,0.7718,0.8991,-0.3937,0.001534,0.579845,-0.555301,0.556835,-0.595185,0.558369,-0.559903
1.2485,0.020353,0.000000,-1.571002,1.571002,0.0000,0.0000,0.0000,-0.002577,-1.612214,1.610680,0.7718,0.8991,-0.3937,0.001534,0.579845,-0.555301,0.556835,-0.595185,0.558369,-0.559903
1.2687,0.020207,0.000000,-1.568181,1.568181,0.0000,0.0000,0.0000,-0.002577,-1.612214,1.606078,0.7718,0.8991,-0.3937,0.001534,0.579845,-0.555301,0.556835,-0.595185,0.558369,-0.559903
1.2888,0.020096,0.000000,-1.565375,1.565375,0.0000,0.0000,0.0000,-0.002577,-1.612214,1.607612,0.7718,0.8991,-0.3937,0.001534,0.579845,-0.555301,0.556835,-0.595185,0.558369,-0.559903
1.3089,0.020110,0.000000,-1.562567,1.562567,0.0000,0.0000,0.0000,-0.002577,-1.612214,1.606078,0.7718,0.8991,-0.3937,0.001534,0.579845,-0.555301,0.556835,-0.595185,0.558369,-0.559903
1.3290,0.020095,0.000000,-1.559761,1.559761,0.0000,0.0000,0.0000,-0.002577,-1.612214,1.606078,0.7718,0.8991,-0.3937,0.001534,0.579845,-0.555301,0.556835,-0.595185,0.558369,-0.559903
1.3491,0.020096,0.000000,-1.556955,1.556955,0.0000,0.0000,0.0000,-0.002577,-1.610680,1.607612,0.7718,0.8991,-0.3937,0.001534,0.579845,-0.555301,0.556835,-0.595185,0.558369,-0.559903
1.3693,0.020131,0.000000,-1.554144,1.554144,0.0000,0.0000,0.0000,-0.002577,-1.607612,1.606078,0.7718,0.8991,-0.3937,0.001534,0.579845,-0.555301,0.556835,-0.595185,0.558369,-0.559903
1.3894,0.020108,0.000000,-1.551337,1.551337,0.0000,0.0000,0.0000,-0.002577,-1.598408,1.607612,0.7718,0.8991,-0.3937,0.001534,0.579845,-0.555301,0.556835,-0.595185,0.558369,-0.559903
1.4096,0.020251,0.000000,-1.548509,1.548509,0.0000,0.0000,0.0000,-0.002577,-1.589204,1.606078,0.7718,0.8991,-0.3937,0.001534,0.579845,-0.555301,0.556835,-0.595185,0.558369,-0.559903
1.4297,0.020103,0.000000,-1.545702,1.545702,0.0000,0.0000,0.0000,-0.002577,-1.589204,1.606078,0.7718,0.8991,-0.3937,0.001534,0.579845,-0.555301,0.556835,-0.595185,0.558369,-0.559903
1.4498,0.020098,0.000000,-1.542896,1.542896,0.0000,0.0000,0.0000,-0.002577,-1.575398,1.601476,0.7718,0.8991,-0.3937,0.000000,0.579845,-0.555301,0.556835,-0.595185,0.558369,-0.559903
1.4702,0.020338,0.000000,-1.540056,1.540056,0.0000,0.0000,0.0000,-0.002577,-1.575398,1.601476,0.7718,0.8991,-0.4816,0.000000,0.579845,-0.555301,0.556835,-0.595185,0.558369,-0.559903
1.4903,0.020103,0.000000,-1.537249,1.537249,0.0000,0.0000,0.0000,-0.002577,-1.572330,1.583068,0.7718,0.8991,-0.3937,0.001534,0.579845,-0.555301,0.556835,-0.595185,0.558369,-0.559903
1.5105,0.020220,0.000000,-1.534426,1.534426,0.0000,0.0000,0.0000,-0.002577,-1.572330,1.578466,0.7718,0.8991,-0.3937,0.001534,0.579845,-0.555301,0.556835,-0.595185,0.558369,-0.559903
1.5306,0.020142,0.000000,-1.531613,1.531613,0.0000,0.0000,0.0000,-0.002577,-1.572330,1.575398,0.7718,0.8991,-0.3937,0.001534,0.579845,-0.555301,0.556835,-0.595185,0.558369,-0.559903
1.5507,0.020102,0.000000,-1.528807,1.528807,0.0000,0.0000,0.0000,-0.002577,-1.570796,1.572330,0.7718,0.8991,-0.3937,0.001534,0.579845,-0.555301,0.556835,-0.595185,0.558369,-0.559903
1.5708,0.020096,0.000000,-1.526001,1.526001,0.0000,0.0000,0.0000,-0.002577,-1.570796,1.567728,0.7718,0.8991,-0.3937,0.001534,0.579845,-0.555301,0.556835,-0.595185,0.558369,-0.559903
1.5909,0.020089,0.000000,-1.523196,1.523196,0.0000,0.0000,0.0000,-0.002577,-1.570796,1.567728,0.7718,0.8991,-0.3937,0.001534,0.579845,-0.555301,0.556835,-0.595185,0.558369,-0.559903
1.6110,0.020094,0.000000,-1.520390,1.520390,0.0000,0.0000,0.0000,-0.002577,-1.560058,1.560058,0.7718,0.8991,-0.3937,0.001534,0.579845,-0.555301,0.556835,-0.595185,0.558369,-0.559903
1.6311,0.020101,0.000000,-1.517584,1.517584,0.0000,0.0000,0.0000,-0.002577,-1.556990,1.556990,0.7718,0.8991,-0.3937,0.001534,0.579845,-0.555301,0.556835,-0.595185,0.558369,-0.559903
1.6512,0.020094,0.000000,-1.514778,1.514778,0.0000,0.0000,0.0000,-0.002577,-1.553923,1.553923,0.7718,0.8991,-0.3937,0.001534,0.579845,-0.555301,0.556835,-0.595185,0.558369,-0.559903
1.6713,0.020088,0.000000,-1.511973,1.511973,0.0000,0.0000,0.0000,-0.002577,-1.546253,1.552389,0.7718,0.8991,-0.3937,0.001534,0.579845,-0.555301,0.556835,-0.595185,0.558369,-0.559903
1.6914,0.020084,0.000000,-1.509169,1.509169,0.0000,0.0000,0.0000,-0.002577,-1.543185,1.552389,0.7718,0.8991,-0.3937,0.001534,0.579845,-0.555301,0.556835,-0.595185,0.558369,-0.559903
1.7115,0.020087,0.000000,-1.506364,1.506364,0.0000,0.0000,0.0000,-0.002577,-1.537049,1.552389,0.7718,0.8991,-0.3937,0.001534,0.579845,-0.555301,0.556835,-0.595185,0.558369,-0.559903
1.7316,0.020151,0.000000,-1.503551,1.503551,0.0000,0.0000,0.0000,-0.002577,-1.535515,1.552389,0.7718,0.8991,-0.3937,0.001534,0.579845,-0.555301,0.556835,-0.595185,0.558369,-0.559903
1.7517,0.020093,0.000000,-1.500745,1.500745,0.0000,0.0000,0.0000,-0.002577,-1.533981,1.552389,0.7718,0.8991,-0.3937,0.001534,0.579845,-0.555301,0.556835,-0.595185,0.558369,-0.559903
1.7718,0.020090,0.000000,-1.497940,1.497940,0.0000,0.0000,0.0000,-0.002577,-1.532447,1.552389,0.7718,0.8991,-0.3937,0.001534,0.579845,-0.555301,0.556835,-0.595185,0.558369,-0.559903
1.7919,0.020099,0.000000,-1.495133,1.495133,0.0000,0.0000,0.0000,-0.002577,-1.532447,1.552389,0.7718,0.8991,-0.3937,0.001534,0.579845,-0.555301,0.556835,-0.595185,0.558369,-0.559903
1.8120,0.020084,0.000000,-1.492329,1.492329,0.0000,0.0000,0.0000,-0.002577,-1.532447,1.550855,0.7718,0.8991,-0.3937,0.001534,0.579845,-0.555301,0.556835,-0.595185,0.558369,-0.559903
1.8321,0.020100,0.000000,-1.489523,1.489523,0.0000,0.0000,0.0000,-0.002577,-1.532447,1.543185,0.7718,0.8991,-0.3937,0.001534,0.579845,-0.555301,0.556835,-0.595185,0.558369,-0.559903
1.8522,0.020095,0.000000,-1.486717,1.486717,0.0000,0.0000,0.0000,-0.002577,-1.532447,1.533981,0.7718,0.8991,-0.3937,0.001534,0.579845,-0.555301,0.556835,-0.595185,0.558369,-0.559903
1.8723,0.020095,0.000000,-1.483911,1.483911,0.0000,0.0000,0.0000,-0.002577,-1.532447,1.521709,0.7718,0.8991,-0.3937,0.001534,0.579845,-0.555301,0.556835,-0.595185,0.558369,-0.559903
1.8924,0.020082,0.000000,-1.481107,1.481107,0.0000,0.0000,0.0000,-0.002577,-1.527845,1.515573,0.7718,0.8991,-0.3937,0.001534,0.579845,-0.555301,0.556835,-0.595185,0.558369,-0.559903
1.9124,0.020083,0.000000,-1.478303,1.478303,0.0000,0.0000,0.0000,-0.002577,-1.518641,1.510971,0.7718,0.8991,-0.3937,0.001534,0.579845,-0.555301,0.556835,-0.595185,0.558369,-0.559903
1.9325,0.020093,0.000000,-1.475498,1.475498,0.0000,0.0000,0.0000,-0.002577,-1.509437,1.507903,0.7718,0.8991,-0.3937,0.001534,0.579845,-0.555301,0.556835,-0.595185,0.558369,-0.559903
1.9526,0.020086,0.000000,-1.472693,1.472693,0.0000,0.0000,0.0000,-0.002577,-1.504835,1.504835,0.7718,0.8991,-0.3937,0.001534,0.579845,-0.555301,0.556835,-0.595185,0.558369,-0.559903
1.9727,0.020079,0.000000,-1.469889,1.469889,0.0000,0.0000,0.0000,-0.002577,-1.504835,1.503301,0.7718,0.8991,-0.3937,0.001534,0.579845,-0.555301,0.556835,-0.595185,0.558369,-0.559903
1.9928,0.020089,0.000000,-1.467084,1.467084,0.0000,0.0000,0.0000,-0.002577,-1.504835,1.503301,0.7718,0.8991,-0.3937,0.001534,0.579845,-0.555301,0.556835,-0.595185,0.558369,-0.559903
2.0129,0.020082,0.000000,-1.464280,1.464280,0.0000,0.0000,0.0000,-0.002577,-1.504835,1.501767,0.7718,0.8991,-0.3937,0.001534,0.579845,-0.555301,0.556835,-0.595185,0.558369,-0.559903
2.0330,0.020089,0.000000,-1.461475,1.461475,0.0000,0.0000,0.0000,-0.002577,-1.503301,1.501767,0.7718,0.8991,-0.3937,0.001534,0.579845,-0.555301,0.556835,-0.595185,0.558369,-0.559903
2.0530,0.020092,0.000000,-1.458670,1.458670,0.0000,0.0000,0.0000,-0.002577,-1.498699,1.500233,0.7718,0.8991,-0.3937,0.001534,0.579845,-0.555301,0.556835,-0.595185,0.558369,-0.559903
2.0731,0.020076,0.000000,-1.455867,1.455867,0.0000,0.0000,0.0000,-0.002577,-1.491029,1.500233,0.7718,0.8991,-0.3937,0.001534,0.579845,-0.555301,0.556835,-0.595185,0.558369,-0.559903
2.0932,0.020090,0.000000,-1.453062,1.453062,0.0000,0.0000,0.0000,-0.002577,-1.484893,1.500233,0.7718,0.8991,-0.3937,0.001534,0.579845,-0.555301,0.556835,-0.595185,0.558369,-0.559903
2.1133,0.020079,0.000000,-1.450258,1.450258,0.0000,0.0000,0.0000,-0.002577,-1.480291,1.500233,0.7718,0.8991,-0.3937,0.001534,0.579845,-0.555301,0.556835,-0.595185,0.558369,-0.559903
2.1334,0.020087,0.000000,-1.447454,1.447454,0.0000,0.0000,0.0000,-0.002577,-1.480291,1.498699,0.7718,0.8991,-0.3937,0.001534,0.579845,-0.555301,0.556835,-0.595185,0.558369,-0.559903
2.1535,0.020083,0.000000,-1.444649,1.444649,0.0000,0.0000,0.0000,-0.002577,-1.480291,1.498699,0.7718,0.8991,-0.3937,0.001534,0.579845,-0.555301,0.556835,-0.595185,0.558369,-0.559903
2.1735,0.020082,0.000000,-1.441846,1.441846,0.0000,0.0000,0.0000,-0.002577,-1.480291,1.498699,0.7718,0.8991,-0.3937,0.001534,0.579845,-0.555301,0.556835,-0.595185,0.558369,-0.559903
2.1936,0.020093,0.000000,-1.439040,1.439040,0.0000,0.0000,0.0000,-0.002590,-1.478757,1.498699,0.8117,0.9326,-0.4469,0.001534,0.579845,-0.555301,0.556835,-0.595185,0.556835,-0.559903
2.2137,0.020081,0.000000,-1.436236,1.436236,0.0000,0.0000,0.0000,-0.002576,-1.478757,1.494097,0.7670,0.8954,-0.3888,0.001534,0.579845,-0.555301,0.556835,-0.595185,0.558369,-0.559903
2.2338,0.020089,0.000000,-1.433431,1.433431,0.0000,0.0000,0.0000,-0.002577,-1.478757,1.483359,0.7717,0.8993,-0.3948,0.001534,0.579845,-0.555301,0.556835,-0.595185,0.558369,-0.559903
2.2539,0.020081,0.000000,-1.430627,1.430627,0.0000,0.0000,0.0000,-0.002577,-1.478757,1.471088,0.7717,0.8993,-0.3948,0.001534,0.579845,-0.555301,0.556835,-0.595185,0.558369,-0.559903
2.2740,0.020078,0.000000,-1.427824,1.427824,0.0000,0.0000,0.0000,-0.002577,-1.478757,1.460350,0.7717,0.8993,-0.3948,0.001534,0.579845,-0.555301,0.556835,-0.595185,0.558369,-0.559903
2.2941,0.020091,0.000000,-1.425019,1.425019,0.0000,0.0000,0.0000,-0.002577,-1.474156,1.452680,0.7717,0.8993,-0.3948,0.001534,0.579845,-0.555301,0.556835,-0.595185,0.558369,-0.559903
2.3141,0.020080,0.000000,-1.422215,1.422215,0.0000,0.0000,0.0000,-0.002577,-1.464952,1.449612,0.7717,0.8993,-0.3948,0.001534,0.579845,-0.555301,0.556835,-0.595185,0.558369,-0.559903
2.3342,0.020085,0.000000,-1.419411,1.419411,0.0000,0.0000,0.0000,-0.002577,-1.454214,1.448078,0.7717,0.8993,-0.4827,0.000000,0.579845,-0.555301,0.556835,-0.595185,0.558369,-0.559903
2.3543,0.020085,0.000000,-1.416606,1.416606,0.0000,0.0000,0.0000,-0.002577,-1.448078,1.448078,0.7717,0.8993,-0.3948,0.001534,0.579845,-0.555301,0.556835,-0.595185,0.558369,-0.559903
2.3744,0.020081,0.000000,-1.413802,1.413802,0.0000,0.0000,0.0000,-0.002577,-1.441942,1.448078,0.7717,0.8993,-0.3948,0.001534,0.579845,-0.555301,0.556835,-0.595185,0.558369,-0.559903
2.3945,0.020091,0.000000,-1.410997,1.410997,0.0000,0.0000,0.0000,-0.002577,-1.438874,1.448078,0.7717,0.8993,-0.3948,0.001534,0.579845,-0.555301,0.556835,-0.595185,0.558369,-0.559903
2.4146,0.020080,0.000000,-1.408193,1.408193,0.0000,0.0000,0.0000,-0.002590,-1.438874,1.448078,0.8117,0.9326,-0.4467,0.001534,0.579845,-0.555301,0.556835,-0.595185,0.556835,-0.559903
2.4347,0.020093,0.000000,-1.405388,1.405388,0.0000,0.0000,0.0000,-0.002576,-1.438874,1.448078,0.7670,0.8954,-0.3888,0.001534,0.579845,-0.555301,0.556835,-0.595185,0.558369,-0.559903
2.4547,0.020080,0.000000,-1.402584,1.402584,0.0000,0.0000,0.0000,-0.002577,-1.438874,1.446544,0.7717,0.8993,-0.3948,0.001534,0.579845,-0.555301,0.556835,-0.595185,0.558369,-0.559903
2.4748,0.020079,0.000000,-1.399781,1.399781,0.0000,0.0000,0.0000,-0.002577,-1.438874,1.445010,0.7717,0.8993,-0.3948,0.001534,0.579845,-0.555301,0.556835,-0.595185,0.558369,-0.559903
2.4949,0.020089,0.000000,-1.396976,1.396976,0.0000,0.0000,0.0000,-0.002590,-1.438874,1.443476,0.8117,0.9326,-0.4467,0.001534,0.579845,-0.555301,0.556835,-0.595185,0.556835,-0.559903
2.5150,0.020079,0.000000,-1.398355,1.398355,0.0000,0.0000,0.0000,-0.002576,-1.438874,1.441942,0.7670,0.8954,-0.3888,0.001534,0.579845,-0.555301,0.556835,-0.595185,0.558369,-0.559903
2.5351,0.020094,0.000000,-1.401160,1.401160,0.0000,0.0000,0.0000,-0.002577,-1.438874,1.437340,0.7717,0.8993,-0.3948,0.001534,0.579845,-0.555301,0.556835,-0.595185,0.558369,-0.559903
2.5552,0.020080,0.000000,-1.403964,1.403964,0.0000,0.0000,0.0000,-0.002577,-1.437340,1.431204,0.7717,0.8993,-0.3948,0.001534,0.579845,-0.555301,0.556835,-0.595185,0.558369,-0.559903
2.5752,0.020080,0.000000,-1.406768,1.406768,0.0000,0.0000,0.0000,-0.002577,-1.434272,1.423534,0.7717,0.8993,-0.3948,0.001534,0.579845,-0.555301,0.556835,-0.595185,0.558369,-0.559903
2.5953,0.020084,0.000000,-1.409572,1.409572,0.0000,0.0000,0.0000,-0.002577,-1.428136,1.422000,0.7717,0.8993,-0.3948,0.001534,0.579845,-0.555301,0.556835,-0.595185,0.558369,-0.559903
2.6154,0.020081,0.000000,-1.412376,1.412376,0.0000,0.0000,0.0000,-0.002577,-1.426602,1.422000,0.7717,0.8993,-0.3948,0.001534,0.579845,-0.555301,0.556835,-0.595185,0.558369,-0.559903
2.6355,0.020089,0.000000,-1.415181,1.415181,0.0000,0.0000,0.0000,-0.002577,-1.426602,1.422000,0.7717,0.8993,-0.3948,0.001534,0.579845,-0.555301,0.556835,-0.595185,0.558369,-0.559903
2.6556,0.020081,0.000000,-1.417985,1.417985,0.0000,0.0000,0.0000,-0.002577,-1.426602,1.422000,0.7717,0.8993,-0.3948,0.001534,0.579845,-0.555301,0.556835,-0.595185,0.558369,-0.559903
2.6756,0.020082,0.000000,-1.420789,1.420789,0.0000,0.0000,0.0000,-0.002577,-1.426602,1.422000,0.7717,0.8993,-0.3948,0.001534,0.579845,-0.555301,0.556835,-0.595185,0.558369,-0.559903
2.6957,0.020084,0.000000,-1.423593,1.423593,0.0000,0.0000,0.0000,-0.002577,-1.426602,1.422000,0.7717,0.8993,-0.3948,0.001534,0.579845,-0.555301,0.556835,-0.595185,0.558369,-0.559903
2.7158,0.020084,0.000000,-1.426397,1.426397,0.0000,0.0000,0.0000,-0.002577,-1.426602,1.422000,0.7717,0.8993,-0.3948,0.001534,0.579845,-0.555301,0.556835,-0.595185,0.558369,-0.559903
2.7359,0.020084,0.000000,-1.429201,1.429201,0.0000,0.0000,0.0000,-0.002577,-1.426602,1.422000,0.7717,0.8993,-0.3948,0.001534,0.579845,-0.555301,0.556835,-0.595185,0.558369,-0.559903
2.7560,0.020077,0.000000,-1.432005,1.432005,0.0000,0.0000,0.0000,-0.002577,-1.426602,1.422000,0.7717,0.8993,-0.3948,0.001534,0.579845,-0.555301,0.556835,-0.595185,0.558369,-0.559903
2.7761,0.020077,0.000000,-1.434808,1.434808,0.0000,0.0000,0.0000,-0.002577,-1.428136,1.426602,0.7717,0.8993,-0.3948,0.001534,0.579845,-0.555301,0.556835,-0.595185,0.558369,-0.559903
2.7961,0.020079,0.000000,-1.437611,1.437611,0.0000,0.0000,0.0000,-0.002577,-1.432738,1.426602,0.7717,0.8993,-0.3948,0.001534,0.579845,-0.555301,0.556835,-0.595185,0.558369,-0.559903
2.8162,0.020077,0.000000,-1.440415,1.440415,0.0000,0.0000,0.0000,-0.002577,-1.434272,1.429670,0.7717,0.8993,-0.3948,0.001534,0.579845,-0.555301,0.556835,-0.595185,0.558369,-0.559903
2.8363,0.020082,0.000000,-1.443219,1.443219,0.0000,0.0000,0.0000,-0.002590,-1.437340,1.435806,0.8117,0.9326,-0.4467,0.001534,0.579845,-0.555301,0.556835,-0.595185,0.556835,-0.559903
2.8564,0.020075,0.000000,-1.446022,1.446022,0.0000,0.0000,0.0000,-0.002576,-1.441942,1.437340,0.7670,0.8954,-0.3888,0.001534,0.579845,-0.555301,0.556835,-0.595185,0.558369,-0.559903
2.8765,0.020085,0.000000,-1.448826,1.448826,0.0000,0.0000,0.0000,-0.002577,-1.441942,1.440408,0.7717,0.8993,-0.3948,0.001534,0.579845,-0.555301,0.556835,-0.595185,0.558369,-0.559903
2.8965,0.020085,0.000000,-1.451631,1.451631,0.0000,0.0000,0.0000,-0.002577,-1.445010,1.445010,0.7717,0.8993,-0.3948,0.001534,0.579845,-0.555301,0.556835,-0.595185,0.558369,-0.559903
2.9166,0.020076,0.000000,-1.454434,1.454434,0.0000,0.0000,0.0000,-0.002577,-1.446544,1.445010,0.7717,0.8993,-0.3948,0.001534,0.579845,-0.555301,0.556835,-0.595185,0.558369,-0.559903
2.9367,0.020074,0.000000,-1.457237,1.457237,0.0000,0.0000,0.0000,-0.002577,-1.452680,1.448078,0.7717,0.8993,-0.3948,0.001534,0.579845,-0.555301,0.556835,-0.595185,0.558369,-0.559903
2.9568,0.020074,0.000000,-1.460040,1.460040,0.0000,0.0000,0.0000,-0.002577,-1.455748,1.452680,0.7717,0.8993,-0.3948,0.001534,0.579845,-0.555301,0.556835,-0.595185,0.558369,-0.559903
2.9768,0.020074,0.000000,-1.462842,1.462842,0.0000,0.0000,0.0000,-0.002577,-1.455748,1.452680,0.7717,0.8993,-0.3948,0.001534,0.579845,-0.555301,0.556835,-0.595185,0.558369,-0.559903
2.9969,0.020073,0.000000,-1.465645,1.465645,0.0000,0.0000,0.0000,-0.002577,-1.458816,1.455748,0.7717,0.8993,-0.3948,0.001534,0.579845,-0.555301,0.556835,-0.595185,0.558369,-0.559903
3.0170,0.020081,0.000000,-1.468449,1.468449,0.0000,0.0000,0.0000,-0.002577,-1.463418,1.460350,0.7717,0.8993,-0.3948,0.001534,0.579845,-0.555301,0.556835,-0.595185,0.558369,-0.559903
3.0371,0.020077,0.000000,-1.471252,1.471252,0.0000,0.0000,0.0000,-0.002577,-1.464952,1.461884,0.7717,0.8993,-0.3948,0.001534,0.579845,-0.555301,0.556835,-0.595185,0.558369,-0.559903
3.0571,0.020079,0.000000,-1.474056,1.474056,0.0000,0.0000,0.0000,-0.002577,-1.468020,1.464952,0.7717,0.8993,-0.3948,0.001534,0.579845,-0.555301,0.556835,-0.595185,0.558369,-0.559903
3.0772,0.020076,0.000000,-1.476859,1.476859,0.0000,0.0000,0.0000,-0.002577,-1.469554,1.469554,0.7717,0.8993,-0.3948,0.001534,0.579845,-0.555301,0.556835,-0.595185,0.558369,-0.559903
3.0973,0.020080,0.000000,-1.479663,1.479663,0.0000,0.0000,0.0000,-0.002577,-1.472622,1.472622,0.7717,0.8993,-0.3948,0.001534,0.579845,-0.555301,0.556835,-0.595185,0.558369,-0.559903
3.1174,0.020081,0.000000,-1.482467,1.482467,0.0000,0.0000,0.0000,-0.002577,-1.474156,1.472622,0.7717,0.8993,-0.3948,0.001534,0.579845,-0.555301,0.556835,-0.595185,0.558369,-0.559903
3.1375,0.020078,0.000000,-1.485270,1.485270,0.0000,0.0000,0.0000,-0.002577,-1.478757,1.475690,0.7717,0.8993,-0.3948,0.001534,0.579845,-0.555301,0.556835,-0.595185,0.558369,-0.559903
3.1575,0.020075,0.000000,-1.488073,1.488073,0.0000,0.0000,0.0000,-0.002577,-1.481825,1.478757,0.7717,0.8993,-0.3948,0.001534,0.579845,-0.555301,0.556835,-0.595185,0.558369,-0.559903
3.1776,0.020077,0.000000,-1.490876,1.490876,0.0000,0.0000,0.0000,-0.002577,-1.486427,1.481825,0.7717,0.8993,-0.3948,0.001534,0.579845,-0.555301,0.556835,-0.595185,0.558369,-0.559903
3.1978,0.020148,0.000000,-1.493690,1.493690,0.0000,0.0000,0.0000,-0.002577,-1.486427,1.483359,0.7717,0.8993,-0.3948,0.001534,0.579845,-0.555301,0.556835,-0.595185,0.558369,-0.559903
3.2179,0.020110,0.000000,-1.496498,1.496498,0.0000,0.0000,0.0000,-0.002577,-1.491029,1.487961,0.7717,0.8993,-0.3948,0.001534,0.579845,-0.555301,0.556835,-0.595185,0.558369,-0.559903
3.2380,0.020109,0.000000,-1.499305,1.499305,0.0000,0.0000,0.0000,-0.002577,-1.495631,1.489495,0.7717,0.8993,-0.3948,0.001534,0.579845,-0.555301,0.556835,-0.595185,0.558369,-0.559903
3.2581,0.020095,0.000000,-1.502111,1.502111,0.0000,0.0000,0.0000,-0.002577,-1.495631,1.492563,0.7717,0.8993,-0.3948,0.001534,0.579845,-0.555301,0.556835,-0.595185,0.558369,-0.559903
3.2782,0.020089,0.000000,-1.504916,1.504916,0.0000,0.0000,0.0000,-0.002577,-1.497165,1.495631,0.7717,0.8993,-0.3948,0.001534,0.579845,-0.555301,0.556835,-0.595185,0.558369,-0.559903
3.2983,0.020109,0.000000,-1.507724,1.507724,0.0000,0.0000,0.0000,-0.002577,-1.500233,1.500233,0.7717,0.8993,-0.3948,0.001534,0.579845,-0.555301,0.556835,-0.595185,0.558369,-0.559903
3.3184,0.020084,0.000000,-1.510528,1.510528,0.0000,0.0000,0.0000,-0.002577,-1.503301,1.500233,0.7717,0.8993,-0.3948,0.001534,0.579845,-0.555301,0.556835,-0.595185,0.558369,-0.559903
3.3385,0.020091,0.000000,-1.513333,1.513333,0.0000,0.0000,0.0000,-0.002577,-1.506369,1.503301,0.7717,0.8993,-0.3948,0.001534,0.579845,-0.555301,0.556835,-0.595185,0.558369,-0.559903
3.3587,0.020207,0.000000,-1.516155,1.516155,0.0000,0.0000,0.0000,-0.002577,-1.510971,1.504835,0.7717,0.8993,-0.3948,0.001534,0.579845,-0.555301,0.556835,-0.595185,0.558369,-0.559903
3.3790,0.020301,0.000000,-1.518989,1.518989,0.0000,0.0000,0.0000,-0.002577,-1.510971,1.507903,0.7717,0.8993,-0.3948,0.001534,0.579845,-0.555301,0.556835,-0.595185,0.558369,-0.559903
3.3991,0.020106,0.000000,-1.521797,1.521797,0.0000,0.0000,0.0000,-0.002577,-1.514039,1.509437,0.7717,0.8993,-0.3948,0.001534,0.579845,-0.555301,0.556835,-0.595185,0.558369,-0.559903
3.4191,0.020082,0.000000,-1.524601,1.524601,0.0000,0.0000,0.0000,-0.002566,-1.520175,1.515573,0.8210,0.8832,-0.3402,0.001534,0.581379,-0.555301,0.556835,-0.595185,0.558369,-0.559903
3.4392,0.020091,0.000000,-1.527406,1.527406,0.0000,0.0000,0.0000,-0.002556,-1.520175,1.517107,0.8657,0.8692,-0.2919,0.001534,0.582913,-0.555301,0.556835,-0.595185,0.558369,-0.559903
3.4593,0.020094,0.000000,-1.530212,1.530212,0.0000,0.0000,0.0000,-0.002557,-1.523243,1.520175,0.8610,0.8707,-0.2969,0.001534,0.582913,-0.555301,0.556835,-0.595185,0.558369,-0.559903
3.4794,0.020081,0.000000,-1.533015,1.533015,0.0000,0.0000,0.0000,-0.002557,-1.526311,1.526311,0.8610,0.8707,-0.2969,0.001534,0.582913,-0.555301,0.556835,-0.595185,0.558369,-0.559903
3.4995,0.020108,0.000000,-1.535823,1.535823,0.0000,0.0000,0.0000,-0.002557,-1.532447,1.527845,0.8610,0.8707,-0.2969,0.001534,0.582913,-0.555301,0.556835,-0.595185,0.558369,-0.559903
3.5196,0.020082,0.000000,-1.538627,1.538627,0.0000,0.0000,0.0000,-0.002557,-1.537049,1.532447,0.8610,0.8707,-0.2969,0.001534,0.582913,-0.555301,0.556835,-0.595185,0.558369,-0.559903
3.5397,0.020129,0.000000,-1.541438,1.541438,0.0000,0.0000,0.0000,-0.002557,-1.538583,1.533981,0.8610,0.8707,-0.2969,0.001534,0.582913,-0.555301,0.556835,-0.595185,0.558369,-0.559903
3.5599,0.020155,0.000000,-1.544252,1.544252,0.0000,0.0000,0.0000,-0.002557,-1.541651,1.535515,0.8610,0.8707,-0.2969,0.001534,0.582913,-0.555301,0.556835,-0.595185,0.558369,-0.559903
3.5800,0.020083,0.000000,-1.547056,1.547056,0.0000,0.0000,0.0000,-0.002557,-1.544719,1.540117,0.8610,0.8707,-0.2969,0.001534,0.582913,-0.555301,0.556835,-0.595185,0.558369,-0.559903
3.6001,0.020104,0.000000,-1.549863,1.549863,0.0000,0.0000,0.0000,-0.002557,-1.544719,1.543185,0.8610,0.8707,-0.2969,0.001534,0.582913,-0.555301,0.556835,-0.595185,0.558369,-0.559903
3.6202,0.020097,0.000000,-1.552669,1.552669,0.0000,0.0000,0.0000,-0.002557,-1.546253,1.544719,0.8610,0.8707,-0.2969,0.001534,0.582913,-0.555301,0.556835,-0.595185,0.558369,-0.559903
3.6403,0.020123,0.000000,-1.555479,1.555479,0.0000,0.0000,0.0000,-0.002557,-1.553923,1.549321,0.8610,0.8707,-0.2969,0.001534,0.582913,-0.555301,0.556835,-0.595185,0.558369,-0.559903
3.6604,0.020086,0.000000,-1.558283,1.558283,0.0000,0.0000,0.0000,-0.002557,-1.553923,1.550855,0.8610,0.8707,-0.2969,0.001534,0.582913,-0.555301,0.556835,-0.595185,0.558369,-0.559903
3.6805,0.020075,0.000000,-1.561086,1.561086,0.0000,0.0000,0.0000,-0.002557,-1.553923,1.553923,0.8610,0.8707,-0.2969,0.001534,0.582913,-0.555301,0.556835,-0.595185,0.558369,-0.559903
3.7006,0.020101,0.000000,-1.563893,1.563893,0.0000,0.0000,0.0000,-0.002557,-1.563126,1.556990,0.8610,0.8707,-0.2969,0.001534,0.582913,-0.555301,0.556835,-0.595185,0.558369,-0.559903
3.7226,0.022063,0.000000,-1.566974,1.566974,0.0000,0.0000,0.0000,-0.002557,-1.563126,1.558524,0.8610,0.8707,-0.2969,0.001534,0.582913,-0.555301,0.556835,-0.595185,0.558369,-0.559903
3.7427,0.020082,0.000000,-1.569778,1.569778,0.0000,0.0000,0.0000,-0.002557,-1.566194,1.561592,0.8610,0.8707,-0.2969,0.001534,0.582913,-0.555301,0.556835,-0.595185,0.558369,-0.559903
3.7628,0.020114,0.000000,-1.572586,1.572586,0.0000,0.0000,0.0000,-0.002557,-1.570796,1.567728,0.8610,0.8707,-0.2969,0.001534,0.582913,-0.555301,0.556835,-0.595185,0.558369,-0.559903
3.7829,0.020080,0.000000,-1.575390,1.575390,0.0000,0.0000,0.0000,-0.002557,-1.572330,1.567728,0.8610,0.8707,-0.2969,0.001534,0.582913,-0.555301,0.556835,-0.595185,0.558369,-0.559903
3.8030,0.020094,0.000000,-1.578195,1.578195,0.0000,0.0000,0.0000,-0.002557,-1.572330,1.569262,0.8610,0.8707,-0.2969,0.001534,0.582913,-0.555301,0.556835,-0.595185,0.558369,-0.559903
3.8231,0.020082,0.000000,-1.580999,1.580999,0.0000,0.0000,0.0000,-0.002557,-1.573864,1.573864,0.8610,0.8707,-0.2969,0.001534,0.582913,-0.555301,0.556835,-0.595185,0.558369,-0.559903
3.8432,0.020085,0.000000,-1.583804,1.583804,0.0000,0.0000,0.0000,-0.002557,-1.576932,1.576932,0.8610,0.8707,-0.2969,0.001534,0.582913,-0.555301,0.556835,-0.595185,0.558369,-0.559903
3.8632,0.020083,0.000000,-1.586608,1.586608,0.0000,0.0000,0.0000,-0.002557,-1.578466,1.578466,0.8610,0.8707,-0.2969,0.001534,0.582913,-0.555301,0.556835,-0.595185,0.558369,-0.559903
3.8833,0.020088,0.000000,-1.589413,1.589413,0.0000,0.0000,0.0000,-0.002557,-1.583068,1.580000,0.8610,0.8707,-0.2969,0.001534,0.582913,-0.555301,0.556835,-0.595185,0.558369,-0.559903
3.9034,0.020082,0.000000,-1.592217,1.592217,0.0000,0.0000,0.0000,-0.002557,-1.587670,1.586136,0.8610,0.8707,-0.2969,0.001534,0.582913,-0.555301,0.556835,-0.595185,0.558369,-0.559903
3.9235,0.020082,0.000000,-1.595021,1.595021,0.0000,0.0000,0.0000,-0.002557,-1.589204,1.587670,0.8610,0.8707,-0.2969,0.001534,0.582913,-0.555301,0.556835,-0.595185,0.558369,-0.559903
3.9436,0.020081,0.000000,-1.597825,1.597825,0.0000,0.0000,0.0000,-0.002557,-1.590738,1.587670,0.8610,0.8707,-0.2969,0.001534,0.582913,-0.555301,0.556835,-0.595185,0.558369,-0.559903
3.9637,0.020084,0.000000,-1.600629,1.600629,0.0000,0.0000,0.0000,-0.002557,-1.593806,1.590738,0.8610,0.8707,-0.2969,0.001534,0.582913,-0.555301,0.556835,-0.595185,0.558369,-0.559903
3.9837,0.020088,0.000000,-1.603434,1.603434,0.0000,0.0000,0.0000,-0.002557,-1.595340,1.595340,0.8610,0.8707,-0.2969,0.001534,0.582913,-0.555301,0.556835,-0.595185,0.558369,-0.559903
4.0038,0.020081,0.000000,-1.606238,1.606238,0.0000,0.0000,0.0000,-0.002557,-1.599942,1.596874,0.8610,0.8707,-0.2969,0.001534,0.582913,-0.555301,0.556835,-0.595185,0.558369,-0.559903
4.0239,0.020083,0.000000,-1.609042,1.609042,0.0000,0.0000,0.0000,-0.002557,-1.603010,1.603010,0.8610,0.8707,-0.2969,0.001534,0.582913,-0.555301,0.556835,-0.595185,0.558369,-0.559903
4.0440,0.020078,0.000000,-1.611845,1.611845,0.0000,0.0000,0.0000,-0.002557,-1.604544,1.607612,0.8610,0.8707,-0.2969,0.001534,0.582913,-0.555301,0.556835,-0.595185,0.558369,-0.559903
4.0641,0.020149,0.000000,-1.614659,1.614659,0.0000,0.0000,0.0000,-0.002557,-1.607612,1.607612,0.8610,0.8707,-0.2969,0.001534,0.582913,-0.555301,0.556835,-0.595185,0.558369,-0.559903
4.0842,0.020078,0.000000,-1.617462,1.617462,0.0000,0.0000,0.0000,-0.002557,-1.609146,1.609146,0.8610,0.8707,-0.2969,0.001534,0.582913,-0.555301,0.556835,-0.595185,0.558369,-0.559903
4.1044,0.020149,0.000000,-1.620275,1.620275,0.0000,0.0000,0.0000,-0.002557,-1.615282,1.612214,0.8610,0.8707,-0.2969,0.001534,0.582913,-0.555301,0.556835,-0.595185,0.558369,-0.559903
4.1244,0.020081,0.000000,-1.623079,1.623079,0.0000,0.0000,0.0000,-0.002557,-1.618350,1.616816,0.8610,0.8707,-0.2969,0.001534,0.582913,-0.555301,0.556835,-0.595185,0.558369,-0.559903
4.1445,0.020076,0.000000,-1.625882,1.625882,0.0000,0.0000,0.0000,-0.002557,-1.619884,1.616816,0.8610,0.8707,-0.2969,0.001534,0.582913,-0.555301,0.556835,-0.595185,0.558369,-0.559903
4.1647,0.020157,0.000000,-1.628697,1.628697,0.0000,0.0000,0.0000,-0.002557,-1.622952,1.622952,0.8610,0.8707,-0.2969,0.001534,0.582913,-0.555301,0.556835,-0.595185,0.558369,-0.559903
4.1848,0.020075,0.000000,-1.631500,1.631500,0.0000,0.0000,0.0000,-0.002557,-1.627554,1.624486,0.8610,0.8707,-0.2969,0.001534,0.582913,-0.555301,0.556835,-0.595185,0.558369,-0.559903
4.2048,0.020084,0.000000,-1.634304,1.634304,0.0000,0.0000,0.0000,-0.002557,-1.627554,1.626020,0.8610,0.8707,-0.2969,0.001534,0.582913,-0.555301,0.556835,-0.595185,0.558369,-0.559903
4.2249,0.020084,0.000000,-1.637108,1.637108,0.0000,0.0000,0.0000,-0.002557,-1.627554,1.629088,0.8610,0.8707,-0.2969,0.001534,0.582913,-0.555301,0.556835,-0.595185,0.558369,-0.559903
4.2450,0.020082,0.000000,-1.639912,1.639912,0.0000,0.0000,0.0000,-0.002557,-1.632156,1.633690,0.8610,0.8707,-0.2969,0.001534,0.582913,-0.555301,0.556835,-0.595185,0.558369,-0.559903
4.2651,0.020137,0.000000,-1.642724,1.642724,0.0000,0.0000,0.0000,-0.002557,-1.636758,1.633690,0.8610,0.8707,-0.2969,0.001534,0.582913,-0.555301,0.556835,-0.595185,0.558369,-0.559903
4.2852,0.020078,0.000000,-1.645527,1.645527,0.0000,0.0000,0.0000,-0.002557,-1.639825,1.638291,0.8610,0.8707,-0.2969,0.001534,0.582913,-0.555301,0.556835,-0.595185,0.558369,-0.559903
4.3053,0.020093,0.000000,-1.648333,1.648333,0.0000,0.0000,0.0000,-0.002557,-1.641359,1.639825,0.8610,0.8707,-0.2969,0.001534,0.582913,-0.555301,0.556835,-0.595185,0.558369,-0.559903
4.3259,0.020539,0.000000,-1.651200,1.651200,0.0000,0.0000,0.0000,-0.002557,-1.642893,1.641359,0.8610,0.8707,-0.2969,0.001534,0.582913,-0.555301,0.556835,-0.595185,0.558369,-0.559903
4.3459,0.020072,0.000000,-1.654003,1.654003,0.0000,0.0000,0.0000,-0.002557,-1.647495,1.644427,0.8610,0.8707,-0.2969,0.001534,0.582913,-0.555301,0.556835,-0.595185,0.558369,-0.559903
4.3660,0.020105,0.000000,-1.656810,1.656810,0.0000,0.0000,0.0000,-0.002557,-1.650563,1.650563,0.8610,0.8707,-0.2969,0.001534,0.582913,-0.555301,0.556835,-0.595185,0.558369,-0.559903
4.3861,0.020045,0.000000,-1.659609,1.659609,0.0000,0.0000,0.0000,-0.002557,-1.653631,1.652097,0.8610,0.8707,-0.2969,0.001534,0.582913,-0.555301,0.556835,-0.595185,0.558369,-0.559903
4.4062,0.020084,0.000000,-1.662413,1.662413,0.0000,0.0000,0.0000,-0.002557,-1.655165,1.655165,0.8610,0.8707,-0.2969,0.001534,0.582913,-0.555301,0.556835,-0.595185,0.558369,-0.559903
4.4265,0.020367,0.000000,-1.665257,1.665257,0.0000,0.0000,0.0000,-0.002557,-1.658233,1.659767,0.8610,0.8707,-0.2969,0.001534,0.582913,-0.555301,0.556835,-0.595185,0.558369,-0.559903
4.4466,0.020074,0.000000,-1.668060,1.668060,0.0000,0.0000,0.0000,-0.002557,-1.659767,1.659767,0.8610,0.8707,-0.2969,0.001534,0.582913,-0.555301,0.556835,-0.595185,0.558369,-0.559903
4.4667,0.020094,0.000000,-1.670866,1.670866,0.0000,0.0000,0.0000,-0.002557,-1.664369,1.661301,0.8610,0.8707,-0.2969,0.001534,0.582913,-0.555301,0.556835,-0.595185,0.558369,-0.559903
4.4868,0.020081,0.000000,-1.673669,1.673669,0.0000,0.0000,0.0000,-0.002557,-1.670505,1.667437,0.8610,0.8707,-0.2969,0.001534,0.582913,-0.555301,0.556835,-0.595185,0.558369,-0.559903
4.5069,0.020093,0.000000,-1.676475,1.676475,0.0000,0.0000,0.0000,-0.002557,-1.672039,1.668971,0.8610,0.8707,-0.2969,0.001534,0.582913,-0.555301,0.556835,-0.595185,0.558369,-0.559903
4.5272,0.020354,0.000000,-1.679317,1.679317,0.0000,0.0000,0.0000,-0.002557,-1.672039,1.668971,0.8610,0.8707,-0.2969,0.001534,0.582913,-0.555301,0.556835,-0.595185,0.558369,-0.559903
4.5473,0.020073,0.000000,-1.682120,1.682120,0.0000,0.0000,0.0000,-0.002557,-1.679709,1.675107,0.8610,0.8707,-0.2969,0.001534,0.582913,-0.555301,0.556835,-0.595185,0.558369,-0.559903
4.5674,0.020109,0.000000,-1.684927,1.684927,0.0000,0.0000,0.0000,-0.002557,-1.679709,1.676641,0.8610,0.8707,-0.2969,0.001534,0.582913,-0.555301,0.556835,-0.595185,0.558369,-0.559903
4.5875,0.020078,0.000000,-1.687731,1.687731,0.0000,0.0000,0.0000,-0.002557,-1.681243,1.676641,0.8610,0.8707,-0.2969,0.001534,0.582913,-0.555301,0.556835,-0.595185,0.558369,-0.559903
4.6077,0.020180,0.000000,-1.690548,1.690548,0.0000,0.0000,0.0000,-0.002557,-1.687379,1.681243,0.8610,0.8707,-0.2969,0.001534,0.582913,-0.555301,0.556835,-0.595185,0.558369,-0.559903
4.6277,0.020082,0.000000,-1.693352,1.693352,0.0000,0.0000,0.0000,-0.002557,-1.688913,1.688913,0.8610,0.8707,-0.2969,0.001534,0.582913,-0.555301,0.556835,-0.595185,0.558369,-0.559903
4.6478,0.020077,0.000000,-1.696156,1.696156,0.0000,0.0000,0.0000,-0.002557,-1.688913,1.688913,0.8610,0.8707,-0.3848,0.000000,0.582913,-0.555301,0.556835,-0.595185,0.558369,-0.559903
4.6679,0.020090,0.000000,-1.698961,1.698961,0.0000,0.0000,0.0000,-0.002557,-1.696583,1.688913,0.8610,0.8707,-0.2969,0.001534,0.582913,-0.555301,0.556835,-0.595185,0.558369,-0.559903
4.6880,0.020077,0.000000,-1.701764,1.701764,0.0000,0.0000,0.0000,-0.002557,-1.698117,1.691981,0.8610,0.8707,-0.2969,0.001534,0.582913,-0.555301,0.556835,-0.595185,0.558369,-0.559903
4.7081,0.020085,0.000000,-1.704569,1.704569,0.0000,0.0000,0.0000,-0.002557,-1.699651,1.696583,0.8610,0.8707,-0.2969,0.001534,0.582913,-0.555301,0.556835,-0.595185,0.558369,-0.559903
4.7282,0.020166,0.000000,-1.707384,1.707384,0.0000,0.0000,0.0000,-0.002557,-1.702719,1.698117,0.8610,0.8707,-0.2969,0.001534,0.582913,-0.555301,0.556835,-0.595185,0.558369,-0.559903
4.7483,0.020072,0.000000,-1.710187,1.710187,0.0000,0.0000,0.0000,-0.002557,-1.705787,1.702719,0.8610,0.8707,-0.2969,0.001534,0.582913,-0.555301,0.556835,-0.595185,0.558369,-0.559903
4.7685,0.020221,0.000000,-1.713010,1.713010,0.0000,0.0000,0.0000,-0.002557,-1.705787,1.704253,0.8610,0.8707,-0.2969,0.001534,0.582913,-0.555301,0.556835,-0.595185,0.558369,-0.559903
4.7887,0.020177,0.000000,-1.715828,1.715828,0.0000,0.0000,0.0000,-0.002557,-1.713457,1.708855,0.8610,0.8707,-0.2969,0.001534,0.582913,-0.555301,0.556835,-0.595185,0.558369,-0.559903
4.8089,0.020227,0.000000,-1.718652,1.718652,0.0000,0.0000,0.0000,-0.002557,-1.713457,1.710389,0.8610,0.8707,-0.2969,0.001534,0.582913,-0.555301,0.556835,-0.595185,0.558369,-0.559903
4.8290,0.020090,0.000000,-1.721457,1.721457,0.0000,0.0000,0.0000,-0.002557,-1.713457,1.713457,0.8610,0.8707,-0.2969,0.001534,0.582913,-0.555301,0.556835,-0.595185,0.558369,-0.559903
4.8491,0.020071,0.000000,-1.724259,1.724259,0.0000,0.0000,0.0000,-0.002557,-1.718058,1.714991,0.8610,0.8707,-0.2969,0.001534,0.582913,-0.555301,0.556835,-0.595185,0.558369,-0.559903
4.8692,0.020102,0.000000,-1.727066,1.727066,0.0000,0.0000,0.0000,-0.002557,-1.724194,1.718058,0.8610,0.8707,-0.2969,0.001534,0.582913,-0.555301,0.556835,-0.595185,0.558369,-0.559903
4.8893,0.020081,0.000000,-1.729870,1.729870,0.0000,0.0000,0.0000,-0.002557,-1.724194,1.719592,0.8610,0.8707,-0.2969,0.001534,0.582913,-0.555301,0.556835,-0.595185,0.558369,-0.559903
4.9094,0.020086,0.000000,-1.732674,1.732674,0.0000,0.0000,0.0000,-0.002557,-1.727262,1.722660,0.8610,0.8707,-0.2969,0.001534,0.582913,-0.555301,0.556835,-0.595185,0.558369,-0.559903
4.9295,0.020092,0.000000,-1.735480,1.735480,0.0000,0.0000,0.0000,-0.002557,-1.728796,1.724194,0.8610,0.8707,-0.2969,0.001534,0.582913,-0.555301,0.556835,-0.595185,0.558369,-0.559903
4.9495,0.020078,0.000000,-1.738283,1.738283,0.0000,0.0000,0.0000,-0.002557,-1.731864,1.728796,0.8610,0.8707,-0.2969,0.001534,0.582913,-0.555301,0.556835,-0.595185,0.558369,-0.559903
4.9696,0.020085,0.000000,-1.741088,1.741088,0.0000,0.0000,0.0000,-0.002557,-1.738000,1.731864,0.8610,0.8707,-0.2969,0.001534,0.582913,-0.555301,0.556835,-0.595185,0.558369,-0.559903
4.9899,0.020234,0.000000,-1.743913,1.743913,0.0000,0.0000,0.0000,-0.002557,-1.738000,1.736466,0.8610,0.8707,-0.2969,0.001534,0.582913,-0.555301,0.556835,-0.595185,0.558369,-0.559903
5.0099,0.020086,0.000000,-1.743941,1.743941,0.0000,0.0000,0.0000,-0.002557,-1.739534,1.738000,0.8610,0.8707,-0.2969,0.001534,0.582913,-0.555301,0.556835,-0.595185,0.558369,-0.559903
5.0300,0.020083,0.000000,-1.741137,1.741137,0.0000,0.0000,0.0000,-0.002557,-1.744136,1.742602,0.8610,0.8707,-0.2969,0.001534,0.582913,-0.555301,0.556835,-0.595185,0.558369,-0.559903
5.0501,0.020088,0.000000,-1.738332,1.738332,0.0000,0.0000,0.0000,-0.002557,-1.745670,1.742602,0.8610,0.8707,-0.2969,0.001534,0.582913,-0.555301,0.556835,-0.595185,0.558369,-0.559903
5.0702,0.020099,0.000000,-1.735526,1.735526,0.0000,0.0000,0.0000,-0.002557,-1.745670,1.742602,0.8610,0.8707,-0.2969,0.001534,0.582913,-0.555301,0.556835,-0.595185,0.558369,-0.559903
5.0903,0.020086,0.000000,-1.732721,1.732721,0.0000,0.0000,0.0000,-0.002557,-1.744136,1.742602,0.8610,0.8707,-0.2969,0.001534,0.582913,-0.555301,0.556835,-0.595185,0.558369,-0.559903
5.1104,0.020082,0.000000,-1.729917,1.729917,0.0000,0.0000,0.0000,-0.002557,-1.744136,1.742602,0.8610,0.8707,-0.2969,0.001534,0.582913,-0.555301,0.556835,-0.595185,0.558369,-0.559903
5.1305,0.020091,0.000000,-1.727112,1.727112,0.0000,0.0000,0.0000,-0.002557,-1.742602,1.742602,0.8610,0.8707,-0.2969,0.001534,0.582913,-0.555301,0.556835,-0.595185,0.558369,-0.559903
5.1505,0.020077,0.000000,-1.724309,1.724309,0.0000,0.0000,0.0000,-0.002557,-1.742602,1.742602,0.8610,0.8707,-0.2969,0.001534,0.582913,-0.555301,0.556835,-0.595185,0.558369,-0.559903
5.1706,0.020078,0.000000,-1.721505,1.721505,0.0000,0.0000,0.0000,-0.002557,-1.741068,1.742602,0.8610,0.8707,-0.2969,0.001534,0.582913,-0.555301,0.556835,-0.595185,0.558369,-0.559903
5.1908,0.020168,0.000000,-1.718689,1.718689,0.0000,0.0000,0.0000,-0.002557,-1.739534,1.742602,0.8610,0.8707,-0.2969,0.001534,0.582913,-0.555301,0.556835,-0.595185,0.558369,-0.559903
5.2109,0.020084,0.000000,-1.715885,1.715885,0.0000,0.0000,0.0000,-0.002557,-1.739534,1.742602,0.8610,0.8707,-0.2969,0.001534,0.582913,-0.555301,0.556835,-0.595185,0.558369,-0.559903
5.2314,0.020533,0.000000,-1.713018,1.713018,0.0000,0.0000,0.0000,-0.002557,-1.739534,1.742602,0.8610,0.8707,-0.2969,0.001534,0.582913,-0.555301,0.556835,-0.595185,0.558369,-0.559903
5.2516,0.020176,0.000000,-1.710201,1.710201,0.0000,0.0000,0.0000,-0.002557,-1.738000,1.742602,0.8610,0.8707,-0.2969,0.001534,0.582913,-0.555301,0.556835,-0.595185,0.558369,-0.559903
5.2717,0.020085,0.000000,-1.707397,1.707397,0.0000,0.0000,0.0000,-0.002557,-1.738000,1.742602,0.8610,0.8707,-0.2969,0.001534,0.582913,-0.555301,0.556835,-0.595185,0.558369,-0.559903
5.2918,0.020086,0.000000,-1.704592,1.704592,0.0000,0.0000,0.0000,-0.002557,-1.738000,1.741068,0.8610,0.8707,-0.2969,0.001534,0.582913,-0.555301,0.556835,-0.595185,0.558369,-0.559903
5.3118,0.020079,0.000000,-1.701788,1.701788,0.0000,0.0000,0.0000,-0.002557,-1.736466,1.741068,0.8610,0.8707,-0.2969,0.001534,0.582913,-0.555301,0.556835,-0.595185,0.558369,-0.559903
5.3319,0.020098,0.000000,-1.698982,1.698982,0.0000,0.0000,0.0000,-0.002557,-1.736466,1.741068,0.8610,0.8707,-0.2969,0.001534,0.582913,-0.555301,0.556835,-0.595185,0.558369,-0.559903
5.3520,0.020081,0.000000,-1.696178,1.696178,0.0000,0.0000,0.0000,-0.002557,-1.736466,1.741068,0.8610,0.8707,-0.2969,0.001534,0.582913,-0.555301,0.556835,-0.595185,0.558369,-0.559903
5.3721,0.020079,0.000000,-1.693375,1.693375,0.0000,0.0000,0.0000,-0.002557,-1.736466,1.741068,0.8610,0.8707,-0.2969,0.001534,0.582913,-0.555301,0.556835,-0.595185,0.558369,-0.559903
5.3922,0.020100,0.000000,-1.690568,1.690568,0.0000,0.0000,0.0000,-0.002557,-1.734932,1.741068,0.8610,0.8707,-0.2969,0.001534,0.582913,-0.555301,0.556835,-0.595185,0.558369,-0.559903
5.4123,0.020062,0.000000,-1.687767,1.687767,0.0000,0.0000,0.0000,-0.002557,-1.733398,1.741068,0.8610,0.8707,-0.2969,0.001534,0.582913,-0.555301,0.556835,-0.595185,0.558369,-0.559903
5.4323,0.020085,0.000000,-1.684963,1.684963,0.0000,0.0000,0.0000,-0.002570,-1.728796,1.741068,0.9020,0.9042,-0.3489,0.001534,0.582913,-0.555301,0.556835,-0.595185,0.556835,-0.559903
5.4524,0.020087,0.000000,-1.682158,1.682158,0.0000,0.0000,0.0000,-0.002556,-1.722660,1.739534,0.8572,0.8671,-0.2910,0.001534,0.582913,-0.555301,0.556835,-0.595185,0.558369,-0.559903
5.4725,0.020079,0.000000,-1.679355,1.679355,0.0000,0.0000,0.0000,-0.002557,-1.718058,1.734932,0.8619,0.8709,-0.2970,0.001534,0.582913,-0.555301,0.556835,-0.595185,0.558369,-0.559903
5.4927,0.020161,0.000000,-1.676540,1.676540,0.0000,0.0000,0.0000,-0.002557,-1.711923,1.725728,0.8619,0.8709,-0.2970,0.001534,0.582913,-0.555301,0.556835,-0.595185,0.558369,-0.559903
5.5128,0.020082,0.000000,-1.673736,1.673736,0.0000,0.0000,0.0000,-0.002557,-1.707321,1.713457,0.8619,0.8709,-0.2970,0.001534,0.582913,-0.555301,0.556835,-0.595185,0.558369,-0.559903
5.5328,0.020083,0.000000,-1.670932,1.670932,0.0000,0.0000,0.0000,-0.002557,-1.702719,1.705787,0.8619,0.8709,-0.2970,0.001534,0.582913,-0.555301,0.556835,-0.595185,0.558369,-0.559903
5.5529,0.020067,0.000000,-1.668130,1.668130,0.0000,0.0000,0.0000,-0.002557,-1.699651,1.699651,0.8619,0.8709,-0.2970,0.001534,0.582913,-0.555301,0.556835,-0.595185,0.558369,-0.559903
5.5730,0.020079,0.000000,-1.665326,1.665326,0.0000,0.0000,0.0000,-0.002557,-1.696583,1.695049,0.8619,0.8709,-0.2970,0.001534,0.582913,-0.555301,0.556835,-0.595185,0.558369,-0.559903
5.5931,0.020090,0.000000,-1.662521,1.662521,0.0000,0.0000,0.0000,-0.002557,-1.696583,1.691981,0.8619,0.8709,-0.2970,0.001534,0.582913,-0.555301,0.556835,-0.595185,0.558369,-0.559903
5.6132,0.020084,0.000000,-1.659717,1.659717,0.0000,0.0000,0.0000,-0.002557,-1.696583,1.691981,0.8619,0.8709,-0.2970,0.001534,0.582913,-0.555301,0.556835,-0.595185,0.558369,-0.559903
5.6332,0.020091,0.000000,-1.656912,1.656912,0.0000,0.0000,0.0000,-0.002557,-1.696583,1.691981,0.8619,0.8709,-0.2970,0.001534,0.582913,-0.555301,0.556835,-0.595185,0.558369,-0.559903
5.6533,0.020080,0.000000,-1.654108,1.654108,0.0000,0.0000,0.0000,-0.002557,-1.695049,1.690447,0.8619,0.8709,-0.2970,0.001534,0.582913,-0.555301,0.556835,-0.595185,0.558369,-0.559903
5.6734,0.020081,0.000000,-1.651304,1.651304,0.0000,0.0000,0.0000,-0.002557,-1.695049,1.690447,0.8619,0.8709,-0.2970,0.001534,0.582913,-0.555301,0.556835,-0.595185,0.558369,-0.559903
5.6935,0.020079,0.000000,-1.648500,1.648500,0.0000,0.0000,0.0000,-0.002557,-1.695049,1.690447,0.8619,0.8709,-0.2970,0.001534,0.582913,-0.555301,0.556835,-0.595185,0.558369,-0.559903
5.7136,0.020076,0.000000,-1.645697,1.645697,0.0000,0.0000,0.0000,-0.002557,-1.695049,1.690447,0.8619,0.8709,-0.2970,0.001534,0.582913,-0.555301,0.556835,-0.595185,0.558369,-0.559903
5.7336,0.020086,0.000000,-1.642893,1.642893,0.0000,0.0000,0.0000,-0.002557,-1.695049,1.690447,0.8619,0.8709,-0.2970,0.001534,0.582913,-0.555301,0.556835,-0.595185,0.558369,-0.559903
5.7537,0.020079,0.000000,-1.640089,1.640089,0.0000,0.0000,0.0000,-0.002557,-1.690447,1.687379,0.8619,0.8709,-0.2970,0.001534,0.582913,-0.555301,0.556835,-0.595185,0.558369,-0.559903
5.7738,0.020082,0.000000,-1.637285,1.637285,0.0000,0.0000,0.0000,-0.002557,-1.681243,1.685845,0.8619,0.8709,-0.2970,0.001534,0.582913,-0.555301,0.556835,-0.595185,0.558369,-0.559903
5.7939,0.020084,0.000000,-1.634481,1.634481,0.0000,0.0000,0.0000,-0.002557,-1.672039,1.684311,0.8619,0.8709,-0.2970,0.001534,0.582913,-0.555301,0.556835,-0.595185,0.558369,-0.559903
5.8140,0.020080,0.000000,-1.631677,1.631677,0.0000,0.0000,0.0000,-0.002557,-1.664369,1.681243,0.8619,0.8709,-0.2970,0.001534,0.582913,-0.555301,0.556835,-0.595185,0.558369,-0.559903
5.8341,0.020082,0.000000,-1.628873,1.628873,0.0000,0.0000,0.0000,-0.002557,-1.659767,1.672039,0.8619,0.8709,-0.2970,0.001534,0.582913,-0.555301,0.556835,-0.595185,0.558369,-0.559903
5.8541,0.020074,0.000000,-1.626070,1.626070,0.0000,0.0000,0.0000,-0.002557,-1.655165,1.665903,0.8619,0.8709,-0.2970,0.001534,0.582913,-0.555301,0.556835,-0.595185,0.558369,-0.559903
5.8742,0.020084,0.000000,-1.623266,1.623266,0.0000,0.0000,0.0000,-0.002557,-1.653631,1.659767,0.8619,0.8709,-0.2970,0.001534,0.582913,-0.555301,0.556835,-0.595185,0.558369,-0.559903
5.8943,0.020067,0.000000,-1.620464,1.620464,0.0000,0.0000,0.0000,-0.002557,-1.653631,1.659767,0.8619,0.8709,-0.2970,0.001534,0.582913,-0.555301,0.556835,-0.595185,0.558369,-0.559903
5.9144,0.020075,0.000000,-1.617661,1.617661,0.0000,0.0000,0.0000,-0.002557,-1.653631,1.659767,0.8619,0.8709,-0.2970,0.001534,0.582913,-0.555301,0.556835,-0.595185,0.558369,-0.559903
5.9344,0.020079,0.000000,-1.614858,1.614858,0.0000,0.0000,0.0000,-0.002557,-1.653631,1.659767,0.8619,0.8709,-0.2970,0.001534,0.582913,-0.555301,0.556835,-0.595185,0.558369,-0.559903
5.9545,0.020077,0.000000,-1.612054,1.612054,0.0000,0.0000,0.0000,-0.002557,-1.653631,1.659767,0.8619,0.8709,-0.2970,0.001534,0.582913,-0.555301,0.556835,-0.595185,0.558369,-0.559903
5.9746,0.020085,0.000000,-1.609250,1.609250,0.0000,0.0000,0.0000,-0.002557,-1.652097,1.659767,0.8619,0.8709,-0.2970,0.001534,0.582913,-0.555301,0.556835,-0.595185,0.558369,-0.559903
5.9947,0.020076,0.000000,-1.606447,1.606447,0.0000,0.0000,0.0000,-0.002557,-1.650563,1.659767,0.8619,0.8709,-0.2970,0.001534,0.582913,-0.555301,0.556835,-0.595185,0.558369,-0.559903
6.0148,0.020085,0.000000,-1.603642,1.603642,0.0000,0.0000,0.0000,-0.002557,-1.645961,1.656699,0.8619,0.8709,-0.2970,0.001534,0.582913,-0.555301,0.556835,-0.595185,0.558369,-0.559903
6.0349,0.020115,0.000000,-1.600834,1.600834,0.0000,0.0000,0.0000,-0.002557,-1.641359,1.650563,0.8619,0.8709,-0.2970,0.001534,0.582913,-0.555301,0.556835,-0.595185,0.558369,-0.559903
6.0550,0.020080,0.000000,-1.598030,1.598030,0.0000,0.0000,0.0000,-0.002557,-1.638291,1.642893,0.8619,0.8709,-0.2970,0.001534,0.582913,-0.555301,0.556835,-0.595185,0.558369,-0.559903
6.0750,0.020080,0.000000,-1.595226,1.595226,0.0000,0.0000,0.0000,-0.002557,-1.636758,1.635224,0.8619,0.8709,-0.2970,0.001534,0.582913,-0.555301,0.556835,-0.595185,0.558369,-0.559903
6.0951,0.020078,0.000000,-1.592423,1.592423,0.0000,0.0000,0.0000,-0.002557,-1.630622,1.632156,0.8619,0.8709,-0.2970,0.001534,0.582913,-0.555301,0.556835,-0.595185,0.558369,-0.559903
6.1152,0.020079,0.000000,-1.589619,1.589619,0.0000,0.0000,0.0000,-0.002557,-1.624486,1.629088,0.8619,0.8709,-0.2970,0.001534,0.582913,-0.555301,0.556835,-0.595185,0.558369,-0.559903
6.1353,0.020077,0.000000,-1.586816,1.586816,0.0000,0.0000,0.0000,-0.002557,-1.619884,1.626020,0.8619,0.8709,-0.2970,0.001534,0.582913,-0.555301,0.556835,-0.595185,0.558369,-0.559903
6.1553,0.020079,0.000000,-1.584013,1.584013,0.0000,0.0000,0.0000,-0.002557,-1.616816,1.622952,0.8619,0.8709,-0.2970,0.001534,0.582913,-0.555301,0.556835,-0.595185,0.558369,-0.559903
6.1754,0.020077,0.000000,-1.581209,1.581209,0.0000,0.0000,0.0000,-0.002557,-1.615282,1.618350,0.8619,0.8709,-0.2970,0.001534,0.582913,-0.555301,0.556835,-0.595185,0.558369,-0.559903
6.1955,0.020080,0.000000,-1.578406,1.578406,0.0000,0.0000,0.0000,-0.002557,-1.615282,1.613748,0.8619,0.8709,-0.2970,0.001534,0.582913,-0.555301,0.556835,-0.595185,0.558369,-0.559903
6.2156,0.020089,0.000000,-1.575601,1.575601,0.0000,0.0000,0.0000,-0.002557,-1.615282,1.609146,0.8619,0.8709,-0.2970,0.001534,0.582913,-0.555301,0.556835,-0.595185,0.558369,-0.559903
6.2357,0.020079,0.000000,-1.572797,1.572797,0.0000,0.0000,0.0000,-0.002557,-1.613748,1.606078,0.8619,0.8709,-0.2970,0.001534,0.582913,-0.555301,0.556835,-0.595185,0.558369,-0.559903
6.2558,0.020083,0.000000,-1.569993,1.569993,0.0000,0.0000,0.0000,-0.002557,-1.612214,1.606078,0.8619,0.8709,-0.2970,0.001534,0.582913,-0.555301,0.556835,-0.595185,0.558369,-0.559903
6.2758,0.020078,0.000000,-1.567190,1.567190,0.0000,0.0000,0.0000,-0.002557,-1.612214,1.606078,0.8619,0.8709,-0.2970,0.001534,0.582913,-0.555301,0.556835,-0.595185,0.558369,-0.559903
6.2959,0.020084,0.000000,-1.564385,1.564385,0.0000,0.0000,0.0000,-0.002557,-1.612214,1.606078,0.8619,0.8709,-0.2970,0.001534,0.582913,-0.555301,0.556835,-0.595185,0.558369,-0.559903
6.3160,0.020084,0.000000,-1.561581,1.561581,0.0000,0.0000,0.0000,-0.002557,-1.612214,1.606078,0.8619,0.8709,-0.2970,0.001534,0.582913,-0.555301,0.556835,-0.595185,0.558369,-0.559903
6.3361,0.020085,0.000000,-1.558777,1.558777,0.0000,0.0000,0.0000,-0.002557,-1.612214,1.606078,0.8619,0.8709,-0.2970,0.001534,0.582913,-0.555301,0.556835,-0.595185,0.558369,-0.559903
6.3562,0.020077,0.000000,-1.555973,1.555973,0.0000,0.0000,0.0000,-0.002557,-1.609146,1.606078,0.8619,0.8709,-0.2970,0.001534,0.582913,-0.555301,0.556835,-0.595185,0.558369,-0.559903
6.3762,0.020078,0.000000,-1.553170,1.553170,0.0000,0.0000,0.0000,-0.002557,-1.601476,1.606078,0.8619,0.8709,-0.2970,0.001534,0.582913,-0.555301,0.556835,-0.595185,0.558369,-0.559903
6.3963,0.020079,0.000000,-1.550366,1.550366,0.0000,0.0000,0.0000,-0.002557,-1.590738,1.606078,0.8619,0.8709,-0.2970,0.001534,0.582913,-0.555301,0.556835,-0.595185,0.558369,-0.559903
6.4164,0.020079,0.000000,-1.547563,1.547563,0.0000,0.0000,0.0000,-0.002557,-1.583068,1.606078,0.8619,0.8709,-0.2970,0.001534,0.582913,-0.555301,0.556835,-0.595185,0.558369,-0.559903
6.4365,0.020101,0.000000,-1.544756,1.544756,0.0000,0.0000,0.0000,-0.002557,-1.576932,1.604544,0.8619,0.8709,-0.2970,0.001534,0.582913,-0.555301,0.556835,-0.595185,0.558369,-0.559903
6.4566,0.020081,0.000000,-1.541952,1.541952,0.0000,0.0000,0.0000,-0.002557,-1.570796,1.596874,0.8619,0.8709,-0.2970,0.001534,0.582913,-0.555301,0.556835,-0.595185,0.558369,-0.559903
6.4767,0.020077,0.000000,-1.539149,1.539149,0.0000,0.0000,0.0000,-0.002557,-1.569262,1.587670,0.8619,0.8709,-0.2970,0.001534,0.582913,-0.555301,0.556835,-0.595185,0.558369,-0.559903
6.4967,0.020085,0.000000,-1.536345,1.536345,0.0000,0.0000,0.0000,-0.002557,-1.567728,1.578466,0.8619,0.8709,-0.2970,0.001534,0.582913,-0.555301,0.556835,-0.595185,0.558369,-0.559903
6.5168,0.020077,0.000000,-1.533541,1.533541,0.0000,0.0000,0.0000,-0.002557,-1.566194,1.573864,0.8619,0.8709,-0.2970,0.001534,0.582913,-0.555301,0.556835,-0.595185,0.558369,-0.559903
6.5371,0.020291,0.000000,-1.530708,1.530708,0.0000,0.0000,0.0000,-0.002557,-1.563126,1.570796,0.8619,0.8709,-0.2970,0.001534,0.582913,-0.555301,0.556835,-0.595185,0.558369,-0.559903
