t,loop_dt,cmd_z,cmd_ant_l,cmd_ant_r,cmd_roll,cmd_pitch,cmd_yaw,pres_z,pres_ant_l,pres_ant_r,pres_roll,pres_pitch,pres_yaw,pres_j0,pres_j1,pres_j2,pres_j3,pres_j4,pres_j5,pres_j6
0.0000,0.000001,0.000000,-1.745329,1.745329,0.0000,0.0000,0.0000,-0.002706,-1.573864,1.567728,1.0076,1.1253,-0.0604,0.001534,0.578311,-0.552233,0.556835,-0.595185,0.556835,-0.549165
0.0201,0.020084,0.000000,-1.744278,1.744278,0.0000,0.0000,0.0000,-0.002705,-1.573864,1.567728,1.0029,1.1214,-0.1423,0.000000,0.578311,-0.552233,0.556835,-0.595185,0.556835,-0.549165
0.0402,0.020083,0.000000,-1.743226,1.743226,0.0000,0.0000,0.0000,-0.002694,-1.573864,1.567728,1.0532,1.1064,-0.0010,0.001534,0.579845,-0.552233,0.556835,-0.595185,0.556835,-0.549165
0.0603,0.020093,0.000000,-1.742174,1.742174,0.0000,0.0000,0.0000,-0.002693,-1.599942,1.599942,0.9578,1.0898,-0.0081,0.001534,0.578311,-0.552233,0.556835,-0.595185,0.558369,-0.549165
0.0803,0.020084,0.000000,-1.741122,1.741122,0.0000,0.0000,0.0000,-0.002693,-1.679709,1.676641,0.9678,1.0915,-0.0074,0.001534,0.578311,-0.552233,0.556835,-0.595185,0.558369,-0.549165
0.1004,0.020092,0.000000,-1.740070,1.740070,0.0000,0.0000,0.0000,-0.002682,-1.759476,1.756408,1.0165,1.0760,0.0465,0.001534,0.579845,-0.552233,0.556835,-0.595185,0.558369,-0.549165
0.1205,0.020080,0.000000,-1.739019,1.739019,0.0000,0.0000,0.0000,-0.002670,-1.790156,1.784020,1.0508,1.0419,-0.0121,0.001534,0.579845,-0.553767,0.556835,-0.595185,0.558369,-0.549165
0.1406,0.020103,0.000000,-1.737966,1.737966,0.0000,0.0000,0.0000,-0.002645,-1.787088,1.782486,1.0372,0.9916,-0.1125,0.001534,0.579845,-0.555301,0.556835,-0.595185,0.558369,-0.550699
0.1607,0.020092,0.000000,-1.736914,1.736914,0.0000,0.0000,0.0000,-0.002661,-1.773282,1.768680,1.0790,1.0304,-0.1545,0.001534,0.579845,-0.555301,0.556835,-0.595185,0.556835,-0.550699
0.1808,0.020089,0.000000,-1.735863,1.735863,0.0000,0.0000,0.0000,-0.002646,-1.764078,1.765612,1.0343,0.9928,-0.0977,0.001534,0.579845,-0.555301,0.556835,-0.595185,0.558369,-0.550699
0.2009,0.020089,0.000000,-1.734811,1.734811,0.0000,0.0000,0.0000,-0.002635,-1.756408,1.762544,0.9897,0.9786,-0.1571,0.001534,0.579845,-0.555301,0.556835,-0.595185,0.558369,-0.552233
0.2210,0.020090,0.000000,-1.733759,1.733759,0.0000,0.0000,0.0000,-0.002623,-1.753340,1.762544,0.9451,0.9621,-0.2045,0.001534,0.579845,-0.555301,0.556835,-0.595185,0.558369,-0.553767
0.2411,0.020163,0.000000,-1.732703,1.732703,0.0000,0.0000,0.0000,-0.002637,-1.751806,1.759476,0.9901,0.9975,-0.2520,0.001534,0.579845,-0.555301,0.556835,-0.595185,0.556835,-0.553767
0.2612,0.020102,0.000000,-1.731650,1.731650,0.0000,0.0000,0.0000,-0.002610,-1.753340,1.759476,0.8958,0.9422,-0.2482,0.001534,0.579845,-0.555301,0.556835,-0.595185,0.558369,-0.555301
0.2813,0.020097,0.000000,-1.730598,1.730598,0.0000,0.0000,0.0000,-0.002599,-1.751806,1.757942,0.8565,0.9301,-0.3022,0.001534,0.579845,-0.555301,0.556835,-0.595185,0.558369,-0.556835
0.3018,0.020423,0.000000,-1.729529,1.729529,0.0000,0.0000,0.0000,-0.002601,-1.751806,1.756408,0.8606,0.9313,-0.2966,0.001534,0.579845,-0.555301,0.556835,-0.595185,0.558369,-0.556835
0.3219,0.020087,0.000000,-1.728477,1.728477,0.0000,0.0000,0.0000,-0.002588,-1.751806,1.754874,0.8110,0.9134,-0.3508,0.001534,0.579845,-0.555301,0.556835,-0.595185,0.558369,-0.558369
0.3419,0.020081,0.000000,-1.727426,1.727426,0.0000,0.0000,0.0000,-0.002589,-1.751806,1.754874,0.8162,0.9152,-0.3451,0.001534,0.579845,-0.555301,0.556835,-0.595185,0.558369,-0.558369
0.3620,0.020114,0.000000,-1.726373,1.726373,0.0000,0.0000,0.0000,-0.002589,-1.751806,1.754874,0.8162,0.9152,-0.3451,0.001534,0.579845,-0.555301,0.556835,-0.595185,0.558369,-0.558369
0.3821,0.020088,0.000000,-1.725321,1.725321,0.0000,0.0000,0.0000,-0.002589,-1.751806,1.754874,0.8162,0.9152,-0.3451,0.001534,0.579845,-0.555301,0.556835,-0.595185,0.558369,-0.558369
0.4022,0.020082,0.000000,-1.724269,1.724269,0.0000,0.0000,0.0000,-0.002589,-1.751806,1.754874,0.8162,0.9152,-0.3451,0.001534,0.579845,-0.555301,0.556835,-0.595185,0.558369,-0.558369
0.4224,0.020141,0.000000,-1.723215,1.723215,0.0000,0.0000,0.0000,-0.002589,-1.751806,1.754874,0.8162,0.9152,-0.3451,0.001534,0.579845,-0.555301,0.556835,-0.595185,0.558369,-0.558369
0.4424,0.020080,0.000000,-1.722163,1.722163,0.0000,0.0000,0.0000,-0.002576,-1.750272,1.754874,0.7666,0.8972,-0.3994,0.001534,0.579845,-0.555301,0.556835,-0.595185,0.558369,-0.559903
0.4625,0.020082,0.000000,-1.721112,1.721112,0.0000,0.0000,0.0000,-0.002577,-1.750272,1.754874,0.7718,0.8991,-0.3937,0.001534,0.579845,-0.555301,0.556835,-0.595185,0.558369,-0.559903
0.4826,0.020078,0.000000,-1.720061,1.720061,0.0000,0.0000,0.0000,-0.002577,-1.750272,1.754874,0.7718,0.8991,-0.3937,0.001534,0.579845,-0.555301,0.556835,-0.595185,0.558369,-0.559903
0.5027,0.020074,0.000000,-1.719009,1.719009,0.0000,0.0000,0.0000,-0.002577,-1.750272,1.754874,0.7718,0.8991,-0.3937,0.001534,0.579845,-0.555301,0.556835,-0.595185,0.558369,-0.559903
0.5228,0.020084,0.000000,-1.717958,1.717958,0.0000,0.0000,0.0000,-0.002577,-1.750272,1.754874,0.7718,0.8991,-0.3937,0.001534,0.579845,-0.555301,0.556835,-0.595185,0.558369,-0.559903
0.5428,0.020081,0.000000,-1.716906,1.716906,0.0000,0.0000,0.0000,-0.002566,-1.750272,1.754874,0.8210,0.8832,-0.3403,0.001534,0.581379,-0.555301,0.556835,-0.595185,0.558369,-0.559903
0.5629,0.020044,0.000000,-1.715857,1.715857,0.0000,0.0000,0.0000,-0.002556,-1.750272,1.754874,0.8657,0.8692,-0.2919,0.001534,0.582913,-0.555301,0.556835,-0.595185,0.558369,-0.559903
0.5830,0.020082,0.000000,-1.714805,1.714805,0.0000,0.0000,0.0000,-0.002557,-1.750272,1.754874,0.8610,0.8707,-0.2969,0.001534,0.582913,-0.555301,0.556835,-0.595185,0.558369,-0.559903
0.6030,0.020081,0.000000,-1.713754,1.713754,0.0000,0.0000,0.0000,-0.002557,-1.750272,1.754874,0.8610,0.8707,-0.2969,0.001534,0.582913,-0.555301,0.556835,-0.595185,0.558369,-0.559903
0.6231,0.020089,0.000000,-1.712702,1.712702,0.0000,0.0000,0.0000,-0.002557,-1.748738,1.754874,0.8610,0.8707,-0.2969,0.001534,0.582913,-0.555301,0.556835,-0.595185,0.558369,-0.559903
0.6432,0.020081,0.000000,-1.711651,1.711651,0.0000,0.0000,0.0000,-0.002557,-1.748738,1.754874,0.8610,0.8707,-0.2969,0.001534,0.582913,-0.555301,0.556835,-0.595185,0.558369,-0.559903
0.6633,0.020090,0.000000,-1.710599,1.710599,0.0000,0.0000,0.0000,-0.002557,-1.748738,1.754874,0.8610,0.8707,-0.2969,0.001534,0.582913,-0.555301,0.556835,-0.595185,0.558369,-0.559903
0.6834,0.020075,0.000000,-1.709548,1.709548,0.0000,0.0000,0.0000,-0.002557,-1.748738,1.754874,0.8610,0.8707,-0.2969,0.001534,0.582913,-0.555301,0.556835,-0.595185,0.558369,-0.559903
0.7035,0.020078,0.000000,-1.708496,1.708496,0.0000,0.0000,0.0000,-0.002557,-1.748738,1.754874,0.8610,0.8707,-0.2969,0.001534,0.582913,-0.555301,0.556835,-0.595185,0.558369,-0.559903
0.7235,0.020089,0.000000,-1.707444,1.707444,0.0000,0.0000,0.0000,-0.002546,-1.748738,1.754874,0.9112,0.8550,-0.2424,0.001534,0.584447,-0.555301,0.556835,-0.595185,0.558369,-0.559903
0.7436,0.020075,0.000000,-1.706393,1.706393,0.0000,0.0000,0.0000,-0.002547,-1.748738,1.753340,0.9060,0.8566,-0.2481,0.001534,0.584447,-0.555301,0.556835,-0.595185,0.558369,-0.559903
0.7637,0.020089,0.000000,-1.705341,1.705341,0.0000,0.0000,0.0000,-0.002536,-1.748738,1.753340,0.9562,0.8409,-0.1934,0.001534,0.585981,-0.555301,0.556835,-0.595185,0.558369,-0.559903
0.7838,0.020071,0.000000,-1.704290,1.704290,0.0000,0.0000,0.0000,-0.002537,-1.748738,1.750272,0.9510,0.8425,-0.1991,0.001534,0.585981,-0.555301,0.556835,-0.595185,0.558369,-0.559903
0.8040,0.020169,0.000000,-1.703234,1.703234,0.0000,0.0000,0.0000,-0.002537,-1.748738,1.744136,0.9510,0.8425,-0.1991,0.001534,0.585981,-0.555301,0.556835,-0.595185,0.558369,-0.559903
0.8240,0.020090,0.000000,-1.702183,1.702183,0.0000,0.0000,0.0000,-0.002537,-1.748738,1.741068,0.9510,0.8425,-0.1991,0.001534,0.585981,-0.555301,0.556835,-0.595185,0.558369,-0.559903
0.8441,0.020081,0.000000,-1.701131,1.701131,0.0000,0.0000,0.0000,-0.002537,-1.748738,1.739534,0.9510,0.8425,-0.1991,0.001534,0.585981,-0.555301,0.556835,-0.595185,0.558369,-0.559903
0.8643,0.020225,0.000000,-1.700072,1.700072,0.0000,0.0000,0.0000,-0.002537,-1.747204,1.739534,0.9510,0.8425,-0.1991,0.001534,0.585981,-0.555301,0.556835,-0.595185,0.558369,-0.559903
0.8844,0.020081,0.000000,-1.699021,1.699021,0.0000,0.0000,0.0000,-0.002537,-1.744136,1.739534,0.9510,0.8425,-0.1991,0.001534,0.585981,-0.555301,0.556835,-0.595185,0.558369,-0.559903
0.9045,0.020081,0.000000,-1.697969,1.697969,0.0000,0.0000,0.0000,-0.002537,-1.734932,1.739534,0.9510,0.8425,-0.1991,0.001534,0.585981,-0.555301,0.556835,-0.595185,0.558369,-0.559903
0.9246,0.020085,0.000000,-1.696918,1.696918,0.0000,0.0000,0.0000,-0.002537,-1.727262,1.739534,0.9510,0.8425,-0.1991,0.001534,0.585981,-0.555301,0.556835,-0.595185,0.558369,-0.559903
0.9447,0.020081,0.000000,-1.695866,1.695866,0.0000,0.0000,0.0000,-0.002537,-1.722660,1.739534,0.9510,0.8425,-0.1991,0.001534,0.585981,-0.555301,0.556835,-0.595185,0.558369,-0.559903
0.9650,0.020361,0.000000,-1.694800,1.694800,0.0000,0.0000,0.0000,-0.002537,-1.722660,1.739534,0.9510,0.8425,-0.1991,0.001534,0.585981,-0.555301,0.556835,-0.595185,0.558369,-0.559903
0.9851,0.020084,0.000000,-1.693748,1.693748,0.0000,0.0000,0.0000,-0.002537,-1.722660,1.739534,0.9510,0.8425,-0.1991,0.001534,0.585981,-0.555301,0.556835,-0.595185,0.558369,-0.559903
1.0052,0.020082,0.000000,-1.692697,1.692697,0.0000,0.0000,0.0000,-0.002537,-1.722660,1.739534,0.9510,0.8425,-0.1991,0.001534,0.585981,-0.555301,0.556835,-0.595185,0.558369,-0.559903
1.0253,0.020084,0.000000,-1.691645,1.691645,0.0000,0.0000,0.0000,-0.002537,-1.722660,1.739534,0.9510,0.8425,-0.1991,0.001534,0.585981,-0.555301,0.556835,-0.595185,0.558369,-0.559903
1.0454,0.020081,0.000000,-1.690594,1.690594,0.0000,0.0000,0.0000,-0.002537,-1.722660,1.739534,0.9510,0.8425,-0.1991,0.001534,0.585981,-0.555301,0.556835,-0.595185,0.558369,-0.559903
1.0658,0.020390,0.000000,-1.689526,1.689526,0.0000,0.0000,0.0000,-0.002537,-1.722660,1.739534,0.9510,0.8425,-0.1991,0.001534,0.585981,-0.555301,0.556835,-0.595185,0.558369,-0.559903
1.0858,0.020080,0.000000,-1.688475,1.688475,0.0000,0.0000,0.0000,-0.002537,-1.722660,1.739534,0.9510,0.8425,-0.1991,0.001534,0.585981,-0.555301,0.556835,-0.595185,0.558369,-0.559903
1.1059,0.020084,0.000000,-1.687423,1.687423,0.0000,0.0000,0.0000,-0.002537,-1.722660,1.739534,0.9510,0.8425,-0.1991,0.001534,0.585981,-0.555301,0.556835,-0.595185,0.558369,-0.559903
1.1260,0.020078,0.000000,-1.686372,1.686372,0.0000,0.0000,0.0000,-0.002537,-1.722660,1.739534,0.9510,0.8425,-0.1991,0.001534,0.585981,-0.555301,0.556835,-0.595185,0.558369,-0.559903
1.1461,0.020082,0.000000,-1.685321,1.685321,0.0000,0.0000,0.0000,-0.002537,-1.722660,1.739534,0.9510,0.8425,-0.1991,0.001534,0.585981,-0.555301,0.556835,-0.595185,0.558369,-0.559903
1.1665,0.020390,0.000000,-1.684253,1.684253,0.0000,0.0000,0.0000,-0.002537,-1.722660,1.739534,0.9510,0.8425,-0.1991,0.001534,0.585981,-0.555301,0.556835,-0.595185,0.558369,-0.559903
1.1865,0.020078,0.000000,-1.683202,1.683202,0.0000,0.0000,0.0000,-0.002537,-1.722660,1.738000,0.9510,0.8425,-0.1991,0.001534,0.585981,-0.555301,0.556835,-0.595185,0.558369,-0.559903
1.2066,0.020080,0.000000,-1.682150,1.682150,0.0000,0.0000,0.0000,-0.002537,-1.722660,1.731864,0.9510,0.8425,-0.1991,0.001534,0.585981,-0.555301,0.556835,-0.595185,0.558369,-0.559903
1.2267,0.020077,0.000000,-1.681099,1.681099,0.0000,0.0000,0.0000,-0.002537,-1.722660,1.721126,0.9510,0.8425,-0.1991,0.001534,0.585981,-0.555301,0.556835,-0.595185,0.558369,-0.559903
1.2468,0.020083,0.000000,-1.680048,1.680048,0.0000,0.0000,0.0000,-0.002537,-1.722660,1.711923,0.9510,0.8425,-0.1991,0.001534,0.585981,-0.555301,0.556835,-0.595185,0.558369,-0.559903
1.2671,0.020275,0.000000,-1.678986,1.678986,0.0000,0.0000,0.0000,-0.002537,-1.722660,1.704253,0.9510,0.8425,-0.1991,0.001534,0.585981,-0.555301,0.556835,-0.595185,0.558369,-0.559903
1.2871,0.020080,0.000000,-1.677935,1.677935,0.0000,0.0000,0.0000,-0.002537,-1.721126,1.701185,0.9510,0.8425,-0.1991,0.001534,0.585981,-0.555301,0.556835,-0.595185,0.558369,-0.559903
1.3072,0.020081,0.000000,-1.676883,1.676883,0.0000,0.0000,0.0000,-0.002537,-1.721126,1.701185,0.9510,0.8425,-0.1991,0.001534,0.585981,-0.555301,0.556835,-0.595185,0.558369,-0.559903
1.3273,0.020087,0.000000,-1.675831,1.675831,0.0000,0.0000,0.0000,-0.002537,-1.721126,1.701185,0.9510,0.8425,-0.1991,0.001534,0.585981,-0.555301,0.556835,-0.595185,0.558369,-0.559903
1.3474,0.020076,0.000000,-1.674780,1.674780,0.0000,0.0000,0.0000,-0.002537,-1.718058,1.701185,0.9510,0.8425,-0.1991,0.001534,0.585981,-0.555301,0.556835,-0.595185,0.558369,-0.559903
1.3675,0.020089,0.000000,-1.673728,1.673728,0.0000,0.0000,0.0000,-0.002537,-1.710389,1.701185,0.9510,0.8425,-0.1991,0.001534,0.585981,-0.555301,0.556835,-0.595185,0.558369,-0.559903
1.3884,0.020894,0.000000,-1.672634,1.672634,0.0000,0.0000,0.0000,-0.002537,-1.702719,1.701185,0.9510,0.8425,-0.1991,0.001534,0.585981,-0.555301,0.556835,-0.595185,0.558369,-0.559903
1.4084,0.020076,0.000000,-1.671583,1.671583,0.0000,0.0000,0.0000,-0.002537,-1.696583,1.701185,0.9510,0.8425,-0.1991,0.001534,0.585981,-0.555301,0.556835,-0.595185,0.558369,-0.559903
1.4285,0.020080,0.000000,-1.670532,1.670532,0.0000,0.0000,0.0000,-0.002537,-1.695049,1.701185,0.9510,0.8425,-0.1991,0.001534,0.585981,-0.555301,0.556835,-0.595185,0.558369,-0.559903
1.4486,0.020082,0.000000,-1.669480,1.669480,0.0000,0.0000,0.0000,-0.002537,-1.695049,1.701185,0.9510,0.8425,-0.1991,0.001534,0.585981,-0.555301,0.556835,-0.595185,0.558369,-0.559903
1.4687,0.020077,0.000000,-1.668429,1.668429,0.0000,0.0000,0.0000,-0.002537,-1.695049,1.701185,0.9510,0.8425,-0.1991,0.001534,0.585981,-0.555301,0.556835,-0.595185,0.558369,-0.559903
1.4888,0.020081,0.000000,-1.667378,1.667378,0.0000,0.0000,0.0000,-0.002537,-1.695049,1.701185,0.9510,0.8425,-0.1991,0.001534,0.585981,-0.555301,0.556835,-0.595185,0.558369,-0.559903
1.5088,0.020078,0.000000,-1.666326,1.666326,0.0000,0.0000,0.0000,-0.002537,-1.695049,1.701185,0.9510,0.8425,-0.1991,0.001534,0.585981,-0.555301,0.556835,-0.595185,0.558369,-0.559903
1.5290,0.020110,0.000000,-1.665273,1.665273,0.0000,0.0000,0.0000,-0.002537,-1.695049,1.701185,0.9510,0.8425,-0.1991,0.001534,0.585981,-0.555301,0.556835,-0.595185,0.558369,-0.559903
1.5490,0.020079,0.000000,-1.664222,1.664222,0.0000,0.0000,0.0000,-0.002537,-1.695049,1.701185,0.9510,0.8425,-0.1991,0.001534,0.585981,-0.555301,0.556835,-0.595185,0.558369,-0.559903
1.5694,0.020329,0.000000,-1.663158,1.663158,0.0000,0.0000,0.0000,-0.002537,-1.695049,1.701185,0.9510,0.8425,-0.1991,0.001534,0.585981,-0.555301,0.556835,-0.595185,0.558369,-0.559903
1.5899,0.020567,0.000000,-1.662081,1.662081,0.0000,0.0000,0.0000,-0.002537,-1.695049,1.701185,0.9510,0.8425,-0.1991,0.001534,0.585981,-0.555301,0.556835,-0.595185,0.558369,-0.559903
1.6100,0.020081,0.000000,-1.661029,1.661029,0.0000,0.0000,0.0000,-0.002537,-1.695049,1.701185,0.9510,0.8425,-0.1991,0.001534,0.585981,-0.555301,0.556835,-0.595185,0.558369,-0.559903
1.6302,0.020170,0.000000,-1.659973,1.659973,0.0000,0.0000,0.0000,-0.002537,-1.695049,1.701185,0.9510,0.8425,-0.1991,0.001534,0.585981,-0.555301,0.556835,-0.595185,0.558369,-0.559903
1.6503,0.020080,0.000000,-1.658922,1.658922,0.0000,0.0000,0.0000,-0.002537,-1.695049,1.701185,0.9510,0.8425,-0.1991,0.001534,0.585981,-0.555301,0.556835,-0.595185,0.558369,-0.559903
1.6703,0.020053,0.000000,-1.657872,1.657872,0.0000,0.0000,0.0000,-0.002537,-1.695049,1.701185,0.9510,0.8425,-0.1991,0.001534,0.585981,-0.555301,0.556835,-0.595185,0.558369,-0.559903
1.6904,0.020083,0.000000,-1.656820,1.656820,0.0000,0.0000,0.0000,-0.002537,-1.695049,1.701185,0.9510,0.8425,-0.1991,0.001534,0.585981,-0.555301,0.556835,-0.595185,0.558369,-0.559903
1.7105,0.020083,0.000000,-1.655769,1.655769,0.0000,0.0000,0.0000,-0.002537,-1.695049,1.701185,0.9510,0.8425,-0.1991,0.001534,0.585981,-0.555301,0.556835,-0.595185,0.558369,-0.559903
1.7306,0.020097,0.000000,-1.654716,1.654716,0.0000,0.0000,0.0000,-0.002537,-1.695049,1.701185,0.9510,0.8425,-0.1991,0.001534,0.585981,-0.555301,0.556835,-0.595185,0.558369,-0.559903
1.7507,0.020076,0.000000,-1.653665,1.653665,0.0000,0.0000,0.0000,-0.002537,-1.695049,1.701185,0.9510,0.8425,-0.1991,0.001534,0.585981,-0.555301,0.556835,-0.595185,0.558369,-0.559903
1.7707,0.020082,0.000000,-1.652614,1.652614,0.0000,0.0000,0.0000,-0.002537,-1.695049,1.701185,0.9510,0.8425,-0.1991,0.001534,0.585981,-0.555301,0.556835,-0.595185,0.558369,-0.559903
1.7908,0.020083,0.000000,-1.651562,1.651562,0.0000,0.0000,0.0000,-0.002537,-1.693515,1.699651,0.9510,0.8425,-0.1991,0.001534,0.585981,-0.555301,0.556835,-0.595185,0.558369,-0.559903
1.8109,0.020078,0.000000,-1.650511,1.650511,0.0000,0.0000,0.0000,-0.002537,-1.691981,1.691981,0.9510,0.8425,-0.1991,0.001534,0.585981,-0.555301,0.556835,-0.595185,0.558369,-0.559903
1.8312,0.020296,0.000000,-1.649448,1.649448,0.0000,0.0000,0.0000,-0.002537,-1.684311,1.685845,0.9510,0.8425,-0.1991,0.001534,0.585981,-0.555301,0.556835,-0.595185,0.558369,-0.559903
1.8513,0.020083,0.000000,-1.648397,1.648397,0.0000,0.0000,0.0000,-0.002537,-1.678175,1.681243,0.9510,0.8425,-0.1991,0.001534,0.585981,-0.555301,0.556835,-0.595185,0.558369,-0.559903
1.8714,0.020086,0.000000,-1.647345,1.647345,0.0000,0.0000,0.0000,-0.002537,-1.672039,1.676641,0.9510,0.8425,-0.1991,0.001534,0.585981,-0.555301,0.556835,-0.595185,0.558369,-0.559903
1.8917,0.020375,0.000000,-1.646278,1.646278,0.0000,0.0000,0.0000,-0.002537,-1.670505,1.673573,0.9510,0.8425,-0.1991,0.001534,0.585981,-0.555301,0.556835,-0.595185,0.558369,-0.559903
1.9118,0.020078,0.000000,-1.645227,1.645227,0.0000,0.0000,0.0000,-0.002537,-1.670505,1.670505,0.9510,0.8425,-0.1991,0.001534,0.585981,-0.555301,0.556835,-0.595185,0.558369,-0.559903
1.9319,0.020097,0.000000,-1.644175,1.644175,0.0000,0.0000,0.0000,-0.002537,-1.670505,1.670505,0.9510,0.8425,-0.1991,0.001534,0.585981,-0.555301,0.556835,-0.595185,0.558369,-0.559903
1.9520,0.020080,0.000000,-1.643123,1.643123,0.0000,0.0000,0.0000,-0.002537,-1.670505,1.668971,0.9510,0.8425,-0.1991,0.001534,0.585981,-0.555301,0.556835,-0.595185,0.558369,-0.559903
1.9721,0.020078,0.000000,-1.642072,1.642072,0.0000,0.0000,0.0000,-0.002537,-1.670505,1.668971,0.9510,0.8425,-0.1991,0.001534,0.585981,-0.555301,0.556835,-0.595185,0.558369,-0.559903
1.9922,0.020096,0.000000,-1.641020,1.641020,0.0000,0.0000,0.0000,-0.002537,-1.667437,1.667437,0.9510,0.8425,-0.1991,0.001534,0.585981,-0.555301,0.556835,-0.595185,0.558369,-0.559903
2.0122,0.020078,0.000000,-1.639968,1.639968,0.0000,0.0000,0.0000,-0.002537,-1.670505,1.667437,0.9510,0.8425,-0.1991,0.001534,0.585981,-0.555301,0.556835,-0.595185,0.558369,-0.559903
2.0324,0.020139,0.000000,-1.638914,1.638914,0.0000,0.0000,0.0000,-0.002537,-1.667437,1.667437,0.9510,0.8425,-0.1991,0.001534,0.585981,-0.555301,0.556835,-0.595185,0.558369,-0.559903
2.0525,0.020080,0.000000,-1.637863,1.637863,0.0000,0.0000,0.0000,-0.002537,-1.667437,1.667437,0.9510,0.8425,-0.1991,0.001534,0.585981,-0.555301,0.556835,-0.595185,0.558369,-0.559903
2.0725,0.020080,0.000000,-1.636811,1.636811,0.0000,0.0000,0.0000,-0.002537,-1.667437,1.665903,0.9510,0.8425,-0.1991,0.001534,0.585981,-0.555301,0.556835,-0.595185,0.558369,-0.559903
2.0926,0.020089,0.000000,-1.635759,1.635759,0.0000,0.0000,0.0000,-0.002537,-1.667437,1.665903,0.9510,0.8425,-0.1991,0.001534,0.585981,-0.555301,0.556835,-0.595185,0.558369,-0.559903
2.1127,0.020080,0.000000,-1.634708,1.634708,0.0000,0.0000,0.0000,-0.002537,-1.667437,1.665903,0.9510,0.8425,-0.1991,0.001534,0.585981,-0.555301,0.556835,-0.595185,0.558369,-0.559903
2.1328,0.020082,0.000000,-1.633656,1.633656,0.0000,0.0000,0.0000,-0.002537,-1.667437,1.665903,0.9510,0.8425,-0.1991,0.001534,0.585981,-0.555301,0.556835,-0.595185,0.558369,-0.559903
2.1529,0.020078,0.000000,-1.632605,1.632605,0.0000,0.0000,0.0000,-0.002537,-1.667437,1.665903,0.9510,0.8425,-0.1991,0.001534,0.585981,-0.555301,0.556835,-0.595185,0.558369,-0.559903
2.1730,0.020080,0.000000,-1.631554,1.631554,0.0000,0.0000,0.0000,-0.002537,-1.667437,1.664369,0.9510,0.8425,-0.1991,0.001534,0.585981,-0.555301,0.556835,-0.595185,0.558369,-0.559903
2.1930,0.020082,0.000000,-1.630502,1.630502,0.0000,0.0000,0.0000,-0.002537,-1.667437,1.664369,0.9510,0.8425,-0.1991,0.001534,0.585981,-0.555301,0.556835,-0.595185,0.558369,-0.559903
2.2132,0.020158,0.000000,-1.629447,1.629447,0.0000,0.0000,0.0000,-0.002537,-1.667437,1.664369,0.9510,0.8425,-0.1991,0.001534,0.585981,-0.555301,0.556835,-0.595185,0.558369,-0.559903
2.2333,0.020077,0.000000,-1.628396,1.628396,0.0000,0.0000,0.0000,-0.002537,-1.667437,1.662835,0.9510,0.8425,-0.1991,0.001534,0.585981,-0.555301,0.556835,-0.595185,0.558369,-0.559903
2.2533,0.020079,0.000000,-1.627344,1.627344,0.0000,0.0000,0.0000,-0.002537,-1.665903,1.662835,0.9510,0.8425,-0.1991,0.001534,0.585981,-0.555301,0.556835,-0.595185,0.558369,-0.559903
2.2734,0.020083,0.000000,-1.626293,1.626293,0.0000,0.0000,0.0000,-0.002537,-1.665903,1.662835,0.9510,0.8425,-0.1991,0.001534,0.585981,-0.555301,0.556835,-0.595185,0.558369,-0.559903
2.2935,0.020079,0.000000,-1.625241,1.625241,0.0000,0.0000,0.0000,-0.002537,-1.665903,1.662835,0.9510,0.8425,-0.1991,0.001534,0.585981,-0.555301,0.556835,-0.595185,0.558369,-0.559903
2.3136,0.020091,0.000000,-1.624189,1.624189,0.0000,0.0000,0.0000,-0.002537,-1.665903,1.662835,0.9510,0.8425,-0.1991,0.001534,0.585981,-0.555301,0.556835,-0.595185,0.558369,-0.559903
2.3337,0.020079,0.000000,-1.623138,1.623138,0.0000,0.0000,0.0000,-0.002537,-1.665903,1.662835,0.9510,0.8425,-0.1991,0.001534,0.585981,-0.555301,0.556835,-0.595185,0.558369,-0.559903
2.3538,0.020078,0.000000,-1.622087,1.622087,0.0000,0.0000,0.0000,-0.002537,-1.665903,1.662835,0.9510,0.8425,-0.1991,0.001534,0.585981,-0.555301,0.556835,-0.595185,0.558369,-0.559903
2.3738,0.020080,0.000000,-1.621035,1.621035,0.0000,0.0000,0.0000,-0.002537,-1.665903,1.662835,0.9510,0.8425,-0.1991,0.001534,0.585981,-0.555301,0.556835,-0.595185,0.558369,-0.559903
2.3939,0.020088,0.000000,-1.619983,1.619983,0.0000,0.0000,0.0000,-0.002537,-1.665903,1.662835,0.9510,0.8425,-0.1991,0.001534,0.585981,-0.555301,0.556835,-0.595185,0.558369,-0.559903
2.4141,0.020154,0.000000,-1.618928,1.618928,0.0000,0.0000,0.0000,-0.002537,-1.665903,1.661301,0.9510,0.8425,-0.1991,0.001534,0.585981,-0.555301,0.556835,-0.595185,0.558369,-0.559903
2.4342,0.020078,0.000000,-1.617877,1.617877,0.0000,0.0000,0.0000,-0.002537,-1.661301,1.661301,0.9510,0.8425,-0.1991,0.001534,0.585981,-0.555301,0.556835,-0.595185,0.558369,-0.559903
2.4543,0.020091,0.000000,-1.616825,1.616825,0.0000,0.0000,0.0000,-0.002537,-1.653631,1.661301,0.9510,0.8425,-0.1991,0.001534,0.585981,-0.555301,0.556835,-0.595185,0.558369,-0.559903
2.4743,0.020078,0.000000,-1.615774,1.615774,0.0000,0.0000,0.0000,-0.002537,-1.644427,1.661301,0.9510,0.8425,-0.1991,0.001534,0.585981,-0.555301,0.556835,-0.595185,0.558369,-0.559903
2.4944,0.020086,0.000000,-1.614722,1.614722,0.0000,0.0000,0.0000,-0.002537,-1.641359,1.661301,0.9510,0.8425,-0.1991,0.001534,0.585981,-0.555301,0.556835,-0.595185,0.558369,-0.559903
2.5145,0.020077,0.000000,-1.613671,1.613671,0.0000,0.0000,0.0000,-0.002537,-1.641359,1.661301,0.9510,0.8425,-0.1991,0.001534,0.585981,-0.555301,0.556835,-0.595185,0.558369,-0.559903
2.5346,0.020074,0.000000,-1.612620,1.612620,0.0000,0.0000,0.0000,-0.002537,-1.641359,1.661301,0.9510,0.8425,-0.1991,0.001534,0.585981,-0.555301,0.556835,-0.595185,0.558369,-0.559903
2.5547,0.020084,0.000000,-1.611568,1.611568,0.0000,0.0000,0.0000,-0.002537,-1.639825,1.661301,0.9510,0.8425,-0.1991,0.001534,0.585981,-0.555301,0.556835,-0.595185,0.558369,-0.559903
2.5747,0.020077,0.000000,-1.610517,1.610517,0.0000,0.0000,0.0000,-0.002537,-1.641359,1.661301,0.9510,0.8425,-0.1991,0.001534,0.585981,-0.555301,0.556835,-0.595185,0.558369,-0.559903
2.5948,0.020084,0.000000,-1.609465,1.609465,0.0000,0.0000,0.0000,-0.002537,-1.639825,1.661301,0.9510,0.8425,-0.1991,0.001534,0.585981,-0.555301,0.556835,-0.595185,0.558369,-0.559903
2.6149,0.020082,0.000000,-1.608414,1.608414,0.0000,0.0000,0.0000,-0.002537,-1.639825,1.659767,0.9510,0.8425,-0.1991,0.001534,0.585981,-0.555301,0.556835,-0.595185,0.558369,-0.559903
2.6350,0.020085,0.000000,-1.607362,1.607362,0.0000,0.0000,0.0000,-0.002537,-1.641359,1.655165,0.9510,0.8425,-0.1991,0.001534,0.585981,-0.555301,0.556835,-0.595185,0.558369,-0.559903
2.6551,0.020084,0.000000,-1.606310,1.606310,0.0000,0.0000,0.0000,-0.002537,-1.639825,1.647495,0.9510,0.8425,-0.1991,0.001534,0.585981,-0.555301,0.556835,-0.595185,0.558369,-0.559903
2.6751,0.020079,0.000000,-1.605259,1.605259,0.0000,0.0000,0.0000,-0.002537,-1.641359,1.642893,0.9510,0.8425,-0.1991,0.001534,0.585981,-0.555301,0.556835,-0.595185,0.558369,-0.559903
2.6952,0.020085,0.000000,-1.604207,1.604207,0.0000,0.0000,0.0000,-0.002537,-1.639825,1.635224,0.9510,0.8425,-0.1991,0.001534,0.585981,-0.555301,0.556835,-0.595185,0.558369,-0.559903
2.7153,0.020083,0.000000,-1.603156,1.603156,0.0000,0.0000,0.0000,-0.002537,-1.639825,1.633690,0.9510,0.8425,-0.1991,0.001534,0.585981,-0.555301,0.556835,-0.595185,0.558369,-0.559903
2.7354,0.020077,0.000000,-1.602105,1.602105,0.0000,0.0000,0.0000,-0.002537,-1.639825,1.633690,0.9510,0.8425,-0.1991,0.001534,0.585981,-0.555301,0.556835,-0.595185,0.558369,-0.559903
2.7556,0.020232,0.000000,-1.601045,1.601045,0.0000,0.0000,0.0000,-0.002537,-1.639825,1.633690,0.9510,0.8425,-0.1991,0.001534,0.585981,-0.555301,0.556835,-0.595185,0.558369,-0.559903
2.7757,0.020076,0.000000,-1.599994,1.599994,0.0000,0.0000,0.0000,-0.002537,-1.639825,1.633690,0.9510,0.8425,-0.1991,0.001534,0.585981,-0.555301,0.556835,-0.595185,0.558369,-0.559903
2.7958,0.020082,0.000000,-1.598943,1.598943,0.0000,0.0000,0.0000,-0.002537,-1.639825,1.633690,0.9510,0.8425,-0.1991,0.001534,0.585981,-0.555301,0.556835,-0.595185,0.558369,-0.559903
2.8159,0.020080,0.000000,-1.597891,1.597891,0.0000,0.0000,0.0000,-0.002537,-1.639825,1.633690,0.9510,0.8425,-0.1991,0.001534,0.585981,-0.555301,0.556835,-0.595185,0.558369,-0.559903
2.8359,0.020078,0.000000,-1.596840,1.596840,0.0000,0.0000,0.0000,-0.002537,-1.639825,1.633690,0.9510,0.8425,-0.1991,0.001534,0.585981,-0.555301,0.556835,-0.595185,0.558369,-0.559903
2.8560,0.020098,0.000000,-1.595788,1.595788,0.0000,0.0000,0.0000,-0.002537,-1.639825,1.633690,0.9510,0.8425,-0.1991,0.001534,0.585981,-0.555301,0.556835,-0.595185,0.558369,-0.559903
2.8761,0.020077,0.000000,-1.594736,1.594736,0.0000,0.0000,0.0000,-0.002537,-1.639825,1.633690,0.9510,0.8425,-0.1991,0.001534,0.585981,-0.555301,0.556835,-0.595185,0.558369,-0.559903
2.8962,0.020100,0.000000,-1.593684,1.593684,0.0000,0.0000,0.0000,-0.002537,-1.638291,1.633690,0.9510,0.8425,-0.1991,0.001534,0.585981,-0.555301,0.556835,-0.595185,0.558369,-0.559903
2.9163,0.020087,0.000000,-1.592632,1.592632,0.0000,0.0000,0.0000,-0.002537,-1.638291,1.633690,0.9510,0.8425,-0.1991,0.001534,0.585981,-0.555301,0.556835,-0.595185,0.558369,-0.559903
2.9365,0.020177,0.000000,-1.591576,1.591576,0.0000,0.0000,0.0000,-0.002537,-1.632156,1.633690,0.9510,0.8425,-0.1991,0.001534,0.585981,-0.555301,0.556835,-0.595185,0.558369,-0.559903
2.9566,0.020082,0.000000,-1.590524,1.590524,0.0000,0.0000,0.0000,-0.002537,-1.624486,1.633690,0.9510,0.8425,-0.1991,0.001534,0.585981,-0.555301,0.556835,-0.595185,0.558369,-0.559903
2.9766,0.020078,0.000000,-1.589473,1.589473,0.0000,0.0000,0.0000,-0.002537,-1.618350,1.633690,0.9510,0.8425,-0.1991,0.001534,0.585981,-0.555301,0.556835,-0.595185,0.558369,-0.559903
2.9968,0.020143,0.000000,-1.588418,1.588418,0.0000,0.0000,0.0000,-0.002537,-1.615282,1.632156,0.9510,0.8425,-0.1991,0.001534,0.585981,-0.555301,0.556835,-0.595185,0.558369,-0.559903
3.0169,0.020077,0.000000,-1.587367,1.587367,0.0000,0.0000,0.0000,-0.002537,-1.615282,1.630622,0.9510,0.8425,-0.1991,0.001534,0.585981,-0.555301,0.556835,-0.595185,0.558369,-0.559903
3.0369,0.020077,0.000000,-1.586316,1.586316,0.0000,0.0000,0.0000,-0.002537,-1.615282,1.627554,0.9510,0.8425,-0.1991,0.001534,0.585981,-0.555301,0.556835,-0.595185,0.558369,-0.559903
3.0570,0.020081,0.000000,-1.585264,1.585264,0.0000,0.0000,0.0000,-0.002537,-1.615282,1.621418,0.9510,0.8425,-0.1991,0.001534,0.585981,-0.555301,0.556835,-0.595185,0.558369,-0.559903
3.0771,0.020077,0.000000,-1.584213,1.584213,0.0000,0.0000,0.0000,-0.002537,-1.615282,1.618350,0.9510,0.8425,-0.1991,0.001534,0.585981,-0.555301,0.556835,-0.595185,0.558369,-0.559903
3.0972,0.020090,0.000000,-1.583161,1.583161,0.0000,0.0000,0.0000,-0.002537,-1.615282,1.613748,0.9510,0.8425,-0.1991,0.001534,0.585981,-0.555301,0.556835,-0.595185,0.558369,-0.559903
3.1173,0.020080,0.000000,-1.582110,1.582110,0.0000,0.0000,0.0000,-0.002537,-1.615282,1.610680,0.9510,0.8425,-0.1991,0.001534,0.585981,-0.555301,0.556835,-0.595185,0.558369,-0.559903
3.1373,0.020081,0.000000,-1.581058,1.581058,0.0000,0.0000,0.0000,-0.002537,-1.615282,1.609146,0.9510,0.8425,-0.1991,0.001534,0.585981,-0.555301,0.556835,-0.595185,0.558369,-0.559903
3.1577,0.020316,0.000000,-1.579995,1.579995,0.0000,0.0000,0.0000,-0.002537,-1.615282,1.609146,0.9510,0.8425,-0.1991,0.001534,0.585981,-0.555301,0.556835,-0.595185,0.558369,-0.559903
3.1777,0.020083,0.000000,-1.578943,1.578943,0.0000,0.0000,0.0000,-0.002537,-1.615282,1.609146,0.9510,0.8425,-0.1991,0.001534,0.585981,-0.555301,0.556835,-0.595185,0.558369,-0.559903
3.1978,0.020100,0.000000,-1.577891,1.577891,0.0000,0.0000,0.0000,-0.002537,-1.615282,1.609146,0.9510,0.8425,-0.1991,0.001534,0.585981,-0.555301,0.556835,-0.595185,0.558369,-0.559903
3.2179,0.020078,0.000000,-1.576839,1.576839,0.0000,0.0000,0.0000,-0.002537,-1.613748,1.609146,0.9510,0.8425,-0.1991,0.001534,0.585981,-0.555301,0.556835,-0.595185,0.558369,-0.559903
3.2380,0.020081,0.000000,-1.575788,1.575788,0.0000,0.0000,0.0000,-0.002537,-1.613748,1.609146,0.9510,0.8425,-0.1991,0.001534,0.585981,-0.555301,0.556835,-0.595185,0.558369,-0.559903
3.2584,0.020380,0.000000,-1.574721,1.574721,0.0000,0.0000,0.0000,-0.002537,-1.613748,1.609146,0.9510,0.8425,-0.1991,0.001534,0.585981,-0.555301,0.556835,-0.595185,0.558369,-0.559903
3.2785,0.020086,0.000000,-1.573669,1.573669,0.0000,0.0000,0.0000,-0.002550,-1.613748,1.609146,0.9921,0.8760,-0.2510,0.001534,0.585981,-0.555301,0.556835,-0.595185,0.556835,-0.559903
3.2987,0.020252,0.000000,-1.572609,1.572609,0.0000,0.0000,0.0000,-0.002535,-1.613748,1.607612,0.9472,0.8389,-0.1931,0.001534,0.585981,-0.555301,0.556835,-0.595185,0.558369,-0.559903
3.3188,0.020077,0.000000,-1.571558,1.571558,0.0000,0.0000,0.0000,-0.002537,-1.613748,1.607612,0.9519,0.8428,-0.1992,0.001534,0.585981,-0.555301,0.556835,-0.595185,0.558369,-0.559903
3.3389,0.020080,0.000000,-1.570506,1.570506,0.0000,0.0000,0.0000,-0.002537,-1.612214,1.609146,0.9519,0.8428,-0.1992,0.001534,0.585981,-0.555301,0.556835,-0.595185,0.558369,-0.559903
3.3592,0.020337,0.000000,-1.569441,1.569441,0.0000,0.0000,0.0000,-0.002537,-1.612214,1.607612,0.9519,0.8428,-0.1992,0.001534,0.585981,-0.555301,0.556835,-0.595185,0.558369,-0.559903
3.3793,0.020085,0.000000,-1.568390,1.568390,0.0000,0.0000,0.0000,-0.002537,-1.612214,1.607612,0.9519,0.8428,-0.1992,0.001534,0.585981,-0.555301,0.556835,-0.595185,0.558369,-0.559903
3.3996,0.020259,0.000000,-1.567329,1.567329,0.0000,0.0000,0.0000,-0.002537,-1.612214,1.607612,0.9519,0.8428,-0.1992,0.001534,0.585981,-0.555301,0.556835,-0.595185,0.558369,-0.559903
3.4196,0.020080,0.000000,-1.566277,1.566277,0.0000,0.0000,0.0000,-0.002537,-1.612214,1.607612,0.9519,0.8428,-0.1992,0.001534,0.585981,-0.555301,0.556835,-0.595185,0.558369,-0.559903
3.4397,0.020084,0.000000,-1.565226,1.565226,0.0000,0.0000,0.0000,-0.002537,-1.612214,1.607612,0.9519,0.8428,-0.1992,0.001534,0.585981,-0.555301,0.556835,-0.595185,0.558369,-0.559903
3.4599,0.020132,0.000000,-1.564172,1.564172,0.0000,0.0000,0.0000,-0.002537,-1.612214,1.607612,0.9519,0.8428,-0.1992,0.001534,0.585981,-0.555301,0.556835,-0.595185,0.558369,-0.559903
3.4799,0.020086,0.000000,-1.563120,1.563120,0.0000,0.0000,0.0000,-0.002537,-1.612214,1.607612,0.9519,0.8428,-0.1992,0.001534,0.585981,-0.555301,0.556835,-0.595185,0.558369,-0.559903
3.5002,0.020277,0.000000,-1.562058,1.562058,0.0000,0.0000,0.0000,-0.002537,-1.612214,1.607612,0.9519,0.8428,-0.1992,0.001534,0.585981,-0.555301,0.556835,-0.595185,0.558369,-0.559903
3.5203,0.020078,0.000000,-1.561007,1.561007,0.0000,0.0000,0.0000,-0.002537,-1.612214,1.607612,0.9519,0.8428,-0.1992,0.001534,0.585981,-0.555301,0.556835,-0.595185,0.558369,-0.559903
3.5404,0.020077,0.000000,-1.559956,1.559956,0.0000,0.0000,0.0000,-0.002537,-1.607612,1.607612,0.9519,0.8428,-0.1992,0.001534,0.585981,-0.555301,0.556835,-0.595185,0.558369,-0.559903
3.5605,0.020089,0.000000,-1.558904,1.558904,0.0000,0.0000,0.0000,-0.002537,-1.598408,1.607612,0.9519,0.8428,-0.1992,0.001534,0.585981,-0.555301,0.556835,-0.595185,0.558369,-0.559903
3.5805,0.020080,0.000000,-1.557853,1.557853,0.0000,0.0000,0.0000,-0.002550,-1.589204,1.607612,0.9920,0.8759,-0.2510,0.001534,0.585981,-0.555301,0.556835,-0.595185,0.556835,-0.559903
3.6006,0.020089,0.000000,-1.556801,1.556801,0.0000,0.0000,0.0000,-0.002535,-1.584602,1.606078,0.9473,0.8389,-0.1931,0.001534,0.585981,-0.555301,0.556835,-0.595185,0.558369,-0.559903
3.6208,0.020165,0.000000,-1.555745,1.555745,0.0000,0.0000,0.0000,-0.002537,-1.584602,1.606078,0.9519,0.8428,-0.1992,0.001534,0.585981,-0.555301,0.556835,-0.595185,0.558369,-0.559903
3.6409,0.020075,0.000000,-1.554694,1.554694,0.0000,0.0000,0.0000,-0.002537,-1.584602,1.606078,0.9519,0.8428,-0.1992,0.001534,0.585981,-0.555301,0.556835,-0.595185,0.558369,-0.559903
3.6610,0.020103,0.000000,-1.553641,1.553641,0.0000,0.0000,0.0000,-0.002537,-1.584602,1.606078,0.9519,0.8428,-0.1992,0.001534,0.585981,-0.555301,0.556835,-0.595185,0.558369,-0.559903
3.6811,0.020084,0.000000,-1.552590,1.552590,0.0000,0.0000,0.0000,-0.002537,-1.584602,1.604544,0.9519,0.8428,-0.1992,0.001534,0.585981,-0.555301,0.556835,-0.595185,0.558369,-0.559903
3.7013,0.020218,0.000000,-1.551531,1.551531,0.0000,0.0000,0.0000,-0.002537,-1.584602,1.599942,0.9519,0.8428,-0.1992,0.001534,0.585981,-0.555301,0.556835,-0.595185,0.558369,-0.559903
3.7215,0.020209,0.000000,-1.550473,1.550473,0.0000,0.0000,0.0000,-0.002537,-1.584602,1.592272,0.9519,0.8428,-0.1992,0.001534,0.585981,-0.555301,0.556835,-0.595185,0.558369,-0.559903
3.7416,0.020074,0.000000,-1.549422,1.549422,0.0000,0.0000,0.0000,-0.002537,-1.584602,1.584602,0.9519,0.8428,-0.1992,0.001534,0.585981,-0.555301,0.556835,-0.595185,0.558369,-0.559903
3.7619,0.020295,0.000000,-1.548359,1.548359,0.0000,0.0000,0.0000,-0.002537,-1.584602,1.581534,0.9519,0.8428,-0.1992,0.001534,0.585981,-0.555301,0.556835,-0.595185,0.558369,-0.559903
3.7819,0.020079,0.000000,-1.547308,1.547308,0.0000,0.0000,0.0000,-0.002537,-1.584602,1.581534,0.9519,0.8428,-0.1992,0.001534,0.585981,-0.555301,0.556835,-0.595185,0.558369,-0.559903
3.8020,0.020075,0.000000,-1.546257,1.546257,0.0000,0.0000,0.0000,-0.002537,-1.583068,1.581534,0.9519,0.8428,-0.1992,0.001534,0.585981,-0.555301,0.556835,-0.595185,0.558369,-0.559903
3.8225,0.020510,0.000000,-1.545183,1.545183,0.0000,0.0000,0.0000,-0.002537,-1.578466,1.581534,0.9519,0.8428,-0.1992,0.001534,0.585981,-0.555301,0.556835,-0.595185,0.558369,-0.559903
3.8426,0.020131,0.000000,-1.544129,1.544129,0.0000,0.0000,0.0000,-0.002537,-1.572330,1.581534,0.9519,0.8428,-0.1992,0.001534,0.585981,-0.555301,0.556835,-0.595185,0.558369,-0.559903
3.8629,0.020222,0.000000,-1.543070,1.543070,0.0000,0.0000,0.0000,-0.002537,-1.569262,1.581534,0.9519,0.8428,-0.1992,0.001534,0.585981,-0.555301,0.556835,-0.595185,0.558369,-0.559903
3.8829,0.020081,0.000000,-1.542018,1.542018,0.0000,0.0000,0.0000,-0.002537,-1.569262,1.581534,0.9519,0.8428,-0.1992,0.001534,0.585981,-0.555301,0.556835,-0.595185,0.558369,-0.559903
3.9030,0.020078,0.000000,-1.540967,1.540967,0.0000,0.0000,0.0000,-0.002537,-1.566194,1.581534,0.9519,0.8428,-0.1992,0.001534,0.585981,-0.555301,0.556835,-0.595185,0.558369,-0.559903
3.9241,0.021056,0.000000,-1.539865,1.539865,0.0000,0.0000,0.0000,-0.002537,-1.564660,1.581534,0.9519,0.8428,-0.1992,0.001534,0.585981,-0.555301,0.556835,-0.595185,0.558369,-0.559903
3.9442,0.020076,0.000000,-1.538814,1.538814,0.0000,0.0000,0.0000,-0.002537,-1.564660,1.581534,0.9519,0.8428,-0.1992,0.001534,0.585981,-0.555301,0.556835,-0.595185,0.558369,-0.559903
3.9642,0.020090,0.000000,-1.537762,1.537762,0.0000,0.0000,0.0000,-0.002537,-1.564660,1.581534,0.9519,0.8428,-0.1992,0.001534,0.585981,-0.555301,0.556835,-0.595185,0.558369,-0.559903
3.9843,0.020076,0.000000,-1.536710,1.536710,0.0000,0.0000,0.0000,-0.002537,-1.564660,1.581534,0.9519,0.8428,-0.1992,0.001534,0.585981,-0.555301,0.556835,-0.595185,0.558369,-0.559903
4.0044,0.020081,0.000000,-1.535659,1.535659,0.0000,0.0000,0.0000,-0.002537,-1.564660,1.581534,0.9519,0.8428,-0.1992,0.001534,0.585981,-0.555301,0.556835,-0.595185,0.558369,-0.559903
4.0245,0.020092,0.000000,-1.534607,1.534607,0.0000,0.0000,0.0000,-0.002537,-1.564660,1.581534,0.9519,0.8428,-0.1992,0.001534,0.585981,-0.555301,0.556835,-0.595185,0.558369,-0.559903
4.0446,0.020081,0.000000,-1.533556,1.533556,0.0000,0.0000,0.0000,-0.002537,-1.563126,1.580000,0.9519,0.8428,-0.1992,0.001534,0.585981,-0.555301,0.556835,-0.595185,0.558369,-0.559903
4.0647,0.020093,0.000000,-1.532503,1.532503,0.0000,0.0000,0.0000,-0.002537,-1.563126,1.580000,0.9519,0.8428,-0.1992,0.001534,0.585981,-0.555301,0.556835,-0.595185,0.558369,-0.559903
4.0847,0.020077,0.000000,-1.531452,1.531452,0.0000,0.0000,0.0000,-0.002537,-1.563126,1.581534,0.9519,0.8428,-0.1992,0.001534,0.585981,-0.555301,0.556835,-0.595185,0.558369,-0.559903
4.1048,0.020075,0.000000,-1.530401,1.530401,0.0000,0.0000,0.0000,-0.002537,-1.563126,1.580000,0.9519,0.8428,-0.1992,0.001534,0.585981,-0.555301,0.556835,-0.595185,0.558369,-0.559903
4.1249,0.020035,0.000000,-1.529352,1.529352,0.0000,0.0000,0.0000,-0.002537,-1.563126,1.580000,0.9519,0.8428,-0.1992,0.001534,0.585981,-0.555301,0.556835,-0.595185,0.558369,-0.559903
4.1449,0.020081,0.000000,-1.528301,1.528301,0.0000,0.0000,0.0000,-0.002537,-1.563126,1.580000,0.9519,0.8428,-0.1992,0.001534,0.585981,-0.555301,0.556835,-0.595185,0.558369,-0.559903
4.1653,0.020377,0.000000,-1.527234,1.527234,0.0000,0.0000,0.0000,-0.002537,-1.560058,1.580000,0.9519,0.8428,-0.1992,0.001534,0.585981,-0.555301,0.556835,-0.595185,0.558369,-0.559903
4.1854,0.020079,0.000000,-1.526182,1.526182,0.0000,0.0000,0.0000,-0.002537,-1.560058,1.578466,0.9519,0.8428,-0.1992,0.001534,0.585981,-0.555301,0.556835,-0.595185,0.558369,-0.559903
4.2055,0.020080,0.000000,-1.525131,1.525131,0.0000,0.0000,0.0000,-0.002537,-1.560058,1.578466,0.9519,0.8428,-0.1992,0.001534,0.585981,-0.555301,0.556835,-0.595185,0.558369,-0.559903
4.2256,0.020077,0.000000,-1.524080,1.524080,0.0000,0.0000,0.0000,-0.002537,-1.560058,1.576932,0.9519,0.8428,-0.1992,0.001534,0.585981,-0.555301,0.556835,-0.595185,0.558369,-0.559903
4.2456,0.020084,0.000000,-1.523028,1.523028,0.0000,0.0000,0.0000,-0.002537,-1.560058,1.570796,0.9519,0.8428,-0.1992,0.001534,0.585981,-0.555301,0.556835,-0.595185,0.558369,-0.559903
4.2660,0.020338,0.000000,-1.521963,1.521963,0.0000,0.0000,0.0000,-0.002537,-1.560058,1.561592,0.9519,0.8428,-0.1992,0.001534,0.585981,-0.555301,0.556835,-0.595185,0.558369,-0.559903
4.2860,0.020073,0.000000,-1.520912,1.520912,0.0000,0.0000,0.0000,-0.002537,-1.560058,1.552389,0.9519,0.8428,-0.1992,0.001534,0.585981,-0.555301,0.556835,-0.595185,0.558369,-0.559903
4.3061,0.020076,0.000000,-1.519861,1.519861,0.0000,0.0000,0.0000,-0.002537,-1.560058,1.550855,0.9519,0.8428,-0.1992,0.001534,0.585981,-0.555301,0.556835,-0.595185,0.558369,-0.559903
4.3262,0.020098,0.000000,-1.518809,1.518809,0.0000,0.0000,0.0000,-0.002537,-1.560058,1.550855,0.9519,0.8428,-0.1992,0.001534,0.585981,-0.555301,0.556835,-0.595185,0.558369,-0.559903
4.3464,0.020213,0.000000,-1.517750,1.517750,0.0000,0.0000,0.0000,-0.002537,-1.560058,1.550855,0.9519,0.8428,-0.1992,0.001534,0.585981,-0.555301,0.556835,-0.595185,0.558369,-0.559903
4.3665,0.020078,0.000000,-1.516699,1.516699,0.0000,0.0000,0.0000,-0.002537,-1.560058,1.550855,0.9519,0.8428,-0.1992,0.001534,0.585981,-0.555301,0.556835,-0.595185,0.558369,-0.559903
4.3867,0.020219,0.000000,-1.515640,1.515640,0.0000,0.0000,0.0000,-0.002550,-1.560058,1.550855,0.9920,0.8759,-0.2510,0.001534,0.585981,-0.555301,0.556835,-0.595185,0.556835,-0.559903
4.4068,0.020077,0.000000,-1.514589,1.514589,0.0000,0.0000,0.0000,-0.002535,-1.560058,1.550855,0.9473,0.8389,-0.1931,0.001534,0.585981,-0.555301,0.556835,-0.595185,0.558369,-0.559903
4.4272,0.020419,0.000000,-1.513520,1.513520,0.0000,0.0000,0.0000,-0.002537,-1.560058,1.550855,0.9519,0.8428,-0.1992,0.001534,0.585981,-0.555301,0.556835,-0.595185,0.558369,-0.559903
4.4473,0.020084,0.000000,-1.512468,1.512468,0.0000,0.0000,0.0000,-0.002537,-1.558524,1.550855,0.9519,0.8428,-0.1992,0.001534,0.585981,-0.555301,0.556835,-0.595185,0.558369,-0.559903
4.4674,0.020112,0.000000,-1.511415,1.511415,0.0000,0.0000,0.0000,-0.002537,-1.556990,1.550855,0.9519,0.8428,-0.1992,0.001534,0.585981,-0.555301,0.556835,-0.595185,0.558369,-0.559903
4.4875,0.020095,0.000000,-1.510363,1.510363,0.0000,0.0000,0.0000,-0.002537,-1.550855,1.550855,0.9519,0.8428,-0.1992,0.001534,0.585981,-0.555301,0.556835,-0.595185,0.558369,-0.559903
4.5076,0.020081,0.000000,-1.509312,1.509312,0.0000,0.0000,0.0000,-0.002537,-1.543185,1.549321,0.9519,0.8428,-0.1992,0.001534,0.585981,-0.555301,0.556835,-0.595185,0.558369,-0.559903
4.5277,0.020075,0.000000,-1.508261,1.508261,0.0000,0.0000,0.0000,-0.002537,-1.535515,1.546253,0.9519,0.8428,-0.1992,0.001534,0.585981,-0.555301,0.556835,-0.595185,0.558369,-0.559903
4.5478,0.020086,0.000000,-1.507209,1.507209,0.0000,0.0000,0.0000,-0.002537,-1.532447,1.543185,0.9519,0.8428,-0.1992,0.001534,0.585981,-0.555301,0.556835,-0.595185,0.558369,-0.559903
4.5678,0.020078,0.000000,-1.506158,1.506158,0.0000,0.0000,0.0000,-0.002537,-1.532447,1.537049,0.9519,0.8428,-0.1992,0.001534,0.585981,-0.555301,0.556835,-0.595185,0.558369,-0.559903
4.5882,0.020310,0.000000,-1.505094,1.505094,0.0000,0.0000,0.0000,-0.002537,-1.532447,1.535515,0.9519,0.8428,-0.1992,0.001534,0.585981,-0.555301,0.556835,-0.595185,0.558369,-0.559903
4.6082,0.020076,0.000000,-1.504043,1.504043,0.0000,0.0000,0.0000,-0.002526,-1.532447,1.530913,1.0011,0.8268,-0.1444,0.001534,0.587515,-0.555301,0.556835,-0.595185,0.558369,-0.559903
4.6283,0.020097,0.000000,-1.502991,1.502991,0.0000,0.0000,0.0000,-0.002538,-1.532447,1.529379,0.9463,0.8440,-0.2042,0.001534,0.585981,-0.555301,0.556835,-0.595185,0.558369,-0.559903
4.6484,0.020081,0.000000,-1.501939,1.501939,0.0000,0.0000,0.0000,-0.002537,-1.532447,1.529379,0.9520,0.8422,-0.1980,0.001534,0.585981,-0.555301,0.556835,-0.595185,0.558369,-0.559903
4.6685,0.020079,0.000000,-1.500888,1.500888,0.0000,0.0000,0.0000,-0.002537,-1.532447,1.529379,0.9520,0.8422,-0.1980,0.001534,0.585981,-0.555301,0.556835,-0.595185,0.558369,-0.559903
4.6892,0.020738,0.000000,-1.499802,1.499802,0.0000,0.0000,0.0000,-0.002537,-1.532447,1.529379,0.9520,0.8422,-0.1980,0.001534,0.585981,-0.555301,0.556835,-0.595185,0.558369,-0.559903
4.7093,0.020087,0.000000,-1.498750,1.498750,0.0000,0.0000,0.0000,-0.002537,-1.532447,1.529379,0.9520,0.8422,-0.1980,0.001534,0.585981,-0.555301,0.556835,-0.595185,0.558369,-0.559903
4.7294,0.020087,0.000000,-1.497699,1.497699,0.0000,0.0000,0.0000,-0.002537,-1.532447,1.529379,0.9520,0.8422,-0.1980,0.001534,0.585981,-0.555301,0.556835,-0.595185,0.558369,-0.559903
4.7495,0.020077,0.000000,-1.496647,1.496647,0.0000,0.0000,0.0000,-0.002537,-1.532447,1.529379,0.9520,0.8422,-0.1980,0.001534,0.585981,-0.555301,0.556835,-0.595185,0.558369,-0.559903
4.7696,0.020077,0.000000,-1.495596,1.495596,0.0000,0.0000,0.0000,-0.002537,-1.532447,1.529379,0.9520,0.8422,-0.1980,0.001534,0.585981,-0.555301,0.556835,-0.595185,0.558369,-0.559903
4.7896,0.020093,0.000000,-1.494544,1.494544,0.0000,0.0000,0.0000,-0.002537,-1.532447,1.529379,0.9520,0.8422,-0.1980,0.001534,0.585981,-0.555301,0.556835,-0.595185,0.558369,-0.559903
4.8097,0.020088,0.000000,-1.493492,1.493492,0.0000,0.0000,0.0000,-0.002537,-1.532447,1.527845,0.9520,0.8422,-0.1980,0.001534,0.585981,-0.555301,0.556835,-0.595185,0.558369,-0.559903
4.8303,0.020588,0.000000,-1.492414,1.492414,0.0000,0.0000,0.0000,-0.002537,-1.532447,1.527845,0.9520,0.8422,-0.1980,0.001534,0.585981,-0.555301,0.556835,-0.595185,0.558369,-0.559903
4.8504,0.020082,0.000000,-1.491363,1.491363,0.0000,0.0000,0.0000,-0.002537,-1.532447,1.526311,0.9520,0.8422,-0.1980,0.001534,0.585981,-0.555301,0.556835,-0.595185,0.558369,-0.559903
4.8706,0.020168,0.000000,-1.490307,1.490307,0.0000,0.0000,0.0000,-0.002537,-1.530913,1.526311,0.9520,0.8422,-0.1980,0.001534,0.585981,-0.555301,0.556835,-0.595185,0.558369,-0.559903
4.8907,0.020083,0.000000,-1.489255,1.489255,0.0000,0.0000,0.0000,-0.002537,-1.524777,1.526311,0.9520,0.8422,-0.1980,0.001534,0.585981,-0.555301,0.556835,-0.595185,0.558369,-0.559903
4.9107,0.020077,0.000000,-1.488204,1.488204,0.0000,0.0000,0.0000,-0.002537,-1.517107,1.526311,0.9520,0.8422,-0.1980,0.001534,0.585981,-0.555301,0.556835,-0.595185,0.558369,-0.559903
4.9308,0.020098,0.000000,-1.487152,1.487152,0.0000,0.0000,0.0000,-0.002537,-1.510971,1.526311,0.9520,0.8422,-0.1980,0.001534,0.585981,-0.555301,0.556835,-0.595185,0.558369,-0.559903
4.9509,0.020080,0.000000,-1.486100,1.486100,0.0000,0.0000,0.0000,-0.002537,-1.509437,1.526311,0.9520,0.8422,-0.1980,0.001534,0.585981,-0.555301,0.556835,-0.595185,0.558369,-0.559903
4.9710,0.020087,0.000000,-1.485049,1.485049,0.0000,0.0000,0.0000,-0.002537,-1.509437,1.526311,0.9520,0.8422,-0.1980,0.001534,0.585981,-0.555301,0.556835,-0.595185,0.558369,-0.559903
4.9911,0.020085,0.000000,-1.483997,1.483997,0.0000,0.0000,0.0000,-0.002537,-1.509437,1.526311,0.9520,0.8422,-0.1980,0.001534,0.585981,-0.555301,0.556835,-0.595185,0.558369,-0.559903
5.0112,0.020082,0.000000,-1.482946,1.482946,0.0000,0.0000,0.0000,-0.002537,-1.509437,1.526311,0.9520,0.8422,-0.1980,0.001534,0.585981,-0.555301,0.556835,-0.595185,0.558369,-0.559903
5.0314,0.020265,0.000000,-1.481884,1.481884,0.0000,0.0000,0.0000,-0.002537,-1.509437,1.526311,0.9520,0.8422,-0.1980,0.001534,0.585981,-0.555301,0.556835,-0.595185,0.558369,-0.559903
5.0515,0.020077,0.000000,-1.480833,1.480833,0.0000,0.0000,0.0000,-0.002537,-1.509437,1.526311,0.9520,0.8422,-0.1980,0.001534,0.585981,-0.555301,0.556835,-0.595185,0.558369,-0.559903
5.0716,0.020079,0.000000,-1.479782,1.479782,0.0000,0.0000,0.0000,-0.002537,-1.509437,1.526311,0.9520,0.8422,-0.1980,0.001534,0.585981,-0.555301,0.556835,-0.595185,0.558369,-0.559903
5.0917,0.020088,0.000000,-1.478730,1.478730,0.0000,0.0000,0.0000,-0.002537,-1.509437,1.526311,0.9520,0.8422,-0.1980,0.001534,0.585981,-0.555301,0.556835,-0.595185,0.558369,-0.559903
5.1118,0.020082,0.000000,-1.477679,1.477679,0.0000,0.0000,0.0000,-0.002537,-1.507903,1.526311,0.9520,0.8422,-0.1980,0.001534,0.585981,-0.555301,0.556835,-0.595185,0.558369,-0.559903
5.1319,0.020112,0.000000,-1.476626,1.476626,0.0000,0.0000,0.0000,-0.002537,-1.507903,1.526311,0.9520,0.8422,-0.1980,0.001534,0.585981,-0.555301,0.556835,-0.595185,0.558369,-0.559903
5.1522,0.020344,0.000000,-1.475560,1.475560,0.0000,0.0000,0.0000,-0.002537,-1.507903,1.524777,0.9520,0.8422,-0.1980,0.001534,0.585981,-0.555301,0.556835,-0.595185,0.558369,-0.559903
5.1723,0.020076,0.000000,-1.474509,1.474509,0.0000,0.0000,0.0000,-0.002537,-1.507903,1.524777,0.9520,0.8422,-0.1980,0.001534,0.585981,-0.555301,0.556835,-0.595185,0.558369,-0.559903
5.1924,0.020079,0.000000,-1.473458,1.473458,0.0000,0.0000,0.0000,-0.002537,-1.507903,1.520175,0.9520,0.8422,-0.1980,0.001534,0.585981,-0.555301,0.556835,-0.595185,0.558369,-0.559903
5.2124,0.020082,0.000000,-1.472406,1.472406,0.0000,0.0000,0.0000,-0.002537,-1.507903,1.514039,0.9520,0.8422,-0.1980,0.001534,0.585981,-0.555301,0.556835,-0.595185,0.558369,-0.559903
5.2325,0.020094,0.000000,-1.471354,1.471354,0.0000,0.0000,0.0000,-0.002537,-1.507903,1.506369,0.9520,0.8422,-0.1980,0.001534,0.585981,-0.555301,0.556835,-0.595185,0.558369,-0.559903
5.2527,0.020149,0.000000,-1.470299,1.470299,0.0000,0.0000,0.0000,-0.002537,-1.507903,1.500233,0.9520,0.8422,-0.1980,0.001534,0.585981,-0.555301,0.556835,-0.595185,0.558369,-0.559903
5.2728,0.020080,0.000000,-1.469248,1.469248,0.0000,0.0000,0.0000,-0.002537,-1.507903,1.498699,0.9520,0.8422,-0.1980,0.001534,0.585981,-0.555301,0.556835,-0.595185,0.558369,-0.559903
5.2930,0.020237,0.000000,-1.468188,1.468188,0.0000,0.0000,0.0000,-0.002537,-1.506369,1.498699,0.9520,0.8422,-0.1980,0.001534,0.585981,-0.555301,0.556835,-0.595185,0.558369,-0.559903
5.3131,0.020090,0.000000,-1.467136,1.467136,0.0000,0.0000,0.0000,-0.002537,-1.506369,1.498699,0.9520,0.8422,-0.1980,0.001534,0.585981,-0.555301,0.556835,-0.595185,0.558369,-0.559903
5.3332,0.020105,0.000000,-1.466084,1.466084,0.0000,0.0000,0.0000,-0.002537,-1.506369,1.498699,0.9520,0.8422,-0.1980,0.001534,0.585981,-0.555301,0.556835,-0.595185,0.558369,-0.559903
5.3533,0.020085,0.000000,-1.465032,1.465032,0.0000,0.0000,0.0000,-0.002537,-1.506369,1.498699,0.9520,0.8422,-0.1980,0.001534,0.585981,-0.555301,0.556835,-0.595185,0.558369,-0.559903
5.3734,0.020074,0.000000,-1.463981,1.463981,0.0000,0.0000,0.0000,-0.002537,-1.506369,1.498699,0.9520,0.8422,-0.1980,0.001534,0.585981,-0.555301,0.556835,-0.595185,0.558369,-0.559903
5.3938,0.020407,0.000000,-1.462912,1.462912,0.0000,0.0000,0.0000,-0.002537,-1.506369,1.498699,0.9520,0.8422,-0.1980,0.001534,0.585981,-0.555301,0.556835,-0.595185,0.558369,-0.559903
5.4139,0.020104,0.000000,-1.461860,1.461860,0.0000,0.0000,0.0000,-0.002537,-1.504835,1.498699,0.9520,0.8422,-0.1980,0.001534,0.585981,-0.555301,0.556835,-0.595185,0.558369,-0.559903
5.4340,0.020114,0.000000,-1.460807,1.460807,0.0000,0.0000,0.0000,-0.002537,-1.504835,1.498699,0.9520,0.8422,-0.1980,0.001534,0.585981,-0.555301,0.556835,-0.595185,0.558369,-0.559903
5.4541,0.020106,0.000000,-1.459754,1.459754,0.0000,0.0000,0.0000,-0.002537,-1.500233,1.498699,0.9520,0.8422,-0.1980,0.001534,0.585981,-0.555301,0.556835,-0.595185,0.558369,-0.559903
5.4742,0.020108,0.000000,-1.458701,1.458701,0.0000,0.0000,0.0000,-0.002537,-1.491029,1.498699,0.9520,0.8422,-0.1980,0.001534,0.585981,-0.555301,0.556835,-0.595185,0.558369,-0.559903
5.4944,0.020156,0.000000,-1.457646,1.457646,0.0000,0.0000,0.0000,-0.002537,-1.483359,1.498699,0.9520,0.8422,-0.1980,0.001534,0.585981,-0.555301,0.556835,-0.595185,0.558369,-0.559903
5.5144,0.020097,0.000000,-1.456593,1.456593,0.0000,0.0000,0.0000,-0.002537,-1.480291,1.498699,0.9520,0.8422,-0.1980,0.001534,0.585981,-0.555301,0.556835,-0.595185,0.558369,-0.559903
5.5346,0.020103,0.000000,-1.455541,1.455541,0.0000,0.0000,0.0000,-0.002537,-1.480291,1.498699,0.9520,0.8422,-0.1980,0.001534,0.585981,-0.555301,0.556835,-0.595185,0.558369,-0.559903
5.5547,0.020099,0.000000,-1.454488,1.454488,0.0000,0.0000,0.0000,-0.002537,-1.480291,1.498699,0.9520,0.8422,-0.1980,0.001534,0.585981,-0.555301,0.556835,-0.595185,0.558369,-0.559903
5.5747,0.020097,0.000000,-1.453436,1.453436,0.0000,0.0000,0.0000,-0.002537,-1.480291,1.498699,0.9520,0.8422,-0.1980,0.001534,0.585981,-0.555301,0.556835,-0.595185,0.558369,-0.559903
5.5949,0.020116,0.000000,-1.452383,1.452383,0.0000,0.0000,0.0000,-0.002537,-1.480291,1.498699,0.9520,0.8422,-0.1980,0.001534,0.585981,-0.555301,0.556835,-0.595185,0.558369,-0.559903
5.6150,0.020101,0.000000,-1.451330,1.451330,0.0000,0.0000,0.0000,-0.002537,-1.480291,1.498699,0.9520,0.8422,-0.1980,0.001534,0.585981,-0.555301,0.556835,-0.595185,0.558369,-0.559903
5.6350,0.020081,0.000000,-1.450279,1.450279,0.0000,0.0000,0.0000,-0.002537,-1.480291,1.498699,0.9520,0.8422,-0.1980,0.001534,0.585981,-0.555301,0.556835,-0.595185,0.558369,-0.559903
5.6552,0.020118,0.000000,-1.449226,1.449226,0.0000,0.0000,0.0000,-0.002537,-1.480291,1.498699,0.9520,0.8422,-0.1980,0.001534,0.585981,-0.555301,0.556835,-0.595185,0.558369,-0.559903
5.6752,0.020068,0.000000,-1.448175,1.448175,0.0000,0.0000,0.0000,-0.002537,-1.480291,1.497165,0.9520,0.8422,-0.1980,0.001534,0.585981,-0.555301,0.556835,-0.595185,0.558369,-0.559903
5.6953,0.020099,0.000000,-1.447122,1.447122,0.0000,0.0000,0.0000,-0.002537,-1.480291,1.495631,0.9520,0.8422,-0.1980,0.001534,0.585981,-0.555301,0.556835,-0.595185,0.558369,-0.559903
5.7154,0.020102,0.000000,-1.446070,1.446070,0.0000,0.0000,0.0000,-0.002537,-1.480291,1.486427,0.9520,0.8422,-0.1980,0.001534,0.585981,-0.555301,0.556835,-0.595185,0.558369,-0.559903
5.7356,0.020121,0.000000,-1.445016,1.445016,0.0000,0.0000,0.0000,-0.002537,-1.480291,1.486427,0.9520,0.8422,-0.1980,0.001534,0.585981,-0.555301,0.556835,-0.595185,0.558369,-0.559903
5.7557,0.020110,0.000000,-1.443963,1.443963,0.0000,0.0000,0.0000,-0.002537,-1.478757,1.478757,0.9520,0.8422,-0.1980,0.001534,0.585981,-0.555301,0.556835,-0.595185,0.558369,-0.559903
5.7758,0.020098,0.000000,-1.442911,1.442911,0.0000,0.0000,0.0000,-0.002537,-1.478757,1.468020,0.9520,0.8422,-0.1980,0.001534,0.585981,-0.555301,0.556835,-0.595185,0.558369,-0.559903
5.7959,0.020099,0.000000,-1.441859,1.441859,0.0000,0.0000,0.0000,-0.002537,-1.480291,1.466486,0.9520,0.8422,-0.1980,0.001534,0.585981,-0.556835,0.556835,-0.595185,0.558369,-0.559903
5.8160,0.020098,0.000000,-1.440806,1.440806,0.0000,0.0000,0.0000,-0.002523,-1.478757,1.466486,0.9908,0.8068,-0.2518,0.001534,0.585981,-0.556835,0.556835,-0.595185,0.558369,-0.559903
5.8361,0.020101,0.000000,-1.439754,1.439754,0.0000,0.0000,0.0000,-0.002511,-1.478757,1.464952,1.0264,0.7746,-0.2999,0.001534,0.585981,-0.558369,0.556835,-0.595185,0.558369,-0.559903
5.8562,0.020101,0.000000,-1.438701,1.438701,0.0000,0.0000,0.0000,-0.002511,-1.478757,1.464952,1.0264,0.7746,-0.2999,0.001534,0.585981,-0.558369,0.556835,-0.595185,0.558369,-0.559903
5.8763,0.020103,0.000000,-1.437649,1.437649,0.0000,0.0000,0.0000,-0.002513,-1.480291,1.463418,1.0222,0.7783,-0.2943,0.001534,0.585981,-0.558369,0.556835,-0.595185,0.558369,-0.559903
5.8964,0.020094,0.000000,-1.436597,1.436597,0.0000,0.0000,0.0000,-0.002513,-1.478757,1.460350,1.0222,0.7783,-0.2943,0.001534,0.585981,-0.558369,0.556835,-0.595185,0.558369,-0.559903
5.9165,0.020098,0.000000,-1.435544,1.435544,0.0000,0.0000,0.0000,-0.002513,-1.478757,1.460350,1.0222,0.7783,-0.2943,0.001534,0.585981,-0.558369,0.556835,-0.595185,0.558369,-0.559903
5.9374,0.020929,0.000000,-1.434449,1.434449,0.0000,0.0000,0.0000,-0.002513,-1.478757,1.460350,1.0222,0.7783,-0.2943,0.001534,0.585981,-0.558369,0.556835,-0.595185,0.558369,-0.559903
5.9575,0.020093,0.000000,-1.433396,1.433396,0.0000,0.0000,0.0000,-0.002513,-1.478757,1.460350,1.0222,0.7783,-0.2943,0.001534,0.585981,-0.558369,0.556835,-0.595185,0.558369,-0.559903
5.9776,0.020096,0.000000,-1.432344,1.432344,0.0000,0.0000,0.0000,-0.002513,-1.472622,1.460350,1.0222,0.7783,-0.2943,0.001534,0.585981,-0.558369,0.556835,-0.595185,0.558369,-0.559903
5.9977,0.020090,0.000000,-1.431292,1.431292,0.0000,0.0000,0.0000,-0.002513,-1.464952,1.460350,1.0222,0.7783,-0.2943,0.001534,0.585981,-0.558369,0.556835,-0.595185,0.558369,-0.559903
6.0178,0.020087,0.000000,-1.430241,1.430241,0.0000,0.0000,0.0000,-0.002513,-1.455748,1.460350,1.0222,0.7783,-0.2943,0.001534,0.585981,-0.558369,0.556835,-0.595185,0.558369,-0.559903
6.0379,0.020100,0.000000,-1.429188,1.429188,0.0000,0.0000,0.0000,-0.002513,-1.454214,1.460350,1.0222,0.7783,-0.2943,0.001534,0.585981,-0.558369,0.556835,-0.595185,0.558369,-0.559903
6.0579,0.020095,0.000000,-1.428136,1.428136,0.0000,0.0000,0.0000,-0.002513,-1.452680,1.460350,1.0222,0.7783,-0.2943,0.001534,0.585981,-0.558369,0.556835,-0.595185,0.558369,-0.559903
6.0780,0.020087,0.000000,-1.427084,1.427084,0.0000,0.0000,0.0000,-0.002513,-1.452680,1.460350,1.0222,0.7783,-0.2943,0.001534,0.585981,-0.558369,0.556835,-0.595185,0.558369,-0.559903
6.0981,0.020086,0.000000,-1.426032,1.426032,0.0000,0.0000,0.0000,-0.002499,-1.452680,1.460350,1.0619,0.7424,-0.3481,0.001534,0.585981,-0.559903,0.556835,-0.595185,0.558369,-0.559903
6.1182,0.020084,0.000000,-1.424981,1.424981,0.0000,0.0000,0.0000,-0.002514,-1.452680,1.458816,1.0186,0.7817,-0.2893,0.001534,0.585981,-0.558369,0.556835,-0.595185,0.558369,-0.559903
6.1383,0.020094,0.000000,-1.423929,1.423929,0.0000,0.0000,0.0000,-0.002512,-1.452680,1.458816,1.0231,0.7776,-0.2954,0.001534,0.585981,-0.558369,0.556835,-0.595185,0.558369,-0.559903
6.1584,0.020100,0.000000,-1.422876,1.422876,0.0000,0.0000,0.0000,-0.002512,-1.452680,1.458816,1.0231,0.7776,-0.2954,0.001534,0.585981,-0.558369,0.556835,-0.595185,0.558369,-0.559903
6.1785,0.020090,0.000000,-1.421824,1.421824,0.0000,0.0000,0.0000,-0.002512,-1.452680,1.458816,1.0231,0.7776,-0.2954,0.001534,0.585981,-0.558369,0.556835,-0.595185,0.558369,-0.559903
6.1986,0.020086,0.000000,-1.420773,1.420773,0.0000,0.0000,0.0000,-0.002512,-1.452680,1.458816,1.0231,0.7776,-0.2954,0.001534,0.585981,-0.558369,0.556835,-0.595185,0.558369,-0.559903
6.2187,0.020089,0.000000,-1.419721,1.419721,0.0000,0.0000,0.0000,-0.002512,-1.452680,1.458816,1.0231,0.7776,-0.2954,0.001534,0.585981,-0.558369,0.556835,-0.595185,0.558369,-0.559903
6.2387,0.020087,0.000000,-1.418669,1.418669,0.0000,0.0000,0.0000,-0.002512,-1.452680,1.458816,1.0231,0.7776,-0.2954,0.001534,0.585981,-0.558369,0.556835,-0.595185,0.558369,-0.559903
6.2588,0.020087,0.000000,-1.417617,1.417617,0.0000,0.0000,0.0000,-0.002512,-1.452680,1.458816,1.0231,0.7776,-0.2954,0.001534,0.585981,-0.558369,0.556835,-0.595185,0.558369,-0.559903
6.2789,0.020094,0.000000,-1.416565,1.416565,0.0000,0.0000,0.0000,-0.002512,-1.452680,1.458816,1.0231,0.7776,-0.2954,0.001534,0.585981,-0.558369,0.556835,-0.595185,0.558369,-0.559903
6.2990,0.020084,0.000000,-1.415514,1.415514,0.0000,0.0000,0.0000,-0.002512,-1.452680,1.454214,1.0231,0.7776,-0.2954,0.001534,0.585981,-0.558369,0.556835,-0.595185,0.558369,-0.559903
6.3191,0.020082,0.000000,-1.414462,1.414462,0.0000,0.0000,0.0000,-0.002499,-1.452680,1.448078,1.0618,0.7425,-0.3480,0.001534,0.585981,-0.559903,0.556835,-0.595185,0.558369,-0.559903
6.3392,0.020091,0.000000,-1.413410,1.413410,0.0000,0.0000,0.0000,-0.002514,-1.452680,1.443476,1.0186,0.7817,-0.2893,0.001534,0.585981,-0.558369,0.556835,-0.595185,0.558369,-0.559903
6.3594,0.020245,0.000000,-1.412350,1.412350,0.0000,0.0000,0.0000,-0.002512,-1.452680,1.443476,1.0231,0.7776,-0.2954,0.001534,0.585981,-0.558369,0.556835,-0.595185,0.558369,-0.559903
6.3795,0.020085,0.000000,-1.411299,1.411299,0.0000,0.0000,0.0000,-0.002512,-1.452680,1.443476,1.0231,0.7776,-0.2954,0.001534,0.585981,-0.558369,0.556835,-0.595185,0.558369,-0.559903
6.3996,0.020088,0.000000,-1.410247,1.410247,0.0000,0.0000,0.0000,-0.002512,-1.452680,1.443476,1.0231,0.7776,-0.2954,0.001534,0.585981,-0.558369,0.556835,-0.595185,0.558369,-0.559903
6.4197,0.020087,0.000000,-1.409195,1.409195,0.0000,0.0000,0.0000,-0.002512,-1.452680,1.443476,1.0231,0.7776,-0.2954,0.001534,0.585981,-0.558369,0.556835,-0.595185,0.558369,-0.559903
6.4398,0.020149,0.000000,-1.408140,1.408140,0.0000,0.0000,0.0000,-0.002512,-1.452680,1.443476,1.0231,0.7776,-0.2954,0.001534,0.585981,-0.558369,0.556835,-0.595185,0.558369,-0.559903
6.4599,0.020087,0.000000,-1.407088,1.407088,0.0000,0.0000,0.0000,-0.002512,-1.452680,1.443476,1.0231,0.7776,-0.2954,0.001534,0.585981,-0.558369,0.556835,-0.595185,0.558369,-0.559903
6.4800,0.020110,0.000000,-1.406035,1.406035,0.0000,0.0000,0.0000,-0.002512,-1.452680,1.443476,1.0231,0.7776,-0.2954,0.001534,0.585981,-0.558369,0.556835,-0.595185,0.558369,-0.559903
6.5001,0.020082,0.000000,-1.404984,1.404984,0.0000,0.0000,0.0000,-0.002512,-1.452680,1.443476,1.0231,0.7776,-0.2954,0.001534,0.585981,-0.558369,0.556835,-0.595185,0.558369,-0.559903
6.5202,0.020093,0.000000,-1.403932,1.403932,0.0000,0.0000,0.0000,-0.002512,-1.451146,1.443476,1.0231,0.7776,-0.2954,0.001534,0.585981,-0.558369,0.556835,-0.595185,0.558369,-0.559903
6.5403,0.020076,0.000000,-1.402881,1.402881,0.0000,0.0000,0.0000,-0.002512,-1.451146,1.443476,1.0231,0.7776,-0.2954,0.001534,0.585981,-0.558369,0.556835,-0.595185,0.558369,-0.559903
