t,loop_dt,cmd_z,cmd_ant_l,cmd_ant_r,cmd_roll,cmd_pitch,cmd_yaw,pres_z,pres_ant_l,pres_ant_r,pres_roll,pres_pitch,pres_yaw,pres_j0,pres_j1,pres_j2,pres_j3,pres_j4,pres_j5,pres_j6
0.0000,0.000001,0.000000,-0.349066,0.349066,0.0000,0.0000,0.0000,-0.002639,-0.176408,0.171806,1.1738,0.9853,0.0427,0.001534,0.582913,-0.555301,0.556835,-0.595185,0.558369,-0.549165
0.0201,0.020086,0.000000,-0.348014,0.348014,0.0000,0.0000,0.0000,-0.002639,-0.176408,0.171806,1.1738,0.9853,0.0427,0.001534,0.582913,-0.555301,0.556835,-0.595185,0.558369,-0.549165
0.0402,0.020089,0.000000,-0.346962,0.346962,0.0000,0.0000,0.0000,-0.002639,-0.174874,0.171806,1.1738,0.9853,0.0427,0.001534,0.582913,-0.555301,0.556835,-0.595185,0.558369,-0.549165
0.0603,0.020093,0.000000,-0.345910,0.345910,0.0000,0.0000,0.0000,-0.002653,-0.179476,0.176408,1.1842,0.9330,-0.0103,0.001534,0.582913,-0.555301,0.555301,-0.595185,0.558369,-0.549165
0.0804,0.020085,0.000000,-0.344859,0.344859,0.0000,0.0000,0.0000,-0.002625,-0.228563,0.223961,1.1229,0.9723,-0.0047,0.001534,0.582913,-0.555301,0.556835,-0.595185,0.558369,-0.550699
0.1004,0.020086,0.000000,-0.343807,0.343807,0.0000,0.0000,0.0000,-0.002628,-0.309864,0.302194,1.1293,0.9681,-0.0053,0.001534,0.582913,-0.555301,0.556835,-0.595185,0.558369,-0.550699
0.1205,0.020087,0.000000,-0.342755,0.342755,0.0000,0.0000,0.0000,-0.002601,-0.371223,0.363553,1.0301,0.9323,-0.1124,0.001534,0.582913,-0.555301,0.556835,-0.595185,0.558369,-0.553767
0.1406,0.020091,0.000000,-0.341703,0.341703,0.0000,0.0000,0.0000,-0.002591,-0.383495,0.374291,0.9912,0.9180,-0.1548,0.001534,0.582913,-0.555301,0.556835,-0.595185,0.558369,-0.555301
0.1607,0.020098,0.000000,-0.340651,0.340651,0.0000,0.0000,0.0000,-0.002568,-0.372757,0.363553,0.9959,0.8860,-0.1499,0.001534,0.584447,-0.555301,0.556835,-0.595185,0.558369,-0.556835
0.1808,0.020094,0.000000,-0.339599,0.339599,0.0000,0.0000,0.0000,-0.002573,-0.357418,0.354350,1.0561,0.8218,-0.1499,0.001534,0.585981,-0.555301,0.555301,-0.595185,0.558369,-0.556835
0.2009,0.020090,0.000000,-0.338547,0.338547,0.0000,0.0000,0.0000,-0.002559,-0.345146,0.348214,1.0388,0.8806,-0.0964,0.001534,0.585981,-0.555301,0.556835,-0.595185,0.558369,-0.556835
0.2210,0.020092,0.000000,-0.337495,0.337495,0.0000,0.0000,0.0000,-0.002563,-0.339010,0.340544,1.1014,0.8070,-0.1014,0.001534,0.587515,-0.555301,0.555301,-0.595185,0.558369,-0.556835
0.2411,0.020081,0.000000,-0.336443,0.336443,0.0000,0.0000,0.0000,-0.002562,-0.345146,0.339010,1.0948,0.8147,-0.1009,0.001534,0.587515,-0.555301,0.555301,-0.595185,0.558369,-0.556835
0.2612,0.020087,0.000000,-0.335392,0.335392,0.0000,0.0000,0.0000,-0.002549,-0.345146,0.339010,1.0845,0.8660,-0.0474,0.001534,0.587515,-0.555301,0.556835,-0.595185,0.558369,-0.556835
0.2813,0.020091,0.000000,-0.334340,0.334340,0.0000,0.0000,0.0000,-0.002561,-0.342078,0.339010,1.0359,0.8760,-0.1071,0.001534,0.585981,-0.555301,0.556835,-0.595185,0.558369,-0.556835
0.3013,0.020089,0.000000,-0.333288,0.333288,0.0000,0.0000,0.0000,-0.002549,-0.342078,0.339010,1.0906,0.8596,-0.0468,0.001534,0.587515,-0.555301,0.556835,-0.595185,0.558369,-0.556835
0.3215,0.020119,0.000000,-0.332234,0.332234,0.0000,0.0000,0.0000,-0.002550,-0.340544,0.339010,1.0849,0.8613,-0.0530,0.001534,0.587515,-0.555301,0.556835,-0.595185,0.558369,-0.556835
0.3416,0.020123,0.000000,-0.331181,0.331181,0.0000,0.0000,0.0000,-0.002550,-0.340544,0.337476,1.0849,0.8613,-0.0530,0.001534,0.587515,-0.555301,0.556835,-0.595185,0.558369,-0.556835
0.3617,0.020092,0.000000,-0.330129,0.330129,0.0000,0.0000,0.0000,-0.002550,-0.340544,0.337476,1.0849,0.8613,-0.0530,0.001534,0.587515,-0.555301,0.556835,-0.595185,0.558369,-0.556835
0.3818,0.020092,0.000000,-0.329077,0.329077,0.0000,0.0000,0.0000,-0.002550,-0.340544,0.337476,1.0849,0.8613,-0.0530,0.001534,0.587515,-0.555301,0.556835,-0.595185,0.558369,-0.556835
0.4019,0.020090,0.000000,-0.328025,0.328025,0.0000,0.0000,0.0000,-0.002550,-0.340544,0.337476,1.0849,0.8613,-0.0530,0.001534,0.587515,-0.555301,0.556835,-0.595185,0.558369,-0.556835
0.4220,0.020148,0.000000,-0.326970,0.326970,0.0000,0.0000,0.0000,-0.002561,-0.340544,0.337476,1.0358,0.8765,-0.1065,0.001534,0.585981,-0.555301,0.556835,-0.595185,0.558369,-0.556835
0.4421,0.020087,0.000000,-0.325918,0.325918,0.0000,0.0000,0.0000,-0.002549,-0.340544,0.337476,1.0906,0.8595,-0.0468,0.001534,0.587515,-0.555301,0.556835,-0.595185,0.558369,-0.556835
0.4622,0.020083,0.000000,-0.324867,0.324867,0.0000,0.0000,0.0000,-0.002550,-0.340544,0.335942,1.0849,0.8613,-0.0530,0.001534,0.587515,-0.555301,0.556835,-0.595185,0.558369,-0.556835
0.4823,0.020085,0.000000,-0.323815,0.323815,0.0000,0.0000,0.0000,-0.002550,-0.340544,0.337476,1.0849,0.8613,-0.0530,0.001534,0.587515,-0.555301,0.556835,-0.595185,0.558369,-0.556835
0.5023,0.020077,0.000000,-0.322764,0.322764,0.0000,0.0000,0.0000,-0.002550,-0.340544,0.335942,1.0849,0.8613,-0.0530,0.001534,0.587515,-0.555301,0.556835,-0.595185,0.558369,-0.556835
0.5225,0.020135,0.000000,-0.321709,0.321709,0.0000,0.0000,0.0000,-0.002550,-0.340544,0.337476,1.0849,0.8613,-0.0530,0.001534,0.587515,-0.555301,0.556835,-0.595185,0.558369,-0.556835
0.5426,0.020082,0.000000,-0.320658,0.320658,0.0000,0.0000,0.0000,-0.002550,-0.340544,0.335942,1.0849,0.8613,-0.0530,0.001534,0.587515,-0.555301,0.556835,-0.595185,0.558369,-0.556835
0.5626,0.020088,0.000000,-0.319606,0.319606,0.0000,0.0000,0.0000,-0.002550,-0.340544,0.335942,1.0849,0.8613,-0.0530,0.001534,0.587515,-0.555301,0.556835,-0.595185,0.558369,-0.556835
0.5827,0.020083,0.000000,-0.318555,0.318555,0.0000,0.0000,0.0000,-0.002550,-0.340544,0.335942,1.0849,0.8613,-0.0530,0.001534,0.587515,-0.555301,0.556835,-0.595185,0.558369,-0.556835
0.6028,0.020076,0.000000,-0.317503,0.317503,0.0000,0.0000,0.0000,-0.002550,-0.339010,0.335942,1.0849,0.8613,-0.0530,0.001534,0.587515,-0.555301,0.556835,-0.595185,0.558369,-0.556835
0.6229,0.020091,0.000000,-0.316451,0.316451,0.0000,0.0000,0.0000,-0.002550,-0.339010,0.335942,1.0849,0.8613,-0.0530,0.001534,0.587515,-0.555301,0.556835,-0.595185,0.558369,-0.556835
0.6430,0.020080,0.000000,-0.315400,0.315400,0.0000,0.0000,0.0000,-0.002550,-0.332874,0.335942,1.0849,0.8613,-0.0530,0.001534,0.587515,-0.555301,0.556835,-0.595185,0.558369,-0.556835
0.6631,0.020087,0.000000,-0.314348,0.314348,0.0000,0.0000,0.0000,-0.002550,-0.325204,0.334408,1.0849,0.8613,-0.0530,0.001534,0.587515,-0.555301,0.556835,-0.595185,0.558369,-0.556835
0.6831,0.020081,0.000000,-0.313297,0.313297,0.0000,0.0000,0.0000,-0.002550,-0.319068,0.331340,1.0849,0.8613,-0.0530,0.001534,0.587515,-0.555301,0.556835,-0.595185,0.558369,-0.556835
0.7032,0.020080,0.000000,-0.312246,0.312246,0.0000,0.0000,0.0000,-0.002537,-0.317534,0.328272,1.1249,0.8255,-0.1055,0.001534,0.587515,-0.556835,0.556835,-0.595185,0.558369,-0.556835
0.7233,0.020090,0.000000,-0.311194,0.311194,0.0000,0.0000,0.0000,-0.002538,-0.317534,0.322136,1.1207,0.8292,-0.1001,0.001534,0.587515,-0.556835,0.556835,-0.595185,0.558369,-0.556835
0.7434,0.020090,0.000000,-0.310142,0.310142,0.0000,0.0000,0.0000,-0.002538,-0.317534,0.319068,1.1207,0.8292,-0.1001,0.001534,0.587515,-0.556835,0.556835,-0.595185,0.558369,-0.556835
0.7635,0.020089,0.000000,-0.309090,0.309090,0.0000,0.0000,0.0000,-0.002525,-0.317534,0.314466,1.1604,0.7932,-0.1538,0.001534,0.587515,-0.558369,0.556835,-0.595185,0.558369,-0.556835
0.7836,0.020081,0.000000,-0.308038,0.308038,0.0000,0.0000,0.0000,-0.002513,-0.317534,0.312932,1.1955,0.7613,-0.2015,0.001534,0.587515,-0.559903,0.556835,-0.595185,0.558369,-0.556835
0.8036,0.020080,0.000000,-0.306987,0.306987,0.0000,0.0000,0.0000,-0.002514,-0.316000,0.312932,1.1918,0.7646,-0.1965,0.001534,0.587515,-0.559903,0.556835,-0.595185,0.558369,-0.556835
0.8237,0.020078,0.000000,-0.305936,0.305936,0.0000,0.0000,0.0000,-0.002501,-0.316000,0.312932,1.2314,0.7286,-0.2504,0.001534,0.587515,-0.561437,0.556835,-0.595185,0.558369,-0.556835
0.8438,0.020079,0.000000,-0.304884,0.304884,0.0000,0.0000,0.0000,-0.002502,-0.316000,0.312932,1.2273,0.7324,-0.2448,0.001534,0.587515,-0.561437,0.556835,-0.595185,0.558369,-0.556835
0.8639,0.020082,0.000000,-0.303833,0.303833,0.0000,0.0000,0.0000,-0.002502,-0.316000,0.312932,1.2273,0.7324,-0.2448,0.001534,0.587515,-0.561437,0.556835,-0.595185,0.558369,-0.556835
0.8840,0.020082,0.000000,-0.302781,0.302781,0.0000,0.0000,0.0000,-0.002502,-0.314466,0.312932,1.2273,0.7324,-0.2448,0.001534,0.587515,-0.561437,0.556835,-0.595185,0.558369,-0.556835
0.9040,0.020082,0.000000,-0.301730,0.301730,0.0000,0.0000,0.0000,-0.002502,-0.314466,0.312932,1.2273,0.7324,-0.2448,0.001534,0.587515,-0.561437,0.556835,-0.595185,0.558369,-0.556835
0.9241,0.020078,0.000000,-0.300679,0.300679,0.0000,0.0000,0.0000,-0.002502,-0.312932,0.311398,1.2273,0.7324,-0.2448,0.001534,0.587515,-0.561437,0.556835,-0.595185,0.558369,-0.556835
0.9442,0.020045,0.000000,-0.299629,0.299629,0.0000,0.0000,0.0000,-0.002502,-0.312932,0.311398,1.2273,0.7324,-0.2448,0.001534,0.587515,-0.561437,0.556835,-0.595185,0.558369,-0.556835
0.9642,0.020077,0.000000,-0.298578,0.298578,0.0000,0.0000,0.0000,-0.002502,-0.312932,0.311398,1.2273,0.7324,-0.2448,0.001534,0.587515,-0.561437,0.556835,-0.595185,0.558369,-0.556835
0.9843,0.020079,0.000000,-0.297527,0.297527,0.0000,0.0000,0.0000,-0.002489,-0.312932,0.311398,1.2668,0.6964,-0.2987,0.001534,0.587515,-0.562971,0.556835,-0.595185,0.558369,-0.556835
1.0044,0.020081,0.000000,-0.296475,0.296475,0.0000,0.0000,0.0000,-0.002503,-0.312932,0.309864,1.2236,0.7357,-0.2397,0.001534,0.587515,-0.561437,0.556835,-0.595185,0.558369,-0.556835
1.0245,0.020079,0.000000,-0.295424,0.295424,0.0000,0.0000,0.0000,-0.002502,-0.312932,0.308330,1.2281,0.7316,-0.2459,0.001534,0.587515,-0.561437,0.556835,-0.595185,0.558369,-0.556835
1.0445,0.020045,0.000000,-0.294374,0.294374,0.0000,0.0000,0.0000,-0.002502,-0.312932,0.308330,1.2281,0.7316,-0.2459,0.001534,0.587515,-0.561437,0.556835,-0.595185,0.558369,-0.556835
1.0646,0.020084,0.000000,-0.293323,0.293323,0.0000,0.0000,0.0000,-0.002502,-0.312932,0.308330,1.2281,0.7316,-0.2459,0.001534,0.587515,-0.561437,0.556835,-0.595185,0.558369,-0.556835
1.0847,0.020076,0.000000,-0.292271,0.292271,0.0000,0.0000,0.0000,-0.002502,-0.312932,0.308330,1.2281,0.7316,-0.2459,0.001534,0.587515,-0.561437,0.556835,-0.595185,0.558369,-0.556835
1.1048,0.020081,0.000000,-0.291220,0.291220,0.0000,0.0000,0.0000,-0.002502,-0.312932,0.308330,1.2281,0.7316,-0.2459,0.001534,0.587515,-0.561437,0.556835,-0.595185,0.558369,-0.556835
1.1249,0.020079,0.000000,-0.290169,0.290169,0.0000,0.0000,0.0000,-0.002502,-0.311398,0.308330,1.2281,0.7316,-0.2459,0.001534,0.587515,-0.561437,0.556835,-0.595185,0.558369,-0.556835
1.1450,0.020143,0.000000,-0.289114,0.289114,0.0000,0.0000,0.0000,-0.002516,-0.311398,0.308330,1.2385,0.6799,-0.2988,0.001534,0.587515,-0.561437,0.555301,-0.595185,0.558369,-0.556835
1.1652,0.020207,0.000000,-0.288056,0.288056,0.0000,0.0000,0.0000,-0.002501,-0.309864,0.308330,1.2265,0.7375,-0.2397,0.001534,0.587515,-0.561437,0.556835,-0.595185,0.558369,-0.556835
1.1853,0.020082,0.000000,-0.287004,0.287004,0.0000,0.0000,0.0000,-0.002502,-0.303728,0.306796,1.2278,0.7314,-0.3338,0.000000,0.587515,-0.561437,0.556835,-0.595185,0.558369,-0.556835
1.2054,0.020104,0.000000,-0.285952,0.285952,0.0000,0.0000,0.0000,-0.002502,-0.296058,0.303728,1.2278,0.7314,-0.2459,0.001534,0.587515,-0.561437,0.556835,-0.595185,0.558369,-0.556835
1.2255,0.020083,0.000000,-0.284900,0.284900,0.0000,0.0000,0.0000,-0.002502,-0.289922,0.300660,1.2278,0.7314,-0.2459,0.001534,0.587515,-0.561437,0.556835,-0.595185,0.558369,-0.556835
1.2455,0.020061,0.000000,-0.283850,0.283850,0.0000,0.0000,0.0000,-0.002502,-0.288388,0.294524,1.2278,0.7314,-0.2459,0.001534,0.587515,-0.561437,0.556835,-0.595185,0.558369,-0.556835
1.2656,0.020081,0.000000,-0.282798,0.282798,0.0000,0.0000,0.0000,-0.002502,-0.288388,0.292990,1.2278,0.7314,-0.2459,0.001534,0.587515,-0.561437,0.556835,-0.595185,0.558369,-0.556835
1.2857,0.020084,0.000000,-0.281747,0.281747,0.0000,0.0000,0.0000,-0.002502,-0.288388,0.289922,1.2278,0.7314,-0.2459,0.001534,0.587515,-0.561437,0.556835,-0.595185,0.558369,-0.556835
1.3058,0.020080,0.000000,-0.280695,0.280695,0.0000,0.0000,0.0000,-0.002502,-0.286854,0.286854,1.2278,0.7314,-0.2459,0.001534,0.587515,-0.561437,0.556835,-0.595185,0.558369,-0.556835
1.3260,0.020231,0.000000,-0.279636,0.279636,0.0000,0.0000,0.0000,-0.002502,-0.286854,0.286854,1.2278,0.7314,-0.2459,0.001534,0.587515,-0.561437,0.556835,-0.595185,0.558369,-0.556835
1.3461,0.020083,0.000000,-0.278585,0.278585,0.0000,0.0000,0.0000,-0.002502,-0.286854,0.285320,1.2278,0.7314,-0.2459,0.001534,0.587515,-0.561437,0.556835,-0.595185,0.558369,-0.556835
1.3663,0.020181,0.000000,-0.277528,0.277528,0.0000,0.0000,0.0000,-0.002502,-0.286854,0.285320,1.2278,0.7314,-0.2459,0.001534,0.587515,-0.561437,0.556835,-0.595185,0.558369,-0.556835
1.3865,0.020271,0.000000,-0.276467,0.276467,0.0000,0.0000,0.0000,-0.002502,-0.285320,0.285320,1.2278,0.7314,-0.2459,0.001534,0.587515,-0.561437,0.556835,-0.595185,0.558369,-0.556835
1.4066,0.020078,0.000000,-0.275415,0.275415,0.0000,0.0000,0.0000,-0.002502,-0.285320,0.285320,1.2278,0.7314,-0.2459,0.001534,0.587515,-0.561437,0.556835,-0.595185,0.558369,-0.556835
1.4267,0.020097,0.000000,-0.274363,0.274363,0.0000,0.0000,0.0000,-0.002502,-0.283786,0.283786,1.2278,0.7314,-0.2459,0.001534,0.587515,-0.561437,0.556835,-0.595185,0.558369,-0.556835
1.4468,0.020082,0.000000,-0.273312,0.273312,0.0000,0.0000,0.0000,-0.002502,-0.283786,0.283786,1.2278,0.7314,-0.2459,0.001534,0.587515,-0.561437,0.556835,-0.595185,0.558369,-0.556835
1.4669,0.020082,0.000000,-0.272260,0.272260,0.0000,0.0000,0.0000,-0.002502,-0.283786,0.282252,1.2278,0.7314,-0.2459,0.001534,0.587515,-0.561437,0.556835,-0.595185,0.558369,-0.556835
1.4869,0.020064,0.000000,-0.271210,0.271210,0.0000,0.0000,0.0000,-0.002502,-0.283786,0.282252,1.2278,0.7314,-0.2459,0.001534,0.587515,-0.561437,0.556835,-0.595185,0.558369,-0.556835
1.5070,0.020080,0.000000,-0.270158,0.270158,0.0000,0.0000,0.0000,-0.002502,-0.283786,0.282252,1.2278,0.7314,-0.2459,0.001534,0.587515,-0.561437,0.556835,-0.595185,0.558369,-0.556835
1.5271,0.020098,0.000000,-0.269106,0.269106,0.0000,0.0000,0.0000,-0.002502,-0.283786,0.282252,1.2278,0.7314,-0.2459,0.001534,0.587515,-0.561437,0.556835,-0.595185,0.558369,-0.556835
1.5472,0.020078,0.000000,-0.268055,0.268055,0.0000,0.0000,0.0000,-0.002502,-0.283786,0.282252,1.2278,0.7314,-0.2459,0.001534,0.587515,-0.561437,0.556835,-0.595185,0.558369,-0.556835
1.5673,0.020084,0.000000,-0.267003,0.267003,0.0000,0.0000,0.0000,-0.002502,-0.283786,0.282252,1.2278,0.7314,-0.2459,0.001534,0.587515,-0.561437,0.556835,-0.595185,0.558369,-0.556835
1.5874,0.020079,0.000000,-0.265952,0.265952,0.0000,0.0000,0.0000,-0.002502,-0.283786,0.282252,1.2278,0.7314,-0.2459,0.001534,0.587515,-0.561437,0.556835,-0.595185,0.558369,-0.556835
1.6074,0.020079,0.000000,-0.264900,0.264900,0.0000,0.0000,0.0000,-0.002502,-0.283786,0.282252,1.2278,0.7314,-0.2459,0.001534,0.587515,-0.561437,0.556835,-0.595185,0.558369,-0.556835
1.6275,0.020102,0.000000,-0.263848,0.263848,0.0000,0.0000,0.0000,-0.002502,-0.283786,0.282252,1.2278,0.7314,-0.2459,0.001534,0.587515,-0.561437,0.556835,-0.595185,0.558369,-0.556835
1.6477,0.020180,0.000000,-0.262791,0.262791,0.0000,0.0000,0.0000,-0.002502,-0.282252,0.282252,1.2278,0.7314,-0.2459,0.001534,0.587515,-0.561437,0.556835,-0.595185,0.558369,-0.556835
1.6678,0.020084,0.000000,-0.261740,0.261740,0.0000,0.0000,0.0000,-0.002502,-0.282252,0.282252,1.2278,0.7314,-0.2459,0.001534,0.587515,-0.561437,0.556835,-0.595185,0.558369,-0.556835
1.6881,0.020287,0.000000,-0.260677,0.260677,0.0000,0.0000,0.0000,-0.002502,-0.280718,0.282252,1.2278,0.7314,-0.2459,0.001534,0.587515,-0.561437,0.556835,-0.595185,0.558369,-0.556835
1.7082,0.020075,0.000000,-0.259626,0.259626,0.0000,0.0000,0.0000,-0.002502,-0.277651,0.280718,1.2278,0.7314,-0.2459,0.001534,0.587515,-0.561437,0.556835,-0.595185,0.558369,-0.556835
1.7283,0.020098,0.000000,-0.258574,0.258574,0.0000,0.0000,0.0000,-0.002502,-0.269981,0.279185,1.2278,0.7314,-0.2459,0.001534,0.587515,-0.561437,0.556835,-0.595185,0.558369,-0.556835
1.7485,0.020238,0.000000,-0.257514,0.257514,0.0000,0.0000,0.0000,-0.002502,-0.262311,0.274583,1.2278,0.7314,-0.2459,0.001534,0.587515,-0.561437,0.556835,-0.595185,0.558369,-0.556835
1.7686,0.020083,0.000000,-0.256463,0.256463,0.0000,0.0000,0.0000,-0.002502,-0.260777,0.269981,1.2278,0.7314,-0.2459,0.001534,0.587515,-0.561437,0.556835,-0.595185,0.558369,-0.556835
1.7887,0.020088,0.000000,-0.255411,0.255411,0.0000,0.0000,0.0000,-0.002502,-0.260777,0.259243,1.2278,0.7314,-0.2459,0.001534,0.587515,-0.561437,0.556835,-0.595185,0.558369,-0.556835
1.8088,0.020140,0.000000,-0.254356,0.254356,0.0000,0.0000,0.0000,-0.002502,-0.260777,0.256175,1.2278,0.7314,-0.2459,0.001534,0.587515,-0.561437,0.556835,-0.595185,0.558369,-0.556835
1.8289,0.020093,0.000000,-0.253304,0.253304,0.0000,0.0000,0.0000,-0.002502,-0.260777,0.256175,1.2278,0.7314,-0.2459,0.001534,0.587515,-0.561437,0.556835,-0.595185,0.558369,-0.556835
1.8491,0.020153,0.000000,-0.252249,0.252249,0.0000,0.0000,0.0000,-0.002502,-0.260777,0.256175,1.2278,0.7314,-0.2459,0.001534,0.587515,-0.561437,0.556835,-0.595185,0.558369,-0.556835
1.8691,0.020079,0.000000,-0.251198,0.251198,0.0000,0.0000,0.0000,-0.002502,-0.259243,0.256175,1.2278,0.7314,-0.2459,0.001534,0.587515,-0.561437,0.556835,-0.595185,0.558369,-0.556835
1.8892,0.020093,0.000000,-0.250146,0.250146,0.0000,0.0000,0.0000,-0.002502,-0.259243,0.256175,1.2278,0.7314,-0.2459,0.001534,0.587515,-0.561437,0.556835,-0.595185,0.558369,-0.556835
1.9093,0.020081,0.000000,-0.249094,0.249094,0.0000,0.0000,0.0000,-0.002502,-0.259243,0.254641,1.2278,0.7314,-0.2459,0.001534,0.587515,-0.561437,0.556835,-0.595185,0.558369,-0.556835
1.9297,0.020339,0.000000,-0.248029,0.248029,0.0000,0.0000,0.0000,-0.002502,-0.257709,0.256175,1.2278,0.7314,-0.2459,0.001534,0.587515,-0.561437,0.556835,-0.595185,0.558369,-0.556835
1.9497,0.020087,0.000000,-0.246977,0.246977,0.0000,0.0000,0.0000,-0.002502,-0.256175,0.256175,1.2278,0.7314,-0.2459,0.001534,0.587515,-0.561437,0.556835,-0.595185,0.558369,-0.556835
1.9698,0.020083,0.000000,-0.245926,0.245926,0.0000,0.0000,0.0000,-0.002502,-0.256175,0.256175,1.2278,0.7314,-0.2459,0.001534,0.587515,-0.561437,0.556835,-0.595185,0.558369,-0.556835
1.9900,0.020221,0.000000,-0.244867,0.244867,0.0000,0.0000,0.0000,-0.002502,-0.256175,0.256175,1.2278,0.7314,-0.2459,0.001534,0.587515,-0.561437,0.556835,-0.595185,0.558369,-0.556835
2.0101,0.020093,0.000000,-0.243815,0.243815,0.0000,0.0000,0.0000,-0.002502,-0.256175,0.256175,1.2278,0.7314,-0.2459,0.001534,0.587515,-0.561437,0.556835,-0.595185,0.558369,-0.556835
2.0305,0.020335,0.000000,-0.242750,0.242750,0.0000,0.0000,0.0000,-0.002502,-0.256175,0.256175,1.2278,0.7314,-0.2459,0.001534,0.587515,-0.561437,0.556835,-0.595185,0.558369,-0.556835
2.0508,0.020312,0.000000,-0.241687,0.241687,0.0000,0.0000,0.0000,-0.002502,-0.256175,0.254641,1.2278,0.7314,-0.2459,0.001534,0.587515,-0.561437,0.556835,-0.595185,0.558369,-0.556835
2.0709,0.020080,0.000000,-0.240635,0.240635,0.0000,0.0000,0.0000,-0.002502,-0.256175,0.254641,1.2278,0.7314,-0.2459,0.001534,0.587515,-0.561437,0.556835,-0.595185,0.558369,-0.556835
2.0910,0.020092,0.000000,-0.239583,0.239583,0.0000,0.0000,0.0000,-0.002502,-0.256175,0.254641,1.2278,0.7314,-0.2459,0.001534,0.587515,-0.561437,0.556835,-0.595185,0.558369,-0.556835
2.1112,0.020224,0.000000,-0.238525,0.238525,0.0000,0.0000,0.0000,-0.002502,-0.256175,0.254641,1.2278,0.7314,-0.2459,0.001534,0.587515,-0.561437,0.556835,-0.595185,0.558369,-0.556835
2.1313,0.020093,0.000000,-0.237473,0.237473,0.0000,0.0000,0.0000,-0.002502,-0.256175,0.254641,1.2278,0.7314,-0.2459,0.001534,0.587515,-0.561437,0.556835,-0.595185,0.558369,-0.556835
2.1514,0.020087,0.000000,-0.236421,0.236421,0.0000,0.0000,0.0000,-0.002502,-0.254641,0.253107,1.2278,0.7314,-0.2459,0.001534,0.587515,-0.561437,0.556835,-0.595185,0.558369,-0.556835
2.1714,0.020082,0.000000,-0.235369,0.235369,0.0000,0.0000,0.0000,-0.002502,-0.253107,0.253107,1.2278,0.7314,-0.2459,0.001534,0.587515,-0.561437,0.556835,-0.595185,0.558369,-0.556835
2.1915,0.020086,0.000000,-0.234318,0.234318,0.0000,0.0000,0.0000,-0.002502,-0.245437,0.253107,1.2278,0.7314,-0.2459,0.001534,0.587515,-0.561437,0.556835,-0.595185,0.558369,-0.556835
2.2116,0.020084,0.000000,-0.233266,0.233266,0.0000,0.0000,0.0000,-0.002502,-0.239301,0.251573,1.2278,0.7314,-0.2459,0.001534,0.587515,-0.561437,0.556835,-0.595185,0.558369,-0.556835
2.2317,0.020089,0.000000,-0.232214,0.232214,0.0000,0.0000,0.0000,-0.002502,-0.234699,0.248505,1.2278,0.7314,-0.2459,0.001534,0.587515,-0.561437,0.556835,-0.595185,0.558369,-0.556835
2.2518,0.020081,0.000000,-0.231163,0.231163,0.0000,0.0000,0.0000,-0.002502,-0.234699,0.243903,1.2278,0.7314,-0.2459,0.001534,0.587515,-0.561437,0.556835,-0.595185,0.558369,-0.556835
2.2719,0.020088,0.000000,-0.230111,0.230111,0.0000,0.0000,0.0000,-0.002502,-0.234699,0.240835,1.2278,0.7314,-0.2459,0.001534,0.587515,-0.561437,0.556835,-0.595185,0.558369,-0.556835
2.2920,0.020089,0.000000,-0.229059,0.229059,0.0000,0.0000,0.0000,-0.002502,-0.233165,0.236233,1.2278,0.7314,-0.2459,0.001534,0.587515,-0.561437,0.556835,-0.595185,0.558369,-0.556835
2.3120,0.020084,0.000000,-0.228007,0.228007,0.0000,0.0000,0.0000,-0.002502,-0.233165,0.233165,1.2278,0.7314,-0.2459,0.001534,0.587515,-0.561437,0.556835,-0.595185,0.558369,-0.556835
2.3321,0.020084,0.000000,-0.226956,0.226956,0.0000,0.0000,0.0000,-0.002502,-0.233165,0.231631,1.2278,0.7314,-0.2459,0.001534,0.587515,-0.561437,0.556835,-0.595185,0.558369,-0.556835
2.3522,0.020087,0.000000,-0.225904,0.225904,0.0000,0.0000,0.0000,-0.002489,-0.231631,0.231631,1.1785,0.7141,-0.2988,0.001534,0.587515,-0.561437,0.556835,-0.595185,0.558369,-0.558369
2.3723,0.020081,0.000000,-0.224853,0.224853,0.0000,0.0000,0.0000,-0.002490,-0.230097,0.231631,1.1836,0.7159,-0.2933,0.001534,0.587515,-0.561437,0.556835,-0.595185,0.558369,-0.558369
2.3924,0.020085,0.000000,-0.223801,0.223801,0.0000,0.0000,0.0000,-0.002490,-0.230097,0.231631,1.1836,0.7159,-0.2933,0.001534,0.587515,-0.561437,0.556835,-0.595185,0.558369,-0.558369
2.4125,0.020084,0.000000,-0.222749,0.222749,0.0000,0.0000,0.0000,-0.002490,-0.230097,0.230097,1.1836,0.7159,-0.2933,0.001534,0.587515,-0.561437,0.556835,-0.595185,0.558369,-0.558369
2.4326,0.020085,0.000000,-0.221698,0.221698,0.0000,0.0000,0.0000,-0.002490,-0.230097,0.230097,1.1836,0.7159,-0.2933,0.001534,0.587515,-0.561437,0.556835,-0.595185,0.558369,-0.558369
2.4526,0.020092,0.000000,-0.220646,0.220646,0.0000,0.0000,0.0000,-0.002490,-0.230097,0.230097,1.1836,0.7159,-0.2933,0.001534,0.587515,-0.561437,0.556835,-0.595185,0.558369,-0.558369
2.4727,0.020082,0.000000,-0.219594,0.219594,0.0000,0.0000,0.0000,-0.002490,-0.230097,0.228563,1.1836,0.7159,-0.2933,0.001534,0.587515,-0.561437,0.556835,-0.595185,0.558369,-0.558369
2.4928,0.020095,0.000000,-0.218542,0.218542,0.0000,0.0000,0.0000,-0.002477,-0.230097,0.228563,1.1339,0.6978,-0.3475,0.001534,0.587515,-0.561437,0.556835,-0.595185,0.558369,-0.559903
2.5129,0.020088,0.000000,-0.217490,0.217490,0.0000,0.0000,0.0000,-0.002479,-0.230097,0.228563,1.1391,0.6997,-0.3419,0.001534,0.587515,-0.561437,0.556835,-0.595185,0.558369,-0.559903
2.5330,0.020078,0.000000,-0.216439,0.216439,0.0000,0.0000,0.0000,-0.002479,-0.230097,0.227029,1.1391,0.6997,-0.3419,0.001534,0.587515,-0.561437,0.556835,-0.595185,0.558369,-0.559903
2.5531,0.020104,0.000000,-0.215386,0.215386,0.0000,0.0000,0.0000,-0.002479,-0.230097,0.227029,1.1391,0.6997,-0.3419,0.001534,0.587515,-0.561437,0.556835,-0.595185,0.558369,-0.559903
2.5732,0.020080,0.000000,-0.214335,0.214335,0.0000,0.0000,0.0000,-0.002479,-0.230097,0.227029,1.1391,0.6997,-0.3419,0.001534,0.587515,-0.561437,0.556835,-0.595185,0.558369,-0.559903
2.5933,0.020090,0.000000,-0.213283,0.213283,0.0000,0.0000,0.0000,-0.002479,-0.228563,0.227029,1.1391,0.6997,-0.3419,0.001534,0.587515,-0.561437,0.556835,-0.595185,0.558369,-0.559903
2.6133,0.020090,0.000000,-0.212231,0.212231,0.0000,0.0000,0.0000,-0.002479,-0.228563,0.227029,1.1391,0.6997,-0.3419,0.001534,0.587515,-0.561437,0.556835,-0.595185,0.558369,-0.559903
2.6334,0.020077,0.000000,-0.211180,0.211180,0.0000,0.0000,0.0000,-0.002479,-0.223961,0.227029,1.1391,0.6997,-0.3419,0.001534,0.587515,-0.561437,0.556835,-0.595185,0.558369,-0.559903
2.6536,0.020151,0.000000,-0.210125,0.210125,0.0000,0.0000,0.0000,-0.002479,-0.216291,0.227029,1.1391,0.6997,-0.3419,0.001534,0.587515,-0.561437,0.556835,-0.595185,0.558369,-0.559903
2.6737,0.020160,0.000000,-0.209069,0.209069,0.0000,0.0000,0.0000,-0.002479,-0.211689,0.227029,1.1391,0.6997,-0.3419,0.001534,0.587515,-0.561437,0.556835,-0.595185,0.558369,-0.559903
2.6939,0.020185,0.000000,-0.208012,0.208012,0.0000,0.0000,0.0000,-0.002479,-0.211689,0.227029,1.1391,0.6997,-0.3419,0.001534,0.587515,-0.561437,0.556835,-0.595185,0.558369,-0.559903
2.7140,0.020085,0.000000,-0.206961,0.206961,0.0000,0.0000,0.0000,-0.002479,-0.210155,0.225495,1.1391,0.6997,-0.3419,0.001534,0.587515,-0.561437,0.556835,-0.595185,0.558369,-0.559903
2.7341,0.020076,0.000000,-0.205910,0.205910,0.0000,0.0000,0.0000,-0.002479,-0.208621,0.222427,1.1391,0.6997,-0.3419,0.001534,0.587515,-0.561437,0.556835,-0.595185,0.558369,-0.559903
2.7542,0.020087,0.000000,-0.204858,0.204858,0.0000,0.0000,0.0000,-0.002479,-0.208621,0.219359,1.1391,0.6997,-0.3419,0.001534,0.587515,-0.561437,0.556835,-0.595185,0.558369,-0.559903
2.7743,0.020097,0.000000,-0.203806,0.203806,0.0000,0.0000,0.0000,-0.002479,-0.208621,0.213223,1.1391,0.6997,-0.3419,0.001534,0.587515,-0.561437,0.556835,-0.595185,0.558369,-0.559903
2.7944,0.020089,0.000000,-0.202754,0.202754,0.0000,0.0000,0.0000,-0.002479,-0.207087,0.208621,1.1391,0.6997,-0.3419,0.001534,0.587515,-0.561437,0.556835,-0.595185,0.558369,-0.559903
2.8144,0.020088,0.000000,-0.201702,0.201702,0.0000,0.0000,0.0000,-0.002479,-0.207087,0.205553,1.1391,0.6997,-0.3419,0.001534,0.587515,-0.561437,0.556835,-0.595185,0.558369,-0.559903
2.8345,0.020035,0.000000,-0.200653,0.200653,0.0000,0.0000,0.0000,-0.002465,-0.205553,0.204019,1.1777,0.6639,-0.3958,0.001534,0.587515,-0.562971,0.556835,-0.595185,0.558369,-0.559903
2.8546,0.020089,0.000000,-0.199601,0.199601,0.0000,0.0000,0.0000,-0.002480,-0.205553,0.204019,1.1346,0.7032,-0.3368,0.001534,0.587515,-0.561437,0.556835,-0.595185,0.558369,-0.559903
2.8746,0.020080,0.000000,-0.198550,0.198550,0.0000,0.0000,0.0000,-0.002478,-0.204019,0.204019,1.1391,0.6991,-0.3430,0.001534,0.587515,-0.561437,0.556835,-0.595185,0.558369,-0.559903
2.8947,0.020091,0.000000,-0.197498,0.197498,0.0000,0.0000,0.0000,-0.002478,-0.202485,0.204019,1.1391,0.6991,-0.3430,0.001534,0.587515,-0.561437,0.556835,-0.595185,0.558369,-0.559903
2.9148,0.020078,0.000000,-0.196446,0.196446,0.0000,0.0000,0.0000,-0.002478,-0.202485,0.204019,1.1391,0.6991,-0.3430,0.001534,0.587515,-0.561437,0.556835,-0.595185,0.558369,-0.559903
2.9349,0.020081,0.000000,-0.195395,0.195395,0.0000,0.0000,0.0000,-0.002478,-0.202485,0.202485,1.1391,0.6991,-0.3430,0.001534,0.587515,-0.561437,0.556835,-0.595185,0.558369,-0.559903
2.9550,0.020087,0.000000,-0.194343,0.194343,0.0000,0.0000,0.0000,-0.002478,-0.202485,0.202485,1.1391,0.6991,-0.3430,0.001534,0.587515,-0.561437,0.556835,-0.595185,0.558369,-0.559903
2.9751,0.020081,0.000000,-0.193292,0.193292,0.0000,0.0000,0.0000,-0.002478,-0.202485,0.202485,1.1391,0.6991,-0.3430,0.001534,0.587515,-0.561437,0.556835,-0.595185,0.558369,-0.559903
2.9952,0.020088,0.000000,-0.192240,0.192240,0.0000,0.0000,0.0000,-0.002478,-0.202485,0.200951,1.1391,0.6991,-0.3430,0.001534,0.587515,-0.561437,0.556835,-0.595185,0.558369,-0.559903
3.0152,0.020091,0.000000,-0.191188,0.191188,0.0000,0.0000,0.0000,-0.002478,-0.202485,0.199418,1.1391,0.6991,-0.3430,0.001534,0.587515,-0.561437,0.556835,-0.595185,0.558369,-0.559903
3.0353,0.020078,0.000000,-0.190137,0.190137,0.0000,0.0000,0.0000,-0.002478,-0.202485,0.199418,1.1391,0.6991,-0.3430,0.001534,0.587515,-0.561437,0.556835,-0.595185,0.558369,-0.559903
3.0556,0.020267,0.000000,-0.189076,0.189076,0.0000,0.0000,0.0000,-0.002478,-0.200951,0.199418,1.1391,0.6991,-0.3430,0.001534,0.587515,-0.561437,0.556835,-0.595185,0.558369,-0.559903
3.0757,0.020079,0.000000,-0.188024,0.188024,0.0000,0.0000,0.0000,-0.002478,-0.200951,0.199418,1.1391,0.6991,-0.3430,0.001534,0.587515,-0.561437,0.556835,-0.595185,0.558369,-0.559903
3.0958,0.020093,0.000000,-0.186972,0.186972,0.0000,0.0000,0.0000,-0.002478,-0.200951,0.199418,1.1391,0.6991,-0.3430,0.001534,0.587515,-0.561437,0.556835,-0.595185,0.558369,-0.559903
3.1158,0.020074,0.000000,-0.185921,0.185921,0.0000,0.0000,0.0000,-0.002478,-0.200951,0.199418,1.1391,0.6991,-0.3430,0.001534,0.587515,-0.561437,0.556835,-0.595185,0.558369,-0.559903
3.1359,0.020082,0.000000,-0.184870,0.184870,0.0000,0.0000,0.0000,-0.002478,-0.200951,0.199418,1.1391,0.6991,-0.3430,0.001534,0.587515,-0.561437,0.556835,-0.595185,0.558369,-0.559903
3.1560,0.020080,0.000000,-0.183818,0.183818,0.0000,0.0000,0.0000,-0.002478,-0.199418,0.199418,1.1391,0.6991,-0.3430,0.001534,0.587515,-0.561437,0.556835,-0.595185,0.558369,-0.559903
3.1761,0.020077,0.000000,-0.182767,0.182767,0.0000,0.0000,0.0000,-0.002478,-0.193282,0.199418,1.1391,0.6991,-0.3430,0.001534,0.587515,-0.561437,0.556835,-0.595185,0.558369,-0.559903
3.1962,0.020090,0.000000,-0.181715,0.181715,0.0000,0.0000,0.0000,-0.002478,-0.187146,0.199418,1.1391,0.6991,-0.3430,0.001534,0.587515,-0.561437,0.556835,-0.595185,0.558369,-0.559903
3.2162,0.020074,0.000000,-0.180664,0.180664,0.0000,0.0000,0.0000,-0.002478,-0.184078,0.197884,1.1391,0.6991,-0.3430,0.001534,0.587515,-0.561437,0.556835,-0.595185,0.558369,-0.559903
3.2363,0.020081,0.000000,-0.179613,0.179613,0.0000,0.0000,0.0000,-0.002478,-0.185612,0.197884,1.1391,0.6991,-0.3430,0.001534,0.587515,-0.561437,0.556835,-0.595185,0.558369,-0.559903
3.2564,0.020084,0.000000,-0.178561,0.178561,0.0000,0.0000,0.0000,-0.002478,-0.184078,0.196350,1.1391,0.6991,-0.3430,0.001534,0.587515,-0.561437,0.556835,-0.595185,0.558369,-0.559903
3.2765,0.020086,0.000000,-0.177509,0.177509,0.0000,0.0000,0.0000,-0.002478,-0.182544,0.194816,1.1391,0.6991,-0.3430,0.001534,0.587515,-0.561437,0.556835,-0.595185,0.558369,-0.559903
3.2966,0.020091,0.000000,-0.176457,0.176457,0.0000,0.0000,0.0000,-0.002478,-0.182544,0.191748,1.1391,0.6991,-0.3430,0.001534,0.587515,-0.561437,0.556835,-0.595185,0.558369,-0.559903
3.3167,0.020080,0.000000,-0.175406,0.175406,0.0000,0.0000,0.0000,-0.002478,-0.181010,0.185612,1.1391,0.6991,-0.3430,0.001534,0.587515,-0.561437,0.556835,-0.595185,0.558369,-0.559903
3.3367,0.020078,0.000000,-0.174355,0.174355,0.0000,0.0000,0.0000,-0.002478,-0.179476,0.179476,1.1391,0.6991,-0.3430,0.001534,0.587515,-0.561437,0.556835,-0.595185,0.558369,-0.559903
3.3568,0.020084,0.000000,-0.173303,0.173303,0.0000,0.0000,0.0000,-0.002478,-0.179476,0.176408,1.1391,0.6991,-0.3430,0.001534,0.587515,-0.561437,0.556835,-0.595185,0.558369,-0.559903
3.3769,0.020077,0.000000,-0.172252,0.172252,0.0000,0.0000,0.0000,-0.002478,-0.179476,0.174874,1.1391,0.6991,-0.3430,0.001534,0.587515,-0.561437,0.556835,-0.595185,0.558369,-0.559903
3.3970,0.020089,0.000000,-0.171200,0.171200,0.0000,0.0000,0.0000,-0.002478,-0.179476,0.174874,1.1391,0.6991,-0.3430,0.001534,0.587515,-0.561437,0.556835,-0.595185,0.558369,-0.559903
3.4171,0.020077,0.000000,-0.170149,0.170149,0.0000,0.0000,0.0000,-0.002490,-0.177942,0.174874,1.0888,0.7151,-0.3963,0.001534,0.585981,-0.561437,0.556835,-0.595185,0.558369,-0.559903
3.4371,0.020081,0.000000,-0.169097,0.169097,0.0000,0.0000,0.0000,-0.002477,-0.176408,0.173340,1.1438,0.6979,-0.4247,0.000000,0.587515,-0.561437,0.556835,-0.595185,0.558369,-0.559903
3.4572,0.020087,0.000000,-0.168046,0.168046,0.0000,0.0000,0.0000,-0.002479,-0.174874,0.173340,1.1381,0.6997,-0.3430,0.001534,0.587515,-0.561437,0.556835,-0.595185,0.558369,-0.559903
3.4773,0.020081,0.000000,-0.166994,0.166994,0.0000,0.0000,0.0000,-0.002479,-0.174874,0.173340,1.1381,0.6997,-0.3430,0.001534,0.587515,-0.561437,0.556835,-0.595185,0.558369,-0.559903
3.4974,0.020095,0.000000,-0.165942,0.165942,0.0000,0.0000,0.0000,-0.002479,-0.174874,0.171806,1.1381,0.6997,-0.3430,0.001534,0.587515,-0.561437,0.556835,-0.595185,0.558369,-0.559903
3.5175,0.020081,0.000000,-0.164891,0.164891,0.0000,0.0000,0.0000,-0.002479,-0.174874,0.173340,1.1381,0.6997,-0.3430,0.001534,0.587515,-0.561437,0.556835,-0.595185,0.558369,-0.559903
3.5376,0.020084,0.000000,-0.163839,0.163839,0.0000,0.0000,0.0000,-0.002479,-0.174874,0.173340,1.1381,0.6997,-0.3430,0.001534,0.587515,-0.561437,0.556835,-0.595185,0.558369,-0.559903
3.5577,0.020084,0.000000,-0.162787,0.162787,0.0000,0.0000,0.0000,-0.002479,-0.174874,0.171806,1.1381,0.6997,-0.3430,0.001534,0.587515,-0.561437,0.556835,-0.595185,0.558369,-0.559903
3.5777,0.020086,0.000000,-0.161736,0.161736,0.0000,0.0000,0.0000,-0.002479,-0.174874,0.173340,1.1381,0.6997,-0.3430,0.001534,0.587515,-0.561437,0.556835,-0.595185,0.558369,-0.559903
3.5978,0.020051,0.000000,-0.160686,0.160686,0.0000,0.0000,0.0000,-0.002479,-0.174874,0.171806,1.1381,0.6997,-0.3430,0.001534,0.587515,-0.561437,0.556835,-0.595185,0.558369,-0.559903
3.6180,0.020207,0.000000,-0.159628,0.159628,0.0000,0.0000,0.0000,-0.002479,-0.173340,0.171806,1.1381,0.6997,-0.3430,0.001534,0.587515,-0.561437,0.556835,-0.595185,0.558369,-0.559903
3.6381,0.020074,0.000000,-0.158577,0.158577,0.0000,0.0000,0.0000,-0.002479,-0.171806,0.171806,1.1381,0.6997,-0.3430,0.001534,0.587515,-0.561437,0.556835,-0.595185,0.558369,-0.559903
3.6582,0.020090,0.000000,-0.157525,0.157525,0.0000,0.0000,0.0000,-0.002479,-0.165670,0.171806,1.1381,0.6997,-0.3430,0.001534,0.587515,-0.561437,0.556835,-0.595185,0.558369,-0.559903
3.6783,0.020085,0.000000,-0.156473,0.156473,0.0000,0.0000,0.0000,-0.002479,-0.159534,0.170272,1.1381,0.6997,-0.4309,0.000000,0.587515,-0.561437,0.556835,-0.595185,0.558369,-0.559903
3.6985,0.020268,0.000000,-0.155412,0.155412,0.0000,0.0000,0.0000,-0.002479,-0.159534,0.168738,1.1381,0.6997,-0.3430,0.001534,0.587515,-0.561437,0.556835,-0.595185,0.558369,-0.559903
3.7186,0.020081,0.000000,-0.154360,0.154360,0.0000,0.0000,0.0000,-0.002479,-0.161068,0.167204,1.1381,0.6997,-0.3430,0.001534,0.587515,-0.561437,0.556835,-0.595185,0.558369,-0.559903
3.7387,0.020073,0.000000,-0.153309,0.153309,0.0000,0.0000,0.0000,-0.002479,-0.159534,0.165670,1.1381,0.6997,-0.3430,0.001534,0.587515,-0.561437,0.556835,-0.595185,0.558369,-0.559903
3.7588,0.020082,0.000000,-0.152258,0.152258,0.0000,0.0000,0.0000,-0.002479,-0.159534,0.161068,1.1381,0.6997,-0.3430,0.001534,0.587515,-0.561437,0.556835,-0.595185,0.558369,-0.559903
3.7788,0.020076,0.000000,-0.151207,0.151207,0.0000,0.0000,0.0000,-0.002479,-0.158000,0.156466,1.1381,0.6997,-0.3430,0.001534,0.587515,-0.561437,0.556835,-0.595185,0.558369,-0.559903
3.7990,0.020169,0.000000,-0.150151,0.150151,0.0000,0.0000,0.0000,-0.002479,-0.154932,0.153398,1.1381,0.6997,-0.3430,0.001534,0.587515,-0.561437,0.556835,-0.595185,0.558369,-0.559903
3.8191,0.020076,0.000000,-0.149100,0.149100,0.0000,0.0000,0.0000,-0.002479,-0.154932,0.151864,1.1381,0.6997,-0.3430,0.001534,0.587515,-0.561437,0.556835,-0.595185,0.558369,-0.559903
3.8391,0.020075,0.000000,-0.148048,0.148048,0.0000,0.0000,0.0000,-0.002479,-0.154932,0.151864,1.1381,0.6997,-0.3430,0.001534,0.587515,-0.561437,0.556835,-0.595185,0.558369,-0.559903
3.8594,0.020287,0.000000,-0.146986,0.146986,0.0000,0.0000,0.0000,-0.002479,-0.153398,0.150330,1.1381,0.6997,-0.3430,0.001534,0.587515,-0.561437,0.556835,-0.595185,0.558369,-0.559903
3.8795,0.020076,0.000000,-0.145935,0.145935,0.0000,0.0000,0.0000,-0.002479,-0.151864,0.150330,1.1381,0.6997,-0.3430,0.001534,0.587515,-0.561437,0.556835,-0.595185,0.558369,-0.559903
3.8996,0.020078,0.000000,-0.144884,0.144884,0.0000,0.0000,0.0000,-0.002479,-0.151864,0.150330,1.1381,0.6997,-0.3430,0.001534,0.587515,-0.561437,0.556835,-0.595185,0.558369,-0.559903
3.9200,0.020376,0.000000,-0.143817,0.143817,0.0000,0.0000,0.0000,-0.002479,-0.150330,0.148796,1.1381,0.6997,-0.3430,0.001534,0.587515,-0.561437,0.556835,-0.595185,0.558369,-0.559903
3.9400,0.020081,0.000000,-0.142765,0.142765,0.0000,0.0000,0.0000,-0.002479,-0.148796,0.147262,1.1381,0.6997,-0.3430,0.001534,0.587515,-0.561437,0.556835,-0.595185,0.558369,-0.559903
3.9601,0.020085,0.000000,-0.141714,0.141714,0.0000,0.0000,0.0000,-0.002479,-0.148796,0.147262,1.1381,0.6997,-0.3430,0.001534,0.587515,-0.561437,0.556835,-0.595185,0.558369,-0.559903
3.9803,0.020174,0.000000,-0.140658,0.140658,0.0000,0.0000,0.0000,-0.002479,-0.148796,0.147262,1.1381,0.6997,-0.3430,0.001534,0.587515,-0.561437,0.556835,-0.595185,0.558369,-0.559903
4.0004,0.020079,0.000000,-0.139606,0.139606,0.0000,0.0000,0.0000,-0.002479,-0.148796,0.147262,1.1381,0.6997,-0.3430,0.001534,0.587515,-0.561437,0.556835,-0.595185,0.558369,-0.559903
4.0205,0.020095,0.000000,-0.138554,0.138554,0.0000,0.0000,0.0000,-0.002479,-0.148796,0.145728,1.1381,0.6997,-0.3430,0.001534,0.587515,-0.561437,0.556835,-0.595185,0.558369,-0.559903
4.0406,0.020081,0.000000,-0.137503,0.137503,0.0000,0.0000,0.0000,-0.002479,-0.148796,0.145728,1.1381,0.6997,-0.3430,0.001534,0.587515,-0.561437,0.556835,-0.595185,0.558369,-0.559903
4.0607,0.020103,0.000000,-0.136450,0.136450,0.0000,0.0000,0.0000,-0.002479,-0.148796,0.144194,1.1381,0.6997,-0.3430,0.001534,0.587515,-0.561437,0.556835,-0.595185,0.558369,-0.559903
4.0807,0.020086,0.000000,-0.135398,0.135398,0.0000,0.0000,0.0000,-0.002479,-0.148796,0.144194,1.1381,0.6997,-0.3430,0.001534,0.587515,-0.561437,0.556835,-0.595185,0.558369,-0.559903
4.1008,0.020082,0.000000,-0.134347,0.134347,0.0000,0.0000,0.0000,-0.002479,-0.148796,0.144194,1.1381,0.6997,-0.3430,0.001534,0.587515,-0.561437,0.556835,-0.595185,0.558369,-0.559903
4.1210,0.020164,0.000000,-0.133291,0.133291,0.0000,0.0000,0.0000,-0.002479,-0.147262,0.144194,1.1381,0.6997,-0.3430,0.001534,0.587515,-0.561437,0.556835,-0.595185,0.558369,-0.559903
4.1411,0.020082,0.000000,-0.132240,0.132240,0.0000,0.0000,0.0000,-0.002479,-0.147262,0.144194,1.1381,0.6997,-0.3430,0.001534,0.587515,-0.561437,0.556835,-0.595185,0.558369,-0.559903
4.1612,0.020117,0.000000,-0.131186,0.131186,0.0000,0.0000,0.0000,-0.002479,-0.147262,0.144194,1.1381,0.6997,-0.3430,0.001534,0.587515,-0.561437,0.556835,-0.595185,0.558369,-0.559903
4.1815,0.020324,0.000000,-0.130122,0.130122,0.0000,0.0000,0.0000,-0.002479,-0.141126,0.144194,1.1381,0.6997,-0.3430,0.001534,0.587515,-0.561437,0.556835,-0.595185,0.558369,-0.559903
4.2016,0.020079,0.000000,-0.129071,0.129071,0.0000,0.0000,0.0000,-0.002479,-0.133456,0.142660,1.1381,0.6997,-0.3430,0.001534,0.587515,-0.561437,0.556835,-0.595185,0.558369,-0.559903
4.2217,0.020081,0.000000,-0.128019,0.128019,0.0000,0.0000,0.0000,-0.002479,-0.133456,0.142660,1.1381,0.6997,-0.3430,0.001534,0.587515,-0.561437,0.556835,-0.595185,0.558369,-0.559903
4.2418,0.020078,0.000000,-0.126968,0.126968,0.0000,0.0000,0.0000,-0.002479,-0.133456,0.139592,1.1381,0.6997,-0.3430,0.001534,0.587515,-0.561437,0.556835,-0.595185,0.558369,-0.559903
4.2619,0.020098,0.000000,-0.125916,0.125916,0.0000,0.0000,0.0000,-0.002479,-0.131922,0.134990,1.1381,0.6997,-0.3430,0.001534,0.587515,-0.561437,0.556835,-0.595185,0.558369,-0.559903
4.2819,0.020084,0.000000,-0.124864,0.124864,0.0000,0.0000,0.0000,-0.002479,-0.130388,0.128854,1.1381,0.6997,-0.3430,0.001534,0.587515,-0.561437,0.556835,-0.595185,0.558369,-0.559903
4.3020,0.020089,0.000000,-0.123812,0.123812,0.0000,0.0000,0.0000,-0.002479,-0.130388,0.128854,1.1381,0.6997,-0.3430,0.001534,0.587515,-0.561437,0.556835,-0.595185,0.558369,-0.559903
4.3221,0.020111,0.000000,-0.122759,0.122759,0.0000,0.0000,0.0000,-0.002479,-0.128854,0.125786,1.1381,0.6997,-0.3430,0.001534,0.587515,-0.561437,0.556835,-0.595185,0.558369,-0.559903
4.3422,0.020094,0.000000,-0.121707,0.121707,0.0000,0.0000,0.0000,-0.002492,-0.128854,0.125786,1.1496,0.6473,-0.3959,0.001534,0.587515,-0.561437,0.555301,-0.595185,0.558369,-0.559903
4.3623,0.020116,0.000000,-0.120654,0.120654,0.0000,0.0000,0.0000,-0.002492,-0.127320,0.124252,1.1496,0.6473,-0.3959,0.001534,0.587515,-0.561437,0.556835,-0.595185,0.558369,-0.559903
4.3824,0.020087,0.000000,-0.119602,0.119602,0.0000,0.0000,0.0000,-0.002479,-0.125786,0.122718,1.1388,0.6989,-0.3430,0.001534,0.587515,-0.561437,0.556835,-0.595185,0.558369,-0.559903
4.4025,0.020086,0.000000,-0.118551,0.118551,0.0000,0.0000,0.0000,-0.002479,-0.125786,0.122718,1.1388,0.6989,-0.3430,0.001534,0.587515,-0.561437,0.556835,-0.595185,0.558369,-0.559903
4.4226,0.020092,0.000000,-0.117499,0.117499,0.0000,0.0000,0.0000,-0.002479,-0.124252,0.122718,1.1388,0.6989,-0.3430,0.001534,0.587515,-0.561437,0.556835,-0.595185,0.558369,-0.559903
4.4427,0.020088,0.000000,-0.116447,0.116447,0.0000,0.0000,0.0000,-0.002479,-0.121184,0.119651,1.1388,0.6989,-0.3430,0.001534,0.587515,-0.561437,0.556835,-0.595185,0.558369,-0.559903
4.4628,0.020110,0.000000,-0.115394,0.115394,0.0000,0.0000,0.0000,-0.002479,-0.121184,0.118117,1.1388,0.6989,-0.3430,0.001534,0.587515,-0.561437,0.556835,-0.595185,0.558369,-0.559903
4.4829,0.020085,0.000000,-0.114342,0.114342,0.0000,0.0000,0.0000,-0.002479,-0.121184,0.118117,1.1388,0.6989,-0.3430,0.001534,0.587515,-0.561437,0.556835,-0.595185,0.558369,-0.559903
4.5032,0.020309,0.000000,-0.113279,0.113279,0.0000,0.0000,0.0000,-0.002479,-0.121184,0.118117,1.1388,0.6989,-0.3430,0.001534,0.587515,-0.561437,0.556835,-0.595185,0.558369,-0.559903
4.5233,0.020096,0.000000,-0.112227,0.112227,0.0000,0.0000,0.0000,-0.002479,-0.121184,0.118117,1.1388,0.6989,-0.3430,0.001534,0.587515,-0.561437,0.556835,-0.595185,0.558369,-0.559903
4.5434,0.020089,0.000000,-0.111175,0.111175,0.0000,0.0000,0.0000,-0.002479,-0.121184,0.118117,1.1388,0.6989,-0.3430,0.001534,0.587515,-0.561437,0.556835,-0.595185,0.558369,-0.559903
4.5635,0.020096,0.000000,-0.110122,0.110122,0.0000,0.0000,0.0000,-0.002479,-0.121184,0.118117,1.1388,0.6989,-0.3430,0.001534,0.587515,-0.561437,0.556835,-0.595185,0.558369,-0.559903
4.5836,0.020086,0.000000,-0.109071,0.109071,0.0000,0.0000,0.0000,-0.002479,-0.121184,0.118117,1.1388,0.6989,-0.3430,0.001534,0.587515,-0.561437,0.556835,-0.595185,0.558369,-0.559903
4.6037,0.020081,0.000000,-0.108019,0.108019,0.0000,0.0000,0.0000,-0.002479,-0.119651,0.116583,1.1388,0.6989,-0.3430,0.001534,0.587515,-0.561437,0.556835,-0.595185,0.558369,-0.559903
4.6237,0.020081,0.000000,-0.106968,0.106968,0.0000,0.0000,0.0000,-0.002479,-0.116583,0.116583,1.1388,0.6989,-0.3430,0.001534,0.587515,-0.561437,0.556835,-0.595185,0.558369,-0.559903
4.6438,0.020091,0.000000,-0.105916,0.105916,0.0000,0.0000,0.0000,-0.002479,-0.108913,0.116583,1.1388,0.6989,-0.3430,0.001534,0.587515,-0.561437,0.556835,-0.595185,0.558369,-0.559903
4.6639,0.020096,0.000000,-0.104864,0.104864,0.0000,0.0000,0.0000,-0.002479,-0.108913,0.116583,1.1388,0.6989,-0.3430,0.001534,0.587515,-0.561437,0.556835,-0.595185,0.558369,-0.559903
4.6840,0.020092,0.000000,-0.103812,0.103812,0.0000,0.0000,0.0000,-0.002479,-0.107379,0.115049,1.1388,0.6989,-0.3430,0.001534,0.587515,-0.561437,0.556835,-0.595185,0.558369,-0.559903
4.7041,0.020083,0.000000,-0.102760,0.102760,0.0000,0.0000,0.0000,-0.002479,-0.107379,0.115049,1.1388,0.6989,-0.3430,0.001534,0.587515,-0.561437,0.556835,-0.595185,0.558369,-0.559903
4.7242,0.020082,0.000000,-0.101709,0.101709,0.0000,0.0000,0.0000,-0.002479,-0.108913,0.113515,1.1388,0.6989,-0.3430,0.001534,0.587515,-0.561437,0.556835,-0.595185,0.558369,-0.559903
4.7443,0.020098,0.000000,-0.100656,0.100656,0.0000,0.0000,0.0000,-0.002479,-0.105845,0.105845,1.1388,0.6989,-0.3430,0.001534,0.587515,-0.561437,0.556835,-0.595185,0.558369,-0.559903
4.7643,0.020063,0.000000,-0.099606,0.099606,0.0000,0.0000,0.0000,-0.002479,-0.105845,0.101243,1.1388,0.6989,-0.3430,0.001534,0.587515,-0.561437,0.556835,-0.595185,0.558369,-0.559903
4.7844,0.020079,0.000000,-0.098554,0.098554,0.0000,0.0000,0.0000,-0.002479,-0.105845,0.101243,1.1388,0.6989,-0.3430,0.001534,0.587515,-0.561437,0.556835,-0.595185,0.558369,-0.559903
4.8045,0.020081,0.000000,-0.097503,0.097503,0.0000,0.0000,0.0000,-0.002479,-0.102777,0.099709,1.1388,0.6989,-0.3430,0.001534,0.587515,-0.561437,0.556835,-0.595185,0.558369,-0.559903
4.8246,0.020086,0.000000,-0.096451,0.096451,0.0000,0.0000,0.0000,-0.002479,-0.102777,0.099709,1.1388,0.6989,-0.3430,0.001534,0.587515,-0.561437,0.556835,-0.595185,0.558369,-0.559903
4.8454,0.020769,0.000000,-0.095364,0.095364,0.0000,0.0000,0.0000,-0.002479,-0.101243,0.098175,1.1388,0.6989,-0.3430,0.001534,0.587515,-0.561437,0.556835,-0.595185,0.558369,-0.559903
4.8654,0.020086,0.000000,-0.094312,0.094312,0.0000,0.0000,0.0000,-0.002479,-0.099709,0.096641,1.1388,0.6989,-0.3430,0.001534,0.587515,-0.561437,0.556835,-0.595185,0.558369,-0.559903
4.8855,0.020085,0.000000,-0.093260,0.093260,0.0000,0.0000,0.0000,-0.002479,-0.099709,0.096641,1.1388,0.6989,-0.3430,0.001534,0.587515,-0.561437,0.556835,-0.595185,0.558369,-0.559903
4.9056,0.020084,0.000000,-0.092209,0.092209,0.0000,0.0000,0.0000,-0.002479,-0.096641,0.095107,1.1388,0.6989,-0.3430,0.001534,0.587515,-0.561437,0.556835,-0.595185,0.558369,-0.559903
4.9257,0.020099,0.000000,-0.091156,0.091156,0.0000,0.0000,0.0000,-0.002479,-0.096641,0.095107,1.1388,0.6989,-0.3430,0.001534,0.587515,-0.561437,0.556835,-0.595185,0.558369,-0.559903
4.9458,0.020088,0.000000,-0.090105,0.090105,0.0000,0.0000,0.0000,-0.002479,-0.093573,0.092039,1.1388,0.6989,-0.3430,0.001534,0.587515,-0.561437,0.556835,-0.595185,0.558369,-0.559903
4.9659,0.020086,0.000000,-0.089053,0.089053,0.0000,0.0000,0.0000,-0.002479,-0.093573,0.092039,1.1388,0.6989,-0.3430,0.001534,0.587515,-0.561437,0.556835,-0.595185,0.558369,-0.559903
4.9860,0.020098,0.000000,-0.088001,0.088001,0.0000,0.0000,0.0000,-0.002479,-0.093573,0.092039,1.1388,0.6989,-0.3430,0.001534,0.587515,-0.561437,0.556835,-0.595185,0.558369,-0.559903
5.0061,0.020089,0.000000,-0.086949,0.086949,0.0000,0.0000,0.0000,-0.002479,-0.093573,0.090505,1.1388,0.6989,-0.3430,0.001534,0.587515,-0.561437,0.556835,-0.595185,0.558369,-0.559903
5.0262,0.020106,0.000000,-0.085896,0.085896,0.0000,0.0000,0.0000,-0.002479,-0.093573,0.090505,1.1388,0.6989,-0.3430,0.001534,0.587515,-0.561437,0.556835,-0.595185,0.558369,-0.559903
5.0463,0.020098,0.000000,-0.084844,0.084844,0.0000,0.0000,0.0000,-0.002479,-0.093573,0.090505,1.1388,0.6989,-0.3430,0.001534,0.587515,-0.561437,0.556835,-0.595185,0.558369,-0.559903
5.0664,0.020088,0.000000,-0.083792,0.083792,0.0000,0.0000,0.0000,-0.002479,-0.092039,0.090505,1.1388,0.6989,-0.3430,0.001534,0.587515,-0.561437,0.556835,-0.595185,0.558369,-0.559903
5.0865,0.020094,0.000000,-0.082740,0.082740,0.0000,0.0000,0.0000,-0.002479,-0.092039,0.090505,1.1388,0.6989,-0.3430,0.001534,0.587515,-0.561437,0.556835,-0.595185,0.558369,-0.559903
5.1065,0.020090,0.000000,-0.081688,0.081688,0.0000,0.0000,0.0000,-0.002479,-0.082835,0.088971,1.1388,0.6989,-0.3430,0.001534,0.587515,-0.561437,0.556835,-0.595185,0.558369,-0.559903
5.1267,0.020108,0.000000,-0.080635,0.080635,0.0000,0.0000,0.0000,-0.002479,-0.082835,0.088971,1.1388,0.6989,-0.3430,0.001534,0.587515,-0.561437,0.556835,-0.595185,0.558369,-0.559903
5.1467,0.020088,0.000000,-0.079583,0.079583,0.0000,0.0000,0.0000,-0.002479,-0.082835,0.088971,1.1388,0.6989,-0.3430,0.001534,0.587515,-0.561437,0.556835,-0.595185,0.558369,-0.559903
5.1668,0.020084,0.000000,-0.078532,0.078532,0.0000,0.0000,0.0000,-0.002479,-0.081301,0.085903,1.1388,0.6989,-0.3430,0.001534,0.587515,-0.561437,0.556835,-0.595185,0.558369,-0.559903
5.1869,0.020098,0.000000,-0.077479,0.077479,0.0000,0.0000,0.0000,-0.002479,-0.081301,0.085903,1.1388,0.6989,-0.3430,0.001534,0.587515,-0.561437,0.556835,-0.595185,0.558369,-0.559903
5.2070,0.020090,0.000000,-0.076427,0.076427,0.0000,0.0000,0.0000,-0.002479,-0.079767,0.082835,1.1388,0.6989,-0.3430,0.001534,0.587515,-0.561437,0.556835,-0.595185,0.558369,-0.559903
5.2271,0.020094,0.000000,-0.075375,0.075375,0.0000,0.0000,0.0000,-0.002479,-0.081301,0.078233,1.1388,0.6989,-0.3430,0.001534,0.587515,-0.561437,0.556835,-0.595185,0.558369,-0.559903
5.2472,0.020092,0.000000,-0.074323,0.074323,0.0000,0.0000,0.0000,-0.002479,-0.079767,0.076699,1.1388,0.6989,-0.3430,0.001534,0.587515,-0.561437,0.556835,-0.595185,0.558369,-0.559903
5.2673,0.020083,0.000000,-0.073272,0.073272,0.0000,0.0000,0.0000,-0.002479,-0.078233,0.078233,1.1388,0.6989,-0.3430,0.001534,0.587515,-0.561437,0.556835,-0.595185,0.558369,-0.559903
5.2874,0.020092,0.000000,-0.072220,0.072220,0.0000,0.0000,0.0000,-0.002479,-0.076699,0.076699,1.1388,0.6989,-0.3430,0.001534,0.587515,-0.561437,0.556835,-0.595185,0.558369,-0.559903
5.3075,0.020089,0.000000,-0.071168,0.071168,0.0000,0.0000,0.0000,-0.002479,-0.075165,0.076699,1.1388,0.6989,-0.3430,0.001534,0.587515,-0.561437,0.556835,-0.595185,0.558369,-0.559903
5.3276,0.020096,0.000000,-0.070116,0.070116,0.0000,0.0000,0.0000,-0.002479,-0.075165,0.076699,1.1388,0.6989,-0.3430,0.001534,0.587515,-0.561437,0.556835,-0.595185,0.558369,-0.559903
5.3476,0.020085,0.000000,-0.069064,0.069064,0.0000,0.0000,0.0000,-0.002479,-0.073631,0.073631,1.1388,0.6989,-0.3430,0.001534,0.587515,-0.561437,0.556835,-0.595185,0.558369,-0.559903
5.3677,0.020082,0.000000,-0.068012,0.068012,0.0000,0.0000,0.0000,-0.002479,-0.072097,0.072097,1.1388,0.6989,-0.3430,0.001534,0.587515,-0.561437,0.556835,-0.595185,0.558369,-0.559903
5.3878,0.020087,0.000000,-0.066961,0.066961,0.0000,0.0000,0.0000,-0.002479,-0.072097,0.070563,1.1388,0.6989,-0.3430,0.001534,0.587515,-0.561437,0.556835,-0.595185,0.558369,-0.559903
5.4079,0.020086,0.000000,-0.065909,0.065909,0.0000,0.0000,0.0000,-0.002479,-0.070563,0.069029,1.1388,0.6989,-0.3430,0.001534,0.587515,-0.561437,0.556835,-0.595185,0.558369,-0.559903
5.4280,0.020094,0.000000,-0.064857,0.064857,0.0000,0.0000,0.0000,-0.002479,-0.069029,0.069029,1.1388,0.6989,-0.3430,0.001534,0.587515,-0.561437,0.556835,-0.595185,0.558369,-0.559903
5.4481,0.020079,0.000000,-0.063805,0.063805,0.0000,0.0000,0.0000,-0.002479,-0.070563,0.067495,1.1388,0.6989,-0.3430,0.001534,0.587515,-0.561437,0.556835,-0.595185,0.558369,-0.559903
5.4682,0.020088,0.000000,-0.062754,0.062754,0.0000,0.0000,0.0000,-0.002479,-0.069029,0.067495,1.1388,0.6989,-0.3430,0.001534,0.587515,-0.561437,0.556835,-0.595185,0.558369,-0.559903
5.4883,0.020096,0.000000,-0.061701,0.061701,0.0000,0.0000,0.0000,-0.002479,-0.065961,0.065961,1.1388,0.6989,-0.3430,0.001534,0.587515,-0.561437,0.556835,-0.595185,0.558369,-0.559903
5.5083,0.020091,0.000000,-0.060649,0.060649,0.0000,0.0000,0.0000,-0.002479,-0.067495,0.064427,1.1388,0.6989,-0.3430,0.001534,0.587515,-0.561437,0.556835,-0.595185,0.558369,-0.559903
5.5284,0.020093,0.000000,-0.059597,0.059597,0.0000,0.0000,0.0000,-0.002479,-0.067495,0.064427,1.1388,0.6989,-0.3430,0.001534,0.587515,-0.561437,0.556835,-0.595185,0.558369,-0.559903
5.5485,0.020093,0.000000,-0.058545,0.058545,0.0000,0.0000,0.0000,-0.002479,-0.065961,0.064427,1.1388,0.6989,-0.3430,0.001534,0.587515,-0.561437,0.556835,-0.595185,0.558369,-0.559903
5.5686,0.020091,0.000000,-0.057493,0.057493,0.0000,0.0000,0.0000,-0.002479,-0.061359,0.064427,1.1388,0.6989,-0.3430,0.001534,0.587515,-0.561437,0.556835,-0.595185,0.558369,-0.559903
5.5887,0.020100,0.000000,-0.056441,0.056441,0.0000,0.0000,0.0000,-0.002479,-0.058291,0.064427,1.1388,0.6989,-0.3430,0.001534,0.587515,-0.561437,0.556835,-0.595185,0.558369,-0.559903
5.6088,0.020085,0.000000,-0.055389,0.055389,0.0000,0.0000,0.0000,-0.002479,-0.058291,0.062893,1.1388,0.6989,-0.3430,0.001534,0.587515,-0.561437,0.556835,-0.595185,0.558369,-0.559903
5.6289,0.020093,0.000000,-0.054337,0.054337,0.0000,0.0000,0.0000,-0.002479,-0.059825,0.062893,1.1388,0.6989,-0.3430,0.001534,0.587515,-0.561437,0.556835,-0.595185,0.558369,-0.559903
5.6490,0.020097,0.000000,-0.053285,0.053285,0.0000,0.0000,0.0000,-0.002479,-0.058291,0.062893,1.1388,0.6989,-0.3430,0.001534,0.587515,-0.561437,0.556835,-0.595185,0.558369,-0.559903
5.6691,0.020091,0.000000,-0.052233,0.052233,0.0000,0.0000,0.0000,-0.002479,-0.055223,0.062893,1.1388,0.6989,-0.3430,0.001534,0.587515,-0.561437,0.556835,-0.595185,0.558369,-0.559903
5.6892,0.020100,0.000000,-0.051181,0.051181,0.0000,0.0000,0.0000,-0.002479,-0.056757,0.062893,1.1388,0.6989,-0.3430,0.001534,0.587515,-0.561437,0.556835,-0.595185,0.558369,-0.559903
5.7093,0.020100,0.000000,-0.050128,0.050128,0.0000,0.0000,0.0000,-0.002479,-0.055223,0.061359,1.1388,0.6989,-0.3430,0.001534,0.587515,-0.561437,0.556835,-0.595185,0.558369,-0.559903
5.7294,0.020087,0.000000,-0.049076,0.049076,0.0000,0.0000,0.0000,-0.002479,-0.053689,0.059825,1.1388,0.6989,-0.3430,0.001534,0.587515,-0.561437,0.556835,-0.595185,0.558369,-0.559903
5.7495,0.020094,0.000000,-0.048024,0.048024,0.0000,0.0000,0.0000,-0.002479,-0.053689,0.056757,1.1388,0.6989,-0.3430,0.001534,0.587515,-0.561437,0.556835,-0.595185,0.558369,-0.559903
5.7696,0.020114,0.000000,-0.046971,0.046971,0.0000,0.0000,0.0000,-0.002479,-0.052155,0.052155,1.1388,0.6989,-0.3430,0.001534,0.587515,-0.561437,0.556835,-0.595185,0.558369,-0.559903
5.7897,0.020105,0.000000,-0.045918,0.045918,0.0000,0.0000,0.0000,-0.002479,-0.050621,0.049087,1.1388,0.6989,-0.3430,0.001534,0.587515,-0.561437,0.556835,-0.595185,0.558369,-0.559903
5.8098,0.020094,0.000000,-0.044866,0.044866,0.0000,0.0000,0.0000,-0.002479,-0.049087,0.047553,1.1388,0.6989,-0.3430,0.001534,0.587515,-0.561437,0.556835,-0.595185,0.558369,-0.559903
5.8299,0.020098,0.000000,-0.043814,0.043814,0.0000,0.0000,0.0000,-0.002479,-0.049087,0.047553,1.1388,0.6989,-0.4309,0.000000,0.587515,-0.561437,0.556835,-0.595185,0.558369,-0.559903
5.8500,0.020089,0.000000,-0.042762,0.042762,0.0000,0.0000,0.0000,-0.002479,-0.047553,0.046019,1.1388,0.6989,-0.3430,0.001534,0.587515,-0.561437,0.556835,-0.595185,0.558369,-0.559903
5.8701,0.020089,0.000000,-0.041710,0.041710,0.0000,0.0000,0.0000,-0.002479,-0.046019,0.044485,1.1388,0.6989,-0.3430,0.001534,0.587515,-0.561437,0.556835,-0.595185,0.558369,-0.559903
5.8902,0.020095,0.000000,-0.040658,0.040658,0.0000,0.0000,0.0000,-0.002479,-0.046019,0.044485,1.1388,0.6989,-0.3430,0.001534,0.587515,-0.561437,0.556835,-0.595185,0.558369,-0.559903
5.9102,0.020087,0.000000,-0.039606,0.039606,0.0000,0.0000,0.0000,-0.002479,-0.044485,0.044485,1.1388,0.6989,-0.3430,0.001534,0.587515,-0.561437,0.556835,-0.595185,0.558369,-0.559903
5.9303,0.020087,0.000000,-0.038555,0.038555,0.0000,0.0000,0.0000,-0.002479,-0.042951,0.041417,1.1388,0.6989,-0.3430,0.001534,0.587515,-0.561437,0.556835,-0.595185,0.558369,-0.559903
5.9504,0.020086,0.000000,-0.037503,0.037503,0.0000,0.0000,0.0000,-0.002479,-0.041417,0.039884,1.1388,0.6989,-0.3430,0.001534,0.587515,-0.561437,0.556835,-0.595185,0.558369,-0.559903
5.9705,0.020090,0.000000,-0.036451,0.036451,0.0000,0.0000,0.0000,-0.002479,-0.041417,0.039884,1.1388,0.6989,-0.3430,0.001534,0.587515,-0.561437,0.556835,-0.595185,0.558369,-0.559903
5.9906,0.020094,0.000000,-0.035399,0.035399,0.0000,0.0000,0.0000,-0.002479,-0.041417,0.038350,1.1388,0.6989,-0.3430,0.001534,0.587515,-0.561437,0.556835,-0.595185,0.558369,-0.559903
6.0107,0.020087,0.000000,-0.034347,0.034347,0.0000,0.0000,0.0000,-0.002479,-0.041417,0.038350,1.1388,0.6989,-0.3430,0.001534,0.587515,-0.561437,0.556835,-0.595185,0.558369,-0.559903
6.0308,0.020086,0.000000,-0.033295,0.033295,0.0000,0.0000,0.0000,-0.002479,-0.041417,0.036816,1.1388,0.6989,-0.3430,0.001534,0.587515,-0.561437,0.556835,-0.595185,0.558369,-0.559903
6.0509,0.020080,0.000000,-0.032244,0.032244,0.0000,0.0000,0.0000,-0.002479,-0.039884,0.036816,1.1388,0.6989,-0.3430,0.001534,0.587515,-0.561437,0.556835,-0.595185,0.558369,-0.559903
6.0710,0.020100,0.000000,-0.031192,0.031192,0.0000,0.0000,0.0000,-0.002479,-0.032214,0.036816,1.1388,0.6989,-0.3430,0.001534,0.587515,-0.561437,0.556835,-0.595185,0.558369,-0.559903
6.0911,0.020100,0.000000,-0.030139,0.030139,0.0000,0.0000,0.0000,-0.002479,-0.030680,0.035282,1.1388,0.6989,-0.3430,0.001534,0.587515,-0.561437,0.556835,-0.595185,0.558369,-0.559903
6.1111,0.020081,0.000000,-0.029088,0.029088,0.0000,0.0000,0.0000,-0.002479,-0.035282,0.035282,1.1388,0.6989,-0.3430,0.001534,0.587515,-0.561437,0.556835,-0.595185,0.558369,-0.559903
6.1312,0.020087,0.000000,-0.028036,0.028036,0.0000,0.0000,0.0000,-0.002479,-0.030680,0.035282,1.1388,0.6989,-0.3430,0.001534,0.587515,-0.561437,0.556835,-0.595185,0.558369,-0.559903
6.1513,0.020094,0.000000,-0.026984,0.026984,0.0000,0.0000,0.0000,-0.002479,-0.024544,0.035282,1.1388,0.6989,-0.3430,0.001534,0.587515,-0.561437,0.556835,-0.595185,0.558369,-0.559903
6.1717,0.020387,0.000000,-0.025916,0.025916,0.0000,0.0000,0.0000,-0.002479,-0.027612,0.035282,1.1388,0.6989,-0.3430,0.001534,0.587515,-0.561437,0.556835,-0.595185,0.558369,-0.559903
6.1918,0.020101,0.000000,-0.024864,0.024864,0.0000,0.0000,0.0000,-0.002479,-0.030680,0.033748,1.1388,0.6989,-0.3430,0.001534,0.587515,-0.561437,0.556835,-0.595185,0.558369,-0.559903
6.2119,0.020100,0.000000,-0.023811,0.023811,0.0000,0.0000,0.0000,-0.002479,-0.027612,0.032214,1.1388,0.6989,-0.3430,0.001534,0.587515,-0.561437,0.556835,-0.595185,0.558369,-0.559903
6.2320,0.020102,0.000000,-0.022759,0.022759,0.0000,0.0000,0.0000,-0.002479,-0.021476,0.030680,1.1388,0.6989,-0.3430,0.001534,0.587515,-0.561437,0.556835,-0.595185,0.558369,-0.559903
6.2521,0.020100,0.000000,-0.021706,0.021706,0.0000,0.0000,0.0000,-0.002479,-0.024544,0.026078,1.1388,0.6989,-0.3430,0.001534,0.587515,-0.561437,0.556835,-0.595185,0.558369,-0.559903
6.2722,0.020112,0.000000,-0.020653,0.020653,0.0000,0.0000,0.0000,-0.002479,-0.027612,0.023010,1.1388,0.6989,-0.3430,0.001534,0.587515,-0.561437,0.556835,-0.595185,0.558369,-0.559903
6.2923,0.020096,0.000000,-0.019601,0.019601,0.0000,0.0000,0.0000,-0.002479,-0.024544,0.021476,1.1388,0.6989,-0.3430,0.001534,0.587515,-0.561437,0.556835,-0.595185,0.558369,-0.559903
6.3124,0.020101,0.000000,-0.018549,0.018549,0.0000,0.0000,0.0000,-0.002479,-0.019942,0.021476,1.1388,0.6989,-0.3430,0.001534,0.587515,-0.561437,0.556835,-0.595185,0.558369,-0.559903
6.3325,0.020096,0.000000,-0.017496,0.017496,0.0000,0.0000,0.0000,-0.002479,-0.018408,0.019942,1.1388,0.6989,-0.3430,0.001534,0.587515,-0.561437,0.556835,-0.595185,0.558369,-0.559903
6.3528,0.020306,0.000000,-0.016433,0.016433,0.0000,0.0000,0.0000,-0.002479,-0.021476,0.018408,1.1388,0.6989,-0.3430,0.001534,0.587515,-0.561437,0.556835,-0.595185,0.558369,-0.559903
6.3729,0.020089,0.000000,-0.015381,0.015381,0.0000,0.0000,0.0000,-0.002479,-0.019942,0.016874,1.1388,0.6989,-0.3430,0.001534,0.587515,-0.561437,0.556835,-0.595185,0.558369,-0.559903
6.3930,0.020092,0.000000,-0.014329,0.014329,0.0000,0.0000,0.0000,-0.002479,-0.015340,0.016874,1.1388,0.6989,-0.3430,0.001534,0.587515,-0.561437,0.556835,-0.595185,0.558369,-0.559903
6.4131,0.020089,0.000000,-0.013278,0.013278,0.0000,0.0000,0.0000,-0.002479,-0.015340,0.015340,1.1388,0.6989,-0.3430,0.001534,0.587515,-0.561437,0.556835,-0.595185,0.558369,-0.559903
6.4332,0.020097,0.000000,-0.012225,0.012225,0.0000,0.0000,0.0000,-0.002479,-0.016874,0.013806,1.1388,0.6989,-0.3430,0.001534,0.587515,-0.561437,0.556835,-0.595185,0.558369,-0.559903
6.4533,0.020104,0.000000,-0.011173,0.011173,0.0000,0.0000,0.0000,-0.002479,-0.016874,0.013806,1.1388,0.6989,-0.3430,0.001534,0.587515,-0.561437,0.556835,-0.595185,0.558369,-0.559903
6.4734,0.020086,0.000000,-0.010121,0.010121,0.0000,0.0000,0.0000,-0.002479,-0.013806,0.010738,1.1388,0.6989,-0.3430,0.001534,0.587515,-0.561437,0.556835,-0.595185,0.558369,-0.559903
6.4935,0.020093,0.000000,-0.009069,0.009069,0.0000,0.0000,0.0000,-0.002479,-0.010738,0.010738,1.1388,0.6989,-0.3430,0.001534,0.587515,-0.561437,0.556835,-0.595185,0.558369,-0.559903
6.5136,0.020118,0.000000,-0.008015,0.008015,0.0000,0.0000,0.0000,-0.002479,-0.010738,0.009204,1.1388,0.6989,-0.3430,0.001534,0.587515,-0.561437,0.556835,-0.595185,0.558369,-0.559903
6.5337,0.020099,0.000000,-0.006963,0.006963,0.0000,0.0000,0.0000,-0.002479,-0.012272,0.010738,1.1388,0.6989,-0.3430,0.001534,0.587515,-0.561437,0.556835,-0.595185,0.558369,-0.559903
