t,loop_dt,cmd_z,cmd_ant_l,cmd_ant_r,cmd_roll,cmd_pitch,cmd_yaw,pres_z,pres_ant_l,pres_ant_r,pres_roll,pres_pitch,pres_yaw,pres_j0,pres_j1,pres_j2,pres_j3,pres_j4,pres_j5,pres_j6
0.0000,0.000001,0.000000,-0.174533,0.174533,0.0000,0.0000,0.0000,-0.002639,0.009204,-0.016874,1.1735,0.9845,0.0427,0.001534,0.582913,-0.555301,0.556835,-0.595185,0.558369,-0.549165
0.0201,0.020098,0.000000,-0.167517,0.167517,0.0000,0.0000,0.0000,-0.002639,0.003068,-0.010738,1.1735,0.9845,0.0427,0.001534,0.582913,-0.555301,0.556835,-0.595185,0.558369,-0.549165
0.0402,0.020114,0.000000,-0.160496,0.160496,0.0000,0.0000,0.0000,-0.002639,0.001534,-0.001534,1.1735,0.9845,0.0427,0.001534,0.582913,-0.555301,0.556835,-0.595185,0.558369,-0.549165
0.0603,0.020088,0.000000,-0.153484,0.153484,0.0000,0.0000,0.0000,-0.002639,-0.009204,0.006136,1.1735,0.9845,0.0427,0.001534,0.582913,-0.555301,0.556835,-0.595185,0.558369,-0.549165
0.0804,0.020087,0.000000,-0.146472,0.146472,0.0000,0.0000,0.0000,-0.002626,-0.069029,0.069029,1.1240,0.9669,-0.0103,0.001534,0.582913,-0.555301,0.556835,-0.595185,0.558369,-0.550699
0.1005,0.020084,0.000000,-0.139462,0.139462,0.0000,0.0000,0.0000,-0.002627,-0.142660,0.144194,1.1292,0.9687,-0.0047,0.001534,0.582913,-0.555301,0.556835,-0.595185,0.558369,-0.550699
0.1206,0.020089,0.000000,-0.132449,0.132449,0.0000,0.0000,0.0000,-0.002603,-0.181010,0.179476,1.1291,0.9350,-0.0048,0.001534,0.584447,-0.555301,0.556835,-0.595185,0.558369,-0.552233
0.1407,0.020090,0.000000,-0.125437,0.125437,0.0000,0.0000,0.0000,-0.002595,-0.182544,0.177942,1.1789,0.9233,0.0493,0.001534,0.585981,-0.555301,0.556835,-0.595185,0.558369,-0.552233
0.1607,0.020086,0.000000,-0.118425,0.118425,0.0000,0.0000,0.0000,-0.002582,-0.161068,0.161068,1.1244,0.9063,-0.0099,0.001534,0.585981,-0.555301,0.556835,-0.595185,0.558369,-0.553767
0.1808,0.020099,0.000000,-0.111409,0.111409,0.0000,0.0000,0.0000,-0.002558,-0.141126,0.144194,1.0317,0.8717,-0.1110,0.001534,0.585981,-0.555301,0.556835,-0.595185,0.558369,-0.556835
0.2009,0.020103,0.000000,-0.104392,0.104392,0.0000,0.0000,0.0000,-0.002550,-0.121184,0.125786,1.0530,0.7898,-0.1535,0.001534,0.587515,-0.555301,0.555301,-0.595185,0.558369,-0.558369
0.2214,0.020471,0.000000,-0.097246,0.097246,0.0000,0.0000,0.0000,-0.002537,-0.113515,0.115049,1.0397,0.8505,-0.0956,0.001534,0.587515,-0.555301,0.556835,-0.595185,0.558369,-0.558369
0.2415,0.020087,0.000000,-0.090235,0.090235,0.0000,0.0000,0.0000,-0.002526,-0.116583,0.107379,0.9920,0.8260,-0.1552,0.001534,0.587515,-0.555301,0.556835,-0.595185,0.558369,-0.559903
0.2616,0.020140,0.000000,-0.083205,0.083205,0.0000,0.0000,0.0000,-0.002527,-0.111981,0.102777,0.9969,0.8286,-0.1490,0.001534,0.587515,-0.555301,0.556835,-0.595185,0.558369,-0.559903
0.2817,0.020109,0.000000,-0.076185,0.076185,0.0000,0.0000,0.0000,-0.002527,-0.102777,0.099709,0.9969,0.8286,-0.1490,0.001534,0.587515,-0.555301,0.556835,-0.595185,0.558369,-0.559903
0.3018,0.020094,0.000000,-0.069171,0.069171,0.0000,0.0000,0.0000,-0.002527,-0.090505,0.090505,0.9969,0.8286,-0.1490,0.001534,0.587515,-0.555301,0.556835,-0.595185,0.558369,-0.559903
0.3220,0.020125,0.000000,-0.062146,0.062146,0.0000,0.0000,0.0000,-0.002527,-0.082835,0.085903,0.9969,0.8286,-0.1490,0.001534,0.587515,-0.555301,0.556835,-0.595185,0.558369,-0.559903
0.3421,0.020099,0.000000,-0.055130,0.055130,0.0000,0.0000,0.0000,-0.002527,-0.073631,0.078233,0.9969,0.8286,-0.1490,0.001534,0.587515,-0.555301,0.556835,-0.595185,0.558369,-0.559903
0.3622,0.020088,0.000000,-0.048118,0.048118,0.0000,0.0000,0.0000,-0.002527,-0.067495,0.070563,0.9969,0.8286,-0.1490,0.001534,0.587515,-0.555301,0.556835,-0.595185,0.558369,-0.559903
0.3825,0.020388,0.000000,-0.041002,0.041002,0.0000,0.0000,0.0000,-0.002527,-0.065961,0.061359,0.9969,0.8286,-0.1490,0.001534,0.587515,-0.555301,0.556835,-0.595185,0.558369,-0.559903
0.4026,0.020081,0.000000,-0.033992,0.033992,0.0000,0.0000,0.0000,-0.002527,-0.061359,0.056757,0.9969,0.8286,-0.2369,0.000000,0.587515,-0.555301,0.556835,-0.595185,0.558369,-0.559903
0.4228,0.020196,0.000000,-0.026942,0.026942,0.0000,0.0000,0.0000,-0.002527,-0.047553,0.047553,0.9969,0.8286,-0.1490,0.001534,0.587515,-0.555301,0.556835,-0.595185,0.558369,-0.559903
0.4429,0.020113,0.000000,-0.019921,0.019921,0.0000,0.0000,0.0000,-0.002527,-0.038350,0.041417,0.9969,0.8286,-0.1490,0.001534,0.587515,-0.555301,0.556835,-0.595185,0.558369,-0.559903
0.4630,0.020086,0.000000,-0.012910,0.012910,0.0000,0.0000,0.0000,-0.002513,-0.030680,0.035282,1.0358,0.7927,-0.2028,0.001534,0.587515,-0.556835,0.556835,-0.595185,0.558369,-0.559903
0.4835,0.020501,0.000000,-0.005754,0.005754,0.0000,0.0000,0.0000,-0.002501,-0.024544,0.030680,1.0710,0.7609,-0.2504,0.001534,0.587515,-0.558369,0.556835,-0.595185,0.558369,-0.559903
0.5036,0.020094,0.000000,0.001260,-0.001260,0.0000,0.0000,0.0000,-0.002489,-0.023010,0.024544,1.1066,0.7287,-0.2987,0.001534,0.587515,-0.559903,0.556835,-0.595185,0.558369,-0.559903
0.5238,0.020217,0.000000,0.008317,-0.008317,0.0000,0.0000,0.0000,-0.002491,-0.016874,0.016874,1.1028,0.7320,-0.2936,0.001534,0.587515,-0.559903,0.556835,-0.595185,0.558369,-0.559903
0.5442,0.020388,0.000000,0.015434,-0.015434,0.0000,0.0000,0.0000,-0.002491,-0.009204,0.006136,1.1028,0.7320,-0.2936,0.001534,0.587515,-0.559903,0.556835,-0.595185,0.558369,-0.559903
0.5643,0.020088,0.000000,0.022446,-0.022446,0.0000,0.0000,0.0000,-0.002477,0.001534,-0.001534,1.1424,0.6961,-0.3475,0.001534,0.587515,-0.561437,0.556835,-0.595185,0.558369,-0.559903
0.5845,0.020241,0.000000,0.029511,-0.029511,0.0000,0.0000,0.0000,-0.002479,0.012272,-0.009204,1.1383,0.6998,-0.3419,0.001534,0.587515,-0.561437,0.556835,-0.595185,0.558369,-0.559903
0.6046,0.020091,0.000000,0.036524,-0.036524,0.0000,0.0000,0.0000,-0.002479,0.016874,-0.016874,1.1383,0.6998,-0.3419,0.001534,0.587515,-0.561437,0.556835,-0.595185,0.558369,-0.559903
0.6247,0.020091,0.000000,0.043537,-0.043537,0.0000,0.0000,0.0000,-0.002479,0.015340,-0.021476,1.1383,0.6998,-0.3419,0.001534,0.587515,-0.561437,0.556835,-0.595185,0.558369,-0.559903
0.6448,0.020106,0.000000,0.050555,-0.050555,0.0000,0.0000,0.0000,-0.002479,0.021476,-0.026078,1.1383,0.6998,-0.3419,0.001534,0.587515,-0.561437,0.556835,-0.595185,0.558369,-0.559903
0.6649,0.020070,0.000000,0.057561,-0.057561,0.0000,0.0000,0.0000,-0.002479,0.033748,-0.033748,1.1383,0.6998,-0.3419,0.001534,0.587515,-0.561437,0.556835,-0.595185,0.558369,-0.559903
0.6850,0.020129,0.000000,0.064588,-0.064588,0.0000,0.0000,0.0000,-0.002479,0.046019,-0.044485,1.1383,0.6998,-0.3419,0.001534,0.587515,-0.561437,0.556835,-0.595185,0.558369,-0.559903
0.7051,0.020104,0.000000,0.071605,-0.071605,0.0000,0.0000,0.0000,-0.002479,0.052155,-0.050621,1.1383,0.6998,-0.3419,0.001534,0.587515,-0.561437,0.556835,-0.595185,0.558369,-0.559903
0.7252,0.020078,0.000000,0.078614,-0.078614,0.0000,0.0000,0.0000,-0.002479,0.053689,-0.056757,1.1383,0.6998,-0.3419,0.001534,0.587515,-0.561437,0.556835,-0.595185,0.558369,-0.559903
0.7453,0.020081,0.000000,0.085624,-0.085624,0.0000,0.0000,0.0000,-0.002479,0.059825,-0.062893,1.1383,0.6998,-0.3419,0.001534,0.587515,-0.561437,0.556835,-0.595185,0.558369,-0.559903
0.7654,0.020076,0.000000,0.092632,-0.092632,0.0000,0.0000,0.0000,-0.002479,0.072097,-0.072097,1.1383,0.6998,-0.3419,0.001534,0.587515,-0.561437,0.556835,-0.595185,0.558369,-0.559903
0.7854,0.020079,0.000000,0.099641,-0.099641,0.0000,0.0000,0.0000,-0.002479,0.082835,-0.076699,1.1383,0.6998,-0.3419,0.001534,0.587515,-0.561437,0.556835,-0.595185,0.558369,-0.559903
0.8055,0.020059,0.000000,0.106642,-0.106642,0.0000,0.0000,0.0000,-0.002479,0.087437,-0.081301,1.1383,0.6998,-0.3419,0.001534,0.587515,-0.561437,0.556835,-0.595185,0.558369,-0.559903
0.8256,0.020134,0.000000,0.113670,-0.113670,0.0000,0.0000,0.0000,-0.002479,0.087437,-0.087437,1.1383,0.6998,-0.3419,0.001534,0.587515,-0.561437,0.556835,-0.595185,0.558369,-0.559903
0.8457,0.020085,0.000000,0.120681,-0.120681,0.0000,0.0000,0.0000,-0.002479,0.093573,-0.093573,1.1383,0.6998,-0.3419,0.001534,0.587515,-0.561437,0.556835,-0.595185,0.558369,-0.559903
0.8658,0.020078,0.000000,0.127690,-0.127690,0.0000,0.0000,0.0000,-0.002479,0.102777,-0.102777,1.1383,0.6998,-0.3419,0.001534,0.587515,-0.561437,0.556835,-0.595185,0.558369,-0.559903
0.8859,0.020082,0.000000,0.134700,-0.134700,0.0000,0.0000,0.0000,-0.002479,0.116583,-0.108913,1.1383,0.6998,-0.3419,0.001534,0.587515,-0.561437,0.556835,-0.595185,0.558369,-0.559903
0.9060,0.020082,0.000000,0.141710,-0.141710,0.0000,0.0000,0.0000,-0.002479,0.122718,-0.118117,1.1383,0.6998,-0.3419,0.001534,0.587515,-0.561437,0.556835,-0.595185,0.558369,-0.559903
0.9260,0.020078,0.000000,0.148718,-0.148718,0.0000,0.0000,0.0000,-0.002479,0.124252,-0.127320,1.1383,0.6998,-0.3419,0.001534,0.587515,-0.561437,0.556835,-0.595185,0.558369,-0.559903
0.9462,0.020132,0.000000,0.155746,-0.155746,0.0000,0.0000,0.0000,-0.002479,0.125786,-0.134990,1.1383,0.6998,-0.3419,0.001534,0.587515,-0.561437,0.556835,-0.595185,0.558369,-0.559903
0.9663,0.020096,0.000000,0.162761,-0.162761,0.0000,0.0000,0.0000,-0.002479,0.133456,-0.141126,1.1383,0.6998,-0.3419,0.001534,0.587515,-0.561437,0.556835,-0.595185,0.558369,-0.559903
0.9864,0.020124,0.000000,0.169785,-0.169785,0.0000,0.0000,0.0000,-0.002479,0.147262,-0.148796,1.1383,0.6998,-0.3419,0.001534,0.587515,-0.561437,0.556835,-0.595185,0.558369,-0.559903
1.0067,0.020306,0.000000,0.172192,-0.172192,0.0000,0.0000,0.0000,-0.002479,0.159534,-0.158000,1.1383,0.6998,-0.3419,0.001534,0.587515,-0.561437,0.556835,-0.595185,0.558369,-0.559903
1.0268,0.020082,0.000000,0.165183,-0.165183,0.0000,0.0000,0.0000,-0.002479,0.162602,-0.162602,1.1383,0.6998,-0.3419,0.001534,0.587515,-0.561437,0.556835,-0.595185,0.558369,-0.559903
1.0470,0.020237,0.000000,0.158118,-0.158118,0.0000,0.0000,0.0000,-0.002466,0.162602,-0.168738,1.0896,0.6816,-0.3961,0.001534,0.587515,-0.561437,0.556835,-0.595185,0.558369,-0.561437
1.0671,0.020079,0.000000,0.151109,-0.151109,0.0000,0.0000,0.0000,-0.002467,0.171806,-0.176408,1.1828,0.6658,-0.3902,0.001534,0.587515,-0.562971,0.556835,-0.595185,0.558369,-0.559903
1.0872,0.020078,0.000000,0.144101,-0.144101,0.0000,0.0000,0.0000,-0.002467,0.176408,-0.174874,1.1731,0.6675,-0.3908,0.001534,0.587515,-0.562971,0.556835,-0.595185,0.558369,-0.559903
1.1073,0.020075,0.000000,0.137093,-0.137093,0.0000,0.0000,0.0000,-0.002480,0.167204,-0.167204,1.1351,0.7028,-0.3374,0.001534,0.587515,-0.561437,0.556835,-0.595185,0.558369,-0.559903
1.1273,0.020080,0.000000,0.130084,-0.130084,0.0000,0.0000,0.0000,-0.002478,0.156466,-0.159534,1.1390,0.6991,-0.3429,0.001534,0.587515,-0.561437,0.556835,-0.595185,0.558369,-0.559903
1.1474,0.020078,0.000000,0.123076,-0.123076,0.0000,0.0000,0.0000,-0.002478,0.145728,-0.150330,1.1390,0.6991,-0.3429,0.001534,0.587515,-0.561437,0.556835,-0.595185,0.558369,-0.559903
1.1675,0.020075,0.000000,0.116068,-0.116068,0.0000,0.0000,0.0000,-0.002478,0.134990,-0.142660,1.1390,0.6991,-0.3429,0.001534,0.587515,-0.561437,0.556835,-0.595185,0.558369,-0.559903
1.1878,0.020300,0.000000,0.108982,-0.108982,0.0000,0.0000,0.0000,-0.002478,0.127320,-0.136524,1.1390,0.6991,-0.3429,0.001534,0.587515,-0.561437,0.556835,-0.595185,0.558369,-0.559903
1.2079,0.020083,0.000000,0.101972,-0.101972,0.0000,0.0000,0.0000,-0.002478,0.121184,-0.128854,1.1390,0.6991,-0.3429,0.001534,0.587515,-0.561437,0.556835,-0.595185,0.558369,-0.559903
1.2280,0.020078,0.000000,0.094963,-0.094963,0.0000,0.0000,0.0000,-0.002478,0.115049,-0.121184,1.1390,0.6991,-0.3429,0.001534,0.587515,-0.561437,0.556835,-0.595185,0.558369,-0.559903
1.2480,0.020095,0.000000,0.087948,-0.087948,0.0000,0.0000,0.0000,-0.002453,0.110447,-0.115049,1.1286,0.6461,-0.4494,0.001534,0.587515,-0.562971,0.556835,-0.595185,0.558369,-0.561437
1.2681,0.020084,0.000000,0.080938,-0.080938,0.0000,0.0000,0.0000,-0.002481,0.104311,-0.110447,1.1397,0.7050,-0.3313,0.001534,0.587515,-0.561437,0.556835,-0.595185,0.558369,-0.559903
1.2882,0.020077,0.000000,0.073930,-0.073930,0.0000,0.0000,0.0000,-0.002478,0.093573,-0.101243,1.1385,0.6989,-0.3436,0.001534,0.587515,-0.561437,0.556835,-0.595185,0.558369,-0.559903
1.3083,0.020087,0.000000,0.066918,-0.066918,0.0000,0.0000,0.0000,-0.002479,0.084369,-0.090505,1.1387,0.6998,-0.3419,0.001534,0.587515,-0.561437,0.556835,-0.595185,0.558369,-0.559903
1.3285,0.020159,0.000000,0.059881,-0.059881,0.0000,0.0000,0.0000,-0.002479,0.081301,-0.081301,1.1387,0.6998,-0.3419,0.001534,0.587515,-0.561437,0.556835,-0.595185,0.558369,-0.559903
1.3485,0.020092,0.000000,0.052868,-0.052868,0.0000,0.0000,0.0000,-0.002479,0.078233,-0.072097,1.1387,0.6998,-0.3419,0.001534,0.587515,-0.561437,0.556835,-0.595185,0.558369,-0.559903
1.3686,0.020105,0.000000,0.045850,-0.045850,0.0000,0.0000,0.0000,-0.002479,0.072097,-0.067495,1.1387,0.6998,-0.3419,0.001534,0.587515,-0.561437,0.556835,-0.595185,0.558369,-0.559903
1.3887,0.020086,0.000000,0.038839,-0.038839,0.0000,0.0000,0.0000,-0.002479,0.059825,-0.067495,1.1387,0.6998,-0.3419,0.001534,0.587515,-0.561437,0.556835,-0.595185,0.558369,-0.559903
1.4088,0.020102,0.000000,0.031822,-0.031822,0.0000,0.0000,0.0000,-0.002465,0.052155,-0.061359,1.1777,0.6639,-0.3958,0.001534,0.587515,-0.562971,0.556835,-0.595185,0.558369,-0.559903
1.4289,0.020088,0.000000,0.024810,-0.024810,0.0000,0.0000,0.0000,-0.002480,0.044485,-0.050621,1.1346,0.7032,-0.3368,0.001534,0.587515,-0.561437,0.556835,-0.595185,0.558369,-0.559903
1.4490,0.020071,0.000000,0.017804,-0.017804,0.0000,0.0000,0.0000,-0.002466,0.038350,-0.038350,1.0900,0.6812,-0.3966,0.001534,0.587515,-0.561437,0.556835,-0.595185,0.558369,-0.561437
1.4691,0.020089,0.000000,0.010792,-0.010792,0.0000,0.0000,0.0000,-0.002467,0.032214,-0.029146,1.1828,0.6658,-0.3901,0.001534,0.587515,-0.562971,0.556835,-0.595185,0.558369,-0.559903
1.4892,0.020073,0.000000,0.003785,-0.003785,0.0000,0.0000,0.0000,-0.002480,0.027612,-0.027612,1.1341,0.7030,-0.3374,0.001534,0.587515,-0.561437,0.556835,-0.595185,0.558369,-0.559903
1.5093,0.020094,0.000000,-0.003230,0.003230,0.0000,0.0000,0.0000,-0.002478,0.019942,-0.021476,1.1391,0.6991,-0.3429,0.001534,0.587515,-0.561437,0.556835,-0.595185,0.558369,-0.559903
1.5293,0.020082,0.000000,-0.010239,0.010239,0.0000,0.0000,0.0000,-0.002466,0.007670,-0.009204,1.0895,0.6816,-0.3960,0.001534,0.587515,-0.561437,0.556835,-0.595185,0.558369,-0.561437
1.5494,0.020083,0.000000,-0.017250,0.017250,0.0000,0.0000,0.0000,-0.002480,0.000000,-0.003068,1.1438,0.7013,-0.3368,0.001534,0.587515,-0.561437,0.556835,-0.595185,0.558369,-0.559903
1.5695,0.020055,0.000000,-0.024250,0.024250,0.0000,0.0000,0.0000,-0.002466,-0.003068,-0.003068,1.0890,0.6814,-0.3966,0.001534,0.587515,-0.561437,0.556835,-0.595185,0.558369,-0.561437
1.5896,0.020085,0.000000,-0.031261,0.031261,0.0000,0.0000,0.0000,-0.002480,-0.003068,0.000000,1.1438,0.7014,-0.3368,0.001534,0.587515,-0.561437,0.556835,-0.595185,0.558369,-0.559903
1.6097,0.020095,0.000000,-0.038276,0.038276,0.0000,0.0000,0.0000,-0.002478,-0.004602,0.010738,1.1381,0.6993,-0.3430,0.001534,0.587515,-0.561437,0.556835,-0.595185,0.558369,-0.559903
1.6297,0.020088,0.000000,-0.045288,0.045288,0.0000,0.0000,0.0000,-0.002478,-0.013806,0.024544,1.1381,0.6993,-0.3430,0.001534,0.587515,-0.561437,0.556835,-0.595185,0.558369,-0.559903
1.6498,0.020081,0.000000,-0.052297,0.052297,0.0000,0.0000,0.0000,-0.002478,-0.029146,0.027612,1.1381,0.6993,-0.3430,0.001534,0.587515,-0.561437,0.556835,-0.595185,0.558369,-0.559903
1.6699,0.020094,0.000000,-0.059311,0.059311,0.0000,0.0000,0.0000,-0.002478,-0.041417,0.032214,1.1381,0.6993,-0.3430,0.001534,0.587515,-0.561437,0.556835,-0.595185,0.558369,-0.559903
1.6900,0.020083,0.000000,-0.066321,0.066321,0.0000,0.0000,0.0000,-0.002478,-0.042951,0.042951,1.1381,0.6993,-0.3430,0.001534,0.587515,-0.561437,0.556835,-0.595185,0.558369,-0.559903
1.7101,0.020094,0.000000,-0.073336,0.073336,0.0000,0.0000,0.0000,-0.002478,-0.044485,0.049087,1.1381,0.6993,-0.3430,0.001534,0.587515,-0.561437,0.556835,-0.595185,0.558369,-0.559903
1.7302,0.020084,0.000000,-0.080346,0.080346,0.0000,0.0000,0.0000,-0.002465,-0.053689,0.050621,1.1778,0.6640,-0.3957,0.001534,0.587515,-0.562971,0.556835,-0.595185,0.558369,-0.559903
1.7503,0.020080,0.000000,-0.087356,0.087356,0.0000,0.0000,0.0000,-0.002480,-0.065961,0.059825,1.1346,0.7032,-0.3368,0.001534,0.587515,-0.561437,0.556835,-0.595185,0.558369,-0.559903
1.7704,0.020127,0.000000,-0.094381,0.094381,0.0000,0.0000,0.0000,-0.002465,-0.075165,0.078233,1.1782,0.6636,-0.3964,0.001534,0.587515,-0.562971,0.556835,-0.595185,0.558369,-0.559903
1.7905,0.020087,0.000000,-0.101393,0.101393,0.0000,0.0000,0.0000,-0.002480,-0.076699,0.076699,1.1345,0.7032,-0.3368,0.001534,0.587515,-0.561437,0.556835,-0.595185,0.558369,-0.559903
1.8106,0.020101,0.000000,-0.108410,0.108410,0.0000,0.0000,0.0000,-0.002478,-0.088971,0.082835,1.1391,0.6991,-0.3430,0.001534,0.587515,-0.561437,0.556835,-0.595185,0.558369,-0.559903
1.8307,0.020085,0.000000,-0.115421,0.115421,0.0000,0.0000,0.0000,-0.002478,-0.102777,0.098175,1.1391,0.6991,-0.3430,0.001534,0.587515,-0.561437,0.556835,-0.595185,0.558369,-0.559903
1.8507,0.020079,0.000000,-0.122430,0.122430,0.0000,0.0000,0.0000,-0.002478,-0.111981,0.108913,1.1391,0.6991,-0.3430,0.001534,0.587515,-0.561437,0.556835,-0.595185,0.558369,-0.559903
1.8714,0.020696,0.000000,-0.129654,0.129654,0.0000,0.0000,0.0000,-0.002478,-0.111981,0.110447,1.1391,0.6991,-0.3430,0.001534,0.587515,-0.561437,0.556835,-0.595185,0.558369,-0.559903
1.8915,0.020084,0.000000,-0.136665,0.136665,0.0000,0.0000,0.0000,-0.002478,-0.113515,0.115049,1.1391,0.6991,-0.3430,0.001534,0.587515,-0.561437,0.556835,-0.595185,0.558369,-0.559903
1.9116,0.020088,0.000000,-0.143677,0.143677,0.0000,0.0000,0.0000,-0.002478,-0.125786,0.128854,1.1391,0.6991,-0.3430,0.001534,0.587515,-0.561437,0.556835,-0.595185,0.558369,-0.559903
1.9317,0.020081,0.000000,-0.150687,0.150687,0.0000,0.0000,0.0000,-0.002478,-0.141126,0.133456,1.1391,0.6991,-0.3430,0.001534,0.587515,-0.561437,0.556835,-0.595185,0.558369,-0.559903
1.9518,0.020085,0.000000,-0.157698,0.157698,0.0000,0.0000,0.0000,-0.002478,-0.144194,0.136524,1.1391,0.6991,-0.3430,0.001534,0.587515,-0.561437,0.556835,-0.595185,0.558369,-0.559903
1.9719,0.020088,0.000000,-0.164710,0.164710,0.0000,0.0000,0.0000,-0.002478,-0.144194,0.148796,1.1391,0.6991,-0.3430,0.001534,0.587515,-0.561437,0.556835,-0.595185,0.558369,-0.559903
1.9919,0.020084,0.000000,-0.171720,0.171720,0.0000,0.0000,0.0000,-0.002478,-0.151864,0.156466,1.1391,0.6991,-0.3430,0.001534,0.587515,-0.561437,0.556835,-0.595185,0.558369,-0.559903
2.0120,0.020101,0.000000,-0.170329,0.170329,0.0000,0.0000,0.0000,-0.002478,-0.167204,0.156466,1.1391,0.6991,-0.3430,0.001534,0.587515,-0.561437,0.556835,-0.595185,0.558369,-0.559903
2.0321,0.020088,0.000000,-0.163317,0.163317,0.0000,0.0000,0.0000,-0.002478,-0.173340,0.162602,1.1391,0.6991,-0.3430,0.001534,0.587515,-0.561437,0.556835,-0.595185,0.558369,-0.559903
2.0522,0.020082,0.000000,-0.156307,0.156307,0.0000,0.0000,0.0000,-0.002478,-0.173340,0.174874,1.1391,0.6991,-0.3430,0.001534,0.587515,-0.561437,0.556835,-0.595185,0.558369,-0.559903
2.0723,0.020095,0.000000,-0.149292,0.149292,0.0000,0.0000,0.0000,-0.002478,-0.173340,0.173340,1.1391,0.6991,-0.3430,0.001534,0.587515,-0.561437,0.556835,-0.595185,0.558369,-0.559903
2.0924,0.020081,0.000000,-0.142283,0.142283,0.0000,0.0000,0.0000,-0.002478,-0.168738,0.165670,1.1391,0.6991,-0.3430,0.001534,0.587515,-0.561437,0.556835,-0.595185,0.558369,-0.559903
2.1125,0.020091,0.000000,-0.135270,0.135270,0.0000,0.0000,0.0000,-0.002478,-0.158000,0.159534,1.1391,0.6991,-0.3430,0.001534,0.587515,-0.561437,0.556835,-0.595185,0.558369,-0.559903
2.1326,0.020083,0.000000,-0.128260,0.128260,0.0000,0.0000,0.0000,-0.002478,-0.150330,0.153398,1.1391,0.6991,-0.3430,0.001534,0.587515,-0.561437,0.556835,-0.595185,0.558369,-0.559903
2.1528,0.020249,0.000000,-0.121191,0.121191,0.0000,0.0000,0.0000,-0.002478,-0.139592,0.144194,1.1391,0.6991,-0.3430,0.001534,0.587515,-0.561437,0.556835,-0.595185,0.558369,-0.559903
2.1729,0.020092,0.000000,-0.114178,0.114178,0.0000,0.0000,0.0000,-0.002465,-0.133456,0.139592,1.1777,0.6640,-0.3957,0.001534,0.587515,-0.562971,0.556835,-0.595185,0.558369,-0.559903
2.1931,0.020172,0.000000,-0.107136,0.107136,0.0000,0.0000,0.0000,-0.002480,-0.127320,0.131922,1.1346,0.7032,-0.3368,0.001534,0.587515,-0.561437,0.556835,-0.595185,0.558369,-0.559903
2.2132,0.020077,0.000000,-0.100128,0.100128,0.0000,0.0000,0.0000,-0.002478,-0.122718,0.124252,1.1391,0.6991,-0.3430,0.001534,0.587515,-0.561437,0.556835,-0.595185,0.558369,-0.559903
2.2332,0.020080,0.000000,-0.093119,0.093119,0.0000,0.0000,0.0000,-0.002478,-0.116583,0.115049,1.1391,0.6991,-0.3430,0.001534,0.587515,-0.561437,0.556835,-0.595185,0.558369,-0.559903
2.2533,0.020079,0.000000,-0.086110,0.086110,0.0000,0.0000,0.0000,-0.002478,-0.108913,0.110447,1.1391,0.6991,-0.3430,0.001534,0.587515,-0.561437,0.556835,-0.595185,0.558369,-0.559903
2.2734,0.020079,0.000000,-0.079101,0.079101,0.0000,0.0000,0.0000,-0.002478,-0.101243,0.101243,1.1391,0.6991,-0.3430,0.001534,0.587515,-0.561437,0.556835,-0.595185,0.558369,-0.559903
2.2935,0.020086,0.000000,-0.072090,0.072090,0.0000,0.0000,0.0000,-0.002478,-0.092039,0.093573,1.1391,0.6991,-0.3430,0.001534,0.587515,-0.561437,0.556835,-0.595185,0.558369,-0.559903
2.3136,0.020076,0.000000,-0.065082,0.065082,0.0000,0.0000,0.0000,-0.002478,-0.085903,0.085903,1.1391,0.6991,-0.3430,0.001534,0.587515,-0.561437,0.556835,-0.595185,0.558369,-0.559903
2.3337,0.020176,0.000000,-0.058039,0.058039,0.0000,0.0000,0.0000,-0.002478,-0.076699,0.079767,1.1391,0.6991,-0.3430,0.001534,0.587515,-0.561437,0.556835,-0.595185,0.558369,-0.559903
2.3538,0.020076,0.000000,-0.051031,0.051031,0.0000,0.0000,0.0000,-0.002478,-0.069029,0.072097,1.1391,0.6991,-0.3430,0.001534,0.587515,-0.561437,0.556835,-0.595185,0.558369,-0.559903
2.3739,0.020087,0.000000,-0.044020,0.044020,0.0000,0.0000,0.0000,-0.002478,-0.065961,0.062893,1.1391,0.6991,-0.3430,0.001534,0.587515,-0.561437,0.556835,-0.595185,0.558369,-0.559903
2.3940,0.020083,0.000000,-0.037010,0.037010,0.0000,0.0000,0.0000,-0.002478,-0.058291,0.058291,1.1391,0.6991,-0.3430,0.001534,0.587515,-0.561437,0.556835,-0.595185,0.558369,-0.559903
2.4141,0.020078,0.000000,-0.030001,0.030001,0.0000,0.0000,0.0000,-0.002478,-0.049087,0.052155,1.1391,0.6991,-0.3430,0.001534,0.587515,-0.561437,0.556835,-0.595185,0.558369,-0.559903
2.4341,0.020086,0.000000,-0.022990,0.022990,0.0000,0.0000,0.0000,-0.002478,-0.041417,0.046019,1.1391,0.6991,-0.3430,0.001534,0.587515,-0.561437,0.556835,-0.595185,0.558369,-0.559903
2.4542,0.020077,0.000000,-0.015982,0.015982,0.0000,0.0000,0.0000,-0.002466,-0.036816,0.038350,1.0895,0.6816,-0.3960,0.001534,0.587515,-0.561437,0.556835,-0.595185,0.558369,-0.561437
2.4743,0.020099,0.000000,-0.008966,0.008966,0.0000,0.0000,0.0000,-0.002466,-0.029146,0.032214,1.0895,0.6816,-0.3960,0.001534,0.587515,-0.561437,0.556835,-0.595185,0.558369,-0.559903
2.4945,0.020193,0.000000,-0.001917,0.001917,0.0000,0.0000,0.0000,-0.002478,-0.019942,0.026078,1.1381,0.6993,-0.3430,0.001534,0.587515,-0.561437,0.556835,-0.595185,0.558369,-0.559903
2.5146,0.020078,0.000000,0.005091,-0.005091,0.0000,0.0000,0.0000,-0.002478,-0.012272,0.018408,1.1381,0.6993,-0.3430,0.001534,0.587515,-0.561437,0.556835,-0.595185,0.558369,-0.559903
2.5347,0.020082,0.000000,0.012101,-0.012101,0.0000,0.0000,0.0000,-0.002478,-0.009204,0.007670,1.1381,0.6993,-0.3430,0.001534,0.587515,-0.561437,0.556835,-0.595185,0.558369,-0.559903
2.5547,0.020080,0.000000,0.019110,-0.019110,0.0000,0.0000,0.0000,-0.002478,-0.001534,0.000000,1.1381,0.6993,-0.3430,0.001534,0.587515,-0.561437,0.556835,-0.595185,0.558369,-0.559903
2.5748,0.020089,0.000000,0.026123,-0.026123,0.0000,0.0000,0.0000,-0.002478,0.009204,-0.006136,1.1381,0.6993,-0.3430,0.001534,0.587515,-0.561437,0.556835,-0.595185,0.558369,-0.559903
2.5950,0.020149,0.000000,0.033156,-0.033156,0.0000,0.0000,0.0000,-0.002478,0.013806,-0.013806,1.1381,0.6993,-0.3430,0.001534,0.587515,-0.561437,0.556835,-0.595185,0.558369,-0.559903
2.6154,0.020441,0.000000,0.040291,-0.040291,0.0000,0.0000,0.0000,-0.002466,0.013806,-0.019942,1.0896,0.6816,-0.3960,0.001534,0.587515,-0.561437,0.556835,-0.595185,0.558369,-0.561437
2.6362,0.020736,0.000000,0.047529,-0.047529,0.0000,0.0000,0.0000,-0.002480,0.019942,-0.026078,1.1437,0.7013,-0.3368,0.001534,0.587515,-0.561437,0.556835,-0.595185,0.558369,-0.559903
2.6562,0.020079,0.000000,0.054538,-0.054538,0.0000,0.0000,0.0000,-0.002478,0.032214,-0.033748,1.1381,0.6993,-0.3430,0.001534,0.587515,-0.561437,0.556835,-0.595185,0.558369,-0.559903
2.6763,0.020091,0.000000,0.061551,-0.061551,0.0000,0.0000,0.0000,-0.002478,0.046019,-0.042951,1.1381,0.6993,-0.3430,0.001534,0.587515,-0.561437,0.556835,-0.595185,0.558369,-0.559903
2.6964,0.020085,0.000000,0.068562,-0.068562,0.0000,0.0000,0.0000,-0.002478,0.049087,-0.047553,1.1381,0.6993,-0.3430,0.001534,0.587515,-0.561437,0.556835,-0.595185,0.558369,-0.559903
2.7166,0.020194,0.000000,0.075611,-0.075611,0.0000,0.0000,0.0000,-0.002479,0.050621,-0.052155,1.1887,0.6118,-0.4493,0.001534,0.587515,-0.562971,0.555301,-0.595185,0.558369,-0.559903
2.7367,0.020073,0.000000,0.082618,-0.082618,0.0000,0.0000,0.0000,-0.002465,0.058291,-0.058291,1.1725,0.6731,-0.3846,0.001534,0.587515,-0.562971,0.556835,-0.595185,0.558369,-0.559903
2.7568,0.020075,0.000000,0.089626,-0.089626,0.0000,0.0000,0.0000,-0.002467,0.070563,-0.067495,1.0860,0.6844,-0.3917,0.001534,0.587515,-0.561437,0.556835,-0.595185,0.558369,-0.561437
2.7772,0.020425,0.000000,0.096755,-0.096755,0.0000,0.0000,0.0000,-0.002480,0.078233,-0.075165,1.1441,0.7011,-0.3373,0.001534,0.587515,-0.561437,0.556835,-0.595185,0.558369,-0.559903
2.7973,0.020118,0.000000,0.103778,-0.103778,0.0000,0.0000,0.0000,-0.002478,0.082835,-0.081301,1.1381,0.6993,-0.3429,0.001534,0.587515,-0.561437,0.556835,-0.595185,0.558369,-0.559903
2.8175,0.020246,0.000000,0.110845,-0.110845,0.0000,0.0000,0.0000,-0.002478,0.084369,-0.085903,1.1381,0.6993,-0.3429,0.001534,0.587515,-0.561437,0.556835,-0.595185,0.558369,-0.559903
2.8376,0.020082,0.000000,0.117855,-0.117855,0.0000,0.0000,0.0000,-0.002478,0.093573,-0.092039,1.1381,0.6993,-0.3429,0.001534,0.587515,-0.561437,0.556835,-0.595185,0.558369,-0.559903
2.8578,0.020140,0.000000,0.124885,-0.124885,0.0000,0.0000,0.0000,-0.002478,0.107379,-0.101243,1.1381,0.6993,-0.3429,0.001534,0.587515,-0.561437,0.556835,-0.595185,0.558369,-0.559903
2.8779,0.020091,0.000000,0.131898,-0.131898,0.0000,0.0000,0.0000,-0.002478,0.116583,-0.107379,1.1381,0.6993,-0.3429,0.001534,0.587515,-0.561437,0.556835,-0.595185,0.558369,-0.559903
2.8979,0.020082,0.000000,0.138908,-0.138908,0.0000,0.0000,0.0000,-0.002478,0.116583,-0.115049,1.1381,0.6993,-0.3429,0.001534,0.587515,-0.561437,0.556835,-0.595185,0.558369,-0.559903
2.9184,0.020479,0.000000,0.146056,-0.146056,0.0000,0.0000,0.0000,-0.002478,0.116583,-0.124252,1.1381,0.6993,-0.3429,0.001534,0.587515,-0.561437,0.556835,-0.595185,0.558369,-0.559903
2.9385,0.020092,0.000000,0.153070,-0.153070,0.0000,0.0000,0.0000,-0.002478,0.125786,-0.133456,1.1381,0.6993,-0.3429,0.001534,0.587515,-0.561437,0.556835,-0.595185,0.558369,-0.559903
2.9586,0.020080,0.000000,0.160079,-0.160079,0.0000,0.0000,0.0000,-0.002478,0.141126,-0.138058,1.1381,0.6993,-0.3429,0.001534,0.587515,-0.561437,0.556835,-0.595185,0.558369,-0.559903
2.9787,0.020083,0.000000,0.167089,-0.167089,0.0000,0.0000,0.0000,-0.002478,0.150330,-0.145728,1.1381,0.6993,-0.3429,0.001534,0.587515,-0.561437,0.556835,-0.595185,0.558369,-0.559903
2.9988,0.020079,0.000000,0.174098,-0.174098,0.0000,0.0000,0.0000,-0.002466,0.150330,-0.156466,1.0896,0.6816,-0.3960,0.001534,0.587515,-0.561437,0.556835,-0.595185,0.558369,-0.561437
3.0188,0.020079,0.000000,0.167959,-0.167959,0.0000,0.0000,0.0000,-0.002480,0.150330,-0.162602,1.1437,0.7013,-0.3368,0.001534,0.587515,-0.561437,0.556835,-0.595185,0.558369,-0.559903
3.0389,0.020076,0.000000,0.160951,-0.160951,0.0000,0.0000,0.0000,-0.002466,0.158000,-0.165670,1.0890,0.6814,-0.3966,0.001534,0.587515,-0.561437,0.556835,-0.595185,0.558369,-0.561437
3.0590,0.020079,0.000000,0.153942,-0.153942,0.0000,0.0000,0.0000,-0.002480,0.173340,-0.174874,1.1438,0.7014,-0.3368,0.001534,0.587515,-0.561437,0.556835,-0.595185,0.558369,-0.559903
3.0792,0.020236,0.000000,0.146878,-0.146878,0.0000,0.0000,0.0000,-0.002478,0.179476,-0.174874,1.1381,0.6993,-0.3430,0.001534,0.587515,-0.561437,0.556835,-0.595185,0.558369,-0.559903
3.0993,0.020082,0.000000,0.139869,-0.139869,0.0000,0.0000,0.0000,-0.002466,0.171806,-0.170272,1.0896,0.6816,-0.3960,0.001534,0.587515,-0.561437,0.556835,-0.595185,0.558369,-0.561437
3.1194,0.020077,0.000000,0.132860,-0.132860,0.0000,0.0000,0.0000,-0.002480,0.158000,-0.161068,1.1437,0.7013,-0.3368,0.001534,0.587515,-0.561437,0.556835,-0.595185,0.558369,-0.559903
3.1395,0.020080,0.000000,0.125851,-0.125851,0.0000,0.0000,0.0000,-0.002478,0.147262,-0.153398,1.1381,0.6993,-0.3430,0.001534,0.587515,-0.561437,0.556835,-0.595185,0.558369,-0.559903
3.1595,0.020082,0.000000,0.118841,-0.118841,0.0000,0.0000,0.0000,-0.002478,0.138058,-0.145728,1.1381,0.6993,-0.3430,0.001534,0.587515,-0.561437,0.556835,-0.595185,0.558369,-0.559903
3.1802,0.020645,0.000000,0.111635,-0.111635,0.0000,0.0000,0.0000,-0.002465,0.130388,-0.141126,1.1778,0.6640,-0.3957,0.001534,0.587515,-0.562971,0.556835,-0.595185,0.558369,-0.559903
3.2003,0.020085,0.000000,0.104624,-0.104624,0.0000,0.0000,0.0000,-0.002454,0.125786,-0.133456,1.1246,0.6498,-0.4439,0.001534,0.587515,-0.562971,0.556835,-0.595185,0.558369,-0.561437
3.2204,0.020084,0.000000,0.097613,-0.097613,0.0000,0.0000,0.0000,-0.002481,0.116583,-0.122718,1.1401,0.7046,-0.3318,0.001534,0.587515,-0.561437,0.556835,-0.595185,0.558369,-0.559903
3.2405,0.020093,0.000000,0.090600,-0.090600,0.0000,0.0000,0.0000,-0.002478,0.110447,-0.116583,1.1385,0.6990,-0.3435,0.001534,0.587515,-0.561437,0.556835,-0.595185,0.558369,-0.559903
3.2605,0.020084,0.000000,0.083589,-0.083589,0.0000,0.0000,0.0000,-0.002478,0.102777,-0.111981,1.1385,0.6990,-0.3435,0.001534,0.587515,-0.561437,0.556835,-0.595185,0.558369,-0.559903
3.2807,0.020197,0.000000,0.076539,-0.076539,0.0000,0.0000,0.0000,-0.002465,0.095107,-0.102777,1.1778,0.6640,-0.3957,0.001534,0.587515,-0.562971,0.556835,-0.595185,0.558369,-0.559903
3.3008,0.020071,0.000000,0.069533,-0.069533,0.0000,0.0000,0.0000,-0.002480,0.088971,-0.092039,1.1346,0.7032,-0.3369,0.001534,0.587515,-0.561437,0.556835,-0.595185,0.558369,-0.559903
3.3209,0.020073,0.000000,0.062526,-0.062526,0.0000,0.0000,0.0000,-0.002478,0.082835,-0.082835,1.1391,0.6991,-0.3430,0.001534,0.587515,-0.561437,0.556835,-0.595185,0.558369,-0.559903
3.3410,0.020088,0.000000,0.055514,-0.055514,0.0000,0.0000,0.0000,-0.002478,0.079767,-0.073631,1.1391,0.6991,-0.3430,0.001534,0.587515,-0.561437,0.556835,-0.595185,0.558369,-0.559903
3.3610,0.020080,0.000000,0.048505,-0.048505,0.0000,0.0000,0.0000,-0.002478,0.073631,-0.069029,1.1391,0.6991,-0.3430,0.001534,0.587515,-0.561437,0.556835,-0.595185,0.558369,-0.559903
3.3811,0.020086,0.000000,0.041493,-0.041493,0.0000,0.0000,0.0000,-0.002465,0.061359,-0.067495,1.1777,0.6640,-0.3957,0.001534,0.587515,-0.562971,0.556835,-0.595185,0.558369,-0.559903
3.4018,0.020644,0.000000,0.034287,-0.034287,0.0000,0.0000,0.0000,-0.002480,0.052155,-0.061359,1.1346,0.7032,-0.3368,0.001534,0.587515,-0.561437,0.556835,-0.595185,0.558369,-0.559903
3.4218,0.020072,0.000000,0.027281,-0.027281,0.0000,0.0000,0.0000,-0.002478,0.044485,-0.052155,1.1391,0.6991,-0.3430,0.001534,0.587515,-0.561437,0.556835,-0.595185,0.558369,-0.559903
3.4420,0.020122,0.000000,0.020257,-0.020257,0.0000,0.0000,0.0000,-0.002465,0.041417,-0.039884,1.1777,0.6640,-0.3957,0.001534,0.587515,-0.562971,0.556835,-0.595185,0.558369,-0.559903
3.4620,0.020073,0.000000,0.013251,-0.013251,0.0000,0.0000,0.0000,-0.002480,0.035282,-0.032214,1.1346,0.7032,-0.3368,0.001534,0.587515,-0.561437,0.556835,-0.595185,0.558369,-0.559903
3.4822,0.020160,0.000000,0.006213,-0.006213,0.0000,0.0000,0.0000,-0.002478,0.029146,-0.030680,1.1391,0.6991,-0.3430,0.001534,0.587515,-0.561437,0.556835,-0.595185,0.558369,-0.559903
3.5034,0.021190,0.000000,-0.001183,0.001183,0.0000,0.0000,0.0000,-0.002478,0.019942,-0.026078,1.1391,0.6991,-0.3430,0.001534,0.587515,-0.561437,0.556835,-0.595185,0.558369,-0.559903
3.5235,0.020081,0.000000,-0.008193,0.008193,0.0000,0.0000,0.0000,-0.002478,0.010738,-0.015340,1.1391,0.6991,-0.3430,0.001534,0.587515,-0.561437,0.556835,-0.595185,0.558369,-0.559903
3.5436,0.020103,0.000000,-0.015210,0.015210,0.0000,0.0000,0.0000,-0.002465,0.000000,-0.004602,1.1777,0.6640,-0.3957,0.001534,0.587515,-0.562971,0.556835,-0.595185,0.558369,-0.559903
3.5637,0.020079,0.000000,-0.022219,0.022219,0.0000,0.0000,0.0000,-0.002480,-0.003068,-0.001534,1.1346,0.7032,-0.3368,0.001534,0.587515,-0.561437,0.556835,-0.595185,0.558369,-0.559903
3.5837,0.020094,0.000000,-0.029233,0.029233,0.0000,0.0000,0.0000,-0.002478,0.000000,0.003068,1.1391,0.6991,-0.3430,0.001534,0.587515,-0.561437,0.556835,-0.595185,0.558369,-0.559903
3.6041,0.020305,0.000000,-0.036321,0.036321,0.0000,0.0000,0.0000,-0.002478,-0.004602,0.013806,1.1391,0.6991,-0.3430,0.001534,0.587515,-0.561437,0.556835,-0.595185,0.558369,-0.559903
3.6241,0.020079,0.000000,-0.043330,0.043330,0.0000,0.0000,0.0000,-0.002466,-0.015340,0.021476,1.0895,0.6816,-0.3960,0.001534,0.587515,-0.561437,0.556835,-0.595185,0.558369,-0.561437
3.6442,0.020098,0.000000,-0.050346,0.050346,0.0000,0.0000,0.0000,-0.002466,-0.030680,0.024544,1.0895,0.6816,-0.3960,0.001534,0.587515,-0.561437,0.556835,-0.595185,0.558369,-0.559903
3.6644,0.020177,0.000000,-0.057389,0.057389,0.0000,0.0000,0.0000,-0.002478,-0.041417,0.029146,1.1381,0.6993,-0.3430,0.001534,0.587515,-0.561437,0.556835,-0.595185,0.558369,-0.559903
3.6845,0.020082,0.000000,-0.064399,0.064399,0.0000,0.0000,0.0000,-0.002478,-0.044485,0.041417,1.1381,0.6993,-0.3430,0.001534,0.587515,-0.561437,0.556835,-0.595185,0.558369,-0.559903
3.7046,0.020089,0.000000,-0.071411,0.071411,0.0000,0.0000,0.0000,-0.002465,-0.042951,0.050621,1.1778,0.6640,-0.3957,0.001534,0.587515,-0.562971,0.556835,-0.595185,0.558369,-0.559903
3.7246,0.020041,0.000000,-0.078407,0.078407,0.0000,0.0000,0.0000,-0.002480,-0.050621,0.052155,1.1346,0.7032,-0.3368,0.001534,0.587515,-0.561437,0.556835,-0.595185,0.558369,-0.559903
3.7449,0.020305,0.000000,-0.085495,0.085495,0.0000,0.0000,0.0000,-0.002452,-0.062893,0.058291,1.1291,0.6457,-0.4500,0.001534,0.587515,-0.562971,0.556835,-0.595185,0.558369,-0.561437
3.7650,0.020079,0.000000,-0.092503,0.092503,0.0000,0.0000,0.0000,-0.002481,-0.076699,0.072097,1.1397,0.7051,-0.3312,0.001534,0.587515,-0.561437,0.556835,-0.595185,0.558369,-0.559903
3.7851,0.020080,0.000000,-0.099513,0.099513,0.0000,0.0000,0.0000,-0.002465,-0.081301,0.079767,1.1777,0.6634,-0.3969,0.001534,0.587515,-0.562971,0.556835,-0.595185,0.558369,-0.559903
3.8053,0.020222,0.000000,-0.106571,0.106571,0.0000,0.0000,0.0000,-0.002480,-0.079767,0.081301,1.1346,0.7033,-0.3367,0.001534,0.587515,-0.561437,0.556835,-0.595185,0.558369,-0.559903
3.8254,0.020083,0.000000,-0.113582,0.113582,0.0000,0.0000,0.0000,-0.002478,-0.081301,0.087437,1.1391,0.6991,-0.3430,0.001534,0.587515,-0.561437,0.556835,-0.595185,0.558369,-0.559903
3.8457,0.020268,0.000000,-0.120657,0.120657,0.0000,0.0000,0.0000,-0.002478,-0.093573,0.101243,1.1391,0.6991,-0.3430,0.001534,0.587515,-0.561437,0.556835,-0.595185,0.558369,-0.559903
3.8657,0.020078,0.000000,-0.127665,0.127665,0.0000,0.0000,0.0000,-0.002478,-0.107379,0.104311,1.1391,0.6991,-0.3430,0.001534,0.587515,-0.561437,0.556835,-0.595185,0.558369,-0.559903
3.8858,0.020078,0.000000,-0.134674,0.134674,0.0000,0.0000,0.0000,-0.002465,-0.118117,0.105845,1.1777,0.6640,-0.3957,0.001534,0.587515,-0.562971,0.556835,-0.595185,0.558369,-0.559903
3.9059,0.020125,0.000000,-0.141699,0.141699,0.0000,0.0000,0.0000,-0.002480,-0.119651,0.113515,1.1346,0.7032,-0.3368,0.001534,0.587515,-0.561437,0.556835,-0.595185,0.558369,-0.559903
3.9260,0.020098,0.000000,-0.148714,0.148714,0.0000,0.0000,0.0000,-0.002478,-0.124252,0.125786,1.1391,0.6991,-0.3430,0.001534,0.587515,-0.561437,0.556835,-0.595185,0.558369,-0.559903
3.9461,0.020079,0.000000,-0.155723,0.155723,0.0000,0.0000,0.0000,-0.002478,-0.136524,0.133456,1.1391,0.6991,-0.3430,0.001534,0.587515,-0.561437,0.556835,-0.595185,0.558369,-0.559903
3.9664,0.020266,0.000000,-0.162798,0.162798,0.0000,0.0000,0.0000,-0.002478,-0.142660,0.133456,1.1391,0.6991,-0.3430,0.001534,0.587515,-0.561437,0.556835,-0.595185,0.558369,-0.559903
3.9865,0.020078,0.000000,-0.169806,0.169806,0.0000,0.0000,0.0000,-0.002478,-0.142660,0.138058,1.1391,0.6991,-0.3430,0.001534,0.587515,-0.561437,0.556835,-0.595185,0.558369,-0.559903
4.0068,0.020317,0.000000,-0.172168,0.172168,0.0000,0.0000,0.0000,-0.002465,-0.151864,0.153398,1.1777,0.6640,-0.3957,0.001534,0.587515,-0.562971,0.556835,-0.595185,0.558369,-0.559903
4.0269,0.020082,0.000000,-0.165158,0.165158,0.0000,0.0000,0.0000,-0.002480,-0.167204,0.162602,1.1346,0.7032,-0.3368,0.001534,0.587515,-0.561437,0.556835,-0.595185,0.558369,-0.559903
4.0469,0.020075,0.000000,-0.158150,0.158150,0.0000,0.0000,0.0000,-0.002478,-0.170272,0.167204,1.1391,0.6991,-0.3430,0.001534,0.587515,-0.561437,0.556835,-0.595185,0.558369,-0.559903
4.0670,0.020089,0.000000,-0.151138,0.151138,0.0000,0.0000,0.0000,-0.002478,-0.168738,0.171806,1.1391,0.6991,-0.3430,0.001534,0.587515,-0.561437,0.556835,-0.595185,0.558369,-0.559903
4.0871,0.020075,0.000000,-0.144130,0.144130,0.0000,0.0000,0.0000,-0.002478,-0.170272,0.171806,1.1391,0.6991,-0.3430,0.001534,0.587515,-0.561437,0.556835,-0.595185,0.558369,-0.559903
4.1072,0.020092,0.000000,-0.137117,0.137117,0.0000,0.0000,0.0000,-0.002478,-0.167204,0.168738,1.1391,0.6991,-0.3430,0.001534,0.587515,-0.561437,0.556835,-0.595185,0.558369,-0.559903
4.1273,0.020081,0.000000,-0.130107,0.130107,0.0000,0.0000,0.0000,-0.002478,-0.158000,0.164136,1.1391,0.6991,-0.3430,0.001534,0.587515,-0.561437,0.556835,-0.595185,0.558369,-0.559903
4.1474,0.020082,0.000000,-0.123097,0.123097,0.0000,0.0000,0.0000,-0.002478,-0.148796,0.154932,1.1391,0.6991,-0.3430,0.001534,0.587515,-0.561437,0.556835,-0.595185,0.558369,-0.559903
4.1674,0.020083,0.000000,-0.116087,0.116087,0.0000,0.0000,0.0000,-0.002478,-0.142660,0.145728,1.1391,0.6991,-0.3430,0.001534,0.587515,-0.561437,0.556835,-0.595185,0.558369,-0.559903
4.1875,0.020078,0.000000,-0.109079,0.109079,0.0000,0.0000,0.0000,-0.002478,-0.127320,0.130388,1.1391,0.6991,-0.3430,0.001534,0.587515,-0.561437,0.556835,-0.595185,0.558369,-0.559903
4.2076,0.020083,0.000000,-0.102068,0.102068,0.0000,0.0000,0.0000,-0.002478,-0.122718,0.122718,1.1391,0.6991,-0.3430,0.001534,0.587515,-0.561437,0.556835,-0.595185,0.558369,-0.559903
4.2277,0.020077,0.000000,-0.095060,0.095060,0.0000,0.0000,0.0000,-0.002478,-0.118117,0.115049,1.1391,0.6991,-0.3430,0.001534,0.587515,-0.561437,0.556835,-0.595185,0.558369,-0.559903
4.2477,0.020075,0.000000,-0.088053,0.088053,0.0000,0.0000,0.0000,-0.002478,-0.111981,0.110447,1.1391,0.6991,-0.3430,0.001534,0.587515,-0.561437,0.556835,-0.595185,0.558369,-0.559903
4.2678,0.020091,0.000000,-0.081039,0.081039,0.0000,0.0000,0.0000,-0.002478,-0.102777,0.101243,1.1391,0.6991,-0.3430,0.001534,0.587515,-0.561437,0.556835,-0.595185,0.558369,-0.559903
4.2879,0.020078,0.000000,-0.074031,0.074031,0.0000,0.0000,0.0000,-0.002478,-0.092039,0.092039,1.1391,0.6991,-0.3430,0.001534,0.587515,-0.561437,0.556835,-0.595185,0.558369,-0.559903
4.3086,0.020702,0.000000,-0.066805,0.066805,0.0000,0.0000,0.0000,-0.002478,-0.084369,0.085903,1.1391,0.6991,-0.3430,0.001534,0.587515,-0.561437,0.556835,-0.595185,0.558369,-0.559903
4.3287,0.020084,0.000000,-0.059794,0.059794,0.0000,0.0000,0.0000,-0.002478,-0.075165,0.078233,1.1391,0.6991,-0.3430,0.001534,0.587515,-0.561437,0.556835,-0.595185,0.558369,-0.559903
4.3488,0.020079,0.000000,-0.052785,0.052785,0.0000,0.0000,0.0000,-0.002478,-0.069029,0.070563,1.1391,0.6991,-0.3430,0.001534,0.587515,-0.561437,0.556835,-0.595185,0.558369,-0.559903
4.3693,0.020504,0.000000,-0.045628,0.045628,0.0000,0.0000,0.0000,-0.002478,-0.067495,0.062893,1.1391,0.6991,-0.3430,0.001534,0.587515,-0.561437,0.556835,-0.595185,0.558369,-0.559903
4.3894,0.020078,0.000000,-0.038619,0.038619,0.0000,0.0000,0.0000,-0.002465,-0.061359,0.058291,1.1777,0.6640,-0.3957,0.001534,0.587515,-0.562971,0.556835,-0.595185,0.558369,-0.559903
4.4095,0.020098,0.000000,-0.031604,0.031604,0.0000,0.0000,0.0000,-0.002480,-0.050621,0.052155,1.1346,0.7032,-0.3368,0.001534,0.587515,-0.561437,0.556835,-0.595185,0.558369,-0.559903
4.4295,0.020078,0.000000,-0.024595,0.024595,0.0000,0.0000,0.0000,-0.002478,-0.039884,0.046019,1.1391,0.6991,-0.3430,0.001534,0.587515,-0.561437,0.556835,-0.595185,0.558369,-0.559903
4.4496,0.020077,0.000000,-0.017587,0.017587,0.0000,0.0000,0.0000,-0.002478,-0.033748,0.039884,1.1391,0.6991,-0.3430,0.001534,0.587515,-0.561437,0.556835,-0.595185,0.558369,-0.559903
4.4697,0.020089,0.000000,-0.010575,0.010575,0.0000,0.0000,0.0000,-0.002478,-0.027612,0.033748,1.1391,0.6991,-0.3430,0.001534,0.587515,-0.561437,0.556835,-0.595185,0.558369,-0.559903
4.4898,0.020076,0.000000,-0.003567,0.003567,0.0000,0.0000,0.0000,-0.002465,-0.024544,0.027612,1.1777,0.6640,-0.3957,0.001534,0.587515,-0.562971,0.556835,-0.595185,0.558369,-0.559903
4.5099,0.020103,0.000000,0.003450,-0.003450,0.0000,0.0000,0.0000,-0.002480,-0.016874,0.019942,1.1346,0.7032,-0.3368,0.001534,0.587515,-0.561437,0.556835,-0.595185,0.558369,-0.559903
4.5300,0.020082,0.000000,0.010460,-0.010460,0.0000,0.0000,0.0000,-0.002478,-0.010738,0.009204,1.1391,0.6991,-0.3430,0.001534,0.587515,-0.561437,0.556835,-0.595185,0.558369,-0.559903
4.5500,0.020081,0.000000,0.017470,-0.017470,0.0000,0.0000,0.0000,-0.002478,-0.001534,0.001534,1.1391,0.6991,-0.3430,0.001534,0.587515,-0.561437,0.556835,-0.595185,0.558369,-0.559903
4.5703,0.020257,0.000000,0.024541,-0.024541,0.0000,0.0000,0.0000,-0.002478,0.009204,-0.006136,1.1391,0.6991,-0.3430,0.001534,0.587515,-0.561437,0.556835,-0.595185,0.558369,-0.559903
4.5904,0.020083,0.000000,0.031551,-0.031551,0.0000,0.0000,0.0000,-0.002478,0.012272,-0.013806,1.1391,0.6991,-0.3430,0.001534,0.587515,-0.561437,0.556835,-0.595185,0.558369,-0.559903
4.6109,0.020516,0.000000,0.038712,-0.038712,0.0000,0.0000,0.0000,-0.002478,0.012272,-0.019942,1.1391,0.6991,-0.3430,0.001534,0.587515,-0.561437,0.556835,-0.595185,0.558369,-0.559903
4.6310,0.020074,0.000000,0.045719,-0.045719,0.0000,0.0000,0.0000,-0.002478,0.018408,-0.023010,1.1391,0.6991,-0.3430,0.001534,0.587515,-0.561437,0.556835,-0.595185,0.558369,-0.559903
4.6511,0.020081,0.000000,0.052729,-0.052729,0.0000,0.0000,0.0000,-0.002478,0.030680,-0.030680,1.1391,0.6991,-0.3430,0.001534,0.587515,-0.561437,0.556835,-0.595185,0.558369,-0.559903
4.6712,0.020121,0.000000,0.059752,-0.059752,0.0000,0.0000,0.0000,-0.002478,0.044485,-0.039884,1.1391,0.6991,-0.3430,0.001534,0.587515,-0.561437,0.556835,-0.595185,0.558369,-0.559903
4.6914,0.020249,0.000000,0.066821,-0.066821,0.0000,0.0000,0.0000,-0.002478,0.052155,-0.049087,1.1391,0.6991,-0.3430,0.001534,0.587515,-0.561437,0.556835,-0.595185,0.558369,-0.559903
4.7116,0.020153,0.000000,0.073855,-0.073855,0.0000,0.0000,0.0000,-0.002466,0.052155,-0.055223,1.0895,0.6816,-0.3960,0.001534,0.587515,-0.561437,0.556835,-0.595185,0.558369,-0.561437
4.7317,0.020123,0.000000,0.080880,-0.080880,0.0000,0.0000,0.0000,-0.002480,0.056757,-0.061359,1.1438,0.7013,-0.3368,0.001534,0.587515,-0.561437,0.556835,-0.595185,0.558369,-0.559903
4.7518,0.020085,0.000000,0.087891,-0.087891,0.0000,0.0000,0.0000,-0.002466,0.067495,-0.070563,1.0890,0.6814,-0.3966,0.001534,0.587515,-0.561437,0.556835,-0.595185,0.558369,-0.561437
4.7719,0.020086,0.000000,0.094902,-0.094902,0.0000,0.0000,0.0000,-0.002480,0.076699,-0.075165,1.1438,0.7014,-0.3368,0.001534,0.587515,-0.561437,0.556835,-0.595185,0.558369,-0.559903
4.7920,0.020088,0.000000,0.101914,-0.101914,0.0000,0.0000,0.0000,-0.002478,0.084369,-0.079767,1.1381,0.6993,-0.3430,0.001534,0.587515,-0.561437,0.556835,-0.595185,0.558369,-0.559903
4.8126,0.020660,0.000000,0.109125,-0.109125,0.0000,0.0000,0.0000,-0.002453,0.087437,-0.082835,1.1287,0.6461,-0.4494,0.001534,0.587515,-0.562971,0.556835,-0.595185,0.558369,-0.561437
4.8327,0.020086,0.000000,0.116137,-0.116137,0.0000,0.0000,0.0000,-0.002468,0.090505,-0.088971,1.0906,0.6872,-0.3849,0.001534,0.587515,-0.561437,0.556835,-0.595185,0.558369,-0.561437
4.8528,0.020081,0.000000,0.123146,-0.123146,0.0000,0.0000,0.0000,-0.002480,0.098175,-0.098175,1.1436,0.7008,-0.3380,0.001534,0.587515,-0.561437,0.556835,-0.595185,0.558369,-0.559903
4.8729,0.020090,0.000000,0.130159,-0.130159,0.0000,0.0000,0.0000,-0.002465,0.110447,-0.107379,1.1772,0.6638,-0.3962,0.001534,0.587515,-0.562971,0.556835,-0.595185,0.558369,-0.559903
4.8930,0.020082,0.000000,0.137169,-0.137169,0.0000,0.0000,0.0000,-0.002480,0.122718,-0.115049,1.1346,0.7032,-0.3368,0.001534,0.587515,-0.561437,0.556835,-0.595185,0.558369,-0.559903
4.9132,0.020210,0.000000,0.144224,-0.144224,0.0000,0.0000,0.0000,-0.002478,0.124252,-0.124252,1.1391,0.6991,-0.3430,0.001534,0.587515,-0.561437,0.556835,-0.595185,0.558369,-0.559903
4.9333,0.020085,0.000000,0.151235,-0.151235,0.0000,0.0000,0.0000,-0.002466,0.122718,-0.131922,1.0895,0.6816,-0.3960,0.001534,0.587515,-0.561437,0.556835,-0.595185,0.558369,-0.561437
4.9533,0.020080,0.000000,0.158244,-0.158244,0.0000,0.0000,0.0000,-0.002467,0.131922,-0.138058,1.1829,0.6658,-0.3902,0.001534,0.587515,-0.562971,0.556835,-0.595185,0.558369,-0.559903
4.9734,0.020100,0.000000,0.165260,-0.165260,0.0000,0.0000,0.0000,-0.002480,0.145728,-0.145728,1.1341,0.7030,-0.3374,0.001534,0.587515,-0.561437,0.556835,-0.595185,0.558369,-0.559903
4.9935,0.020084,0.000000,0.172271,-0.172271,0.0000,0.0000,0.0000,-0.002478,0.158000,-0.154932,1.1391,0.6991,-0.3429,0.001534,0.587515,-0.561437,0.556835,-0.595185,0.558369,-0.559903
5.0137,0.020164,0.000000,0.169757,-0.169757,0.0000,0.0000,0.0000,-0.002478,0.158000,-0.162602,1.1391,0.6991,-0.3429,0.001534,0.587515,-0.561437,0.556835,-0.595185,0.558369,-0.559903
5.0338,0.020098,0.000000,0.162741,-0.162741,0.0000,0.0000,0.0000,-0.002478,0.158000,-0.167204,1.1391,0.6991,-0.3429,0.001534,0.587515,-0.561437,0.556835,-0.595185,0.558369,-0.559903
5.0539,0.020080,0.000000,0.155732,-0.155732,0.0000,0.0000,0.0000,-0.002478,0.167204,-0.171806,1.1391,0.6991,-0.3429,0.001534,0.587515,-0.561437,0.556835,-0.595185,0.558369,-0.559903
5.0740,0.020091,0.000000,0.148719,-0.148719,0.0000,0.0000,0.0000,-0.002478,0.176408,-0.173340,1.1391,0.6991,-0.3429,0.001534,0.587515,-0.561437,0.556835,-0.595185,0.558369,-0.559903
5.0940,0.020084,0.000000,0.141708,-0.141708,0.0000,0.0000,0.0000,-0.002478,0.171806,-0.167204,1.1391,0.6991,-0.3429,0.001534,0.587515,-0.561437,0.556835,-0.595185,0.558369,-0.559903
5.1141,0.020086,0.000000,0.134697,-0.134697,0.0000,0.0000,0.0000,-0.002478,0.158000,-0.162602,1.1391,0.6991,-0.3429,0.001534,0.587515,-0.561437,0.556835,-0.595185,0.558369,-0.559903
5.1348,0.020692,0.000000,0.127474,-0.127474,0.0000,0.0000,0.0000,-0.002478,0.148796,-0.154932,1.1391,0.6991,-0.3429,0.001534,0.587515,-0.561437,0.556835,-0.595185,0.558369,-0.559903
5.1549,0.020078,0.000000,0.120465,-0.120465,0.0000,0.0000,0.0000,-0.002478,0.139592,-0.145728,1.1391,0.6991,-0.3429,0.001534,0.587515,-0.561437,0.556835,-0.595185,0.558369,-0.559903
5.1750,0.020116,0.000000,0.113443,-0.113443,0.0000,0.0000,0.0000,-0.002478,0.130388,-0.139592,1.1391,0.6991,-0.3429,0.001534,0.587515,-0.561437,0.556835,-0.595185,0.558369,-0.559903
5.1951,0.020075,0.000000,0.106436,-0.106436,0.0000,0.0000,0.0000,-0.002478,0.124252,-0.131922,1.1391,0.6991,-0.3429,0.001534,0.587515,-0.561437,0.556835,-0.595185,0.558369,-0.559903
5.2152,0.020075,0.000000,0.099428,-0.099428,0.0000,0.0000,0.0000,-0.002478,0.118117,-0.124252,1.1391,0.6991,-0.3429,0.001534,0.587515,-0.561437,0.556835,-0.595185,0.558369,-0.559903
5.2353,0.020191,0.000000,0.092381,-0.092381,0.0000,0.0000,0.0000,-0.002478,0.111981,-0.116583,1.1391,0.6991,-0.3429,0.001534,0.587515,-0.561437,0.556835,-0.595185,0.558369,-0.559903
5.2554,0.020081,0.000000,0.085371,-0.085371,0.0000,0.0000,0.0000,-0.002466,0.104311,-0.111981,1.0895,0.6816,-0.3960,0.001534,0.587515,-0.561437,0.556835,-0.595185,0.558369,-0.561437
5.2758,0.020398,0.000000,0.078251,-0.078251,0.0000,0.0000,0.0000,-0.002467,0.095107,-0.102777,1.1829,0.6658,-0.3902,0.001534,0.587515,-0.562971,0.556835,-0.595185,0.558369,-0.559903
5.2959,0.020076,0.000000,0.071243,-0.071243,0.0000,0.0000,0.0000,-0.002467,0.088971,-0.093573,1.1731,0.6675,-0.3908,0.001534,0.587515,-0.562971,0.556835,-0.595185,0.558369,-0.559903
5.3160,0.020076,0.000000,0.064235,-0.064235,0.0000,0.0000,0.0000,-0.002467,0.084369,-0.084369,1.0860,0.6849,-0.3910,0.001534,0.587515,-0.561437,0.556835,-0.595185,0.558369,-0.561437
5.3362,0.020264,0.000000,0.057162,-0.057162,0.0000,0.0000,0.0000,-0.002480,0.081301,-0.075165,1.1441,0.7010,-0.3373,0.001534,0.587515,-0.561437,0.556835,-0.595185,0.558369,-0.559903
5.3563,0.020075,0.000000,0.050154,-0.050154,0.0000,0.0000,0.0000,-0.002465,0.073631,-0.069029,1.1772,0.6638,-0.3963,0.001534,0.587515,-0.562971,0.556835,-0.595185,0.558369,-0.559903
5.3765,0.020166,0.000000,0.043115,-0.043115,0.0000,0.0000,0.0000,-0.002480,0.062893,-0.067495,1.1346,0.7032,-0.3368,0.001534,0.587515,-0.561437,0.556835,-0.595185,0.558369,-0.559903
5.3968,0.020273,0.000000,0.036038,-0.036038,0.0000,0.0000,0.0000,-0.002466,0.053689,-0.061359,1.0900,0.6812,-0.3966,0.001534,0.587515,-0.561437,0.556835,-0.595185,0.558369,-0.561437
5.4168,0.020080,0.000000,0.029029,-0.029029,0.0000,0.0000,0.0000,-0.002480,0.046019,-0.052155,1.1437,0.7014,-0.3367,0.001534,0.587515,-0.561437,0.556835,-0.595185,0.558369,-0.559903
5.4369,0.020088,0.000000,0.022017,-0.022017,0.0000,0.0000,0.0000,-0.002478,0.042951,-0.039884,1.1381,0.6993,-0.3430,0.001534,0.587515,-0.561437,0.556835,-0.595185,0.558369,-0.559903
5.4570,0.020082,0.000000,0.015007,-0.015007,0.0000,0.0000,0.0000,-0.002478,0.036816,-0.033748,1.1381,0.6993,-0.3430,0.001534,0.587515,-0.561437,0.556835,-0.595185,0.558369,-0.559903
5.4775,0.020483,0.000000,0.007857,-0.007857,0.0000,0.0000,0.0000,-0.002478,0.029146,-0.032214,1.1381,0.6993,-0.3430,0.001534,0.587515,-0.561437,0.556835,-0.595185,0.558369,-0.559903
5.4976,0.020081,0.000000,0.000848,-0.000848,0.0000,0.0000,0.0000,-0.002478,0.019942,-0.026078,1.1381,0.6993,-0.3430,0.001534,0.587515,-0.561437,0.556835,-0.595185,0.558369,-0.559903
5.5177,0.020079,0.000000,-0.006161,0.006161,0.0000,0.0000,0.0000,-0.002465,0.010738,-0.015340,1.1778,0.6640,-0.3957,0.001534,0.587515,-0.562971,0.556835,-0.595185,0.558369,-0.559903
5.5378,0.020155,0.000000,-0.013196,0.013196,0.0000,0.0000,0.0000,-0.002480,0.001534,-0.004602,1.1346,0.7032,-0.3368,0.001534,0.587515,-0.561437,0.556835,-0.595185,0.558369,-0.559903
5.5579,0.020081,0.000000,-0.020206,0.020206,0.0000,0.0000,0.0000,-0.002478,-0.001534,-0.001534,1.1391,0.6991,-0.3430,0.001534,0.587515,-0.561437,0.556835,-0.595185,0.558369,-0.559903
5.5780,0.020079,0.000000,-0.027215,0.027215,0.0000,0.0000,0.0000,-0.002478,-0.001534,0.003068,1.1391,0.6991,-0.3430,0.001534,0.587515,-0.561437,0.556835,-0.595185,0.558369,-0.559903
5.5980,0.020080,0.000000,-0.034224,0.034224,0.0000,0.0000,0.0000,-0.002453,-0.006136,0.013806,1.1286,0.6461,-0.4494,0.001534,0.587515,-0.562971,0.556835,-0.595185,0.558369,-0.561437
5.6181,0.020081,0.000000,-0.041234,0.041234,0.0000,0.0000,0.0000,-0.002481,-0.016874,0.021476,1.1397,0.7050,-0.3313,0.001534,0.587515,-0.561437,0.556835,-0.595185,0.558369,-0.559903
5.6383,0.020143,0.000000,-0.048265,0.048265,0.0000,0.0000,0.0000,-0.002478,-0.032214,0.024544,1.1385,0.6989,-0.3436,0.001534,0.587515,-0.561437,0.556835,-0.595185,0.558369,-0.559903
5.6584,0.020119,0.000000,-0.055288,0.055288,0.0000,0.0000,0.0000,-0.002479,-0.038350,0.029146,1.1387,0.6998,-0.3419,0.001534,0.587515,-0.561437,0.556835,-0.595185,0.558369,-0.559903
5.6789,0.020524,0.000000,-0.062452,0.062452,0.0000,0.0000,0.0000,-0.002479,-0.041417,0.039884,1.1387,0.6998,-0.3419,0.001534,0.587515,-0.561437,0.556835,-0.595185,0.558369,-0.559903
5.6990,0.020093,0.000000,-0.069466,0.069466,0.0000,0.0000,0.0000,-0.002479,-0.041417,0.049087,1.1387,0.6998,-0.3419,0.001534,0.587515,-0.561437,0.556835,-0.595185,0.558369,-0.559903
5.7195,0.020535,0.000000,-0.076634,0.076634,0.0000,0.0000,0.0000,-0.002479,-0.050621,0.053689,1.1387,0.6998,-0.3419,0.001534,0.587515,-0.561437,0.556835,-0.595185,0.558369,-0.559903
5.7397,0.020185,0.000000,-0.083680,0.083680,0.0000,0.0000,0.0000,-0.002479,-0.064427,0.059825,1.1387,0.6998,-0.3419,0.001534,0.587515,-0.561437,0.556835,-0.595185,0.558369,-0.559903
5.7598,0.020100,0.000000,-0.090696,0.090696,0.0000,0.0000,0.0000,-0.002465,-0.075165,0.072097,1.1777,0.6639,-0.3958,0.001534,0.587515,-0.562971,0.556835,-0.595185,0.558369,-0.559903
5.7806,0.020824,0.000000,-0.097965,0.097965,0.0000,0.0000,0.0000,-0.002480,-0.076699,0.076699,1.1346,0.7032,-0.3368,0.001534,0.587515,-0.561437,0.556835,-0.595185,0.558369,-0.559903
5.8008,0.020132,0.000000,-0.104992,0.104992,0.0000,0.0000,0.0000,-0.002478,-0.076699,0.076699,1.1391,0.6991,-0.3430,0.001534,0.587515,-0.561437,0.556835,-0.595185,0.558369,-0.559903
5.8213,0.020524,0.000000,-0.112157,0.112157,0.0000,0.0000,0.0000,-0.002453,-0.084369,0.082835,1.1286,0.6461,-0.4494,0.001534,0.587515,-0.562971,0.556835,-0.595185,0.558369,-0.561437
5.8414,0.020093,0.000000,-0.119170,0.119170,0.0000,0.0000,0.0000,-0.002481,-0.096641,0.099709,1.1397,0.7050,-0.3313,0.001534,0.587515,-0.561437,0.556835,-0.595185,0.558369,-0.559903
5.8616,0.020206,0.000000,-0.126224,0.126224,0.0000,0.0000,0.0000,-0.002465,-0.111981,0.107379,1.1776,0.6634,-0.3969,0.001534,0.587515,-0.562971,0.556835,-0.595185,0.558369,-0.559903
5.8826,0.021019,0.000000,-0.133561,0.133561,0.0000,0.0000,0.0000,-0.002480,-0.115049,0.108913,1.1346,0.7033,-0.3367,0.001534,0.587515,-0.561437,0.556835,-0.595185,0.558369,-0.559903
5.9027,0.020094,0.000000,-0.140575,0.140575,0.0000,0.0000,0.0000,-0.002478,-0.115049,0.118117,1.1391,0.6991,-0.3430,0.001534,0.587515,-0.561437,0.556835,-0.595185,0.558369,-0.559903
5.9228,0.020083,0.000000,-0.147585,0.147585,0.0000,0.0000,0.0000,-0.002478,-0.124252,0.127320,1.1391,0.6991,-0.3430,0.001534,0.587515,-0.561437,0.556835,-0.595185,0.558369,-0.559903
5.9429,0.020092,0.000000,-0.154598,0.154598,0.0000,0.0000,0.0000,-0.002478,-0.139592,0.130388,1.1391,0.6991,-0.3430,0.001534,0.587515,-0.561437,0.556835,-0.595185,0.558369,-0.559903
5.9630,0.020086,0.000000,-0.161610,0.161610,0.0000,0.0000,0.0000,-0.002478,-0.144194,0.134990,1.1391,0.6991,-0.3430,0.001534,0.587515,-0.561437,0.556835,-0.595185,0.558369,-0.559903
5.9831,0.020164,0.000000,-0.168648,0.168648,0.0000,0.0000,0.0000,-0.002478,-0.144194,0.147262,1.1391,0.6991,-0.3430,0.001534,0.587515,-0.561437,0.556835,-0.595185,0.558369,-0.559903
6.0033,0.020113,0.000000,-0.173397,0.173397,0.0000,0.0000,0.0000,-0.002478,-0.154932,0.154932,1.1391,0.6991,-0.3430,0.001534,0.587515,-0.561437,0.556835,-0.595185,0.558369,-0.559903
6.0233,0.020088,0.000000,-0.166385,0.166385,0.0000,0.0000,0.0000,-0.002478,-0.168738,0.156466,1.1391,0.6991,-0.3430,0.001534,0.587515,-0.561437,0.556835,-0.595185,0.558369,-0.559903
6.0435,0.020140,0.000000,-0.159355,0.159355,0.0000,0.0000,0.0000,-0.002465,-0.168738,0.165670,1.1777,0.6640,-0.3957,0.001534,0.587515,-0.562971,0.556835,-0.595185,0.558369,-0.559903
6.0637,0.020207,0.000000,-0.152301,0.152301,0.0000,0.0000,0.0000,-0.002480,-0.167204,0.176408,1.1346,0.7032,-0.3368,0.001534,0.587515,-0.561437,0.556835,-0.595185,0.558369,-0.559903
6.0838,0.020086,0.000000,-0.145290,0.145290,0.0000,0.0000,0.0000,-0.002465,-0.171806,0.174874,1.1782,0.6636,-0.3964,0.001534,0.587515,-0.562971,0.556835,-0.595185,0.558369,-0.559903
6.1040,0.020199,0.000000,-0.138239,0.138239,0.0000,0.0000,0.0000,-0.002480,-0.170272,0.168738,1.1345,0.7032,-0.3368,0.001534,0.587515,-0.561437,0.556835,-0.595185,0.558369,-0.559903
6.1241,0.020112,0.000000,-0.131219,0.131219,0.0000,0.0000,0.0000,-0.002478,-0.159534,0.161068,1.1391,0.6991,-0.3430,0.001534,0.587515,-0.561437,0.556835,-0.595185,0.558369,-0.559903
6.1442,0.020094,0.000000,-0.124205,0.124205,0.0000,0.0000,0.0000,-0.002478,-0.147262,0.151864,1.1391,0.6991,-0.3430,0.001534,0.587515,-0.561437,0.556835,-0.595185,0.558369,-0.559903
6.1643,0.020083,0.000000,-0.117194,0.117194,0.0000,0.0000,0.0000,-0.002478,-0.141126,0.144194,1.1391,0.6991,-0.3430,0.001534,0.587515,-0.561437,0.556835,-0.595185,0.558369,-0.559903
6.1850,0.020715,0.000000,-0.109963,0.109963,0.0000,0.0000,0.0000,-0.002466,-0.134990,0.138058,1.0895,0.6816,-0.3960,0.001534,0.587515,-0.561437,0.556835,-0.595185,0.558369,-0.561437
6.2051,0.020098,0.000000,-0.102948,0.102948,0.0000,0.0000,0.0000,-0.002480,-0.127320,0.131922,1.1438,0.7013,-0.3368,0.001534,0.587515,-0.561437,0.556835,-0.595185,0.558369,-0.559903
6.2252,0.020089,0.000000,-0.095935,0.095935,0.0000,0.0000,0.0000,-0.002478,-0.121184,0.122718,1.1381,0.6993,-0.3430,0.001534,0.587515,-0.561437,0.556835,-0.595185,0.558369,-0.559903
6.2453,0.020089,0.000000,-0.088923,0.088923,0.0000,0.0000,0.0000,-0.002478,-0.115049,0.115049,1.1381,0.6993,-0.3430,0.001534,0.587515,-0.561437,0.556835,-0.595185,0.558369,-0.559903
6.2653,0.020093,0.000000,-0.081909,0.081909,0.0000,0.0000,0.0000,-0.002478,-0.107379,0.108913,1.1381,0.6993,-0.3430,0.001534,0.587515,-0.561437,0.556835,-0.595185,0.558369,-0.559903
6.2854,0.020089,0.000000,-0.074897,0.074897,0.0000,0.0000,0.0000,-0.002478,-0.099709,0.101243,1.1381,0.6993,-0.3430,0.001534,0.587515,-0.561437,0.556835,-0.595185,0.558369,-0.559903
6.3057,0.020291,0.000000,-0.067814,0.067814,0.0000,0.0000,0.0000,-0.002478,-0.092039,0.090505,1.1381,0.6993,-0.3430,0.001534,0.587515,-0.561437,0.556835,-0.595185,0.558369,-0.559903
6.3259,0.020162,0.000000,-0.060776,0.060776,0.0000,0.0000,0.0000,-0.002478,-0.082835,0.082835,1.1381,0.6993,-0.3430,0.001534,0.587515,-0.561437,0.556835,-0.595185,0.558369,-0.559903
6.3460,0.020102,0.000000,-0.053759,0.053759,0.0000,0.0000,0.0000,-0.002478,-0.076699,0.078233,1.1381,0.6993,-0.3430,0.001534,0.587515,-0.561437,0.556835,-0.595185,0.558369,-0.559903
6.3665,0.020493,0.000000,-0.046605,0.046605,0.0000,0.0000,0.0000,-0.002465,-0.069029,0.070563,1.1778,0.6640,-0.3957,0.001534,0.587515,-0.562971,0.556835,-0.595185,0.558369,-0.559903
6.3869,0.020390,0.000000,-0.039488,0.039488,0.0000,0.0000,0.0000,-0.002480,-0.067495,0.064427,1.1346,0.7032,-0.3368,0.001534,0.587515,-0.561437,0.556835,-0.595185,0.558369,-0.559903
6.4070,0.020106,0.000000,-0.032469,0.032469,0.0000,0.0000,0.0000,-0.002478,-0.064427,0.059825,1.1391,0.6991,-0.3430,0.001534,0.587515,-0.561437,0.556835,-0.595185,0.558369,-0.559903
6.4271,0.020095,0.000000,-0.025455,0.025455,0.0000,0.0000,0.0000,-0.002478,-0.055223,0.053689,1.1391,0.6991,-0.3430,0.001534,0.587515,-0.561437,0.556835,-0.595185,0.558369,-0.559903
6.4477,0.020654,0.000000,-0.018245,0.018245,0.0000,0.0000,0.0000,-0.002465,-0.044485,0.047553,1.1777,0.6640,-0.3957,0.001534,0.587515,-0.562971,0.556835,-0.595185,0.558369,-0.559903
6.4678,0.020101,0.000000,-0.011229,0.011229,0.0000,0.0000,0.0000,-0.002480,-0.033748,0.039884,1.1346,0.7032,-0.3368,0.001534,0.587515,-0.561437,0.556835,-0.595185,0.558369,-0.559903
6.4879,0.020091,0.000000,-0.004215,0.004215,0.0000,0.0000,0.0000,-0.002478,-0.024544,0.032214,1.1391,0.6991,-0.3430,0.001534,0.587515,-0.561437,0.556835,-0.595185,0.558369,-0.559903
6.5081,0.020131,0.000000,0.002811,-0.002811,0.0000,0.0000,0.0000,-0.002478,-0.019942,0.018408,1.1391,0.6991,-0.3430,0.001534,0.587515,-0.561437,0.556835,-0.595185,0.558369,-0.559903
6.5282,0.020098,0.000000,0.009827,-0.009827,0.0000,0.0000,0.0000,-0.002453,-0.012272,0.007670,1.1286,0.6461,-0.4494,0.001534,0.587515,-0.562971,0.556835,-0.595185,0.558369,-0.561437
6.5484,0.020262,0.000000,0.016900,-0.016900,0.0000,0.0000,0.0000,-0.002481,-0.003068,0.000000,1.1397,0.7050,-0.3313,0.001534,0.587515,-0.561437,0.556835,-0.595185,0.558369,-0.559903
