t,loop_dt,cmd_z,cmd_ant_l,cmd_ant_r,cmd_roll,cmd_pitch,cmd_yaw,pres_z,pres_ant_l,pres_ant_r,pres_roll,pres_pitch,pres_yaw,pres_j0,pres_j1,pres_j2,pres_j3,pres_j4,pres_j5,pres_j6
0.0000,0.000001,0.000000,-0.174533,0.174533,0.0000,0.0000,0.0000,-0.002639,0.007670,-0.010738,1.1735,0.9845,0.0426,0.001534,0.582913,-0.555301,0.556835,-0.595185,0.558369,-0.549165
0.0201,0.020077,0.000000,-0.164020,0.164020,0.0000,0.0000,0.0000,-0.002653,0.000000,-0.003068,1.1843,0.9331,-0.0103,0.001534,0.582913,-0.555301,0.555301,-0.595185,0.558369,-0.549165
0.0402,0.020083,0.000000,-0.153505,0.153505,0.0000,0.0000,0.0000,-0.002651,-0.001534,-0.001534,1.1831,0.9384,-0.0048,0.001534,0.582913,-0.555301,0.555301,-0.595185,0.558369,-0.549165
0.0602,0.020082,0.000000,-0.142990,0.142990,0.0000,0.0000,0.0000,-0.002625,-0.036816,0.036816,1.1230,0.9717,-0.0053,0.001534,0.582913,-0.555301,0.556835,-0.595185,0.558369,-0.550699
0.0803,0.020077,0.000000,-0.132478,0.132478,0.0000,0.0000,0.0000,-0.002628,-0.104311,0.105845,1.1293,0.9682,-0.0052,0.001534,0.582913,-0.555301,0.556835,-0.595185,0.558369,-0.550699
0.1004,0.020079,0.000000,-0.121964,0.121964,0.0000,0.0000,0.0000,-0.002614,-0.167204,0.168738,1.0794,0.9504,-0.0588,0.001534,0.582913,-0.555301,0.556835,-0.595185,0.558369,-0.552233
0.1205,0.020080,0.000000,-0.111451,0.111451,0.0000,0.0000,0.0000,-0.002603,-0.181010,0.177942,1.0353,0.9342,-0.1068,0.001534,0.582913,-0.555301,0.556835,-0.595185,0.558369,-0.553767
0.1406,0.020085,0.000000,-0.100934,0.100934,0.0000,0.0000,0.0000,-0.002591,-0.170272,0.167204,0.9907,0.9178,-0.1553,0.001534,0.582913,-0.555301,0.556835,-0.595185,0.558369,-0.555301
0.1606,0.020079,0.000000,-0.090421,0.090421,0.0000,0.0000,0.0000,-0.002568,-0.145728,0.145728,0.9959,0.8860,-0.1499,0.001534,0.584447,-0.555301,0.556835,-0.595185,0.558369,-0.556835
0.1807,0.020077,0.000000,-0.079908,0.079908,0.0000,0.0000,0.0000,-0.002559,-0.121184,0.125786,1.0451,0.8739,-0.0964,0.001534,0.585981,-0.555301,0.556835,-0.595185,0.558369,-0.556835
0.2008,0.020084,0.000000,-0.069392,0.069392,0.0000,0.0000,0.0000,-0.002549,-0.096641,0.105845,1.0897,0.8598,-0.0479,0.001534,0.587515,-0.555301,0.556835,-0.595185,0.558369,-0.556835
0.2209,0.020074,0.000000,-0.058881,0.058881,0.0000,0.0000,0.0000,-0.002537,-0.084369,0.090505,1.0359,0.8431,-0.1066,0.001534,0.587515,-0.555301,0.556835,-0.595185,0.558369,-0.558369
0.2410,0.020084,0.000000,-0.048365,0.048365,0.0000,0.0000,0.0000,-0.002539,-0.079767,0.079767,1.0415,0.8449,-0.1004,0.001534,0.587515,-0.555301,0.556835,-0.595185,0.558369,-0.558369
0.2611,0.020100,0.000000,-0.037841,0.037841,0.0000,0.0000,0.0000,-0.002539,-0.078233,0.067495,1.0415,0.8449,-0.1004,0.001534,0.587515,-0.555301,0.556835,-0.595185,0.558369,-0.558369
0.2811,0.020076,0.000000,-0.027329,0.027329,0.0000,0.0000,0.0000,-0.002525,-0.069029,0.059825,1.0802,0.8091,-0.1542,0.001534,0.587515,-0.556835,0.556835,-0.595185,0.558369,-0.558369
0.3012,0.020087,0.000000,-0.016812,0.016812,0.0000,0.0000,0.0000,-0.002513,-0.056757,0.052155,1.1155,0.7772,-0.2018,0.001534,0.587515,-0.558369,0.556835,-0.595185,0.558369,-0.558369
0.3213,0.020078,0.000000,-0.006299,0.006299,0.0000,0.0000,0.0000,-0.002488,-0.042951,0.044485,1.1019,0.7269,-0.3037,0.001534,0.587515,-0.559903,0.556835,-0.595185,0.558369,-0.559903
0.3414,0.020080,0.000000,0.004215,-0.004215,0.0000,0.0000,0.0000,-0.002491,-0.026078,0.033748,1.1033,0.7322,-0.2931,0.001534,0.587515,-0.559903,0.556835,-0.595185,0.558369,-0.559903
0.3615,0.020080,0.000000,0.014729,-0.014729,0.0000,0.0000,0.0000,-0.002491,-0.013806,0.023010,1.1033,0.7322,-0.2931,0.001534,0.587515,-0.559903,0.556835,-0.595185,0.558369,-0.559903
0.3815,0.020078,0.000000,0.025241,-0.025241,0.0000,0.0000,0.0000,-0.002491,-0.006136,0.010738,1.1033,0.7322,-0.2931,0.001534,0.587515,-0.559903,0.556835,-0.595185,0.558369,-0.559903
0.4016,0.020088,0.000000,0.035759,-0.035759,0.0000,0.0000,0.0000,-0.002477,0.000000,0.000000,1.1423,0.6961,-0.3475,0.001534,0.587515,-0.561437,0.556835,-0.595185,0.558369,-0.559903
0.4217,0.020080,0.000000,0.046273,-0.046273,0.0000,0.0000,0.0000,-0.002479,0.010738,-0.009204,1.1383,0.6998,-0.3419,0.001534,0.587515,-0.561437,0.556835,-0.595185,0.558369,-0.559903
0.4418,0.020082,0.000000,0.056788,-0.056788,0.0000,0.0000,0.0000,-0.002479,0.021476,-0.021476,1.1383,0.6998,-0.3419,0.001534,0.587515,-0.561437,0.556835,-0.595185,0.558369,-0.559903
0.4619,0.020080,0.000000,0.067302,-0.067302,0.0000,0.0000,0.0000,-0.002479,0.033748,-0.033748,1.1383,0.6998,-0.3419,0.001534,0.587515,-0.561437,0.556835,-0.595185,0.558369,-0.559903
0.4819,0.020077,0.000000,0.077814,-0.077814,0.0000,0.0000,0.0000,-0.002479,0.047553,-0.047553,1.1383,0.6998,-0.3419,0.001534,0.587515,-0.561437,0.556835,-0.595185,0.558369,-0.559903
0.5020,0.020061,0.000000,0.088318,-0.088318,0.0000,0.0000,0.0000,-0.002479,0.059825,-0.056757,1.1383,0.6998,-0.3419,0.001534,0.587515,-0.561437,0.556835,-0.595185,0.558369,-0.559903
0.5221,0.020122,0.000000,0.098854,-0.098854,0.0000,0.0000,0.0000,-0.002479,0.067495,-0.065961,1.1383,0.6998,-0.3419,0.001534,0.587515,-0.561437,0.556835,-0.595185,0.558369,-0.559903
0.5422,0.020078,0.000000,0.109366,-0.109366,0.0000,0.0000,0.0000,-0.002479,0.070563,-0.075165,1.1383,0.6998,-0.3419,0.001534,0.587515,-0.561437,0.556835,-0.595185,0.558369,-0.559903
0.5623,0.020080,0.000000,0.119880,-0.119880,0.0000,0.0000,0.0000,-0.002479,0.075165,-0.082835,1.1383,0.6998,-0.3419,0.001534,0.587515,-0.561437,0.556835,-0.595185,0.558369,-0.559903
0.5824,0.020081,0.000000,0.130394,-0.130394,0.0000,0.0000,0.0000,-0.002479,0.088971,-0.092039,1.1383,0.6998,-0.3419,0.001534,0.587515,-0.561437,0.556835,-0.595185,0.558369,-0.559903
0.6025,0.020085,0.000000,0.140911,-0.140911,0.0000,0.0000,0.0000,-0.002479,0.108913,-0.102777,1.1383,0.6998,-0.3419,0.001534,0.587515,-0.561437,0.556835,-0.595185,0.558369,-0.559903
0.6225,0.020084,0.000000,0.151427,-0.151427,0.0000,0.0000,0.0000,-0.002479,0.125786,-0.113515,1.1383,0.6998,-0.3419,0.001534,0.587515,-0.561437,0.556835,-0.595185,0.558369,-0.559903
0.6426,0.020084,0.000000,0.161943,-0.161943,0.0000,0.0000,0.0000,-0.002479,0.131922,-0.125786,1.1383,0.6998,-0.3419,0.001534,0.587515,-0.561437,0.556835,-0.595185,0.558369,-0.559903
0.6627,0.020078,0.000000,0.172456,-0.172456,0.0000,0.0000,0.0000,-0.002479,0.131922,-0.134990,1.1383,0.6998,-0.3419,0.001534,0.587515,-0.561437,0.556835,-0.595185,0.558369,-0.559903
0.6828,0.020078,0.000000,0.166097,-0.166097,0.0000,0.0000,0.0000,-0.002479,0.138058,-0.147262,1.1383,0.6998,-0.3419,0.001534,0.587515,-0.561437,0.556835,-0.595185,0.558369,-0.559903
0.7029,0.020086,0.000000,0.155580,-0.155580,0.0000,0.0000,0.0000,-0.002479,0.150330,-0.159534,1.1383,0.6998,-0.3419,0.001534,0.587515,-0.561437,0.556835,-0.595185,0.558369,-0.559903
0.7229,0.020083,0.000000,0.145065,-0.145065,0.0000,0.0000,0.0000,-0.002479,0.171806,-0.170272,1.1383,0.6998,-0.3419,0.001534,0.587515,-0.561437,0.556835,-0.595185,0.558369,-0.559903
0.7430,0.020075,0.000000,0.134554,-0.134554,0.0000,0.0000,0.0000,-0.002479,0.179476,-0.174874,1.1383,0.6998,-0.3419,0.001534,0.587515,-0.561437,0.556835,-0.595185,0.558369,-0.559903
0.7631,0.020085,0.000000,0.124037,-0.124037,0.0000,0.0000,0.0000,-0.002479,0.171806,-0.168738,1.1383,0.6998,-0.3419,0.001534,0.587515,-0.561437,0.556835,-0.595185,0.558369,-0.559903
0.7832,0.020076,0.000000,0.113525,-0.113525,0.0000,0.0000,0.0000,-0.002479,0.156466,-0.159534,1.1383,0.6998,-0.3419,0.001534,0.587515,-0.561437,0.556835,-0.595185,0.558369,-0.559903
0.8033,0.020088,0.000000,0.103007,-0.103007,0.0000,0.0000,0.0000,-0.002479,0.142660,-0.148796,1.1383,0.6998,-0.3419,0.001534,0.587515,-0.561437,0.556835,-0.595185,0.558369,-0.559903
0.8233,0.020078,0.000000,0.092494,-0.092494,0.0000,0.0000,0.0000,-0.002465,0.127320,-0.138058,1.1778,0.6639,-0.3958,0.001534,0.587515,-0.562971,0.556835,-0.595185,0.558369,-0.559903
0.8434,0.020075,0.000000,0.081983,-0.081983,0.0000,0.0000,0.0000,-0.002480,0.113515,-0.124252,1.1346,0.7032,-0.3368,0.001534,0.587515,-0.561437,0.556835,-0.595185,0.558369,-0.559903
0.8635,0.020096,0.000000,0.071461,-0.071461,0.0000,0.0000,0.0000,-0.002478,0.102777,-0.113515,1.1391,0.6991,-0.3430,0.001534,0.587515,-0.561437,0.556835,-0.595185,0.558369,-0.559903
0.8836,0.020077,0.000000,0.060948,-0.060948,0.0000,0.0000,0.0000,-0.002478,0.093573,-0.101243,1.1391,0.6991,-0.3430,0.001534,0.587515,-0.561437,0.556835,-0.595185,0.558369,-0.559903
0.9037,0.020085,0.000000,0.050432,-0.050432,0.0000,0.0000,0.0000,-0.002478,0.082835,-0.087437,1.1391,0.6991,-0.3430,0.001534,0.587515,-0.561437,0.556835,-0.595185,0.558369,-0.559903
0.9238,0.020083,0.000000,0.039916,-0.039916,0.0000,0.0000,0.0000,-0.002478,0.073631,-0.075165,1.1391,0.6991,-0.3430,0.001534,0.587515,-0.561437,0.556835,-0.595185,0.558369,-0.559903
0.9438,0.020074,0.000000,0.029405,-0.029405,0.0000,0.0000,0.0000,-0.002478,0.062893,-0.062893,1.1391,0.6991,-0.3430,0.001534,0.587515,-0.561437,0.556835,-0.595185,0.558369,-0.559903
0.9640,0.020206,0.000000,0.018825,-0.018825,0.0000,0.0000,0.0000,-0.002478,0.050621,-0.049087,1.1391,0.6991,-0.3430,0.001534,0.587515,-0.561437,0.556835,-0.595185,0.558369,-0.559903
0.9841,0.020074,0.000000,0.008315,-0.008315,0.0000,0.0000,0.0000,-0.002478,0.039884,-0.038350,1.1391,0.6991,-0.3430,0.001534,0.587515,-0.561437,0.556835,-0.595185,0.558369,-0.559903
1.0042,0.020079,0.000000,-0.002198,0.002198,0.0000,0.0000,0.0000,-0.002465,0.029146,-0.033748,1.1777,0.6640,-0.3957,0.001534,0.587515,-0.562971,0.556835,-0.595185,0.558369,-0.559903
1.0243,0.020081,0.000000,-0.012713,0.012713,0.0000,0.0000,0.0000,-0.002480,0.019942,-0.027612,1.1346,0.7032,-0.3368,0.001534,0.587515,-0.561437,0.556835,-0.595185,0.558369,-0.559903
1.0444,0.020079,0.000000,-0.023226,0.023226,0.0000,0.0000,0.0000,-0.002478,0.009204,-0.013806,1.1391,0.6991,-0.3430,0.001534,0.587515,-0.561437,0.556835,-0.595185,0.558369,-0.559903
1.0645,0.020124,0.000000,-0.033763,0.033763,0.0000,0.0000,0.0000,-0.002478,-0.004602,0.000000,1.1391,0.6991,-0.3430,0.001534,0.587515,-0.561437,0.556835,-0.595185,0.558369,-0.559903
1.0846,0.020081,0.000000,-0.044278,0.044278,0.0000,0.0000,0.0000,-0.002478,-0.013806,0.012272,1.1391,0.6991,-0.3430,0.001534,0.587515,-0.561437,0.556835,-0.595185,0.558369,-0.559903
1.1047,0.020093,0.000000,-0.054798,0.054798,0.0000,0.0000,0.0000,-0.002478,-0.021476,0.021476,1.1391,0.6991,-0.3430,0.001534,0.587515,-0.561437,0.556835,-0.595185,0.558369,-0.559903
1.1247,0.020083,0.000000,-0.065313,0.065313,0.0000,0.0000,0.0000,-0.002478,-0.029146,0.027612,1.1391,0.6991,-0.3430,0.001534,0.587515,-0.561437,0.556835,-0.595185,0.558369,-0.559903
1.1448,0.020076,0.000000,-0.075825,0.075825,0.0000,0.0000,0.0000,-0.002478,-0.039884,0.038350,1.1391,0.6991,-0.3430,0.001534,0.587515,-0.561437,0.556835,-0.595185,0.558369,-0.559903
1.1649,0.020087,0.000000,-0.086343,0.086343,0.0000,0.0000,0.0000,-0.002478,-0.050621,0.050621,1.1391,0.6991,-0.3430,0.001534,0.587515,-0.561437,0.556835,-0.595185,0.558369,-0.559903
1.1850,0.020076,0.000000,-0.096854,0.096854,0.0000,0.0000,0.0000,-0.002465,-0.065961,0.061359,1.1777,0.6640,-0.3957,0.001534,0.587515,-0.562971,0.556835,-0.595185,0.558369,-0.559903
1.2051,0.020088,0.000000,-0.107373,0.107373,0.0000,0.0000,0.0000,-0.002480,-0.073631,0.070563,1.1346,0.7032,-0.3368,0.001534,0.587515,-0.561437,0.556835,-0.595185,0.558369,-0.559903
1.2252,0.020084,0.000000,-0.117889,0.117889,0.0000,0.0000,0.0000,-0.002478,-0.078233,0.079767,1.1391,0.6991,-0.3430,0.001534,0.587515,-0.561437,0.556835,-0.595185,0.558369,-0.559903
1.2452,0.020079,0.000000,-0.128402,0.128402,0.0000,0.0000,0.0000,-0.002478,-0.087437,0.090505,1.1391,0.6991,-0.3430,0.001534,0.587515,-0.561437,0.556835,-0.595185,0.558369,-0.559903
1.2653,0.020067,0.000000,-0.138909,0.138909,0.0000,0.0000,0.0000,-0.002478,-0.101243,0.104311,1.1391,0.6991,-0.3430,0.001534,0.587515,-0.561437,0.556835,-0.595185,0.558369,-0.559903
1.2854,0.020076,0.000000,-0.149421,0.149421,0.0000,0.0000,0.0000,-0.002478,-0.118117,0.113515,1.1391,0.6991,-0.3430,0.001534,0.587515,-0.561437,0.556835,-0.595185,0.558369,-0.559903
1.3054,0.020063,0.000000,-0.159925,0.159925,0.0000,0.0000,0.0000,-0.002478,-0.130388,0.122718,1.1391,0.6991,-0.3430,0.001534,0.587515,-0.561437,0.556835,-0.595185,0.558369,-0.559903
1.3255,0.020086,0.000000,-0.170442,0.170442,0.0000,0.0000,0.0000,-0.002478,-0.134990,0.133456,1.1391,0.6991,-0.3430,0.001534,0.587515,-0.561437,0.556835,-0.595185,0.558369,-0.559903
1.3456,0.020078,0.000000,-0.168111,0.168111,0.0000,0.0000,0.0000,-0.002478,-0.141126,0.145728,1.1391,0.6991,-0.3430,0.001534,0.587515,-0.561437,0.556835,-0.595185,0.558369,-0.559903
1.3657,0.020085,0.000000,-0.157594,0.157594,0.0000,0.0000,0.0000,-0.002478,-0.154932,0.156466,1.1391,0.6991,-0.3430,0.001534,0.587515,-0.561437,0.556835,-0.595185,0.558369,-0.559903
1.3858,0.020076,0.000000,-0.147082,0.147082,0.0000,0.0000,0.0000,-0.002478,-0.179476,0.173340,1.1391,0.6991,-0.3430,0.001534,0.587515,-0.561437,0.556835,-0.595185,0.558369,-0.559903
1.4058,0.020083,0.000000,-0.136567,0.136567,0.0000,0.0000,0.0000,-0.002478,-0.176408,0.171806,1.1391,0.6991,-0.3430,0.001534,0.587515,-0.561437,0.556835,-0.595185,0.558369,-0.559903
1.4259,0.020074,0.000000,-0.126056,0.126056,0.0000,0.0000,0.0000,-0.002478,-0.165670,0.165670,1.1391,0.6991,-0.3430,0.001534,0.587515,-0.561437,0.556835,-0.595185,0.558369,-0.559903
1.4460,0.020072,0.000000,-0.115546,0.115546,0.0000,0.0000,0.0000,-0.002478,-0.151864,0.154932,1.1391,0.6991,-0.3430,0.001534,0.587515,-0.561437,0.556835,-0.595185,0.558369,-0.559903
1.4661,0.020088,0.000000,-0.105028,0.105028,0.0000,0.0000,0.0000,-0.002478,-0.136524,0.142660,1.1391,0.6991,-0.3430,0.001534,0.587515,-0.561437,0.556835,-0.595185,0.558369,-0.559903
1.4862,0.020074,0.000000,-0.094517,0.094517,0.0000,0.0000,0.0000,-0.002478,-0.122718,0.130388,1.1391,0.6991,-0.3430,0.001534,0.587515,-0.561437,0.556835,-0.595185,0.558369,-0.559903
1.5062,0.020081,0.000000,-0.084003,0.084003,0.0000,0.0000,0.0000,-0.002478,-0.111981,0.118117,1.1391,0.6991,-0.3430,0.001534,0.587515,-0.561437,0.556835,-0.595185,0.558369,-0.559903
1.5263,0.020076,0.000000,-0.073491,0.073491,0.0000,0.0000,0.0000,-0.002478,-0.101243,0.105845,1.1391,0.6991,-0.3430,0.001534,0.587515,-0.561437,0.556835,-0.595185,0.558369,-0.559903
1.5464,0.020078,0.000000,-0.062978,0.062978,0.0000,0.0000,0.0000,-0.002478,-0.090505,0.093573,1.1391,0.6991,-0.3430,0.001534,0.587515,-0.561437,0.556835,-0.595185,0.558369,-0.559903
1.5665,0.020080,0.000000,-0.052465,0.052465,0.0000,0.0000,0.0000,-0.002478,-0.079767,0.081301,1.1391,0.6991,-0.3430,0.001534,0.587515,-0.561437,0.556835,-0.595185,0.558369,-0.559903
1.5865,0.020076,0.000000,-0.041953,0.041953,0.0000,0.0000,0.0000,-0.002465,-0.069029,0.070563,1.1777,0.6640,-0.3957,0.001534,0.587515,-0.562971,0.556835,-0.595185,0.558369,-0.559903
1.6066,0.020080,0.000000,-0.031439,0.031439,0.0000,0.0000,0.0000,-0.002480,-0.059825,0.059825,1.1346,0.7032,-0.3368,0.001534,0.587515,-0.561437,0.556835,-0.595185,0.558369,-0.559903
1.6267,0.020076,0.000000,-0.020927,0.020927,0.0000,0.0000,0.0000,-0.002478,-0.047553,0.050621,1.1391,0.6991,-0.3430,0.001534,0.587515,-0.561437,0.556835,-0.595185,0.558369,-0.559903
1.6468,0.020075,0.000000,-0.010416,0.010416,0.0000,0.0000,0.0000,-0.002478,-0.035282,0.041417,1.1391,0.6991,-0.3430,0.001534,0.587515,-0.561437,0.556835,-0.595185,0.558369,-0.559903
1.6669,0.020077,0.000000,0.000096,-0.000096,0.0000,0.0000,0.0000,-0.002478,-0.026078,0.032214,1.1391,0.6991,-0.3430,0.001534,0.587515,-0.561437,0.556835,-0.595185,0.558369,-0.559903
1.6869,0.020075,0.000000,0.010608,-0.010608,0.0000,0.0000,0.0000,-0.002478,-0.015340,0.021476,1.1391,0.6991,-0.3430,0.001534,0.587515,-0.561437,0.556835,-0.595185,0.558369,-0.559903
1.7070,0.020051,0.000000,0.021107,-0.021107,0.0000,0.0000,0.0000,-0.002478,-0.004602,0.010738,1.1391,0.6991,-0.3430,0.001534,0.587515,-0.561437,0.556835,-0.595185,0.558369,-0.559903
1.7271,0.020074,0.000000,0.031617,-0.031617,0.0000,0.0000,0.0000,-0.002478,0.006136,-0.001534,1.1391,0.6991,-0.3430,0.001534,0.587515,-0.561437,0.556835,-0.595185,0.558369,-0.559903
1.7471,0.020081,0.000000,0.042132,-0.042132,0.0000,0.0000,0.0000,-0.002478,0.015340,-0.012272,1.1391,0.6991,-0.3430,0.001534,0.587515,-0.561437,0.556835,-0.595185,0.558369,-0.559903
1.7677,0.020563,0.000000,0.052898,-0.052898,0.0000,0.0000,0.0000,-0.002478,0.021476,-0.024544,1.1391,0.6991,-0.3430,0.001534,0.587515,-0.561437,0.556835,-0.595185,0.558369,-0.559903
1.7878,0.020082,0.000000,0.063413,-0.063413,0.0000,0.0000,0.0000,-0.002478,0.029146,-0.035282,1.1391,0.6991,-0.3430,0.001534,0.587515,-0.561437,0.556835,-0.595185,0.558369,-0.559903
1.8079,0.020074,0.000000,0.073924,-0.073924,0.0000,0.0000,0.0000,-0.002478,0.042951,-0.046019,1.1391,0.6991,-0.3430,0.001534,0.587515,-0.561437,0.556835,-0.595185,0.558369,-0.559903
1.8279,0.020080,0.000000,0.084438,-0.084438,0.0000,0.0000,0.0000,-0.002465,0.058291,-0.056757,1.1777,0.6640,-0.3957,0.001534,0.587515,-0.562971,0.556835,-0.595185,0.558369,-0.559903
1.8480,0.020076,0.000000,0.094950,-0.094950,0.0000,0.0000,0.0000,-0.002480,0.070563,-0.067495,1.1346,0.7032,-0.3368,0.001534,0.587515,-0.561437,0.556835,-0.595185,0.558369,-0.559903
1.8683,0.020340,0.000000,0.105600,-0.105600,0.0000,0.0000,0.0000,-0.002478,0.076699,-0.076699,1.1391,0.6991,-0.3430,0.001534,0.587515,-0.561437,0.556835,-0.595185,0.558369,-0.559903
1.8885,0.020104,0.000000,0.116126,-0.116126,0.0000,0.0000,0.0000,-0.002478,0.084369,-0.084369,1.1391,0.6991,-0.3430,0.001534,0.587515,-0.561437,0.556835,-0.595185,0.558369,-0.559903
1.9086,0.020106,0.000000,0.126654,-0.126654,0.0000,0.0000,0.0000,-0.002478,0.095107,-0.092039,1.1391,0.6991,-0.3430,0.001534,0.587515,-0.561437,0.556835,-0.595185,0.558369,-0.559903
1.9288,0.020225,0.000000,0.137244,-0.137244,0.0000,0.0000,0.0000,-0.002478,0.111981,-0.102777,1.1391,0.6991,-0.3430,0.001534,0.587515,-0.561437,0.556835,-0.595185,0.558369,-0.559903
1.9489,0.020113,0.000000,0.147775,-0.147775,0.0000,0.0000,0.0000,-0.002478,0.122718,-0.113515,1.1391,0.6991,-0.3430,0.001534,0.587515,-0.561437,0.556835,-0.595185,0.558369,-0.559903
1.9690,0.020101,0.000000,0.158300,-0.158300,0.0000,0.0000,0.0000,-0.002478,0.127320,-0.124252,1.1391,0.6991,-0.3430,0.001534,0.587515,-0.561437,0.556835,-0.595185,0.558369,-0.559903
1.9891,0.020078,0.000000,0.168813,-0.168813,0.0000,0.0000,0.0000,-0.002478,0.133456,-0.136524,1.1391,0.6991,-0.3430,0.001534,0.587515,-0.561437,0.556835,-0.595185,0.558369,-0.559903
2.0091,0.020074,0.000000,0.169742,-0.169742,0.0000,0.0000,0.0000,-0.002478,0.144194,-0.148796,1.1391,0.6991,-0.3430,0.001534,0.587515,-0.561437,0.556835,-0.595185,0.558369,-0.559903
2.0292,0.020077,0.000000,0.159230,-0.159230,0.0000,0.0000,0.0000,-0.002478,0.161068,-0.161068,1.1391,0.6991,-0.3430,0.001534,0.587515,-0.561437,0.556835,-0.595185,0.558369,-0.559903
2.0493,0.020074,0.000000,0.148720,-0.148720,0.0000,0.0000,0.0000,-0.002478,0.176408,-0.173340,1.1391,0.6991,-0.3430,0.001534,0.587515,-0.561437,0.556835,-0.595185,0.558369,-0.559903
2.0694,0.020082,0.000000,0.138205,-0.138205,0.0000,0.0000,0.0000,-0.002478,0.173340,-0.173340,1.1391,0.6991,-0.3430,0.001534,0.587515,-0.561437,0.556835,-0.595185,0.558369,-0.559903
2.0895,0.020082,0.000000,0.127690,-0.127690,0.0000,0.0000,0.0000,-0.002478,0.161068,-0.165670,1.1391,0.6991,-0.3430,0.001534,0.587515,-0.561437,0.556835,-0.595185,0.558369,-0.559903
2.1096,0.020113,0.000000,0.117159,-0.117159,0.0000,0.0000,0.0000,-0.002478,0.150330,-0.158000,1.1391,0.6991,-0.3430,0.001534,0.587515,-0.561437,0.556835,-0.595185,0.558369,-0.559903
2.1297,0.020087,0.000000,0.106641,-0.106641,0.0000,0.0000,0.0000,-0.002478,0.138058,-0.145728,1.1391,0.6991,-0.3430,0.001534,0.587515,-0.561437,0.556835,-0.595185,0.558369,-0.559903
2.1497,0.020078,0.000000,0.096128,-0.096128,0.0000,0.0000,0.0000,-0.002478,0.124252,-0.133456,1.1391,0.6991,-0.3430,0.001534,0.587515,-0.561437,0.556835,-0.595185,0.558369,-0.559903
2.1698,0.020086,0.000000,0.085611,-0.085611,0.0000,0.0000,0.0000,-0.002478,0.113515,-0.122718,1.1391,0.6991,-0.3430,0.001534,0.587515,-0.561437,0.556835,-0.595185,0.558369,-0.559903
2.1899,0.020079,0.000000,0.075098,-0.075098,0.0000,0.0000,0.0000,-0.002478,0.101243,-0.111981,1.1391,0.6991,-0.3430,0.001534,0.587515,-0.561437,0.556835,-0.595185,0.558369,-0.559903
2.2100,0.020076,0.000000,0.064586,-0.064586,0.0000,0.0000,0.0000,-0.002478,0.090505,-0.099709,1.1391,0.6991,-0.3430,0.001534,0.587515,-0.561437,0.556835,-0.595185,0.558369,-0.559903
2.2301,0.020091,0.000000,0.054067,-0.054067,0.0000,0.0000,0.0000,-0.002478,0.079767,-0.084369,1.1391,0.6991,-0.3430,0.001534,0.587515,-0.561437,0.556835,-0.595185,0.558369,-0.559903
2.2502,0.020081,0.000000,0.043552,-0.043552,0.0000,0.0000,0.0000,-0.002492,0.072097,-0.072097,1.1495,0.6474,-0.3959,0.001534,0.587515,-0.561437,0.555301,-0.595185,0.558369,-0.559903
2.2702,0.020081,0.000000,0.033038,-0.033038,0.0000,0.0000,0.0000,-0.002477,0.061359,-0.059825,1.1375,0.7049,-0.3368,0.001534,0.587515,-0.561437,0.556835,-0.595185,0.558369,-0.559903
2.2903,0.020084,0.000000,0.022522,-0.022522,0.0000,0.0000,0.0000,-0.002479,0.049087,-0.050621,1.1388,0.6989,-0.3430,0.001534,0.587515,-0.561437,0.556835,-0.595185,0.558369,-0.559903
2.3104,0.020091,0.000000,0.012003,-0.012003,0.0000,0.0000,0.0000,-0.002465,0.038350,-0.041417,1.1777,0.6640,-0.3957,0.001534,0.587515,-0.562971,0.556835,-0.595185,0.558369,-0.559903
2.3305,0.020114,0.000000,0.001471,-0.001471,0.0000,0.0000,0.0000,-0.002480,0.027612,-0.030680,1.1346,0.7032,-0.3368,0.001534,0.587515,-0.561437,0.556835,-0.595185,0.558369,-0.559903
2.3506,0.020075,0.000000,-0.009040,0.009040,0.0000,0.0000,0.0000,-0.002465,0.016874,-0.018408,1.1782,0.6636,-0.3964,0.001534,0.587515,-0.562971,0.556835,-0.595185,0.558369,-0.559903
2.3707,0.020109,0.000000,-0.019569,0.019569,0.0000,0.0000,0.0000,-0.002480,0.007670,-0.006136,1.1345,0.7032,-0.3368,0.001534,0.587515,-0.561437,0.556835,-0.595185,0.558369,-0.559903
2.3908,0.020077,0.000000,-0.030082,0.030082,0.0000,0.0000,0.0000,-0.002478,-0.003068,0.003068,1.1391,0.6991,-0.3430,0.001534,0.587515,-0.561437,0.556835,-0.595185,0.558369,-0.559903
2.4109,0.020125,0.000000,-0.040619,0.040619,0.0000,0.0000,0.0000,-0.002465,-0.013806,0.010738,1.1777,0.6640,-0.3957,0.001534,0.587515,-0.562971,0.556835,-0.595185,0.558369,-0.559903
2.4310,0.020092,0.000000,-0.051139,0.051139,0.0000,0.0000,0.0000,-0.002480,-0.024544,0.018408,1.1346,0.7032,-0.3368,0.001534,0.587515,-0.561437,0.556835,-0.595185,0.558369,-0.559903
2.4511,0.020081,0.000000,-0.061654,0.061654,0.0000,0.0000,0.0000,-0.002478,-0.035282,0.026078,1.1391,0.6991,-0.3430,0.001534,0.587515,-0.561437,0.556835,-0.595185,0.558369,-0.559903
2.4712,0.020116,0.000000,-0.072186,0.072186,0.0000,0.0000,0.0000,-0.002478,-0.042951,0.038350,1.1391,0.6991,-0.3430,0.001534,0.587515,-0.561437,0.556835,-0.595185,0.558369,-0.559903
2.4913,0.020079,0.000000,-0.082700,0.082700,0.0000,0.0000,0.0000,-0.002478,-0.052155,0.053689,1.1391,0.6991,-0.3430,0.001534,0.587515,-0.561437,0.556835,-0.595185,0.558369,-0.559903
2.5115,0.020187,0.000000,-0.093270,0.093270,0.0000,0.0000,0.0000,-0.002478,-0.064427,0.067495,1.1391,0.6991,-0.3430,0.001534,0.587515,-0.561437,0.556835,-0.595185,0.558369,-0.559903
2.5317,0.020205,0.000000,-0.103849,0.103849,0.0000,0.0000,0.0000,-0.002478,-0.079767,0.075165,1.1391,0.6991,-0.3430,0.001534,0.587515,-0.561437,0.556835,-0.595185,0.558369,-0.559903
2.5518,0.020081,0.000000,-0.114363,0.114363,0.0000,0.0000,0.0000,-0.002465,-0.087437,0.081301,1.1777,0.6640,-0.3957,0.001534,0.587515,-0.562971,0.556835,-0.595185,0.558369,-0.559903
2.5719,0.020102,0.000000,-0.124888,0.124888,0.0000,0.0000,0.0000,-0.002467,-0.090505,0.088971,1.1737,0.6676,-0.3902,0.001534,0.587515,-0.562971,0.556835,-0.595185,0.558369,-0.559903
2.5919,0.020079,0.000000,-0.135402,0.135402,0.0000,0.0000,0.0000,-0.002467,-0.102777,0.105845,1.1737,0.6676,-0.3902,0.001534,0.587515,-0.562971,0.556835,-0.595185,0.558369,-0.559903
2.6120,0.020083,0.000000,-0.145917,0.145917,0.0000,0.0000,0.0000,-0.002480,-0.116583,0.118117,1.1350,0.7028,-0.3374,0.001534,0.587515,-0.561437,0.556835,-0.595185,0.558369,-0.559903
2.6321,0.020089,0.000000,-0.156436,0.156436,0.0000,0.0000,0.0000,-0.002478,-0.131922,0.125786,1.1390,0.6991,-0.3429,0.001534,0.587515,-0.561437,0.556835,-0.595185,0.558369,-0.559903
2.6522,0.020072,0.000000,-0.166946,0.166946,0.0000,0.0000,0.0000,-0.002478,-0.141126,0.131922,1.1390,0.6991,-0.3429,0.001534,0.587515,-0.561437,0.556835,-0.595185,0.558369,-0.559903
2.6723,0.020109,0.000000,-0.171591,0.171591,0.0000,0.0000,0.0000,-0.002478,-0.147262,0.141126,1.1390,0.6991,-0.3429,0.001534,0.587515,-0.561437,0.556835,-0.595185,0.558369,-0.559903
2.6924,0.020114,0.000000,-0.161059,0.161059,0.0000,0.0000,0.0000,-0.002478,-0.158000,0.158000,1.1390,0.6991,-0.3429,0.001534,0.587515,-0.561437,0.556835,-0.595185,0.558369,-0.559903
2.7125,0.020088,0.000000,-0.150541,0.150541,0.0000,0.0000,0.0000,-0.002492,-0.173340,0.170272,1.1495,0.6474,-0.3959,0.001534,0.587515,-0.561437,0.555301,-0.595185,0.558369,-0.559903
2.7326,0.020099,0.000000,-0.140017,0.140017,0.0000,0.0000,0.0000,-0.002477,-0.176408,0.171806,1.1375,0.7049,-0.3368,0.001534,0.587515,-0.561437,0.556835,-0.595185,0.558369,-0.559903
2.7527,0.020080,0.000000,-0.129503,0.129503,0.0000,0.0000,0.0000,-0.002479,-0.170272,0.168738,1.1388,0.6989,-0.3430,0.001534,0.587515,-0.561437,0.556835,-0.595185,0.558369,-0.559903
2.7728,0.020098,0.000000,-0.118980,0.118980,0.0000,0.0000,0.0000,-0.002479,-0.159534,0.161068,1.1388,0.6989,-0.3430,0.001534,0.587515,-0.561437,0.556835,-0.595185,0.558369,-0.559903
2.7930,0.020219,0.000000,-0.108393,0.108393,0.0000,0.0000,0.0000,-0.002479,-0.147262,0.151864,1.1388,0.6989,-0.3430,0.001534,0.587515,-0.561437,0.556835,-0.595185,0.558369,-0.559903
2.8131,0.020084,0.000000,-0.097877,0.097877,0.0000,0.0000,0.0000,-0.002479,-0.134990,0.139592,1.1388,0.6989,-0.3430,0.001534,0.587515,-0.561437,0.556835,-0.595185,0.558369,-0.559903
2.8332,0.020094,0.000000,-0.087356,0.087356,0.0000,0.0000,0.0000,-0.002479,-0.124252,0.128854,1.1388,0.6989,-0.3430,0.001534,0.587515,-0.561437,0.556835,-0.595185,0.558369,-0.559903
2.8533,0.020121,0.000000,-0.076821,0.076821,0.0000,0.0000,0.0000,-0.002479,-0.110447,0.115049,1.1388,0.6989,-0.3430,0.001534,0.587515,-0.561437,0.556835,-0.595185,0.558369,-0.559903
2.8734,0.020102,0.000000,-0.066296,0.066296,0.0000,0.0000,0.0000,-0.002479,-0.099709,0.102777,1.1388,0.6989,-0.3430,0.001534,0.587515,-0.561437,0.556835,-0.595185,0.558369,-0.559903
2.8935,0.020092,0.000000,-0.055776,0.055776,0.0000,0.0000,0.0000,-0.002479,-0.088971,0.090505,1.1388,0.6989,-0.3430,0.001534,0.587515,-0.561437,0.556835,-0.595185,0.558369,-0.559903
2.9136,0.020083,0.000000,-0.045260,0.045260,0.0000,0.0000,0.0000,-0.002479,-0.078233,0.079767,1.1388,0.6989,-0.3430,0.001534,0.587515,-0.561437,0.556835,-0.595185,0.558369,-0.559903
2.9339,0.020387,0.000000,-0.034585,0.034585,0.0000,0.0000,0.0000,-0.002465,-0.069029,0.069029,1.1777,0.6640,-0.3957,0.001534,0.587515,-0.562971,0.556835,-0.595185,0.558369,-0.559903
2.9540,0.020092,0.000000,-0.024065,0.024065,0.0000,0.0000,0.0000,-0.002480,-0.056757,0.058291,1.1346,0.7032,-0.3368,0.001534,0.587515,-0.561437,0.556835,-0.595185,0.558369,-0.559903
2.9741,0.020077,0.000000,-0.013553,0.013553,0.0000,0.0000,0.0000,-0.002478,-0.047553,0.049087,1.1391,0.6991,-0.3430,0.001534,0.587515,-0.561437,0.556835,-0.595185,0.558369,-0.559903
2.9942,0.020085,0.000000,-0.003036,0.003036,0.0000,0.0000,0.0000,-0.002478,-0.033748,0.039884,1.1391,0.6991,-0.3430,0.001534,0.587515,-0.561437,0.556835,-0.595185,0.558369,-0.559903
3.0143,0.020079,0.000000,0.007477,-0.007477,0.0000,0.0000,0.0000,-0.002478,-0.024544,0.030680,1.1391,0.6991,-0.3430,0.001534,0.587515,-0.561437,0.556835,-0.595185,0.558369,-0.559903
3.0344,0.020086,0.000000,0.017994,-0.017994,0.0000,0.0000,0.0000,-0.002478,-0.013806,0.019942,1.1391,0.6991,-0.3430,0.001534,0.587515,-0.561437,0.556835,-0.595185,0.558369,-0.559903
3.0545,0.020090,0.000000,0.028513,-0.028513,0.0000,0.0000,0.0000,-0.002478,-0.003068,0.007670,1.1391,0.6991,-0.3430,0.001534,0.587515,-0.561437,0.556835,-0.595185,0.558369,-0.559903
3.0745,0.020088,0.000000,0.039031,-0.039031,0.0000,0.0000,0.0000,-0.002478,0.007670,-0.001534,1.1391,0.6991,-0.3430,0.001534,0.587515,-0.561437,0.556835,-0.595185,0.558369,-0.559903
3.0949,0.020396,0.000000,0.049710,-0.049710,0.0000,0.0000,0.0000,-0.002478,0.016874,-0.015340,1.1391,0.6991,-0.3430,0.001534,0.587515,-0.561437,0.556835,-0.595185,0.558369,-0.559903
3.1150,0.020074,0.000000,0.060221,-0.060221,0.0000,0.0000,0.0000,-0.002478,0.021476,-0.026078,1.1391,0.6991,-0.3430,0.001534,0.587515,-0.561437,0.556835,-0.595185,0.558369,-0.559903
3.1351,0.020093,0.000000,0.070742,-0.070742,0.0000,0.0000,0.0000,-0.002478,0.033748,-0.038350,1.1391,0.6991,-0.3430,0.001534,0.587515,-0.561437,0.556835,-0.595185,0.558369,-0.559903
3.1552,0.020090,0.000000,0.081261,-0.081261,0.0000,0.0000,0.0000,-0.002478,0.049087,-0.049087,1.1391,0.6991,-0.3430,0.001534,0.587515,-0.561437,0.556835,-0.595185,0.558369,-0.559903
3.1753,0.020078,0.000000,0.091774,-0.091774,0.0000,0.0000,0.0000,-0.002478,0.061359,-0.058291,1.1391,0.6991,-0.3430,0.001534,0.587515,-0.561437,0.556835,-0.595185,0.558369,-0.559903
3.1954,0.020094,0.000000,0.102295,-0.102295,0.0000,0.0000,0.0000,-0.002478,0.070563,-0.069029,1.1391,0.6991,-0.3430,0.001534,0.587515,-0.561437,0.556835,-0.595185,0.558369,-0.559903
3.2155,0.020088,0.000000,0.112813,-0.112813,0.0000,0.0000,0.0000,-0.002478,0.076699,-0.078233,1.1391,0.6991,-0.3430,0.001534,0.587515,-0.561437,0.556835,-0.595185,0.558369,-0.559903
3.2355,0.020090,0.000000,0.123332,-0.123332,0.0000,0.0000,0.0000,-0.002478,0.087437,-0.085903,1.1391,0.6991,-0.3430,0.001534,0.587515,-0.561437,0.556835,-0.595185,0.558369,-0.559903
3.2556,0.020085,0.000000,0.133849,-0.133849,0.0000,0.0000,0.0000,-0.002478,0.102777,-0.095107,1.1391,0.6991,-0.3430,0.001534,0.587515,-0.561437,0.556835,-0.595185,0.558369,-0.559903
3.2757,0.020084,0.000000,0.144364,-0.144364,0.0000,0.0000,0.0000,-0.002478,0.116583,-0.105845,1.1391,0.6991,-0.3430,0.001534,0.587515,-0.561437,0.556835,-0.595185,0.558369,-0.559903
3.2960,0.020321,0.000000,0.155004,-0.155004,0.0000,0.0000,0.0000,-0.002478,0.124252,-0.115049,1.1391,0.6991,-0.3430,0.001534,0.587515,-0.561437,0.556835,-0.595185,0.558369,-0.559903
3.3161,0.020085,0.000000,0.165521,-0.165521,0.0000,0.0000,0.0000,-0.002478,0.127320,-0.127320,1.1391,0.6991,-0.3430,0.001534,0.587515,-0.561437,0.556835,-0.595185,0.558369,-0.559903
3.3366,0.020447,0.000000,0.172839,-0.172839,0.0000,0.0000,0.0000,-0.002478,0.131922,-0.139592,1.1391,0.6991,-0.3430,0.001534,0.587515,-0.561437,0.556835,-0.595185,0.558369,-0.559903
3.3567,0.020094,0.000000,0.162318,-0.162318,0.0000,0.0000,0.0000,-0.002478,0.145728,-0.151864,1.1391,0.6991,-0.3430,0.001534,0.587515,-0.561437,0.556835,-0.595185,0.558369,-0.559903
3.3767,0.020081,0.000000,0.151803,-0.151803,0.0000,0.0000,0.0000,-0.002478,0.165670,-0.164136,1.1391,0.6991,-0.3430,0.001534,0.587515,-0.561437,0.556835,-0.595185,0.558369,-0.559903
3.3968,0.020099,0.000000,0.141279,-0.141279,0.0000,0.0000,0.0000,-0.002478,0.176408,-0.174874,1.1391,0.6991,-0.3430,0.001534,0.587515,-0.561437,0.556835,-0.595185,0.558369,-0.559903
3.4169,0.020089,0.000000,0.130761,-0.130761,0.0000,0.0000,0.0000,-0.002478,0.171806,-0.174874,1.1391,0.6991,-0.3430,0.001534,0.587515,-0.561437,0.556835,-0.595185,0.558369,-0.559903
3.4370,0.020093,0.000000,0.120240,-0.120240,0.0000,0.0000,0.0000,-0.002478,0.159534,-0.167204,1.1391,0.6991,-0.3430,0.001534,0.587515,-0.561437,0.556835,-0.595185,0.558369,-0.559903
3.4571,0.020091,0.000000,0.109721,-0.109721,0.0000,0.0000,0.0000,-0.002478,0.148796,-0.156466,1.1391,0.6991,-0.3430,0.001534,0.587515,-0.561437,0.556835,-0.595185,0.558369,-0.559903
3.4772,0.020079,0.000000,0.099207,-0.099207,0.0000,0.0000,0.0000,-0.002465,0.134990,-0.145728,1.1777,0.6640,-0.3957,0.001534,0.587515,-0.562971,0.556835,-0.595185,0.558369,-0.559903
3.4973,0.020089,0.000000,0.088688,-0.088688,0.0000,0.0000,0.0000,-0.002467,0.122718,-0.131922,1.1737,0.6676,-0.3902,0.001534,0.587515,-0.562971,0.556835,-0.595185,0.558369,-0.559903
3.5174,0.020081,0.000000,0.078174,-0.078174,0.0000,0.0000,0.0000,-0.002480,0.110447,-0.119651,1.1350,0.7028,-0.3374,0.001534,0.587515,-0.561437,0.556835,-0.595185,0.558369,-0.559903
3.5375,0.020096,0.000000,0.067652,-0.067652,0.0000,0.0000,0.0000,-0.002478,0.098175,-0.107379,1.1390,0.6991,-0.3429,0.001534,0.587515,-0.561437,0.556835,-0.595185,0.558369,-0.559903
3.5575,0.020085,0.000000,0.057136,-0.057136,0.0000,0.0000,0.0000,-0.002478,0.087437,-0.095107,1.1390,0.6991,-0.3429,0.001534,0.587515,-0.561437,0.556835,-0.595185,0.558369,-0.559903
3.5776,0.020081,0.000000,0.046621,-0.046621,0.0000,0.0000,0.0000,-0.002465,0.078233,-0.082835,1.1777,0.6640,-0.3957,0.001534,0.587515,-0.562971,0.556835,-0.595185,0.558369,-0.559903
3.5977,0.020098,0.000000,0.036098,-0.036098,0.0000,0.0000,0.0000,-0.002480,0.069029,-0.070563,1.1346,0.7032,-0.3368,0.001534,0.587515,-0.561437,0.556835,-0.595185,0.558369,-0.559903
3.6178,0.020083,0.000000,0.025583,-0.025583,0.0000,0.0000,0.0000,-0.002478,0.058291,-0.056757,1.1391,0.6991,-0.3430,0.001534,0.587515,-0.561437,0.556835,-0.595185,0.558369,-0.559903
3.6379,0.020100,0.000000,0.015058,-0.015058,0.0000,0.0000,0.0000,-0.002478,0.047553,-0.047553,1.1391,0.6991,-0.3430,0.001534,0.587515,-0.561437,0.556835,-0.595185,0.558369,-0.559903
3.6580,0.020082,0.000000,0.004543,-0.004543,0.0000,0.0000,0.0000,-0.002478,0.035282,-0.038350,1.1391,0.6991,-0.3430,0.001534,0.587515,-0.561437,0.556835,-0.595185,0.558369,-0.559903
3.6781,0.020078,0.000000,-0.005970,0.005970,0.0000,0.0000,0.0000,-0.002478,0.023010,-0.027612,1.1391,0.6991,-0.3430,0.001534,0.587515,-0.561437,0.556835,-0.595185,0.558369,-0.559903
3.6982,0.020094,0.000000,-0.016491,0.016491,0.0000,0.0000,0.0000,-0.002478,0.013806,-0.016874,1.1391,0.6991,-0.3430,0.001534,0.587515,-0.561437,0.556835,-0.595185,0.558369,-0.559903
3.7182,0.020082,0.000000,-0.027006,0.027006,0.0000,0.0000,0.0000,-0.002478,0.006136,-0.003068,1.1391,0.6991,-0.3430,0.001534,0.587515,-0.561437,0.556835,-0.595185,0.558369,-0.559903
3.7383,0.020089,0.000000,-0.037524,0.037524,0.0000,0.0000,0.0000,-0.002478,-0.006136,0.006136,1.1391,0.6991,-0.3430,0.001534,0.587515,-0.561437,0.556835,-0.595185,0.558369,-0.559903
3.7584,0.020086,0.000000,-0.048041,0.048041,0.0000,0.0000,0.0000,-0.002478,-0.018408,0.013806,1.1391,0.6991,-0.3430,0.001534,0.587515,-0.561437,0.556835,-0.595185,0.558369,-0.559903
3.7785,0.020084,0.000000,-0.058557,0.058557,0.0000,0.0000,0.0000,-0.002478,-0.027612,0.019942,1.1391,0.6991,-0.3430,0.001534,0.587515,-0.561437,0.556835,-0.595185,0.558369,-0.559903
3.7986,0.020094,0.000000,-0.069078,0.069078,0.0000,0.0000,0.0000,-0.002478,-0.033748,0.027612,1.1391,0.6991,-0.3430,0.001534,0.587515,-0.561437,0.556835,-0.595185,0.558369,-0.559903
3.8187,0.020085,0.000000,-0.079595,0.079595,0.0000,0.0000,0.0000,-0.002478,-0.039884,0.041417,1.1391,0.6991,-0.3430,0.001534,0.587515,-0.561437,0.556835,-0.595185,0.558369,-0.559903
3.8395,0.020793,0.000000,-0.090482,0.090482,0.0000,0.0000,0.0000,-0.002478,-0.052155,0.056757,1.1391,0.6991,-0.3430,0.001534,0.587515,-0.561437,0.556835,-0.595185,0.558369,-0.559903
3.8596,0.020079,0.000000,-0.100995,0.100995,0.0000,0.0000,0.0000,-0.002478,-0.067495,0.067495,1.1391,0.6991,-0.3430,0.001534,0.587515,-0.561437,0.556835,-0.595185,0.558369,-0.559903
3.8796,0.020076,0.000000,-0.111507,0.111507,0.0000,0.0000,0.0000,-0.002478,-0.081301,0.072097,1.1391,0.6991,-0.3430,0.001534,0.587515,-0.561437,0.556835,-0.595185,0.558369,-0.559903
3.8997,0.020086,0.000000,-0.122024,0.122024,0.0000,0.0000,0.0000,-0.002478,-0.085903,0.076699,1.1391,0.6991,-0.3430,0.001534,0.587515,-0.561437,0.556835,-0.595185,0.558369,-0.559903
3.9198,0.020094,0.000000,-0.132545,0.132545,0.0000,0.0000,0.0000,-0.002478,-0.087437,0.088971,1.1391,0.6991,-0.3430,0.001534,0.587515,-0.561437,0.556835,-0.595185,0.558369,-0.559903
3.9399,0.020088,0.000000,-0.143063,0.143063,0.0000,0.0000,0.0000,-0.002478,-0.099709,0.105845,1.1391,0.6991,-0.3430,0.001534,0.587515,-0.561437,0.556835,-0.595185,0.558369,-0.559903
3.9600,0.020075,0.000000,-0.153575,0.153575,0.0000,0.0000,0.0000,-0.002478,-0.134990,0.127320,1.1391,0.6991,-0.3430,0.001534,0.587515,-0.561437,0.556835,-0.595185,0.558369,-0.559903
3.9800,0.020076,0.000000,-0.164087,0.164087,0.0000,0.0000,0.0000,-0.002478,-0.142660,0.131922,1.1391,0.6991,-0.3430,0.001534,0.587515,-0.561437,0.556835,-0.595185,0.558369,-0.559903
4.0001,0.020080,0.000000,-0.174465,0.174465,0.0000,0.0000,0.0000,-0.002478,-0.148796,0.144194,1.1391,0.6991,-0.3430,0.001534,0.587515,-0.561437,0.556835,-0.595185,0.558369,-0.559903
4.0202,0.020085,0.000000,-0.163949,0.163949,0.0000,0.0000,0.0000,-0.002478,-0.148796,0.144194,1.1391,0.6991,-0.3430,0.001534,0.587515,-0.561437,0.556835,-0.595185,0.558369,-0.559903
4.0403,0.020080,0.000000,-0.153435,0.153435,0.0000,0.0000,0.0000,-0.002478,-0.174874,0.171806,1.1391,0.6991,-0.3430,0.001534,0.587515,-0.561437,0.556835,-0.595185,0.558369,-0.559903
4.0604,0.020084,0.000000,-0.142919,0.142919,0.0000,0.0000,0.0000,-0.002478,-0.179476,0.174874,1.1391,0.6991,-0.3430,0.001534,0.587515,-0.561437,0.556835,-0.595185,0.558369,-0.559903
4.0805,0.020080,0.000000,-0.132405,0.132405,0.0000,0.0000,0.0000,-0.002478,-0.173340,0.170272,1.1391,0.6991,-0.3430,0.001534,0.587515,-0.561437,0.556835,-0.595185,0.558369,-0.559903
4.1005,0.020075,0.000000,-0.121894,0.121894,0.0000,0.0000,0.0000,-0.002478,-0.161068,0.162602,1.1391,0.6991,-0.3430,0.001534,0.587515,-0.561437,0.556835,-0.595185,0.558369,-0.559903
4.1206,0.020099,0.000000,-0.111370,0.111370,0.0000,0.0000,0.0000,-0.002478,-0.147262,0.151864,1.1391,0.6991,-0.3430,0.001534,0.587515,-0.561437,0.556835,-0.595185,0.558369,-0.559903
4.1407,0.020097,0.000000,-0.100847,0.100847,0.0000,0.0000,0.0000,-0.002478,-0.131922,0.138058,1.1391,0.6991,-0.3430,0.001534,0.587515,-0.561437,0.556835,-0.595185,0.558369,-0.559903
4.1609,0.020154,0.000000,-0.090294,0.090294,0.0000,0.0000,0.0000,-0.002478,-0.119651,0.124252,1.1391,0.6991,-0.3430,0.001534,0.587515,-0.561437,0.556835,-0.595185,0.558369,-0.559903
4.1810,0.020080,0.000000,-0.079781,0.079781,0.0000,0.0000,0.0000,-0.002478,-0.105845,0.111981,1.1391,0.6991,-0.3430,0.001534,0.587515,-0.561437,0.556835,-0.595185,0.558369,-0.559903
4.2010,0.020086,0.000000,-0.069263,0.069263,0.0000,0.0000,0.0000,-0.002478,-0.105845,0.111981,1.1391,0.6991,-0.3430,0.001534,0.587515,-0.561437,0.556835,-0.595185,0.558369,-0.559903
4.2211,0.020086,0.000000,-0.058747,0.058747,0.0000,0.0000,0.0000,-0.002478,-0.088971,0.088971,1.1391,0.6991,-0.3430,0.001534,0.587515,-0.561437,0.556835,-0.595185,0.558369,-0.559903
4.2412,0.020082,0.000000,-0.048232,0.048232,0.0000,0.0000,0.0000,-0.002492,-0.078233,0.079767,1.1495,0.6474,-0.3959,0.001534,0.587515,-0.561437,0.555301,-0.595185,0.558369,-0.559903
4.2613,0.020092,0.000000,-0.037712,0.037712,0.0000,0.0000,0.0000,-0.002477,-0.067495,0.069029,1.1375,0.7049,-0.3368,0.001534,0.587515,-0.561437,0.556835,-0.595185,0.558369,-0.559903
4.2814,0.020082,0.000000,-0.027197,0.027197,0.0000,0.0000,0.0000,-0.002479,-0.058291,0.058291,1.1388,0.6989,-0.3430,0.001534,0.587515,-0.561437,0.556835,-0.595185,0.558369,-0.559903
4.3015,0.020099,0.000000,-0.016673,0.016673,0.0000,0.0000,0.0000,-0.002479,-0.046019,0.049087,1.1388,0.6989,-0.3430,0.001534,0.587515,-0.561437,0.556835,-0.595185,0.558369,-0.559903
4.3218,0.020333,0.000000,-0.006027,0.006027,0.0000,0.0000,0.0000,-0.002479,-0.032214,0.036816,1.1388,0.6989,-0.3430,0.001534,0.587515,-0.561437,0.556835,-0.595185,0.558369,-0.559903
4.3419,0.020085,0.000000,0.004490,-0.004490,0.0000,0.0000,0.0000,-0.002479,-0.023010,0.029146,1.1388,0.6989,-0.3430,0.001534,0.587515,-0.561437,0.556835,-0.595185,0.558369,-0.559903
4.3620,0.020084,0.000000,0.015006,-0.015006,0.0000,0.0000,0.0000,-0.002479,-0.013806,0.019942,1.1388,0.6989,-0.3430,0.001534,0.587515,-0.561437,0.556835,-0.595185,0.558369,-0.559903
4.3821,0.020094,0.000000,0.025527,-0.025527,0.0000,0.0000,0.0000,-0.002479,-0.003068,0.007670,1.1388,0.6989,-0.3430,0.001534,0.587515,-0.561437,0.555301,-0.595185,0.558369,-0.559903
4.4025,0.020404,0.000000,0.036210,-0.036210,0.0000,0.0000,0.0000,-0.002477,0.007670,-0.003068,1.1375,0.7049,-0.3368,0.001534,0.587515,-0.561437,0.556835,-0.595185,0.558369,-0.559903
4.4226,0.020090,0.000000,0.046729,-0.046729,0.0000,0.0000,0.0000,-0.002477,0.007670,-0.003068,1.1375,0.7049,-0.3368,0.001534,0.587515,-0.561437,0.556835,-0.595185,0.558369,-0.559903
4.4427,0.020086,0.000000,0.057247,-0.057247,0.0000,0.0000,0.0000,-0.002479,0.019942,-0.026078,1.1388,0.6989,-0.3430,0.001534,0.587515,-0.561437,0.556835,-0.595185,0.558369,-0.559903
4.4629,0.020192,0.000000,0.067819,-0.067819,0.0000,0.0000,0.0000,-0.002479,0.019942,-0.026078,1.1388,0.6989,-0.3430,0.001534,0.587515,-0.561437,0.556835,-0.595185,0.558369,-0.559903
4.4829,0.020090,0.000000,0.078338,-0.078338,0.0000,0.0000,0.0000,-0.002479,0.050621,-0.050621,1.1388,0.6989,-0.3430,0.001534,0.587515,-0.561437,0.556835,-0.595185,0.558369,-0.559903
4.5031,0.020105,0.000000,0.088865,-0.088865,0.0000,0.0000,0.0000,-0.002479,0.062893,-0.058291,1.1388,0.6989,-0.3430,0.001534,0.587515,-0.561437,0.556835,-0.595185,0.558369,-0.559903
4.5231,0.020092,0.000000,0.099385,-0.099385,0.0000,0.0000,0.0000,-0.002479,0.070563,-0.069029,1.1388,0.6989,-0.3430,0.001534,0.587515,-0.561437,0.556835,-0.595185,0.558369,-0.559903
4.5432,0.020092,0.000000,0.109905,-0.109905,0.0000,0.0000,0.0000,-0.002479,0.076699,-0.078233,1.1388,0.6989,-0.3430,0.001534,0.587515,-0.561437,0.556835,-0.595185,0.558369,-0.559903
4.5633,0.020095,0.000000,0.120427,-0.120427,0.0000,0.0000,0.0000,-0.002479,0.076699,-0.078233,1.1388,0.6989,-0.3430,0.001534,0.587515,-0.561437,0.556835,-0.595185,0.558369,-0.559903
4.5834,0.020097,0.000000,0.130950,-0.130950,0.0000,0.0000,0.0000,-0.002479,0.102777,-0.095107,1.1388,0.6989,-0.3430,0.001534,0.587515,-0.561437,0.556835,-0.595185,0.558369,-0.559903
4.6036,0.020129,0.000000,0.141489,-0.141489,0.0000,0.0000,0.0000,-0.002479,0.102777,-0.095107,1.1388,0.6989,-0.3430,0.001534,0.587515,-0.561437,0.556835,-0.595185,0.558369,-0.559903
4.6236,0.020091,0.000000,0.152008,-0.152008,0.0000,0.0000,0.0000,-0.002465,0.124252,-0.118117,1.1777,0.6640,-0.3957,0.001534,0.587515,-0.561437,0.556835,-0.595185,0.558369,-0.559903
4.6437,0.020092,0.000000,0.162528,-0.162528,0.0000,0.0000,0.0000,-0.002480,0.128854,-0.127320,1.1346,0.7032,-0.3368,0.001534,0.587515,-0.561437,0.556835,-0.595185,0.558369,-0.559903
4.6638,0.020097,0.000000,0.173051,-0.173051,0.0000,0.0000,0.0000,-0.002478,0.128854,-0.127320,1.1391,0.6991,-0.3430,0.001534,0.587515,-0.561437,0.556835,-0.595185,0.558369,-0.559903
4.6839,0.020084,0.000000,0.165499,-0.165499,0.0000,0.0000,0.0000,-0.002465,0.148796,-0.150330,1.1777,0.6640,-0.3957,0.001534,0.587515,-0.561437,0.556835,-0.595185,0.558369,-0.559903
4.7054,0.021472,0.000000,0.154256,-0.154256,0.0000,0.0000,0.0000,-0.002478,0.167204,-0.162602,1.1391,0.6991,-0.3430,0.001534,0.587515,-0.561437,0.556835,-0.595185,0.558369,-0.559903
4.7258,0.020374,0.000000,0.143588,-0.143588,0.0000,0.0000,0.0000,-0.002478,0.174874,-0.174874,1.1391,0.6991,-0.3430,0.001534,0.587515,-0.561437,0.556835,-0.595185,0.558369,-0.559903
4.7459,0.020173,0.000000,0.133026,-0.133026,0.0000,0.0000,0.0000,-0.002478,0.170272,-0.173340,1.1391,0.6991,-0.3430,0.001534,0.587515,-0.561437,0.556835,-0.595185,0.558369,-0.559903
4.7660,0.020095,0.000000,0.122504,-0.122504,0.0000,0.0000,0.0000,-0.002465,0.159534,-0.167204,1.1777,0.6640,-0.3957,0.001534,0.587515,-0.562971,0.556835,-0.595185,0.558369,-0.559903
4.7861,0.020091,0.000000,0.111984,-0.111984,0.0000,0.0000,0.0000,-0.002480,0.148796,-0.156466,1.1346,0.7032,-0.3368,0.001534,0.587515,-0.561437,0.556835,-0.595185,0.558369,-0.559903
4.8062,0.020099,0.000000,0.101460,-0.101460,0.0000,0.0000,0.0000,-0.002478,0.134990,-0.144194,1.1391,0.6991,-0.3430,0.001534,0.587515,-0.561437,0.556835,-0.595185,0.558369,-0.559903
4.8263,0.020084,0.000000,0.090944,-0.090944,0.0000,0.0000,0.0000,-0.002478,0.121184,-0.131922,1.1391,0.6991,-0.3430,0.001534,0.587515,-0.561437,0.556835,-0.595185,0.558369,-0.559903
4.8464,0.020091,0.000000,0.080424,-0.080424,0.0000,0.0000,0.0000,-0.002478,0.108913,-0.119651,1.1391,0.6991,-0.3430,0.001534,0.587515,-0.561437,0.556835,-0.595185,0.558369,-0.559903
4.8665,0.020108,0.000000,0.069896,-0.069896,0.0000,0.0000,0.0000,-0.002478,0.098175,-0.107379,1.1391,0.6991,-0.3430,0.001534,0.587515,-0.561437,0.556835,-0.595185,0.558369,-0.559903
4.8868,0.020274,0.000000,0.059280,-0.059280,0.0000,0.0000,0.0000,-0.002478,0.087437,-0.095107,1.1391,0.6991,-0.3430,0.001534,0.587515,-0.561437,0.556835,-0.595185,0.558369,-0.559903
4.9069,0.020093,0.000000,0.048760,-0.048760,0.0000,0.0000,0.0000,-0.002478,0.078233,-0.082835,1.1391,0.6991,-0.3430,0.001534,0.587515,-0.561437,0.556835,-0.595185,0.558369,-0.559903
4.9272,0.020310,0.000000,0.038125,-0.038125,0.0000,0.0000,0.0000,-0.002478,0.070563,-0.069029,1.1391,0.6991,-0.3430,0.001534,0.587515,-0.561437,0.556835,-0.595185,0.558369,-0.559903
4.9473,0.020090,0.000000,0.027606,-0.027606,0.0000,0.0000,0.0000,-0.002478,0.058291,-0.056757,1.1391,0.6991,-0.3430,0.001534,0.587515,-0.561437,0.556835,-0.595185,0.558369,-0.559903
4.9677,0.020439,0.000000,0.016904,-0.016904,0.0000,0.0000,0.0000,-0.002478,0.044485,-0.044485,1.1391,0.6991,-0.3430,0.001534,0.587515,-0.561437,0.556835,-0.595185,0.558369,-0.559903
4.9878,0.020078,0.000000,0.006391,-0.006391,0.0000,0.0000,0.0000,-0.002478,0.033748,-0.035282,1.1391,0.6991,-0.3430,0.001534,0.587515,-0.561437,0.556835,-0.595185,0.558369,-0.559903
5.0079,0.020089,0.000000,-0.004127,0.004127,0.0000,0.0000,0.0000,-0.002478,0.023010,-0.027612,1.1391,0.6991,-0.3430,0.001534,0.587515,-0.561437,0.556835,-0.595185,0.558369,-0.559903
5.0281,0.020194,0.000000,-0.014701,0.014701,0.0000,0.0000,0.0000,-0.002478,0.012272,-0.016874,1.1391,0.6991,-0.3430,0.001534,0.587515,-0.561437,0.556835,-0.595185,0.558369,-0.559903
5.0482,0.020080,0.000000,-0.025215,0.025215,0.0000,0.0000,0.0000,-0.002478,0.003068,-0.004602,1.1391,0.6991,-0.3430,0.001534,0.587515,-0.561437,0.556835,-0.595185,0.558369,-0.559903
5.0683,0.020114,0.000000,-0.035746,0.035746,0.0000,0.0000,0.0000,-0.002478,-0.004602,0.004602,1.1391,0.6991,-0.3430,0.001534,0.587515,-0.561437,0.556835,-0.595185,0.558369,-0.559903
5.0886,0.020312,0.000000,-0.046382,0.046382,0.0000,0.0000,0.0000,-0.002478,-0.013806,0.013806,1.1391,0.6991,-0.3430,0.001534,0.587515,-0.561437,0.556835,-0.595185,0.558369,-0.559903
5.1090,0.020408,0.000000,-0.057067,0.057067,0.0000,0.0000,0.0000,-0.002478,-0.026078,0.021476,1.1391,0.6991,-0.3430,0.001534,0.587515,-0.561437,0.556835,-0.595185,0.558369,-0.559903
5.1293,0.020261,0.000000,-0.067676,0.067676,0.0000,0.0000,0.0000,-0.002478,-0.038350,0.030680,1.1391,0.6991,-0.3430,0.001534,0.587515,-0.561437,0.556835,-0.595185,0.558369,-0.559903
5.1493,0.020080,0.000000,-0.078190,0.078190,0.0000,0.0000,0.0000,-0.002478,-0.050621,0.044485,1.1391,0.6991,-0.3430,0.001534,0.587515,-0.561437,0.556835,-0.595185,0.558369,-0.559903
5.1699,0.020529,0.000000,-0.088939,0.088939,0.0000,0.0000,0.0000,-0.002478,-0.058291,0.059825,1.1391,0.6991,-0.3430,0.001534,0.587515,-0.561437,0.556835,-0.595185,0.558369,-0.559903
5.1899,0.020080,0.000000,-0.099453,0.099453,0.0000,0.0000,0.0000,-0.002478,-0.064427,0.069029,1.1391,0.6991,-0.3430,0.001534,0.587515,-0.561437,0.556835,-0.595185,0.558369,-0.559903
5.2100,0.020081,0.000000,-0.109967,0.109967,0.0000,0.0000,0.0000,-0.002478,-0.072097,0.075165,1.1391,0.6991,-0.3430,0.001534,0.587515,-0.561437,0.556835,-0.595185,0.558369,-0.559903
5.2306,0.020554,0.000000,-0.120729,0.120729,0.0000,0.0000,0.0000,-0.002465,-0.085903,0.082835,1.1777,0.6640,-0.3957,0.001534,0.587515,-0.562971,0.556835,-0.595185,0.558369,-0.559903
5.2507,0.020083,0.000000,-0.131245,0.131245,0.0000,0.0000,0.0000,-0.002480,-0.104311,0.096641,1.1346,0.7032,-0.3368,0.001534,0.587515,-0.561437,0.556835,-0.595185,0.558369,-0.559903
5.2708,0.020114,0.000000,-0.141776,0.141776,0.0000,0.0000,0.0000,-0.002480,-0.115049,0.111981,1.1346,0.7032,-0.3368,0.001534,0.587515,-0.561437,0.556835,-0.595185,0.558369,-0.559903
5.2913,0.020537,0.000000,-0.152529,0.152529,0.0000,0.0000,0.0000,-0.002465,-0.118117,0.122718,1.1777,0.6640,-0.3957,0.001534,0.587515,-0.562971,0.556835,-0.595185,0.558369,-0.559903
5.3114,0.020110,0.000000,-0.163059,0.163059,0.0000,0.0000,0.0000,-0.002480,-0.127320,0.128854,1.1346,0.7032,-0.3368,0.001534,0.587515,-0.561437,0.556835,-0.595185,0.558369,-0.559903
5.3316,0.020134,0.000000,-0.173601,0.173601,0.0000,0.0000,0.0000,-0.002478,-0.141126,0.134990,1.1391,0.6991,-0.3430,0.001534,0.587515,-0.561437,0.556835,-0.595185,0.558369,-0.559903
5.3516,0.020081,0.000000,-0.164951,0.164951,0.0000,0.0000,0.0000,-0.002478,-0.158000,0.150330,1.1391,0.6991,-0.3430,0.001534,0.587515,-0.561437,0.556835,-0.595185,0.558369,-0.559903
5.3717,0.020097,0.000000,-0.154428,0.154428,0.0000,0.0000,0.0000,-0.002478,-0.167204,0.164136,1.1391,0.6991,-0.3430,0.001534,0.587515,-0.561437,0.556835,-0.595185,0.558369,-0.559903
5.3918,0.020083,0.000000,-0.143913,0.143913,0.0000,0.0000,0.0000,-0.002478,-0.170272,0.173340,1.1391,0.6991,-0.3430,0.001534,0.587515,-0.561437,0.556835,-0.595185,0.558369,-0.559903
5.4119,0.020084,0.000000,-0.133397,0.133397,0.0000,0.0000,0.0000,-0.002478,-0.173340,0.174874,1.1391,0.6991,-0.3430,0.001534,0.587515,-0.561437,0.556835,-0.595185,0.558369,-0.559903
5.4323,0.020420,0.000000,-0.122705,0.122705,0.0000,0.0000,0.0000,-0.002478,-0.168738,0.168738,1.1391,0.6991,-0.3430,0.001534,0.587515,-0.561437,0.556835,-0.595185,0.558369,-0.559903
5.4524,0.020079,0.000000,-0.112191,0.112191,0.0000,0.0000,0.0000,-0.002478,-0.156466,0.161068,1.1391,0.6991,-0.3430,0.001534,0.587515,-0.561437,0.556835,-0.595185,0.558369,-0.559903
5.4725,0.020134,0.000000,-0.101650,0.101650,0.0000,0.0000,0.0000,-0.002478,-0.144194,0.148796,1.1391,0.6991,-0.3430,0.001534,0.587515,-0.561437,0.556835,-0.595185,0.558369,-0.559903
5.4926,0.020080,0.000000,-0.091136,0.091136,0.0000,0.0000,0.0000,-0.002478,-0.128854,0.134990,1.1391,0.6991,-0.3430,0.001534,0.587515,-0.561437,0.556835,-0.595185,0.558369,-0.559903
5.5127,0.020080,0.000000,-0.080622,0.080622,0.0000,0.0000,0.0000,-0.002478,-0.116583,0.119651,1.1391,0.6991,-0.3430,0.001534,0.587515,-0.561437,0.556835,-0.595185,0.558369,-0.559903
5.5336,0.020926,0.000000,-0.069665,0.069665,0.0000,0.0000,0.0000,-0.002478,-0.105845,0.110447,1.1391,0.6991,-0.3430,0.001534,0.587515,-0.561437,0.556835,-0.595185,0.558369,-0.559903
5.5537,0.020083,0.000000,-0.059149,0.059149,0.0000,0.0000,0.0000,-0.002478,-0.095107,0.098175,1.1391,0.6991,-0.3430,0.001534,0.587515,-0.561437,0.556835,-0.595185,0.558369,-0.559903
5.5739,0.020200,0.000000,-0.048573,0.048573,0.0000,0.0000,0.0000,-0.002478,-0.084369,0.087437,1.1391,0.6991,-0.3430,0.001534,0.587515,-0.561437,0.556835,-0.595185,0.558369,-0.559903
5.5940,0.020109,0.000000,-0.038044,0.038044,0.0000,0.0000,0.0000,-0.002478,-0.075165,0.075165,1.1391,0.6991,-0.3430,0.001534,0.587515,-0.561437,0.556835,-0.595185,0.558369,-0.559903
5.6141,0.020076,0.000000,-0.027532,0.027532,0.0000,0.0000,0.0000,-0.002478,-0.062893,0.064427,1.1391,0.6991,-0.3430,0.001534,0.587515,-0.561437,0.556835,-0.595185,0.558369,-0.559903
5.6342,0.020126,0.000000,-0.016994,0.016994,0.0000,0.0000,0.0000,-0.002478,-0.052155,0.053689,1.1391,0.6991,-0.3430,0.001534,0.587515,-0.561437,0.556835,-0.595185,0.558369,-0.559903
5.6543,0.020079,0.000000,-0.006481,0.006481,0.0000,0.0000,0.0000,-0.002478,-0.041417,0.044485,1.1391,0.6991,-0.3430,0.001534,0.587515,-0.561437,0.556835,-0.595185,0.558369,-0.559903
5.6748,0.020492,0.000000,0.004249,-0.004249,0.0000,0.0000,0.0000,-0.002478,-0.029146,0.033748,1.1391,0.6991,-0.3430,0.001534,0.587515,-0.561437,0.556835,-0.595185,0.558369,-0.559903
5.6949,0.020093,0.000000,0.014769,-0.014769,0.0000,0.0000,0.0000,-0.002478,-0.016874,0.024544,1.1391,0.6991,-0.3430,0.001534,0.587515,-0.561437,0.556835,-0.595185,0.558369,-0.559903
5.7150,0.020079,0.000000,0.025283,-0.025283,0.0000,0.0000,0.0000,-0.002478,-0.007670,0.013806,1.1391,0.6991,-0.3430,0.001534,0.587515,-0.561437,0.556835,-0.595185,0.558369,-0.559903
5.7350,0.020086,0.000000,0.035800,-0.035800,0.0000,0.0000,0.0000,-0.002478,-0.001534,0.003068,1.1391,0.6991,-0.3430,0.001534,0.587515,-0.561437,0.556835,-0.595185,0.558369,-0.559903
5.7551,0.020077,0.000000,0.046312,-0.046312,0.0000,0.0000,0.0000,-0.002465,0.009204,-0.007670,1.1777,0.6640,-0.3957,0.001534,0.587515,-0.562971,0.556835,-0.595185,0.558369,-0.559903
5.7753,0.020147,0.000000,0.056861,-0.056861,0.0000,0.0000,0.0000,-0.002480,0.021476,-0.021476,1.1346,0.7032,-0.3368,0.001534,0.587515,-0.561437,0.556835,-0.595185,0.558369,-0.559903
5.7954,0.020108,0.000000,0.067390,-0.067390,0.0000,0.0000,0.0000,-0.002478,0.033748,-0.032214,1.1391,0.6991,-0.3430,0.001534,0.587515,-0.561437,0.556835,-0.595185,0.558369,-0.559903
5.8154,0.020078,0.000000,0.077903,-0.077903,0.0000,0.0000,0.0000,-0.002478,0.042951,-0.042951,1.1391,0.6991,-0.3430,0.001534,0.587515,-0.561437,0.556835,-0.595185,0.558369,-0.559903
5.8356,0.020187,0.000000,0.088472,-0.088472,0.0000,0.0000,0.0000,-0.002478,0.056757,-0.055223,1.1391,0.6991,-0.3430,0.001534,0.587515,-0.561437,0.556835,-0.595185,0.558369,-0.559903
5.8558,0.020210,0.000000,0.099054,-0.099054,0.0000,0.0000,0.0000,-0.002478,0.062893,-0.061359,1.1391,0.6991,-0.3430,0.001534,0.587515,-0.561437,0.556835,-0.595185,0.558369,-0.559903
5.8759,0.020075,0.000000,0.109565,-0.109565,0.0000,0.0000,0.0000,-0.002478,0.070563,-0.070563,1.1391,0.6991,-0.3430,0.001534,0.587515,-0.561437,0.556835,-0.595185,0.558369,-0.559903
5.8961,0.020224,0.000000,0.120154,-0.120154,0.0000,0.0000,0.0000,-0.002478,0.070563,-0.070563,1.1391,0.6991,-0.3430,0.001534,0.587515,-0.561437,0.556835,-0.595185,0.558369,-0.559903
5.9162,0.020081,0.000000,0.130669,-0.130669,0.0000,0.0000,0.0000,-0.002478,0.088971,-0.087437,1.1391,0.6991,-0.3430,0.001534,0.587515,-0.561437,0.556835,-0.595185,0.558369,-0.559903
5.9363,0.020105,0.000000,0.141196,-0.141196,0.0000,0.0000,0.0000,-0.002478,0.105845,-0.098175,1.1391,0.6991,-0.3430,0.001534,0.587515,-0.561437,0.556835,-0.595185,0.558369,-0.559903
5.9564,0.020079,0.000000,0.151709,-0.151709,0.0000,0.0000,0.0000,-0.002478,0.119651,-0.108913,1.1391,0.6991,-0.3430,0.001534,0.587515,-0.561437,0.556835,-0.595185,0.558369,-0.559903
5.9765,0.020077,0.000000,0.162221,-0.162221,0.0000,0.0000,0.0000,-0.002478,0.125786,-0.121184,1.1391,0.6991,-0.3430,0.001534,0.587515,-0.561437,0.556835,-0.595185,0.558369,-0.559903
5.9966,0.020095,0.000000,0.172743,-0.172743,0.0000,0.0000,0.0000,-0.002478,0.128854,-0.133456,1.1391,0.6991,-0.3430,0.001534,0.587515,-0.561437,0.556835,-0.595185,0.558369,-0.559903
6.0167,0.020078,0.000000,0.165810,-0.165810,0.0000,0.0000,0.0000,-0.002478,0.141126,-0.145728,1.1391,0.6991,-0.3430,0.001534,0.587515,-0.561437,0.556835,-0.595185,0.558369,-0.559903
6.0368,0.020107,0.000000,0.155282,-0.155282,0.0000,0.0000,0.0000,-0.002478,0.158000,-0.156466,1.1391,0.6991,-0.3430,0.001534,0.587515,-0.562971,0.556835,-0.595185,0.558369,-0.559903
6.0572,0.020425,0.000000,0.144588,-0.144588,0.0000,0.0000,0.0000,-0.002480,0.173340,-0.168738,1.1346,0.7032,-0.3368,0.001534,0.587515,-0.561437,0.556835,-0.595185,0.558369,-0.559903
6.0774,0.020210,0.000000,0.134006,-0.134006,0.0000,0.0000,0.0000,-0.002478,0.167204,-0.170272,1.1391,0.6991,-0.3430,0.001534,0.587515,-0.561437,0.556835,-0.595185,0.558369,-0.559903
6.0975,0.020137,0.000000,0.123462,-0.123462,0.0000,0.0000,0.0000,-0.002478,0.156466,-0.162602,1.1391,0.6991,-0.3430,0.001534,0.587515,-0.561437,0.556835,-0.595185,0.558369,-0.559903
6.1176,0.020079,0.000000,0.112949,-0.112949,0.0000,0.0000,0.0000,-0.002465,0.144194,-0.151864,1.1777,0.6640,-0.3957,0.001534,0.587515,-0.562971,0.556835,-0.595185,0.558369,-0.559903
6.1379,0.020236,0.000000,0.102353,-0.102353,0.0000,0.0000,0.0000,-0.002467,0.130388,-0.141126,1.1737,0.6676,-0.3902,0.001534,0.587515,-0.562971,0.556835,-0.595185,0.558369,-0.559903
6.1579,0.020080,0.000000,0.091840,-0.091840,0.0000,0.0000,0.0000,-0.002467,0.116583,-0.128854,1.1737,0.6676,-0.3902,0.001534,0.587515,-0.562971,0.556835,-0.595185,0.558369,-0.559903
6.1780,0.020079,0.000000,0.081326,-0.081326,0.0000,0.0000,0.0000,-0.002480,0.104311,-0.113515,1.1350,0.7028,-0.3374,0.001534,0.587515,-0.561437,0.556835,-0.595185,0.558369,-0.559903
6.1981,0.020128,0.000000,0.070787,-0.070787,0.0000,0.0000,0.0000,-0.002478,0.093573,-0.102777,1.1390,0.6991,-0.3429,0.001534,0.587515,-0.561437,0.556835,-0.595185,0.558369,-0.559903
6.2182,0.020080,0.000000,0.060274,-0.060274,0.0000,0.0000,0.0000,-0.002478,0.082835,-0.090505,1.1390,0.6991,-0.3429,0.001534,0.587515,-0.561437,0.556835,-0.595185,0.558369,-0.559903
6.2383,0.020113,0.000000,0.049743,-0.049743,0.0000,0.0000,0.0000,-0.002478,0.075165,-0.076699,1.1390,0.6991,-0.3429,0.001534,0.587515,-0.561437,0.556835,-0.595185,0.558369,-0.559903
6.2584,0.020079,0.000000,0.039229,-0.039229,0.0000,0.0000,0.0000,-0.002478,0.067495,-0.065961,1.1390,0.6991,-0.3429,0.001534,0.587515,-0.561437,0.556835,-0.595185,0.558369,-0.559903
6.2786,0.020152,0.000000,0.028678,-0.028678,0.0000,0.0000,0.0000,-0.002478,0.056757,-0.052155,1.1390,0.6991,-0.3429,0.001534,0.587515,-0.561437,0.556835,-0.595185,0.558369,-0.559903
6.2987,0.020092,0.000000,0.018157,-0.018157,0.0000,0.0000,0.0000,-0.002478,0.042951,-0.042951,1.1390,0.6991,-0.3429,0.001534,0.587515,-0.561437,0.556835,-0.595185,0.558369,-0.559903
6.3187,0.020082,0.000000,0.007643,-0.007643,0.0000,0.0000,0.0000,-0.002478,0.030680,-0.033748,1.1390,0.6991,-0.3429,0.001534,0.587515,-0.561437,0.556835,-0.595185,0.558369,-0.559903
6.3388,0.020108,0.000000,-0.002886,0.002886,0.0000,0.0000,0.0000,-0.002478,0.018408,-0.026078,1.1390,0.6991,-0.3429,0.001534,0.587515,-0.561437,0.556835,-0.595185,0.558369,-0.559903
6.3589,0.020078,0.000000,-0.013399,0.013399,0.0000,0.0000,0.0000,-0.002478,0.009204,-0.013806,1.1390,0.6991,-0.3429,0.001534,0.587515,-0.561437,0.556835,-0.595185,0.558369,-0.559903
6.3790,0.020087,0.000000,-0.023916,0.023916,0.0000,0.0000,0.0000,-0.002478,-0.001534,-0.001534,1.1390,0.6991,-0.3429,0.001534,0.587515,-0.561437,0.556835,-0.595185,0.558369,-0.559903
6.3996,0.020578,0.000000,-0.034691,0.034691,0.0000,0.0000,0.0000,-0.002478,-0.007670,0.007670,1.1390,0.6991,-0.3429,0.001534,0.587515,-0.561437,0.556835,-0.595185,0.558369,-0.559903
6.4197,0.020087,0.000000,-0.045208,0.045208,0.0000,0.0000,0.0000,-0.002478,-0.012272,0.013806,1.1390,0.6991,-0.3429,0.001534,0.587515,-0.561437,0.556835,-0.595185,0.558369,-0.559903
6.4399,0.020222,0.000000,-0.055797,0.055797,0.0000,0.0000,0.0000,-0.002478,-0.023010,0.023010,1.1390,0.6991,-0.3429,0.001534,0.587515,-0.561437,0.556835,-0.595185,0.558369,-0.559903
6.4600,0.020094,0.000000,-0.066318,0.066318,0.0000,0.0000,0.0000,-0.002478,-0.038350,0.033748,1.1390,0.6991,-0.3429,0.001534,0.587515,-0.561437,0.556835,-0.595185,0.558369,-0.559903
6.4801,0.020075,0.000000,-0.076829,0.076829,0.0000,0.0000,0.0000,-0.002478,-0.053689,0.049087,1.1390,0.6991,-0.3429,0.001534,0.587515,-0.561437,0.556835,-0.595185,0.558369,-0.559903
6.5003,0.020243,0.000000,-0.087429,0.087429,0.0000,0.0000,0.0000,-0.002478,-0.062893,0.062893,1.1390,0.6991,-0.3429,0.001534,0.587515,-0.561437,0.556835,-0.595185,0.558369,-0.559903
6.5205,0.020189,0.000000,-0.098000,0.098000,0.0000,0.0000,0.0000,-0.002478,-0.065961,0.070563,1.1390,0.6991,-0.3429,0.001534,0.587515,-0.561437,0.556835,-0.595185,0.558369,-0.559903
6.5409,0.020435,0.000000,-0.108699,0.108699,0.0000,0.0000,0.0000,-0.002478,-0.076699,0.076699,1.1390,0.6991,-0.3429,0.001534,0.587515,-0.561437,0.556835,-0.595185,0.558369,-0.559903
