t,loop_dt,cmd_z,cmd_ant_l,cmd_ant_r,cmd_roll,cmd_pitch,cmd_yaw,pres_z,pres_ant_l,pres_ant_r,pres_roll,pres_pitch,pres_yaw,pres_j0,pres_j1,pres_j2,pres_j3,pres_j4,pres_j5,pres_j6
0.0000,0.000001,0.000000,-0.174533,0.174533,0.0000,0.0000,0.0000,-0.002659,0.000000,-0.001534,1.1531,0.8930,0.1394,0.001534,0.582913,-0.555301,0.556835,-0.592117,0.558369,-0.549165
0.0201,0.020098,0.000000,-0.173481,0.173481,0.0000,0.0000,0.0000,-0.002659,-0.004602,-0.001534,1.1531,0.8930,0.1394,0.001534,0.582913,-0.555301,0.556835,-0.592117,0.558369,-0.549165
0.0402,0.020090,0.000000,-0.172429,0.172429,0.0000,0.0000,0.0000,-0.002659,0.001534,-0.001534,1.1531,0.8930,0.1394,0.001534,0.582913,-0.555301,0.556835,-0.592117,0.558369,-0.549165
0.0603,0.020099,0.000000,-0.171376,0.171376,0.0000,0.0000,0.0000,-0.002646,0.004602,-0.001534,1.1035,0.8754,0.0866,0.001534,0.582913,-0.555301,0.556835,-0.592117,0.558369,-0.550699
0.0804,0.020108,0.000000,-0.170323,0.170323,0.0000,0.0000,0.0000,-0.002647,-0.046019,0.047553,1.1087,0.8772,0.0921,0.001534,0.582913,-0.555301,0.556835,-0.592117,0.558369,-0.550699
0.1005,0.020087,0.000000,-0.169272,0.169272,0.0000,0.0000,0.0000,-0.002623,-0.134990,0.134990,1.1085,0.8436,0.0920,0.001534,0.584447,-0.555301,0.556835,-0.592117,0.558369,-0.552233
0.1206,0.020092,0.000000,-0.168220,0.168220,0.0000,0.0000,0.0000,-0.002599,-0.188680,0.185612,1.0099,0.8108,-0.0151,0.001534,0.584447,-0.555301,0.556835,-0.592117,0.558369,-0.555301
0.1407,0.020093,0.000000,-0.167168,0.167168,0.0000,0.0000,0.0000,-0.002578,-0.207087,0.199418,1.0207,0.7808,-0.0035,0.001534,0.585981,-0.555301,0.556835,-0.592117,0.558369,-0.556835
0.1608,0.020086,0.000000,-0.166116,0.166116,0.0000,0.0000,0.0000,-0.002567,-0.196350,0.191748,0.9703,0.7659,-0.0583,0.001534,0.585981,-0.555301,0.556835,-0.592117,0.558369,-0.558369
0.1808,0.020095,0.000000,-0.165064,0.165064,0.0000,0.0000,0.0000,-0.002555,-0.179476,0.181010,0.9264,0.7495,-0.1062,0.001534,0.585981,-0.555301,0.556835,-0.592117,0.558369,-0.559903
0.2009,0.020086,0.000000,-0.164012,0.164012,0.0000,0.0000,0.0000,-0.002546,-0.165670,0.170272,0.9806,0.7356,-0.0471,0.001534,0.587515,-0.555301,0.556835,-0.592117,0.558369,-0.559903
0.2210,0.020092,0.000000,-0.162960,0.162960,0.0000,0.0000,0.0000,-0.002547,-0.162602,0.165670,0.9750,0.7371,-0.0533,0.001534,0.587515,-0.555301,0.556835,-0.592117,0.558369,-0.559903
0.2411,0.020085,0.000000,-0.161908,0.161908,0.0000,0.0000,0.0000,-0.002534,-0.170272,0.167204,0.9264,0.7190,-0.1063,0.001534,0.587515,-0.555301,0.556835,-0.592117,0.558369,-0.561437
0.2612,0.020088,0.000000,-0.160857,0.160857,0.0000,0.0000,0.0000,-0.002548,-0.170272,0.168738,0.9806,0.7388,-0.0471,0.001534,0.587515,-0.555301,0.556835,-0.592117,0.558369,-0.559903
0.2813,0.020083,0.000000,-0.159805,0.159805,0.0000,0.0000,0.0000,-0.002546,-0.164136,0.165670,0.9750,0.7368,-0.0533,0.001534,0.587515,-0.555301,0.556835,-0.592117,0.558369,-0.559903
0.3014,0.020093,0.000000,-0.158753,0.158753,0.0000,0.0000,0.0000,-0.002546,-0.161068,0.165670,0.9750,0.7368,-0.0533,0.001534,0.587515,-0.555301,0.556835,-0.592117,0.558369,-0.559903
0.3215,0.020094,0.000000,-0.157701,0.157701,0.0000,0.0000,0.0000,-0.002546,-0.164136,0.164136,0.9750,0.7368,-0.0533,0.001534,0.587515,-0.555301,0.556835,-0.592117,0.558369,-0.559903
0.3416,0.020095,0.000000,-0.156649,0.156649,0.0000,0.0000,0.0000,-0.002534,-0.162602,0.161068,0.9264,0.7190,-0.1063,0.001534,0.587515,-0.555301,0.556835,-0.592117,0.558369,-0.561437
0.3617,0.020106,0.000000,-0.155596,0.155596,0.0000,0.0000,0.0000,-0.002548,-0.161068,0.158000,0.9806,0.7388,-0.0471,0.001534,0.587515,-0.555301,0.556835,-0.592117,0.558369,-0.559903
0.3818,0.020110,0.000000,-0.154543,0.154543,0.0000,0.0000,0.0000,-0.002534,-0.161068,0.158000,0.9259,0.7188,-0.1069,0.001534,0.587515,-0.555301,0.556835,-0.592117,0.558369,-0.561437
0.4019,0.020087,0.000000,-0.153491,0.153491,0.0000,0.0000,0.0000,-0.002548,-0.159534,0.158000,0.9807,0.7388,-0.0471,0.001534,0.587515,-0.555301,0.556835,-0.592117,0.558369,-0.559903
0.4220,0.020088,0.000000,-0.152439,0.152439,0.0000,0.0000,0.0000,-0.002546,-0.159534,0.158000,0.9750,0.7368,-0.0533,0.001534,0.587515,-0.555301,0.556835,-0.592117,0.558369,-0.559903
0.4420,0.020092,0.000000,-0.151387,0.151387,0.0000,0.0000,0.0000,-0.002546,-0.158000,0.158000,0.9750,0.7368,-0.0533,0.001534,0.587515,-0.555301,0.556835,-0.592117,0.558369,-0.559903
0.4622,0.020121,0.000000,-0.150334,0.150334,0.0000,0.0000,0.0000,-0.002546,-0.156466,0.158000,0.9750,0.7368,-0.0533,0.001534,0.587515,-0.555301,0.556835,-0.592117,0.558369,-0.559903
0.4823,0.020098,0.000000,-0.149282,0.149282,0.0000,0.0000,0.0000,-0.002546,-0.154932,0.158000,0.9750,0.7368,-0.0533,0.001534,0.587515,-0.555301,0.556835,-0.592117,0.558369,-0.559903
0.5024,0.020095,0.000000,-0.148229,0.148229,0.0000,0.0000,0.0000,-0.002546,-0.153398,0.158000,0.9750,0.7368,-0.0533,0.001534,0.587515,-0.555301,0.556835,-0.592117,0.558369,-0.559903
0.5225,0.020090,0.000000,-0.147177,0.147177,0.0000,0.0000,0.0000,-0.002546,-0.153398,0.158000,0.9750,0.7368,-0.0533,0.001534,0.587515,-0.555301,0.556835,-0.592117,0.558369,-0.559903
0.5426,0.020159,0.000000,-0.146122,0.146122,0.0000,0.0000,0.0000,-0.002546,-0.153398,0.158000,0.9750,0.7368,-0.0533,0.001534,0.587515,-0.555301,0.556835,-0.592117,0.558369,-0.559903
0.5627,0.020081,0.000000,-0.145070,0.145070,0.0000,0.0000,0.0000,-0.002546,-0.151864,0.158000,0.9750,0.7368,-0.0533,0.001534,0.587515,-0.555301,0.556835,-0.592117,0.558369,-0.559903
0.5828,0.020081,0.000000,-0.144019,0.144019,0.0000,0.0000,0.0000,-0.002546,-0.148796,0.156466,0.9750,0.7368,-0.0533,0.001534,0.587515,-0.555301,0.556835,-0.592117,0.558369,-0.559903
0.6029,0.020084,0.000000,-0.142967,0.142967,0.0000,0.0000,0.0000,-0.002546,-0.148796,0.156466,0.9750,0.7368,-0.0533,0.001534,0.587515,-0.555301,0.556835,-0.592117,0.558369,-0.559903
0.6229,0.020077,0.000000,-0.141916,0.141916,0.0000,0.0000,0.0000,-0.002546,-0.148796,0.151864,0.9750,0.7368,-0.0533,0.001534,0.587515,-0.555301,0.556835,-0.592117,0.558369,-0.559903
0.6430,0.020082,0.000000,-0.140865,0.140865,0.0000,0.0000,0.0000,-0.002546,-0.148796,0.147262,0.9750,0.7368,-0.0533,0.001534,0.587515,-0.555301,0.556835,-0.592117,0.558369,-0.559903
0.6631,0.020077,0.000000,-0.139813,0.139813,0.0000,0.0000,0.0000,-0.002546,-0.148796,0.144194,0.9750,0.7368,-0.0533,0.001534,0.587515,-0.555301,0.556835,-0.592117,0.558369,-0.559903
0.6832,0.020079,0.000000,-0.138762,0.138762,0.0000,0.0000,0.0000,-0.002546,-0.148796,0.144194,0.9750,0.7368,-0.0533,0.001534,0.587515,-0.555301,0.556835,-0.592117,0.558369,-0.559903
0.7033,0.020081,0.000000,-0.137711,0.137711,0.0000,0.0000,0.0000,-0.002534,-0.148796,0.144194,0.9264,0.7190,-0.1063,0.001534,0.587515,-0.555301,0.556835,-0.592117,0.558369,-0.561437
0.7233,0.020075,0.000000,-0.136660,0.136660,0.0000,0.0000,0.0000,-0.002548,-0.148796,0.144194,0.9806,0.7388,-0.0471,0.001534,0.587515,-0.555301,0.556835,-0.592117,0.558369,-0.559903
0.7434,0.020088,0.000000,-0.135608,0.135608,0.0000,0.0000,0.0000,-0.002535,-0.148796,0.144194,0.9865,0.7873,-0.1068,0.001534,0.587515,-0.555301,0.556835,-0.593651,0.558369,-0.559903
0.7635,0.020076,0.000000,-0.134557,0.134557,0.0000,0.0000,0.0000,-0.002548,-0.148796,0.144194,0.9744,0.7317,-0.0471,0.001534,0.587515,-0.555301,0.556835,-0.592117,0.558369,-0.559903
0.7836,0.020091,0.000000,-0.133505,0.133505,0.0000,0.0000,0.0000,-0.002546,-0.147262,0.144194,0.9756,0.7375,-0.0533,0.001534,0.587515,-0.555301,0.556835,-0.592117,0.558369,-0.559903
0.8037,0.020079,0.000000,-0.132453,0.132453,0.0000,0.0000,0.0000,-0.002546,-0.147262,0.144194,0.9756,0.7375,-0.0533,0.001534,0.587515,-0.555301,0.556835,-0.592117,0.558369,-0.559903
0.8237,0.020077,0.000000,-0.131402,0.131402,0.0000,0.0000,0.0000,-0.002534,-0.147262,0.144194,0.9264,0.7189,-0.1063,0.001534,0.587515,-0.555301,0.556835,-0.592117,0.558369,-0.561437
0.8440,0.020301,0.000000,-0.130339,0.130339,0.0000,0.0000,0.0000,-0.002548,-0.144194,0.142660,0.9806,0.7388,-0.0471,0.001534,0.587515,-0.555301,0.556835,-0.592117,0.558369,-0.559903
0.8641,0.020079,0.000000,-0.129288,0.129288,0.0000,0.0000,0.0000,-0.002546,-0.139592,0.142660,0.9750,0.7368,-0.0533,0.001534,0.587515,-0.555301,0.556835,-0.592117,0.558369,-0.559903
0.8842,0.020083,0.000000,-0.128236,0.128236,0.0000,0.0000,0.0000,-0.002546,-0.133456,0.142660,0.9750,0.7368,-0.0533,0.001534,0.587515,-0.555301,0.556835,-0.592117,0.558369,-0.559903
0.9043,0.020078,0.000000,-0.127185,0.127185,0.0000,0.0000,0.0000,-0.002546,-0.131922,0.141126,0.9750,0.7368,-0.0533,0.001534,0.587515,-0.555301,0.556835,-0.592117,0.558369,-0.559903
0.9244,0.020076,0.000000,-0.126134,0.126134,0.0000,0.0000,0.0000,-0.002546,-0.131922,0.138058,0.9750,0.7368,-0.0533,0.001534,0.587515,-0.555301,0.556835,-0.592117,0.558369,-0.559903
0.9445,0.020099,0.000000,-0.125081,0.125081,0.0000,0.0000,0.0000,-0.002546,-0.130388,0.133456,0.9750,0.7368,-0.0533,0.001534,0.587515,-0.555301,0.556835,-0.592117,0.558369,-0.559903
0.9645,0.020081,0.000000,-0.124030,0.124030,0.0000,0.0000,0.0000,-0.002546,-0.128854,0.127320,0.9750,0.7368,-0.0533,0.001534,0.587515,-0.555301,0.556835,-0.592117,0.558369,-0.559903
0.9846,0.020081,0.000000,-0.122979,0.122979,0.0000,0.0000,0.0000,-0.002534,-0.128854,0.125786,0.9264,0.7190,-0.1063,0.001534,0.587515,-0.555301,0.556835,-0.592117,0.558369,-0.561437
1.0047,0.020084,0.000000,-0.121927,0.121927,0.0000,0.0000,0.0000,-0.002548,-0.127320,0.124252,0.9806,0.7388,-0.0471,0.001534,0.587515,-0.555301,0.556835,-0.592117,0.558369,-0.559903
1.0248,0.020074,0.000000,-0.120876,0.120876,0.0000,0.0000,0.0000,-0.002534,-0.125786,0.124252,0.9259,0.7188,-0.1069,0.001534,0.587515,-0.555301,0.556835,-0.592117,0.558369,-0.561437
1.0449,0.020085,0.000000,-0.119824,0.119824,0.0000,0.0000,0.0000,-0.002535,-0.125786,0.122718,0.9316,0.7209,-0.1007,0.001534,0.587515,-0.555301,0.556835,-0.592117,0.558369,-0.561437
1.0649,0.020075,0.000000,-0.118773,0.118773,0.0000,0.0000,0.0000,-0.002548,-0.125786,0.122718,0.9801,0.7386,-0.0477,0.001534,0.587515,-0.555301,0.556835,-0.592117,0.558369,-0.559903
1.0850,0.020083,0.000000,-0.117722,0.117722,0.0000,0.0000,0.0000,-0.002546,-0.124252,0.122718,0.9750,0.7368,-0.0532,0.001534,0.587515,-0.555301,0.556835,-0.592117,0.558369,-0.559903
1.1051,0.020081,0.000000,-0.116670,0.116670,0.0000,0.0000,0.0000,-0.002546,-0.122718,0.122718,0.9750,0.7368,-0.0532,0.001534,0.587515,-0.555301,0.556835,-0.592117,0.558369,-0.559903
1.1251,0.020034,0.000000,-0.115621,0.115621,0.0000,0.0000,0.0000,-0.002546,-0.122718,0.121184,0.9750,0.7368,-0.0532,0.001534,0.587515,-0.555301,0.556835,-0.592117,0.558369,-0.559903
1.1452,0.020093,0.000000,-0.114569,0.114569,0.0000,0.0000,0.0000,-0.002546,-0.121184,0.119651,0.9750,0.7368,-0.0532,0.001534,0.587515,-0.555301,0.556835,-0.592117,0.558369,-0.559903
1.1653,0.020077,0.000000,-0.113518,0.113518,0.0000,0.0000,0.0000,-0.002546,-0.121184,0.118117,0.9750,0.7368,-0.0532,0.001534,0.587515,-0.555301,0.556835,-0.592117,0.558369,-0.559903
1.1854,0.020083,0.000000,-0.112466,0.112466,0.0000,0.0000,0.0000,-0.002546,-0.121184,0.118117,0.9750,0.7368,-0.0532,0.001534,0.587515,-0.555301,0.556835,-0.592117,0.558369,-0.559903
1.2055,0.020079,0.000000,-0.111415,0.111415,0.0000,0.0000,0.0000,-0.002546,-0.121184,0.118117,0.9750,0.7368,-0.0532,0.001534,0.587515,-0.555301,0.556835,-0.592117,0.558369,-0.559903
1.2255,0.020074,0.000000,-0.110364,0.110364,0.0000,0.0000,0.0000,-0.002534,-0.121184,0.118117,0.9264,0.7190,-0.1063,0.001534,0.587515,-0.555301,0.556835,-0.592117,0.558369,-0.561437
1.2456,0.020086,0.000000,-0.109312,0.109312,0.0000,0.0000,0.0000,-0.002548,-0.121184,0.118117,0.9806,0.7388,-0.0471,0.001534,0.587515,-0.555301,0.556835,-0.592117,0.558369,-0.559903
1.2657,0.020074,0.000000,-0.108261,0.108261,0.0000,0.0000,0.0000,-0.002534,-0.121184,0.118117,0.9259,0.7188,-0.1069,0.001534,0.587515,-0.555301,0.556835,-0.592117,0.558369,-0.561437
1.2858,0.020103,0.000000,-0.107208,0.107208,0.0000,0.0000,0.0000,-0.002548,-0.121184,0.118117,0.9807,0.7388,-0.0471,0.001534,0.587515,-0.555301,0.556835,-0.592117,0.558369,-0.559903
1.3059,0.020084,0.000000,-0.106157,0.106157,0.0000,0.0000,0.0000,-0.002534,-0.119651,0.118117,0.9259,0.7188,-0.1069,0.001534,0.587515,-0.555301,0.556835,-0.592117,0.558369,-0.561437
1.3260,0.020081,0.000000,-0.105105,0.105105,0.0000,0.0000,0.0000,-0.002548,-0.116583,0.116583,0.9807,0.7388,-0.0471,0.001534,0.587515,-0.555301,0.556835,-0.592117,0.558369,-0.559903
1.3461,0.020087,0.000000,-0.104054,0.104054,0.0000,0.0000,0.0000,-0.002546,-0.110447,0.116583,0.9750,0.7368,-0.0533,0.001534,0.587515,-0.555301,0.556835,-0.592117,0.558369,-0.559903
1.3661,0.020074,0.000000,-0.103003,0.103003,0.0000,0.0000,0.0000,-0.002546,-0.105845,0.115049,0.9750,0.7368,-0.0533,0.001534,0.587515,-0.555301,0.556835,-0.592117,0.558369,-0.559903
1.3862,0.020084,0.000000,-0.101951,0.101951,0.0000,0.0000,0.0000,-0.002546,-0.108913,0.113515,0.9750,0.7368,-0.0533,0.001534,0.587515,-0.555301,0.556835,-0.592117,0.558369,-0.559903
1.4063,0.020075,0.000000,-0.100900,0.100900,0.0000,0.0000,0.0000,-0.002546,-0.108913,0.110447,0.9750,0.7368,-0.0533,0.001534,0.587515,-0.555301,0.556835,-0.592117,0.558369,-0.559903
1.4264,0.020076,0.000000,-0.099849,0.099849,0.0000,0.0000,0.0000,-0.002536,-0.105845,0.105845,0.9871,0.7875,-0.1061,0.001534,0.587515,-0.555301,0.556835,-0.593651,0.558369,-0.559903
1.4464,0.020081,0.000000,-0.098797,0.098797,0.0000,0.0000,0.0000,-0.002548,-0.105845,0.101243,0.9743,0.7317,-0.0471,0.001534,0.587515,-0.555301,0.556835,-0.592117,0.558369,-0.559903
1.4665,0.020074,0.000000,-0.097746,0.097746,0.0000,0.0000,0.0000,-0.002546,-0.104311,0.099709,0.9756,0.7375,-0.0533,0.001534,0.587515,-0.555301,0.556835,-0.592117,0.558369,-0.559903
1.4866,0.020083,0.000000,-0.096695,0.096695,0.0000,0.0000,0.0000,-0.002536,-0.102777,0.099709,0.9871,0.7874,-0.1061,0.001534,0.587515,-0.555301,0.556835,-0.593651,0.558369,-0.559903
1.5067,0.020075,0.000000,-0.095644,0.095644,0.0000,0.0000,0.0000,-0.002548,-0.102777,0.098175,0.9743,0.7317,-0.0471,0.001534,0.587515,-0.555301,0.556835,-0.592117,0.558369,-0.559903
1.5267,0.020075,0.000000,-0.094593,0.094593,0.0000,0.0000,0.0000,-0.002546,-0.101243,0.098175,0.9756,0.7375,-0.0533,0.001534,0.587515,-0.555301,0.556835,-0.592117,0.558369,-0.559903
1.5468,0.020075,0.000000,-0.093541,0.093541,0.0000,0.0000,0.0000,-0.002546,-0.099709,0.096641,0.9756,0.7375,-0.0533,0.001534,0.587515,-0.555301,0.556835,-0.592117,0.558369,-0.559903
1.5669,0.020078,0.000000,-0.092490,0.092490,0.0000,0.0000,0.0000,-0.002534,-0.099709,0.096641,0.9264,0.7189,-0.1063,0.001534,0.587515,-0.555301,0.556835,-0.592117,0.558369,-0.561437
1.5870,0.020082,0.000000,-0.091439,0.091439,0.0000,0.0000,0.0000,-0.002548,-0.099709,0.095107,0.9806,0.7388,-0.0471,0.001534,0.587515,-0.555301,0.556835,-0.592117,0.558369,-0.559903
1.6071,0.020075,0.000000,-0.090388,0.090388,0.0000,0.0000,0.0000,-0.002534,-0.093573,0.092039,0.9259,0.7188,-0.1069,0.001534,0.587515,-0.555301,0.556835,-0.592117,0.558369,-0.561437
1.6271,0.020075,0.000000,-0.089336,0.089336,0.0000,0.0000,0.0000,-0.002548,-0.093573,0.092039,0.9807,0.7388,-0.0471,0.001534,0.587515,-0.555301,0.556835,-0.592117,0.558369,-0.559903
1.6472,0.020080,0.000000,-0.088285,0.088285,0.0000,0.0000,0.0000,-0.002546,-0.093573,0.092039,0.9750,0.7368,-0.0533,0.001534,0.587515,-0.555301,0.556835,-0.592117,0.558369,-0.559903
1.6673,0.020078,0.000000,-0.087234,0.087234,0.0000,0.0000,0.0000,-0.002523,-0.093573,0.090505,0.9380,0.7695,-0.1598,0.001534,0.587515,-0.555301,0.556835,-0.593651,0.558369,-0.561437
1.6874,0.020084,0.000000,-0.086182,0.086182,0.0000,0.0000,0.0000,-0.002549,-0.093573,0.090505,0.9794,0.7336,-0.0416,0.001534,0.587515,-0.555301,0.556835,-0.592117,0.558369,-0.559903
1.7074,0.020073,0.000000,-0.085131,0.085131,0.0000,0.0000,0.0000,-0.002546,-0.092039,0.090505,0.9751,0.7373,-0.0539,0.001534,0.587515,-0.555301,0.556835,-0.592117,0.558369,-0.559903
1.7275,0.020081,0.000000,-0.084080,0.084080,0.0000,0.0000,0.0000,-0.002547,-0.090505,0.090505,0.9757,0.7368,-0.0522,0.001534,0.587515,-0.555301,0.556835,-0.592117,0.558369,-0.559903
1.7476,0.020084,0.000000,-0.083028,0.083028,0.0000,0.0000,0.0000,-0.002547,-0.085903,0.090505,0.9757,0.7368,-0.0522,0.001534,0.587515,-0.555301,0.556835,-0.592117,0.558369,-0.559903
1.7678,0.020141,0.000000,-0.081974,0.081974,0.0000,0.0000,0.0000,-0.002534,-0.081301,0.088971,0.9264,0.7190,-0.1064,0.001534,0.587515,-0.555301,0.556835,-0.592117,0.558369,-0.561437
1.7878,0.020074,0.000000,-0.080922,0.080922,0.0000,0.0000,0.0000,-0.002548,-0.084369,0.088971,0.9806,0.7388,-0.0471,0.001534,0.587515,-0.555301,0.556835,-0.592117,0.558369,-0.559903
1.8079,0.020077,0.000000,-0.079871,0.079871,0.0000,0.0000,0.0000,-0.002546,-0.084369,0.088971,0.9750,0.7368,-0.0533,0.001534,0.587515,-0.555301,0.556835,-0.592117,0.558369,-0.559903
1.8280,0.020086,0.000000,-0.078820,0.078820,0.0000,0.0000,0.0000,-0.002534,-0.079767,0.087437,0.9264,0.7190,-0.1063,0.001534,0.587515,-0.555301,0.556835,-0.592117,0.558369,-0.561437
1.8481,0.020091,0.000000,-0.077768,0.077768,0.0000,0.0000,0.0000,-0.002548,-0.078233,0.085903,0.9806,0.7388,-0.0471,0.001534,0.587515,-0.555301,0.556835,-0.592117,0.558369,-0.559903
1.8682,0.020084,0.000000,-0.076716,0.076716,0.0000,0.0000,0.0000,-0.002546,-0.082835,0.084369,0.9750,0.7368,-0.0533,0.001534,0.587515,-0.555301,0.556835,-0.592117,0.558369,-0.559903
1.8882,0.020082,0.000000,-0.075665,0.075665,0.0000,0.0000,0.0000,-0.002534,-0.081301,0.081301,0.9264,0.7190,-0.1063,0.001534,0.587515,-0.555301,0.556835,-0.592117,0.558369,-0.561437
1.9083,0.020080,0.000000,-0.074613,0.074613,0.0000,0.0000,0.0000,-0.002524,-0.075165,0.076699,0.9431,0.7713,-0.1543,0.001534,0.587515,-0.555301,0.556835,-0.593651,0.558369,-0.561437
1.9284,0.020084,0.000000,-0.073562,0.073562,0.0000,0.0000,0.0000,-0.002536,-0.078233,0.075165,0.9298,0.7154,-0.0958,0.001534,0.587515,-0.555301,0.556835,-0.592117,0.558369,-0.561437
1.9485,0.020086,0.000000,-0.072510,0.072510,0.0000,0.0000,0.0000,-0.002548,-0.079767,0.076699,0.9803,0.7392,-0.0482,0.001534,0.587515,-0.555301,0.556835,-0.592117,0.558369,-0.559903
1.9686,0.020084,0.000000,-0.071458,0.071458,0.0000,0.0000,0.0000,-0.002546,-0.076699,0.075165,0.9750,0.7367,-0.0532,0.001534,0.587515,-0.555301,0.556835,-0.592117,0.558369,-0.559903
1.9887,0.020074,0.000000,-0.070407,0.070407,0.0000,0.0000,0.0000,-0.002546,-0.070563,0.072097,0.9750,0.7367,-0.0532,0.001534,0.587515,-0.555301,0.556835,-0.592117,0.558369,-0.559903
2.0087,0.020081,0.000000,-0.069356,0.069356,0.0000,0.0000,0.0000,-0.002534,-0.073631,0.070563,0.9264,0.7190,-0.1063,0.001534,0.587515,-0.555301,0.556835,-0.592117,0.558369,-0.561437
2.0288,0.020085,0.000000,-0.068304,0.068304,0.0000,0.0000,0.0000,-0.002548,-0.073631,0.070563,0.9806,0.7388,-0.0471,0.001534,0.587515,-0.555301,0.556835,-0.592117,0.558369,-0.559903
2.0489,0.020086,0.000000,-0.067252,0.067252,0.0000,0.0000,0.0000,-0.002535,-0.069029,0.070563,0.9865,0.7873,-0.1068,0.001534,0.587515,-0.555301,0.556835,-0.593651,0.558369,-0.559903
2.0690,0.020084,0.000000,-0.066201,0.066201,0.0000,0.0000,0.0000,-0.002535,-0.069029,0.069029,0.9252,0.7137,-0.1007,0.001534,0.587515,-0.555301,0.556835,-0.592117,0.558369,-0.561437
2.0891,0.020078,0.000000,-0.065149,0.065149,0.0000,0.0000,0.0000,-0.002548,-0.072097,0.069029,0.9807,0.7394,-0.0477,0.001534,0.587515,-0.555301,0.556835,-0.592117,0.558369,-0.559903
2.1092,0.020098,0.000000,-0.064097,0.064097,0.0000,0.0000,0.0000,-0.002534,-0.070563,0.067495,0.9258,0.7187,-0.1069,0.001534,0.587515,-0.555301,0.556835,-0.592117,0.558369,-0.561437
2.1292,0.020079,0.000000,-0.063046,0.063046,0.0000,0.0000,0.0000,-0.002548,-0.065961,0.065961,0.9807,0.7388,-0.0471,0.001534,0.587515,-0.555301,0.556835,-0.592117,0.558369,-0.559903
2.1493,0.020075,0.000000,-0.061995,0.061995,0.0000,0.0000,0.0000,-0.002534,-0.065961,0.065961,0.9259,0.7188,-0.1948,0.000000,0.587515,-0.555301,0.556835,-0.592117,0.558369,-0.561437
2.1694,0.020084,0.000000,-0.060943,0.060943,0.0000,0.0000,0.0000,-0.002537,-0.067495,0.064427,0.9922,0.7893,-0.1005,0.001534,0.587515,-0.555301,0.556835,-0.593651,0.558369,-0.559903
2.1895,0.020075,0.000000,-0.059892,0.059892,0.0000,0.0000,0.0000,-0.002548,-0.067495,0.064427,0.9738,0.7315,-0.0477,0.001534,0.587515,-0.555301,0.556835,-0.592117,0.558369,-0.559903
2.2095,0.020041,0.000000,-0.058843,0.058843,0.0000,0.0000,0.0000,-0.002546,-0.064427,0.064427,0.9757,0.7375,-0.0532,0.001534,0.587515,-0.555301,0.556835,-0.592117,0.558369,-0.559903
2.2296,0.020079,0.000000,-0.057791,0.057791,0.0000,0.0000,0.0000,-0.002536,-0.059825,0.064427,0.9870,0.7874,-0.1940,0.000000,0.587515,-0.555301,0.556835,-0.593651,0.558369,-0.559903
2.2497,0.020085,0.000000,-0.056740,0.056740,0.0000,0.0000,0.0000,-0.002535,-0.056757,0.064427,0.9252,0.7137,-0.1008,0.001534,0.587515,-0.555301,0.556835,-0.592117,0.558369,-0.561437
2.2698,0.020078,0.000000,-0.055688,0.055688,0.0000,0.0000,0.0000,-0.002537,-0.058291,0.064427,0.9923,0.7899,-0.1012,0.001534,0.587515,-0.555301,0.556835,-0.593651,0.558369,-0.559903
2.2898,0.020075,0.000000,-0.054637,0.054637,0.0000,0.0000,0.0000,-0.002535,-0.059825,0.064427,0.9246,0.7135,-0.1013,0.001534,0.587515,-0.555301,0.556835,-0.592117,0.558369,-0.561437
2.3099,0.020082,0.000000,-0.053586,0.053586,0.0000,0.0000,0.0000,-0.002548,-0.055223,0.062893,0.9808,0.7394,-0.0476,0.001534,0.587515,-0.555301,0.556835,-0.592117,0.558369,-0.559903
2.3300,0.020076,0.000000,-0.052535,0.052535,0.0000,0.0000,0.0000,-0.002534,-0.052155,0.062893,0.9258,0.7187,-0.1069,0.001534,0.587515,-0.555301,0.556835,-0.592117,0.558369,-0.561437
2.3501,0.020085,0.000000,-0.051483,0.051483,0.0000,0.0000,0.0000,-0.002548,-0.056757,0.061359,0.9807,0.7388,-0.0471,0.001534,0.587515,-0.555301,0.556835,-0.592117,0.558369,-0.559903
2.3702,0.020080,0.000000,-0.050431,0.050431,0.0000,0.0000,0.0000,-0.002534,-0.055223,0.059825,0.9259,0.7188,-0.1069,0.001534,0.587515,-0.555301,0.556835,-0.592117,0.558369,-0.561437
2.3902,0.020075,0.000000,-0.049380,0.049380,0.0000,0.0000,0.0000,-0.002535,-0.049087,0.058291,0.9316,0.7209,-0.1007,0.001534,0.587515,-0.555301,0.556835,-0.592117,0.558369,-0.561437
2.4103,0.020087,0.000000,-0.048329,0.048329,0.0000,0.0000,0.0000,-0.002548,-0.050621,0.053689,0.9801,0.7386,-0.0477,0.001534,0.587515,-0.555301,0.556835,-0.592117,0.558369,-0.559903
2.4304,0.020078,0.000000,-0.047277,0.047277,0.0000,0.0000,0.0000,-0.002546,-0.055223,0.049087,0.9750,0.7368,-0.0532,0.001534,0.587515,-0.555301,0.556835,-0.592117,0.558369,-0.559903
2.4505,0.020081,0.000000,-0.046226,0.046226,0.0000,0.0000,0.0000,-0.002546,-0.052155,0.049087,0.9750,0.7368,-0.0532,0.001534,0.587515,-0.555301,0.556835,-0.592117,0.558369,-0.559903
2.4706,0.020077,0.000000,-0.045175,0.045175,0.0000,0.0000,0.0000,-0.002546,-0.047553,0.049087,0.9750,0.7368,-0.0532,0.001534,0.587515,-0.555301,0.556835,-0.592117,0.558369,-0.559903
2.4906,0.020075,0.000000,-0.044123,0.044123,0.0000,0.0000,0.0000,-0.002536,-0.046019,0.047553,0.9871,0.7875,-0.1061,0.001534,0.587515,-0.555301,0.556835,-0.593651,0.558369,-0.559903
2.5107,0.020099,0.000000,-0.043071,0.043071,0.0000,0.0000,0.0000,-0.002548,-0.047553,0.046019,0.9743,0.7317,-0.0471,0.001534,0.587515,-0.555301,0.556835,-0.592117,0.558369,-0.559903
2.5308,0.020077,0.000000,-0.042020,0.042020,0.0000,0.0000,0.0000,-0.002546,-0.046019,0.044485,0.9756,0.7375,-0.0533,0.001534,0.587515,-0.555301,0.556835,-0.592117,0.558369,-0.559903
2.5509,0.020080,0.000000,-0.040968,0.040968,0.0000,0.0000,0.0000,-0.002546,-0.044485,0.042951,0.9756,0.7375,-0.0533,0.001534,0.587515,-0.555301,0.556835,-0.592117,0.558369,-0.559903
2.5710,0.020077,0.000000,-0.039917,0.039917,0.0000,0.0000,0.0000,-0.002534,-0.042951,0.042951,0.9264,0.7189,-0.1063,0.001534,0.587515,-0.555301,0.556835,-0.592117,0.558369,-0.561437
2.5910,0.020078,0.000000,-0.038866,0.038866,0.0000,0.0000,0.0000,-0.002548,-0.044485,0.042951,0.9806,0.7388,-0.0471,0.001534,0.587515,-0.555301,0.556835,-0.592117,0.558369,-0.559903
2.6111,0.020089,0.000000,-0.037814,0.037814,0.0000,0.0000,0.0000,-0.002546,-0.042951,0.041417,0.9750,0.7368,-0.0533,0.001534,0.587515,-0.555301,0.556835,-0.592117,0.558369,-0.559903
2.6312,0.020078,0.000000,-0.036763,0.036763,0.0000,0.0000,0.0000,-0.002546,-0.039884,0.039884,0.9750,0.7368,-0.0533,0.001534,0.587515,-0.555301,0.556835,-0.592117,0.558369,-0.559903
2.6513,0.020088,0.000000,-0.035711,0.035711,0.0000,0.0000,0.0000,-0.002546,-0.039884,0.039884,0.9750,0.7368,-0.0533,0.001534,0.587515,-0.555301,0.556835,-0.592117,0.558369,-0.559903
2.6714,0.020077,0.000000,-0.034660,0.034660,0.0000,0.0000,0.0000,-0.002534,-0.041417,0.038350,0.9264,0.7190,-0.1063,0.001534,0.587515,-0.555301,0.556835,-0.592117,0.558369,-0.561437
2.6915,0.020077,0.000000,-0.033608,0.033608,0.0000,0.0000,0.0000,-0.002548,-0.041417,0.036816,0.9806,0.7388,-0.0471,0.001534,0.587515,-0.555301,0.556835,-0.592117,0.558369,-0.559903
2.7115,0.020084,0.000000,-0.032557,0.032557,0.0000,0.0000,0.0000,-0.002534,-0.038350,0.036816,0.9259,0.7188,-0.1069,0.001534,0.587515,-0.555301,0.556835,-0.592117,0.558369,-0.561437
2.7316,0.020078,0.000000,-0.031506,0.031506,0.0000,0.0000,0.0000,-0.002548,-0.033748,0.036816,0.9807,0.7388,-0.0471,0.001534,0.587515,-0.555301,0.556835,-0.592117,0.558369,-0.559903
2.7518,0.020161,0.000000,-0.030450,0.030450,0.0000,0.0000,0.0000,-0.002546,-0.029146,0.035282,0.9750,0.7368,-0.0533,0.001534,0.587515,-0.555301,0.556835,-0.592117,0.558369,-0.559903
2.7719,0.020076,0.000000,-0.029399,0.029399,0.0000,0.0000,0.0000,-0.002546,-0.032214,0.035282,0.9750,0.7368,-0.0533,0.001534,0.587515,-0.555301,0.556835,-0.592117,0.558369,-0.559903
2.7919,0.020077,0.000000,-0.028348,0.028348,0.0000,0.0000,0.0000,-0.002534,-0.035282,0.036816,0.9264,0.7190,-0.1063,0.001534,0.587515,-0.555301,0.556835,-0.592117,0.558369,-0.561437
2.8122,0.020250,0.000000,-0.027287,0.027287,0.0000,0.0000,0.0000,-0.002548,-0.029146,0.035282,0.9806,0.7388,-0.0471,0.001534,0.587515,-0.555301,0.556835,-0.592117,0.558369,-0.559903
2.8323,0.020077,0.000000,-0.026236,0.026236,0.0000,0.0000,0.0000,-0.002546,-0.024544,0.035282,0.9750,0.7368,-0.0533,0.001534,0.587515,-0.555301,0.556835,-0.592117,0.558369,-0.559903
2.8523,0.020079,0.000000,-0.025185,0.025185,0.0000,0.0000,0.0000,-0.002534,-0.027612,0.033748,0.9264,0.7190,-0.1063,0.001534,0.587515,-0.555301,0.556835,-0.592117,0.558369,-0.561437
2.8724,0.020079,0.000000,-0.024133,0.024133,0.0000,0.0000,0.0000,-0.002548,-0.030680,0.033748,0.9806,0.7388,-0.0471,0.001534,0.587515,-0.555301,0.556835,-0.592117,0.558369,-0.559903
2.8925,0.020081,0.000000,-0.023082,0.023082,0.0000,0.0000,0.0000,-0.002546,-0.027612,0.032214,0.9750,0.7368,-0.0533,0.001534,0.587515,-0.555301,0.556835,-0.592117,0.558369,-0.559903
2.9126,0.020078,0.000000,-0.022031,0.022031,0.0000,0.0000,0.0000,-0.002546,-0.023010,0.030680,0.9750,0.7368,-0.0533,0.001534,0.587515,-0.555301,0.556835,-0.592117,0.558369,-0.559903
2.9327,0.020078,0.000000,-0.020979,0.020979,0.0000,0.0000,0.0000,-0.002546,-0.027612,0.027612,0.9750,0.7368,-0.0533,0.001534,0.587515,-0.555301,0.556835,-0.592117,0.558369,-0.559903
2.9527,0.020089,0.000000,-0.019927,0.019927,0.0000,0.0000,0.0000,-0.002546,-0.027612,0.023010,0.9750,0.7368,-0.0533,0.001534,0.587515,-0.555301,0.556835,-0.592117,0.558369,-0.559903
2.9728,0.020082,0.000000,-0.018876,0.018876,0.0000,0.0000,0.0000,-0.002546,-0.023010,0.021476,0.9750,0.7368,-0.0533,0.001534,0.587515,-0.555301,0.556835,-0.592117,0.558369,-0.559903
2.9929,0.020076,0.000000,-0.017825,0.017825,0.0000,0.0000,0.0000,-0.002546,-0.019942,0.019942,0.9750,0.7368,-0.0533,0.001534,0.587515,-0.555301,0.556835,-0.592117,0.558369,-0.559903
3.0131,0.020196,0.000000,-0.016767,0.016767,0.0000,0.0000,0.0000,-0.002523,-0.019942,0.018408,0.9380,0.7695,-0.1598,0.001534,0.587515,-0.555301,0.556835,-0.593651,0.558369,-0.561437
3.0332,0.020085,0.000000,-0.015716,0.015716,0.0000,0.0000,0.0000,-0.002549,-0.021476,0.016874,0.9794,0.7336,-0.0416,0.001534,0.587515,-0.555301,0.556835,-0.592117,0.558369,-0.559903
3.0533,0.020091,0.000000,-0.014664,0.014664,0.0000,0.0000,0.0000,-0.002546,-0.018408,0.016874,0.9751,0.7373,-0.0539,0.001534,0.587515,-0.555301,0.556835,-0.592117,0.558369,-0.559903
3.0734,0.020078,0.000000,-0.013612,0.013612,0.0000,0.0000,0.0000,-0.002547,-0.016874,0.015340,0.9757,0.7368,-0.0522,0.001534,0.587515,-0.555301,0.556835,-0.592117,0.558369,-0.559903
3.0934,0.020082,0.000000,-0.012561,0.012561,0.0000,0.0000,0.0000,-0.002534,-0.016874,0.013806,0.9264,0.7190,-0.1064,0.001534,0.587515,-0.555301,0.556835,-0.592117,0.558369,-0.561437
3.1135,0.020085,0.000000,-0.011509,0.011509,0.0000,0.0000,0.0000,-0.002548,-0.015340,0.015340,0.9806,0.7388,-0.0471,0.001534,0.587515,-0.555301,0.556835,-0.592117,0.558369,-0.559903
3.1336,0.020078,0.000000,-0.010458,0.010458,0.0000,0.0000,0.0000,-0.002546,-0.013806,0.013806,0.9750,0.7368,-0.0533,0.001534,0.587515,-0.555301,0.556835,-0.592117,0.558369,-0.559903
3.1537,0.020136,0.000000,-0.009404,0.009404,0.0000,0.0000,0.0000,-0.002536,-0.013806,0.012272,0.9871,0.7875,-0.1061,0.001534,0.587515,-0.555301,0.556835,-0.593651,0.558369,-0.559903
3.1738,0.020081,0.000000,-0.008352,0.008352,0.0000,0.0000,0.0000,-0.002548,-0.013806,0.010738,0.9743,0.7317,-0.0471,0.001534,0.587515,-0.555301,0.556835,-0.592117,0.558369,-0.559903
3.1939,0.020074,0.000000,-0.007301,0.007301,0.0000,0.0000,0.0000,-0.002534,-0.013806,0.009204,0.9265,0.7195,-0.1069,0.001534,0.587515,-0.555301,0.556835,-0.592117,0.558369,-0.561437
3.2140,0.020146,0.000000,-0.006246,0.006246,0.0000,0.0000,0.0000,-0.002537,-0.013806,0.009204,0.9922,0.7893,-0.1005,0.001534,0.587515,-0.555301,0.556835,-0.593651,0.558369,-0.559903
3.2342,0.020137,0.000000,-0.005192,0.005192,0.0000,0.0000,0.0000,-0.002548,-0.010738,0.009204,0.9738,0.7315,-0.0477,0.001534,0.587515,-0.555301,0.556835,-0.592117,0.558369,-0.559903
3.2545,0.020352,0.000000,-0.004126,0.004126,0.0000,0.0000,0.0000,-0.002546,-0.006136,0.009204,0.9757,0.7375,-0.0532,0.001534,0.587515,-0.555301,0.556835,-0.592117,0.558369,-0.559903
3.2746,0.020080,0.000000,-0.003075,0.003075,0.0000,0.0000,0.0000,-0.002546,-0.003068,0.007670,0.9757,0.7375,-0.0532,0.001534,0.587515,-0.555301,0.556835,-0.592117,0.558369,-0.559903
3.2947,0.020076,0.000000,-0.002024,0.002024,0.0000,0.0000,0.0000,-0.002534,-0.004602,0.007670,0.9264,0.7189,-0.1063,0.001534,0.587515,-0.555301,0.556835,-0.592117,0.558369,-0.561437
3.3151,0.020403,0.000000,-0.000956,0.000956,0.0000,0.0000,0.0000,-0.002548,-0.006136,0.007670,0.9806,0.7388,-0.0471,0.001534,0.587515,-0.555301,0.556835,-0.592117,0.558369,-0.559903
3.3352,0.020080,0.000000,0.000096,-0.000096,0.0000,0.0000,0.0000,-0.002534,-0.001534,0.006136,0.9259,0.7188,-0.1069,0.001534,0.587515,-0.555301,0.556835,-0.592117,0.558369,-0.561437
3.3554,0.020199,0.000000,0.001153,-0.001153,0.0000,0.0000,0.0000,-0.002548,0.001534,0.006136,0.9807,0.7388,-0.0471,0.001534,0.587515,-0.555301,0.556835,-0.592117,0.558369,-0.559903
3.3755,0.020093,0.000000,0.002206,-0.002206,0.0000,0.0000,0.0000,-0.002546,-0.004602,0.004602,0.9750,0.7368,-0.0533,0.001534,0.587515,-0.555301,0.556835,-0.592117,0.558369,-0.559903
3.3955,0.020082,0.000000,0.003257,-0.003257,0.0000,0.0000,0.0000,-0.002546,-0.003068,0.001534,0.9750,0.7368,-0.0533,0.001534,0.587515,-0.555301,0.556835,-0.592117,0.558369,-0.559903
3.4156,0.020109,0.000000,0.004310,-0.004310,0.0000,0.0000,0.0000,-0.002534,0.003068,-0.001534,0.9264,0.7190,-0.1063,0.001534,0.587515,-0.555301,0.556835,-0.592117,0.558369,-0.561437
3.4357,0.020077,0.000000,0.005361,-0.005361,0.0000,0.0000,0.0000,-0.002537,0.004602,-0.001534,0.9922,0.7893,-0.1006,0.001534,0.587515,-0.555301,0.556835,-0.593651,0.558369,-0.559903
3.4562,0.020468,0.000000,0.006433,-0.006433,0.0000,0.0000,0.0000,-0.002548,-0.003068,-0.003068,0.9738,0.7315,-0.0477,0.001534,0.587515,-0.555301,0.556835,-0.592117,0.558369,-0.559903
3.4763,0.020142,0.000000,0.007487,-0.007487,0.0000,0.0000,0.0000,-0.002546,0.000000,-0.003068,0.9757,0.7375,-0.0532,0.001534,0.587515,-0.555301,0.556835,-0.592117,0.558369,-0.559903
3.4964,0.020073,0.000000,0.008538,-0.008538,0.0000,0.0000,0.0000,-0.002546,0.007670,-0.003068,0.9757,0.7375,-0.0532,0.001534,0.587515,-0.555301,0.556835,-0.592117,0.558369,-0.559903
3.5166,0.020177,0.000000,0.009595,-0.009595,0.0000,0.0000,0.0000,-0.002536,0.006136,-0.003068,0.9870,0.7874,-0.1061,0.001534,0.587515,-0.555301,0.556835,-0.593651,0.558369,-0.559903
3.5367,0.020080,0.000000,0.010646,-0.010646,0.0000,0.0000,0.0000,-0.002537,0.000000,-0.004602,0.9859,0.7822,-0.1006,0.001534,0.587515,-0.555301,0.556835,-0.593651,0.558369,-0.559903
3.5567,0.020042,0.000000,0.011696,-0.011696,0.0000,0.0000,0.0000,-0.002537,0.001534,-0.007670,0.9859,0.7822,-0.1006,0.001534,0.587515,-0.555301,0.556835,-0.593651,0.558369,-0.559903
3.5768,0.020095,0.000000,0.012748,-0.012748,0.0000,0.0000,0.0000,-0.002535,0.010738,-0.009204,0.9253,0.7143,-0.1013,0.001534,0.587515,-0.555301,0.556835,-0.592117,0.558369,-0.561437
3.5969,0.020075,0.000000,0.013799,-0.013799,0.0000,0.0000,0.0000,-0.002548,0.010738,-0.009204,0.9807,0.7393,-0.0476,0.001534,0.587515,-0.555301,0.556835,-0.592117,0.558369,-0.559903
3.6170,0.020099,0.000000,0.014851,-0.014851,0.0000,0.0000,0.0000,-0.002535,0.004602,-0.010738,0.9865,0.7872,-0.1946,0.000000,0.587515,-0.555301,0.556835,-0.593651,0.558369,-0.559903
3.6371,0.020089,0.000000,0.015903,-0.015903,0.0000,0.0000,0.0000,-0.002548,0.007670,-0.012272,0.9744,0.7317,-0.0471,0.001534,0.587515,-0.555301,0.556835,-0.592117,0.558369,-0.559903
3.6573,0.020195,0.000000,0.016961,-0.016961,0.0000,0.0000,0.0000,-0.002523,0.016874,-0.012272,0.9381,0.7700,-0.1604,0.001534,0.587515,-0.555301,0.556835,-0.593651,0.558369,-0.561437
3.6774,0.020187,0.000000,0.018018,-0.018018,0.0000,0.0000,0.0000,-0.002523,0.016874,-0.012272,0.9381,0.7700,-0.1604,0.001534,0.587515,-0.555301,0.556835,-0.592117,0.558369,-0.559903
3.6975,0.020080,0.000000,0.019069,-0.019069,0.0000,0.0000,0.0000,-0.002546,0.010738,-0.013806,0.9751,0.7373,-0.0539,0.001534,0.587515,-0.555301,0.556835,-0.592117,0.558369,-0.559903
3.7182,0.020626,0.000000,0.020149,-0.020149,0.0000,0.0000,0.0000,-0.002523,0.009204,-0.016874,0.9380,0.7694,-0.1597,0.001534,0.587515,-0.555301,0.556835,-0.593651,0.558369,-0.561437
3.7382,0.020083,0.000000,0.021201,-0.021201,0.0000,0.0000,0.0000,-0.002549,0.016874,-0.016874,0.9794,0.7336,-0.0416,0.001534,0.587515,-0.555301,0.556835,-0.592117,0.558369,-0.559903
3.7583,0.020078,0.000000,0.022252,-0.022252,0.0000,0.0000,0.0000,-0.002546,0.018408,-0.016874,0.9751,0.7373,-0.0539,0.001534,0.587515,-0.555301,0.556835,-0.592117,0.558369,-0.559903
3.7786,0.020245,0.000000,0.023312,-0.023312,0.0000,0.0000,0.0000,-0.002546,0.016874,-0.016874,0.9751,0.7373,-0.0539,0.001534,0.587515,-0.555301,0.556835,-0.592117,0.558369,-0.559903
3.7986,0.020083,0.000000,0.024363,-0.024363,0.0000,0.0000,0.0000,-0.002547,0.013806,-0.016874,0.9757,0.7368,-0.0522,0.001534,0.587515,-0.555301,0.556835,-0.592117,0.558369,-0.559903
3.8187,0.020107,0.000000,0.025416,-0.025416,0.0000,0.0000,0.0000,-0.002534,0.018408,-0.016874,0.9264,0.7190,-0.1064,0.001534,0.587515,-0.555301,0.556835,-0.592117,0.558369,-0.561437
3.8388,0.020084,0.000000,0.026468,-0.026468,0.0000,0.0000,0.0000,-0.002535,0.024544,-0.018408,0.9315,0.7209,-0.1007,0.001534,0.587515,-0.555301,0.556835,-0.592117,0.558369,-0.561437
3.8589,0.020081,0.000000,0.027519,-0.027519,0.0000,0.0000,0.0000,-0.002548,0.026078,-0.019942,0.9801,0.7386,-0.0477,0.001534,0.587515,-0.555301,0.556835,-0.592117,0.558369,-0.559903
3.8795,0.020611,0.000000,0.028598,-0.028598,0.0000,0.0000,0.0000,-0.002546,0.024544,-0.021476,0.9750,0.7368,-0.0532,0.001534,0.587515,-0.555301,0.556835,-0.592117,0.558369,-0.559903
3.8996,0.020081,0.000000,0.029650,-0.029650,0.0000,0.0000,0.0000,-0.002546,0.019942,-0.024544,0.9750,0.7368,-0.0532,0.001534,0.587515,-0.555301,0.556835,-0.592117,0.558369,-0.559903
3.9197,0.020098,0.000000,0.030702,-0.030702,0.0000,0.0000,0.0000,-0.002534,0.027612,-0.026078,0.9264,0.7190,-0.1063,0.001534,0.587515,-0.555301,0.556835,-0.592117,0.558369,-0.561437
3.9398,0.020088,0.000000,0.031754,-0.031754,0.0000,0.0000,0.0000,-0.002548,0.030680,-0.027612,0.9806,0.7388,-0.0471,0.001534,0.587515,-0.555301,0.556835,-0.592117,0.558369,-0.559903
3.9599,0.020081,0.000000,0.032805,-0.032805,0.0000,0.0000,0.0000,-0.002534,0.027612,-0.029146,0.9259,0.7188,-0.1069,0.001534,0.587515,-0.555301,0.556835,-0.592117,0.558369,-0.561437
3.9800,0.020097,0.000000,0.033858,-0.033858,0.0000,0.0000,0.0000,-0.002535,0.030680,-0.030680,0.9316,0.7209,-0.1007,0.001534,0.587515,-0.555301,0.556835,-0.592117,0.558369,-0.561437
4.0000,0.020082,0.000000,0.034909,-0.034909,0.0000,0.0000,0.0000,-0.002548,0.033748,-0.030680,0.9801,0.7386,-0.0477,0.001534,0.587515,-0.555301,0.556835,-0.592117,0.558369,-0.559903
4.0206,0.020528,0.000000,0.035984,-0.035984,0.0000,0.0000,0.0000,-0.002534,0.029146,-0.032214,0.9259,0.7188,-0.1069,0.001534,0.587515,-0.555301,0.556835,-0.592117,0.558369,-0.561437
4.0407,0.020081,0.000000,0.037035,-0.037035,0.0000,0.0000,0.0000,-0.002548,0.027612,-0.033748,0.9807,0.7388,-0.0471,0.001534,0.587515,-0.555301,0.556835,-0.592117,0.558369,-0.559903
4.0607,0.020076,0.000000,0.038087,-0.038087,0.0000,0.0000,0.0000,-0.002546,0.035282,-0.035282,0.9750,0.7368,-0.0533,0.001534,0.587515,-0.555301,0.556835,-0.592117,0.558369,-0.559903
4.0808,0.020082,0.000000,0.039138,-0.039138,0.0000,0.0000,0.0000,-0.002546,0.038350,-0.036816,0.9750,0.7368,-0.0533,0.001534,0.587515,-0.555301,0.556835,-0.592117,0.558369,-0.559903
4.1009,0.020080,0.000000,0.040189,-0.040189,0.0000,0.0000,0.0000,-0.002546,0.035282,-0.036816,0.9750,0.7368,-0.0533,0.001534,0.587515,-0.555301,0.556835,-0.592117,0.558369,-0.559903
4.1210,0.020082,0.000000,0.041241,-0.041241,0.0000,0.0000,0.0000,-0.002536,0.030680,-0.036816,0.9871,0.7875,-0.1061,0.001534,0.587515,-0.555301,0.556835,-0.593651,0.558369,-0.559903
4.1413,0.020310,0.000000,0.042304,-0.042304,0.0000,0.0000,0.0000,-0.002548,0.036816,-0.039884,0.9743,0.7317,-0.0471,0.001534,0.587515,-0.555301,0.556835,-0.592117,0.558369,-0.559903
4.1614,0.020085,0.000000,0.043356,-0.043356,0.0000,0.0000,0.0000,-0.002546,0.044485,-0.039884,0.9756,0.7375,-0.0533,0.001534,0.587515,-0.555301,0.556835,-0.592117,0.558369,-0.559903
4.1817,0.020378,0.000000,0.044423,-0.044423,0.0000,0.0000,0.0000,-0.002536,0.041417,-0.039884,0.9871,0.7874,-0.1061,0.001534,0.587515,-0.555301,0.556835,-0.593651,0.558369,-0.559903
4.2018,0.020079,0.000000,0.045474,-0.045474,0.0000,0.0000,0.0000,-0.002548,0.035282,-0.041417,0.9743,0.7317,-0.0471,0.001534,0.587515,-0.555301,0.556835,-0.592117,0.558369,-0.559903
4.2219,0.020078,0.000000,0.046526,-0.046526,0.0000,0.0000,0.0000,-0.002546,0.039884,-0.042951,0.9756,0.7375,-0.0533,0.001534,0.587515,-0.555301,0.556835,-0.592117,0.558369,-0.559903
4.2420,0.020085,0.000000,0.047577,-0.047577,0.0000,0.0000,0.0000,-0.002546,0.046019,-0.042951,0.9756,0.7375,-0.0533,0.001534,0.587515,-0.555301,0.556835,-0.592117,0.558369,-0.559903
4.2621,0.020081,0.000000,0.048629,-0.048629,0.0000,0.0000,0.0000,-0.002534,0.046019,-0.044485,0.9264,0.7189,-0.1063,0.001534,0.587515,-0.555301,0.556835,-0.592117,0.558369,-0.561437
4.2822,0.020090,0.000000,0.049681,-0.049681,0.0000,0.0000,0.0000,-0.002535,0.039884,-0.046019,0.9315,0.7209,-0.1008,0.001534,0.587515,-0.555301,0.556835,-0.592117,0.558369,-0.561437
4.3022,0.020079,0.000000,0.050732,-0.050732,0.0000,0.0000,0.0000,-0.002535,0.042951,-0.046019,0.9315,0.7209,-0.1008,0.001534,0.587515,-0.555301,0.556835,-0.592117,0.558369,-0.561437
4.3224,0.020130,0.000000,0.051786,-0.051786,0.0000,0.0000,0.0000,-0.002548,0.050621,-0.046019,0.9801,0.7386,-0.0477,0.001534,0.587515,-0.555301,0.556835,-0.592117,0.558369,-0.559903
4.3425,0.020158,0.000000,0.052841,-0.052841,0.0000,0.0000,0.0000,-0.002534,0.050621,-0.047553,0.9259,0.7188,-0.1069,0.001534,0.587515,-0.555301,0.556835,-0.592117,0.558369,-0.561437
4.3626,0.020080,0.000000,0.053893,-0.053893,0.0000,0.0000,0.0000,-0.002548,0.050621,-0.047553,0.9807,0.7388,-0.0471,0.001534,0.587515,-0.555301,0.556835,-0.592117,0.558369,-0.559903
4.3827,0.020077,0.000000,0.054944,-0.054944,0.0000,0.0000,0.0000,-0.002534,0.049087,-0.049087,0.9259,0.7188,-0.1069,0.001534,0.587515,-0.555301,0.556835,-0.592117,0.558369,-0.561437
4.4028,0.020090,0.000000,0.055996,-0.055996,0.0000,0.0000,0.0000,-0.002537,0.052155,-0.052155,0.9922,0.7893,-0.1884,0.000000,0.587515,-0.555301,0.556835,-0.593651,0.558369,-0.559903
4.4229,0.020114,0.000000,0.057049,-0.057049,0.0000,0.0000,0.0000,-0.002548,0.058291,-0.053689,0.9738,0.7315,-0.0477,0.001534,0.587515,-0.555301,0.556835,-0.592117,0.558369,-0.559903
4.4430,0.020095,0.000000,0.058101,-0.058101,0.0000,0.0000,0.0000,-0.002534,0.055223,-0.055223,0.9266,0.7195,-0.1069,0.001534,0.587515,-0.555301,0.556835,-0.592117,0.558369,-0.561437
4.4631,0.020080,0.000000,0.059153,-0.059153,0.0000,0.0000,0.0000,-0.002535,0.050621,-0.055223,0.9315,0.7208,-0.1007,0.001534,0.587515,-0.555301,0.556835,-0.592117,0.558369,-0.561437
4.4833,0.020192,0.000000,0.060210,-0.060210,0.0000,0.0000,0.0000,-0.002535,0.056757,-0.056757,0.9315,0.7208,-0.1007,0.001534,0.587515,-0.555301,0.556835,-0.592117,0.558369,-0.561437
4.5033,0.020083,0.000000,0.061261,-0.061261,0.0000,0.0000,0.0000,-0.002535,0.061359,-0.058291,0.9315,0.7208,-0.1007,0.001534,0.587515,-0.555301,0.556835,-0.592117,0.558369,-0.561437
4.5234,0.020077,0.000000,0.062313,-0.062313,0.0000,0.0000,0.0000,-0.002535,0.058291,-0.058291,0.9315,0.7208,-0.1007,0.001534,0.587515,-0.555301,0.556835,-0.592117,0.558369,-0.561437
4.5435,0.020098,0.000000,0.063365,-0.063365,0.0000,0.0000,0.0000,-0.002548,0.053689,-0.059825,0.9801,0.7386,-0.0477,0.001534,0.587515,-0.555301,0.556835,-0.592117,0.558369,-0.559903
4.5636,0.020087,0.000000,0.064417,-0.064417,0.0000,0.0000,0.0000,-0.002523,0.059825,-0.059825,0.9375,0.7693,-0.1604,0.001534,0.587515,-0.555301,0.556835,-0.593651,0.558369,-0.561437
4.5837,0.020070,0.000000,0.065468,-0.065468,0.0000,0.0000,0.0000,-0.002549,0.064427,-0.059825,0.9794,0.7336,-0.0415,0.001534,0.587515,-0.555301,0.556835,-0.592117,0.558369,-0.559903
4.6038,0.020173,0.000000,0.066524,-0.066524,0.0000,0.0000,0.0000,-0.002546,0.061359,-0.061359,0.9751,0.7373,-0.0539,0.001534,0.587515,-0.555301,0.556835,-0.592117,0.558369,-0.559903
4.6239,0.020078,0.000000,0.067575,-0.067575,0.0000,0.0000,0.0000,-0.002547,0.056757,-0.062893,0.9757,0.7368,-0.0522,0.001534,0.587515,-0.555301,0.556835,-0.592117,0.558369,-0.559903
4.6440,0.020087,0.000000,0.068627,-0.068627,0.0000,0.0000,0.0000,-0.002534,0.061359,-0.065961,0.9264,0.7190,-0.1064,0.001534,0.587515,-0.555301,0.556835,-0.592117,0.558369,-0.561437
4.6641,0.020084,0.000000,0.069679,-0.069679,0.0000,0.0000,0.0000,-0.002548,0.070563,-0.065961,0.9806,0.7388,-0.0471,0.001534,0.587515,-0.555301,0.556835,-0.592117,0.558369,-0.559903
4.6842,0.020106,0.000000,0.070731,-0.070731,0.0000,0.0000,0.0000,-0.002546,0.069029,-0.067495,0.9750,0.7368,-0.0533,0.001534,0.587515,-0.555301,0.556835,-0.592117,0.558369,-0.559903
4.7044,0.020196,0.000000,0.071789,-0.071789,0.0000,0.0000,0.0000,-0.002546,0.062893,-0.067495,0.9750,0.7368,-0.0533,0.001534,0.587515,-0.555301,0.556835,-0.592117,0.558369,-0.559903
4.7245,0.020076,0.000000,0.072840,-0.072840,0.0000,0.0000,0.0000,-0.002546,0.064427,-0.067495,0.9750,0.7368,-0.0533,0.001534,0.587515,-0.555301,0.556835,-0.592117,0.558369,-0.559903
4.7446,0.020093,0.000000,0.073892,-0.073892,0.0000,0.0000,0.0000,-0.002546,0.073631,-0.070563,0.9750,0.7368,-0.0533,0.001534,0.587515,-0.555301,0.556835,-0.592117,0.558369,-0.559903
4.7647,0.020086,0.000000,0.074944,-0.074944,0.0000,0.0000,0.0000,-0.002546,0.073631,-0.070563,0.9750,0.7368,-0.0533,0.001534,0.587515,-0.555301,0.556835,-0.592117,0.558369,-0.559903
4.7848,0.020111,0.000000,0.075997,-0.075997,0.0000,0.0000,0.0000,-0.002536,0.067495,-0.072097,0.9871,0.7875,-0.1061,0.001534,0.587515,-0.555301,0.556835,-0.593651,0.558369,-0.559903
4.8048,0.020081,0.000000,0.077048,-0.077048,0.0000,0.0000,0.0000,-0.002548,0.069029,-0.072097,0.9743,0.7317,-0.0471,0.001534,0.587515,-0.555301,0.556835,-0.592117,0.558369,-0.559903
4.8252,0.020331,0.000000,0.078113,-0.078113,0.0000,0.0000,0.0000,-0.002546,0.076699,-0.073631,0.9756,0.7375,-0.0533,0.001534,0.587515,-0.555301,0.556835,-0.592117,0.558369,-0.559903
4.8454,0.020259,0.000000,0.079173,-0.079173,0.0000,0.0000,0.0000,-0.002523,0.076699,-0.073631,0.9379,0.7694,-0.1598,0.001534,0.587515,-0.555301,0.556835,-0.593651,0.558369,-0.561437
4.8655,0.020084,0.000000,0.080225,-0.080225,0.0000,0.0000,0.0000,-0.002536,0.073631,-0.073631,0.9303,0.7156,-0.0952,0.001534,0.587515,-0.555301,0.556835,-0.592117,0.558369,-0.561437
4.8857,0.020142,0.000000,0.081280,-0.081280,0.0000,0.0000,0.0000,-0.002536,0.073631,-0.073631,0.9303,0.7156,-0.0952,0.001534,0.587515,-0.555301,0.556835,-0.592117,0.558369,-0.561437
4.9062,0.020548,0.000000,0.082356,-0.082356,0.0000,0.0000,0.0000,-0.002537,0.081301,-0.073631,0.9917,0.7891,-0.1011,0.001534,0.587515,-0.555301,0.556835,-0.593651,0.558369,-0.559903
4.9263,0.020081,0.000000,0.083407,-0.083407,0.0000,0.0000,0.0000,-0.002548,0.082835,-0.073631,0.9738,0.7316,-0.0477,0.001534,0.587515,-0.555301,0.556835,-0.592117,0.558369,-0.559903
4.9465,0.020255,0.000000,0.084467,-0.084467,0.0000,0.0000,0.0000,-0.002546,0.078233,-0.073631,0.9757,0.7375,-0.0532,0.001534,0.587515,-0.555301,0.556835,-0.592117,0.558369,-0.559903
4.9667,0.020199,0.000000,0.085525,-0.085525,0.0000,0.0000,0.0000,-0.002546,0.079767,-0.073631,0.9757,0.7375,-0.0532,0.001534,0.587515,-0.555301,0.556835,-0.592117,0.558369,-0.561437
4.9869,0.020144,0.000000,0.086580,-0.086580,0.0000,0.0000,0.0000,-0.002548,0.087437,-0.073631,0.9806,0.7388,-0.0471,0.001534,0.587515,-0.555301,0.556835,-0.592117,0.558369,-0.559903
5.0072,0.020307,0.000000,0.087643,-0.087643,0.0000,0.0000,0.0000,-0.002535,0.087437,-0.075165,0.9865,0.7873,-0.1068,0.001534,0.587515,-0.555301,0.556835,-0.593651,0.558369,-0.559903
5.0273,0.020085,0.000000,0.088695,-0.088695,0.0000,0.0000,0.0000,-0.002548,0.079767,-0.075165,0.9744,0.7317,-0.0471,0.001534,0.587515,-0.555301,0.556835,-0.592117,0.558369,-0.559903
5.0474,0.020080,0.000000,0.089746,-0.089746,0.0000,0.0000,0.0000,-0.002523,0.082835,-0.075165,0.9381,0.7700,-0.1604,0.001534,0.587515,-0.555301,0.556835,-0.593651,0.558369,-0.561437
5.0674,0.020091,0.000000,0.090798,-0.090798,0.0000,0.0000,0.0000,-0.002549,0.092039,-0.076699,0.9794,0.7335,-0.0415,0.001534,0.587515,-0.555301,0.556835,-0.592117,0.558369,-0.559903
5.0875,0.020091,0.000000,0.091850,-0.091850,0.0000,0.0000,0.0000,-0.002549,0.092039,-0.076699,0.9794,0.7335,-0.0415,0.001534,0.587515,-0.555301,0.556835,-0.592117,0.558369,-0.559903
5.1076,0.020084,0.000000,0.092902,-0.092902,0.0000,0.0000,0.0000,-0.002546,0.090505,-0.079767,0.9751,0.7373,-0.0539,0.001534,0.587515,-0.555301,0.556835,-0.592117,0.558369,-0.559903
5.1277,0.020084,0.000000,0.093953,-0.093953,0.0000,0.0000,0.0000,-0.002547,0.084369,-0.088971,0.9757,0.7368,-0.0522,0.001534,0.587515,-0.555301,0.556835,-0.592117,0.558369,-0.559903
5.1478,0.020130,0.000000,0.095007,-0.095007,0.0000,0.0000,0.0000,-0.002547,0.095107,-0.090505,0.9757,0.7368,-0.0522,0.001534,0.587515,-0.555301,0.556835,-0.592117,0.558369,-0.561437
5.1679,0.020094,0.000000,0.096059,-0.096059,0.0000,0.0000,0.0000,-0.002548,0.093573,-0.092039,0.9806,0.7388,-0.0471,0.001534,0.587515,-0.555301,0.556835,-0.592117,0.558369,-0.559903
5.1880,0.020088,0.000000,0.097111,-0.097111,0.0000,0.0000,0.0000,-0.002548,0.087437,-0.093573,0.9806,0.7388,-0.0471,0.001534,0.587515,-0.555301,0.556835,-0.592117,0.558369,-0.559903
5.2081,0.020085,0.000000,0.098163,-0.098163,0.0000,0.0000,0.0000,-0.002546,0.087437,-0.093573,0.9750,0.7368,-0.0533,0.001534,0.587515,-0.555301,0.556835,-0.592117,0.558369,-0.559903
5.2282,0.020086,0.000000,0.099215,-0.099215,0.0000,0.0000,0.0000,-0.002537,0.099709,-0.095107,0.9859,0.7822,-0.1006,0.001534,0.587515,-0.555301,0.556835,-0.593651,0.558369,-0.559903
5.2483,0.020111,0.000000,0.100268,-0.100268,0.0000,0.0000,0.0000,-0.002537,0.099709,-0.095107,0.9859,0.7822,-0.1006,0.001534,0.587515,-0.555301,0.556835,-0.593651,0.558369,-0.559903
5.2684,0.020096,0.000000,0.101320,-0.101320,0.0000,0.0000,0.0000,-0.002548,0.090505,-0.096641,0.9807,0.7393,-0.0476,0.001534,0.587515,-0.555301,0.556835,-0.592117,0.558369,-0.559903
5.2888,0.020440,0.000000,0.102390,-0.102390,0.0000,0.0000,0.0000,-0.002548,0.090505,-0.096641,0.9807,0.7393,-0.0476,0.001534,0.587515,-0.555301,0.556835,-0.592117,0.558369,-0.559903
5.3089,0.020099,0.000000,0.103442,-0.103442,0.0000,0.0000,0.0000,-0.002546,0.093573,-0.098175,0.9750,0.7367,-0.0532,0.001534,0.587515,-0.555301,0.556835,-0.592117,0.558369,-0.559903
5.3290,0.020093,0.000000,0.104495,-0.104495,0.0000,0.0000,0.0000,-0.002546,0.102777,-0.099709,0.9750,0.7367,-0.0532,0.001534,0.587515,-0.555301,0.556835,-0.592117,0.558369,-0.559903
5.3495,0.020490,0.000000,0.105567,-0.105567,0.0000,0.0000,0.0000,-0.002524,0.095107,-0.102777,0.9431,0.7713,-0.1543,0.001534,0.587515,-0.555301,0.556835,-0.593651,0.558369,-0.561437
5.3696,0.020094,0.000000,0.106619,-0.106619,0.0000,0.0000,0.0000,-0.002524,0.095107,-0.102777,0.9431,0.7713,-0.1543,0.001534,0.587515,-0.555301,0.556835,-0.593651,0.558369,-0.561437
5.3897,0.020082,0.000000,0.107671,-0.107671,0.0000,0.0000,0.0000,-0.002525,0.096641,-0.101243,0.9414,0.7659,-0.1493,0.001534,0.587515,-0.555301,0.556835,-0.593651,0.558369,-0.561437
5.4098,0.020085,0.000000,0.108723,-0.108723,0.0000,0.0000,0.0000,-0.002549,0.105845,-0.102777,0.9791,0.7340,-0.0426,0.001534,0.587515,-0.555301,0.556835,-0.592117,0.558369,-0.559903
5.4299,0.020082,0.000000,0.109774,-0.109774,0.0000,0.0000,0.0000,-0.002546,0.107379,-0.102777,0.9752,0.7373,-0.0537,0.001534,0.587515,-0.555301,0.556835,-0.592117,0.558369,-0.559903
5.4500,0.020107,0.000000,0.110827,-0.110827,0.0000,0.0000,0.0000,-0.002546,0.104311,-0.102777,0.9752,0.7373,-0.0537,0.001534,0.587515,-0.555301,0.556835,-0.592117,0.558369,-0.559903
5.4701,0.020088,0.000000,0.111879,-0.111879,0.0000,0.0000,0.0000,-0.002546,0.102777,-0.102777,0.9752,0.7373,-0.0537,0.001534,0.587515,-0.555301,0.556835,-0.592117,0.558369,-0.559903
5.4901,0.020086,0.000000,0.112930,-0.112930,0.0000,0.0000,0.0000,-0.002534,0.113515,-0.102777,0.9264,0.7189,-0.1062,0.001534,0.587515,-0.555301,0.556835,-0.592117,0.558369,-0.561437
5.5103,0.020203,0.000000,0.113988,-0.113988,0.0000,0.0000,0.0000,-0.002535,0.113515,-0.102777,0.9315,0.7209,-0.1008,0.001534,0.587515,-0.555301,0.556835,-0.592117,0.558369,-0.561437
5.5306,0.020222,0.000000,0.115047,-0.115047,0.0000,0.0000,0.0000,-0.002548,0.107379,-0.104311,0.9801,0.7386,-0.0477,0.001534,0.587515,-0.555301,0.556835,-0.592117,0.558369,-0.559903
5.5507,0.020102,0.000000,0.116099,-0.116099,0.0000,0.0000,0.0000,-0.002546,0.107379,-0.105845,0.9750,0.7368,-0.0532,0.001534,0.587515,-0.555301,0.556835,-0.592117,0.558369,-0.559903
5.5708,0.020100,0.000000,0.117152,-0.117152,0.0000,0.0000,0.0000,-0.002534,0.116583,-0.107379,0.9264,0.7190,-0.1063,0.001534,0.587515,-0.555301,0.556835,-0.592117,0.558369,-0.561437
5.5909,0.020093,0.000000,0.118204,-0.118204,0.0000,0.0000,0.0000,-0.002548,0.115049,-0.110447,0.9806,0.7388,-0.0471,0.001534,0.587515,-0.555301,0.556835,-0.592117,0.558369,-0.559903
5.6110,0.020105,0.000000,0.119257,-0.119257,0.0000,0.0000,0.0000,-0.002535,0.108913,-0.116583,0.9865,0.7873,-0.1068,0.001534,0.587515,-0.555301,0.556835,-0.593651,0.558369,-0.559903
5.6311,0.020087,0.000000,0.120308,-0.120308,0.0000,0.0000,0.0000,-0.002535,0.111981,-0.116583,0.9252,0.7137,-0.1007,0.001534,0.587515,-0.555301,0.556835,-0.592117,0.558369,-0.561437
5.6511,0.020087,0.000000,0.121360,-0.121360,0.0000,0.0000,0.0000,-0.002548,0.121184,-0.116583,0.9807,0.7394,-0.0477,0.001534,0.587515,-0.555301,0.556835,-0.592117,0.558369,-0.559903
5.6712,0.020084,0.000000,0.122412,-0.122412,0.0000,0.0000,0.0000,-0.002546,0.119651,-0.119651,0.9750,0.7367,-0.0532,0.001534,0.587515,-0.555301,0.556835,-0.592117,0.558369,-0.559903
5.6913,0.020089,0.000000,0.123464,-0.123464,0.0000,0.0000,0.0000,-0.002546,0.113515,-0.121184,0.9750,0.7367,-0.0532,0.001534,0.587515,-0.555301,0.556835,-0.592117,0.558369,-0.559903
5.7114,0.020096,0.000000,0.124516,-0.124516,0.0000,0.0000,0.0000,-0.002546,0.113515,-0.121184,0.9750,0.7367,-0.0532,0.001534,0.587515,-0.555301,0.556835,-0.592117,0.558369,-0.559903
5.7315,0.020087,0.000000,0.125568,-0.125568,0.0000,0.0000,0.0000,-0.002546,0.124252,-0.122718,0.9750,0.7367,-0.0532,0.001534,0.587515,-0.555301,0.556835,-0.592117,0.558369,-0.559903
5.7516,0.020096,0.000000,0.126620,-0.126620,0.0000,0.0000,0.0000,-0.002546,0.125786,-0.122718,0.9750,0.7367,-0.0532,0.001534,0.587515,-0.555301,0.556835,-0.592117,0.558369,-0.559903
5.7717,0.020094,0.000000,0.127672,-0.127672,0.0000,0.0000,0.0000,-0.002546,0.121184,-0.122718,0.9750,0.7367,-0.0532,0.001534,0.587515,-0.555301,0.556835,-0.592117,0.558369,-0.559903
5.7918,0.020084,0.000000,0.128724,-0.128724,0.0000,0.0000,0.0000,-0.002534,0.118117,-0.125786,0.9265,0.7190,-0.1063,0.001534,0.587515,-0.555301,0.556835,-0.592117,0.558369,-0.561437
5.8119,0.020096,0.000000,0.129776,-0.129776,0.0000,0.0000,0.0000,-0.002535,0.125786,-0.125786,0.9315,0.7209,-0.1008,0.001534,0.587515,-0.555301,0.556835,-0.592117,0.558369,-0.561437
5.8320,0.020084,0.000000,0.130827,-0.130827,0.0000,0.0000,0.0000,-0.002548,0.128854,-0.125786,0.9801,0.7386,-0.0477,0.001534,0.587515,-0.555301,0.556835,-0.592117,0.558369,-0.559903
5.8520,0.020085,0.000000,0.131879,-0.131879,0.0000,0.0000,0.0000,-0.002523,0.125786,-0.127320,0.9375,0.7693,-0.1604,0.001534,0.587515,-0.555301,0.556835,-0.593651,0.558369,-0.561437
5.8721,0.020091,0.000000,0.132931,-0.132931,0.0000,0.0000,0.0000,-0.002549,0.128854,-0.128854,0.9794,0.7336,-0.0415,0.001534,0.587515,-0.555301,0.556835,-0.592117,0.558369,-0.559903
5.8922,0.020102,0.000000,0.133984,-0.133984,0.0000,0.0000,0.0000,-0.002522,0.134990,-0.130388,0.9375,0.7698,-0.1610,0.001534,0.587515,-0.555301,0.556835,-0.593651,0.558369,-0.561437
5.9123,0.020100,0.000000,0.135036,-0.135036,0.0000,0.0000,0.0000,-0.002549,0.130388,-0.130388,0.9794,0.7335,-0.0414,0.001534,0.587515,-0.555301,0.556835,-0.592117,0.558369,-0.559903
5.9324,0.020088,0.000000,0.136088,-0.136088,0.0000,0.0000,0.0000,-0.002533,0.125786,-0.130388,0.9260,0.7193,-0.1075,0.001534,0.587515,-0.555301,0.556835,-0.592117,0.558369,-0.561437
5.9525,0.020090,0.000000,0.137140,-0.137140,0.0000,0.0000,0.0000,-0.002548,0.130388,-0.130388,0.9807,0.7388,-0.0470,0.001534,0.587515,-0.555301,0.556835,-0.592117,0.558369,-0.559903
5.9726,0.020084,0.000000,0.138191,-0.138191,0.0000,0.0000,0.0000,-0.002546,0.139592,-0.131922,0.9750,0.7368,-0.0533,0.001534,0.587515,-0.555301,0.556835,-0.592117,0.558369,-0.559903
5.9927,0.020088,0.000000,0.139243,-0.139243,0.0000,0.0000,0.0000,-0.002536,0.141126,-0.133456,0.9871,0.7875,-0.1061,0.001534,0.587515,-0.555301,0.556835,-0.593651,0.558369,-0.559903
6.0128,0.020090,0.000000,0.140295,-0.140295,0.0000,0.0000,0.0000,-0.002537,0.136524,-0.136524,0.9859,0.7822,-0.1006,0.001534,0.587515,-0.555301,0.556835,-0.593651,0.558369,-0.559903
6.0329,0.020083,0.000000,0.141347,-0.141347,0.0000,0.0000,0.0000,-0.002548,0.136524,-0.141126,0.9744,0.7323,-0.0477,0.001534,0.587515,-0.555301,0.556835,-0.592117,0.558369,-0.559903
6.0529,0.020085,0.000000,0.142398,-0.142398,0.0000,0.0000,0.0000,-0.002534,0.142660,-0.141126,0.9265,0.7195,-0.1069,0.001534,0.587515,-0.555301,0.556835,-0.592117,0.558369,-0.561437
6.0730,0.020086,0.000000,0.143450,-0.143450,0.0000,0.0000,0.0000,-0.002537,0.144194,-0.141126,0.9922,0.7893,-0.1006,0.001534,0.587515,-0.555301,0.556835,-0.593651,0.558369,-0.559903
6.0931,0.020082,0.000000,0.144501,-0.144501,0.0000,0.0000,0.0000,-0.002524,0.138058,-0.142660,0.9362,0.7640,-0.1549,0.001534,0.587515,-0.555301,0.556835,-0.593651,0.558369,-0.561437
6.1132,0.020089,0.000000,0.145553,-0.145553,0.0000,0.0000,0.0000,-0.002538,0.139592,-0.142660,0.9912,0.7846,-0.0955,0.001534,0.587515,-0.555301,0.556835,-0.593651,0.558369,-0.559903
6.1333,0.020121,0.000000,0.146607,-0.146607,0.0000,0.0000,0.0000,-0.002524,0.147262,-0.144194,0.9363,0.7645,-0.1554,0.001534,0.587515,-0.555301,0.556835,-0.593651,0.558369,-0.561437
6.1537,0.020369,0.000000,0.147673,-0.147673,0.0000,0.0000,0.0000,-0.002536,0.145728,-0.145728,0.9305,0.7161,-0.0956,0.001534,0.587515,-0.555301,0.556835,-0.592117,0.558369,-0.561437
6.1738,0.020086,0.000000,0.148725,-0.148725,0.0000,0.0000,0.0000,-0.002548,0.139592,-0.145728,0.9802,0.7391,-0.0482,0.001534,0.587515,-0.555301,0.556835,-0.592117,0.558369,-0.559903
6.1939,0.020083,0.000000,0.149777,-0.149777,0.0000,0.0000,0.0000,-0.002546,0.142660,-0.148796,0.9750,0.7367,-0.0532,0.001534,0.587515,-0.555301,0.556835,-0.592117,0.558369,-0.559903
6.2139,0.020089,0.000000,0.150828,-0.150828,0.0000,0.0000,0.0000,-0.002546,0.151864,-0.150330,0.9750,0.7367,-0.0532,0.001534,0.587515,-0.555301,0.556835,-0.592117,0.558369,-0.559903
6.2340,0.020088,0.000000,0.151880,-0.151880,0.0000,0.0000,0.0000,-0.002534,0.148796,-0.150330,0.9264,0.7190,-0.1063,0.001534,0.587515,-0.555301,0.556835,-0.592117,0.558369,-0.561437
6.2541,0.020088,0.000000,0.152932,-0.152932,0.0000,0.0000,0.0000,-0.002537,0.144194,-0.150330,0.9922,0.7893,-0.1006,0.001534,0.587515,-0.555301,0.556835,-0.593651,0.558369,-0.559903
6.2742,0.020082,0.000000,0.153984,-0.153984,0.0000,0.0000,0.0000,-0.002548,0.147262,-0.151864,0.9738,0.7315,-0.0477,0.001534,0.587515,-0.555301,0.556835,-0.592117,0.558369,-0.559903
6.2943,0.020083,0.000000,0.155035,-0.155035,0.0000,0.0000,0.0000,-0.002546,0.156466,-0.153398,0.9757,0.7375,-0.0532,0.001534,0.587515,-0.555301,0.556835,-0.592117,0.558369,-0.559903
6.3144,0.020098,0.000000,0.156087,-0.156087,0.0000,0.0000,0.0000,-0.002536,0.156466,-0.154932,0.9870,0.7874,-0.1061,0.001534,0.587515,-0.555301,0.556835,-0.593651,0.558369,-0.559903
6.3346,0.020184,0.000000,0.157144,-0.157144,0.0000,0.0000,0.0000,-0.002524,0.148796,-0.154932,0.9368,0.7642,-0.1543,0.001534,0.587515,-0.555301,0.556835,-0.593651,0.558369,-0.561437
6.3547,0.020104,0.000000,0.158197,-0.158197,0.0000,0.0000,0.0000,-0.002536,0.148796,-0.156466,0.9304,0.7162,-0.0958,0.001534,0.587515,-0.555301,0.556835,-0.592117,0.558369,-0.561437
6.3748,0.020086,0.000000,0.159249,-0.159249,0.0000,0.0000,0.0000,-0.002548,0.158000,-0.156466,0.9802,0.7391,-0.0482,0.001534,0.587515,-0.555301,0.556835,-0.592117,0.558369,-0.559903
6.3951,0.020372,0.000000,0.160315,-0.160315,0.0000,0.0000,0.0000,-0.002546,0.158000,-0.158000,0.9750,0.7367,-0.0532,0.001534,0.587515,-0.555301,0.556835,-0.592117,0.558369,-0.559903
6.4152,0.020082,0.000000,0.161367,-0.161367,0.0000,0.0000,0.0000,-0.002546,0.154932,-0.158000,0.9750,0.7367,-0.0532,0.001534,0.587515,-0.555301,0.556835,-0.592117,0.558369,-0.559903
6.4353,0.020081,0.000000,0.162418,-0.162418,0.0000,0.0000,0.0000,-0.002546,0.153398,-0.159534,0.9750,0.7367,-0.0532,0.001534,0.587515,-0.555301,0.556835,-0.592117,0.558369,-0.559903
6.4554,0.020096,0.000000,0.163470,-0.163470,0.0000,0.0000,0.0000,-0.002546,0.159534,-0.159534,0.9750,0.7367,-0.0532,0.001534,0.587515,-0.555301,0.556835,-0.592117,0.558369,-0.559903
6.4755,0.020117,0.000000,0.164524,-0.164524,0.0000,0.0000,0.0000,-0.002546,0.165670,-0.162602,0.9750,0.7367,-0.0532,0.001534,0.587515,-0.555301,0.556835,-0.592117,0.558369,-0.559903
6.4956,0.020107,0.000000,0.165576,-0.165576,0.0000,0.0000,0.0000,-0.002546,0.162602,-0.162602,0.9750,0.7367,-0.0532,0.001534,0.587515,-0.555301,0.556835,-0.592117,0.558369,-0.559903
6.5158,0.020203,0.000000,0.166634,-0.166634,0.0000,0.0000,0.0000,-0.002546,0.159534,-0.164136,0.9750,0.7367,-0.0532,0.001534,0.587515,-0.555301,0.556835,-0.592117,0.558369,-0.559903
6.5359,0.020115,0.000000,0.167687,-0.167687,0.0000,0.0000,0.0000,-0.002523,0.165670,-0.165670,0.9380,0.7695,-0.1598,0.001534,0.587515,-0.555301,0.556835,-0.593651,0.558369,-0.561437
