t,loop_dt,cmd_z,cmd_ant_l,cmd_ant_r,cmd_roll,cmd_pitch,cmd_yaw,pres_z,pres_ant_l,pres_ant_r,pres_roll,pres_pitch,pres_yaw,pres_j0,pres_j1,pres_j2,pres_j3,pres_j4,pres_j5,pres_j6
0.0000,0.000001,0.000000,-0.174532,0.174532,0.0000,0.0000,0.0000,-0.002638,0.003068,0.000000,1.1722,0.9904,0.0489,0.001534,0.582913,-0.555301,0.556835,-0.595185,0.558369,-0.549165
0.0203,0.020295,0.000000,-0.156821,0.156821,0.0000,0.0000,0.0000,-0.002639,-0.003068,0.000000,1.1735,0.9845,0.0426,0.001534,0.582913,-0.555301,0.556835,-0.595185,0.558369,-0.549165
0.0404,0.020096,0.000000,-0.139284,0.139284,0.0000,0.0000,0.0000,-0.002639,-0.004602,0.000000,1.1735,0.9845,0.0426,0.001534,0.582913,-0.555301,0.556835,-0.595185,0.558369,-0.549165
0.0605,0.020116,0.000000,-0.121730,0.121730,0.0000,0.0000,0.0000,-0.002639,-0.021476,0.021476,1.1735,0.9845,0.0426,0.001534,0.582913,-0.555301,0.556835,-0.595185,0.558369,-0.549165
0.0808,0.020322,0.000000,-0.103995,0.103995,0.0000,0.0000,0.0000,-0.002626,-0.076699,0.084369,1.1240,0.9669,-0.0102,0.001534,0.582913,-0.555301,0.556835,-0.595185,0.558369,-0.550699
0.1009,0.020100,0.000000,-0.086455,0.086455,0.0000,0.0000,0.0000,-0.002626,-0.145728,0.151864,1.1240,0.9669,-0.0102,0.001534,0.582913,-0.555301,0.556835,-0.595185,0.558369,-0.552233
0.1212,0.020273,0.000000,-0.068763,0.068763,0.0000,0.0000,0.0000,-0.002603,-0.168738,0.165670,1.0353,0.9341,-0.1068,0.001534,0.582913,-0.555301,0.556835,-0.595185,0.558369,-0.553767
0.1414,0.020205,0.000000,-0.051131,0.051131,0.0000,0.0000,0.0000,-0.002580,-0.158000,0.153398,1.0405,0.9024,-0.1013,0.001534,0.584447,-0.555301,0.556835,-0.595185,0.558369,-0.555301
0.1616,0.020217,0.000000,-0.033489,0.033489,0.0000,0.0000,0.0000,-0.002558,-0.128854,0.127320,1.0405,0.8722,-0.1014,0.001534,0.585981,-0.555301,0.556835,-0.595185,0.558369,-0.556835
0.1817,0.020106,0.000000,-0.015943,0.015943,0.0000,0.0000,0.0000,-0.002560,-0.096641,0.099709,1.0405,0.8753,-0.1014,0.001534,0.585981,-0.555301,0.556835,-0.595185,0.558369,-0.556835
0.2018,0.020115,0.000000,0.001610,-0.001610,0.0000,0.0000,0.0000,-0.002549,-0.064427,0.070563,1.0901,0.8596,-0.0473,0.001534,0.587515,-0.555301,0.556835,-0.595185,0.558369,-0.556835
0.2219,0.020099,0.000000,0.019150,-0.019150,0.0000,0.0000,0.0000,-0.002551,-0.041417,0.046019,1.0469,0.7911,-0.1601,0.001534,0.587515,-0.555301,0.555301,-0.595185,0.558369,-0.558369
0.2420,0.020059,0.000000,0.036655,-0.036655,0.0000,0.0000,0.0000,-0.002537,-0.023010,0.026078,1.0403,0.8503,-0.0949,0.001534,0.587515,-0.555301,0.556835,-0.595185,0.558369,-0.558369
0.2621,0.020098,0.000000,0.054194,-0.054194,0.0000,0.0000,0.0000,-0.002526,-0.007670,0.009204,0.9919,0.8261,-0.1553,0.001534,0.587515,-0.555301,0.556835,-0.595185,0.558369,-0.559903
0.2822,0.020098,0.000000,0.071732,-0.071732,0.0000,0.0000,0.0000,-0.002527,0.026078,-0.023010,0.9969,0.8286,-0.1490,0.001534,0.587515,-0.555301,0.556835,-0.595185,0.558369,-0.559903
0.3023,0.020098,0.000000,0.089271,-0.089271,0.0000,0.0000,0.0000,-0.002527,0.026078,-0.023010,0.9969,0.8286,-0.1490,0.001534,0.587515,-0.555301,0.556835,-0.595185,0.558369,-0.559903
0.3224,0.020117,0.000000,0.106827,-0.106827,0.0000,0.0000,0.0000,-0.002527,0.059825,-0.056757,0.9969,0.8286,-0.1490,0.001534,0.587515,-0.555301,0.556835,-0.595185,0.558369,-0.559903
0.3425,0.020095,0.000000,0.124363,-0.124363,0.0000,0.0000,0.0000,-0.002527,0.076699,-0.075165,0.9969,0.8286,-0.1490,0.001534,0.587515,-0.555301,0.556835,-0.595185,0.558369,-0.559903
0.3626,0.020093,0.000000,0.141897,-0.141897,0.0000,0.0000,0.0000,-0.002527,0.076699,-0.075165,0.9969,0.8286,-0.1490,0.001534,0.587515,-0.555301,0.556835,-0.595185,0.558369,-0.559903
0.3827,0.020089,0.000000,0.159427,-0.159427,0.0000,0.0000,0.0000,-0.002527,0.115049,-0.107379,0.9969,0.8286,-0.1490,0.001534,0.587515,-0.555301,0.556835,-0.595185,0.558369,-0.559903
0.4028,0.020107,0.000000,0.172092,-0.172092,0.0000,0.0000,0.0000,-0.002527,0.134990,-0.124252,0.9969,0.8286,-0.1490,0.001534,0.587515,-0.555301,0.556835,-0.595185,0.558369,-0.559903
0.4229,0.020107,0.000000,0.154545,-0.154545,0.0000,0.0000,0.0000,-0.002527,0.153398,-0.142660,0.9969,0.8286,-0.1490,0.001534,0.587515,-0.555301,0.556835,-0.595185,0.558369,-0.559903
0.4430,0.020093,0.000000,0.137011,-0.137011,0.0000,0.0000,0.0000,-0.002527,0.170272,-0.161068,0.9969,0.8286,-0.1490,0.001534,0.587515,-0.555301,0.556835,-0.595185,0.558369,-0.559903
0.4631,0.020097,0.000000,0.119473,-0.119473,0.0000,0.0000,0.0000,-0.002527,0.170272,-0.161068,0.9969,0.8286,-0.1490,0.001534,0.587515,-0.555301,0.556835,-0.595185,0.558369,-0.559903
0.4832,0.020095,0.000000,0.101937,-0.101937,0.0000,0.0000,0.0000,-0.002513,0.167204,-0.170272,1.0358,0.7927,-0.2028,0.001534,0.587515,-0.556835,0.556835,-0.595185,0.558369,-0.559903
0.5033,0.020111,0.000000,0.084387,-0.084387,0.0000,0.0000,0.0000,-0.002513,0.147262,-0.153398,1.0358,0.7927,-0.2028,0.001534,0.587515,-0.556835,0.556835,-0.595185,0.558369,-0.559903
0.5234,0.020104,0.000000,0.066843,-0.066843,0.0000,0.0000,0.0000,-0.002515,0.125786,-0.134990,1.0317,0.7965,-0.1972,0.001534,0.587515,-0.559903,0.556835,-0.595185,0.558369,-0.559903
0.5435,0.020086,0.000000,0.049314,-0.049314,0.0000,0.0000,0.0000,-0.002491,0.101243,-0.110447,1.1024,0.7324,-0.2931,0.001534,0.587515,-0.559903,0.556835,-0.595185,0.558369,-0.559903
0.5636,0.020115,0.000000,0.031760,-0.031760,0.0000,0.0000,0.0000,-0.002490,0.101243,-0.110447,1.1036,0.7314,-0.2946,0.001534,0.587515,-0.559903,0.556835,-0.595185,0.558369,-0.559903
0.5837,0.020100,0.000000,0.014220,-0.014220,0.0000,0.0000,0.0000,-0.002477,0.059825,-0.065961,1.1423,0.6962,-0.3474,0.001534,0.587515,-0.561437,0.556835,-0.595185,0.558369,-0.559903
0.6038,0.020120,0.000000,-0.003338,0.003338,0.0000,0.0000,0.0000,-0.002477,0.059825,-0.065961,1.1423,0.6962,-0.3474,0.001534,0.587515,-0.561437,0.556835,-0.595185,0.558369,-0.559903
0.6239,0.020094,0.000000,-0.020873,0.020873,0.0000,0.0000,0.0000,-0.002479,0.038350,-0.042951,1.1383,0.6998,-0.3419,0.001534,0.587515,-0.561437,0.556835,-0.595185,0.558369,-0.559903
0.6440,0.020088,0.000000,-0.038403,0.038403,0.0000,0.0000,0.0000,-0.002479,0.021476,-0.023010,1.1383,0.6998,-0.3419,0.001534,0.587515,-0.561437,0.556835,-0.595185,0.558369,-0.559903
0.6641,0.020092,0.000000,-0.055937,0.055937,0.0000,0.0000,0.0000,-0.002479,0.006136,-0.006136,1.1383,0.6998,-0.3419,0.001534,0.587515,-0.561437,0.556835,-0.595185,0.558369,-0.559903
0.6842,0.020097,0.000000,-0.073475,0.073475,0.0000,0.0000,0.0000,-0.002479,-0.009204,0.007670,1.1383,0.6998,-0.3419,0.001534,0.587515,-0.561437,0.556835,-0.595185,0.558369,-0.559903
0.7043,0.020093,0.000000,-0.091010,0.091010,0.0000,0.0000,0.0000,-0.002479,-0.023010,0.021476,1.1383,0.6998,-0.3419,0.001534,0.587515,-0.561437,0.556835,-0.595185,0.558369,-0.559903
0.7244,0.020104,0.000000,-0.108553,0.108553,0.0000,0.0000,0.0000,-0.002479,-0.038350,0.036816,1.1383,0.6998,-0.3419,0.001534,0.587515,-0.561437,0.556835,-0.595185,0.558369,-0.559903
0.7446,0.020207,0.000000,-0.126188,0.126188,0.0000,0.0000,0.0000,-0.002479,-0.056757,0.056757,1.1383,0.6998,-0.3419,0.001534,0.587515,-0.561437,0.556835,-0.595185,0.558369,-0.559903
0.7647,0.020092,0.000000,-0.143722,0.143722,0.0000,0.0000,0.0000,-0.002479,-0.078233,0.075165,1.1383,0.6998,-0.3419,0.001534,0.587515,-0.561437,0.556835,-0.595185,0.558369,-0.559903
0.7848,0.020088,0.000000,-0.161252,0.161252,0.0000,0.0000,0.0000,-0.002479,-0.096641,0.095107,1.1383,0.6998,-0.3419,0.001534,0.587515,-0.561437,0.556835,-0.595185,0.558369,-0.559903
0.8049,0.020093,0.000000,-0.170280,0.170280,0.0000,0.0000,0.0000,-0.002479,-0.116583,0.113515,1.1383,0.6998,-0.3419,0.001534,0.587515,-0.561437,0.556835,-0.595185,0.558369,-0.559903
0.8250,0.020102,0.000000,-0.152737,0.152737,0.0000,0.0000,0.0000,-0.002479,-0.133456,0.130388,1.1383,0.6998,-0.3419,0.001534,0.587515,-0.561437,0.556835,-0.595185,0.558369,-0.559903
0.8451,0.020086,0.000000,-0.135209,0.135209,0.0000,0.0000,0.0000,-0.002479,-0.150330,0.148796,1.1383,0.6998,-0.3419,0.001534,0.587515,-0.561437,0.556835,-0.595185,0.558369,-0.559903
0.8651,0.020087,0.000000,-0.117680,0.117680,0.0000,0.0000,0.0000,-0.002479,-0.168738,0.164136,1.1383,0.6998,-0.3419,0.001534,0.587515,-0.561437,0.556835,-0.595185,0.558369,-0.559903
0.8852,0.020085,0.000000,-0.100152,0.100152,0.0000,0.0000,0.0000,-0.002479,-0.179476,0.176408,1.1383,0.6998,-0.3419,0.001534,0.587515,-0.561437,0.556835,-0.595185,0.558369,-0.559903
0.9053,0.020085,0.000000,-0.082625,0.082625,0.0000,0.0000,0.0000,-0.002479,-0.174874,0.171806,1.1383,0.6998,-0.3419,0.001534,0.587515,-0.561437,0.556835,-0.595185,0.558369,-0.559903
0.9254,0.020095,0.000000,-0.065089,0.065089,0.0000,0.0000,0.0000,-0.002479,-0.153398,0.154932,1.1383,0.6998,-0.3419,0.001534,0.587515,-0.561437,0.556835,-0.595185,0.558369,-0.559903
0.9455,0.020091,0.000000,-0.047556,0.047556,0.0000,0.0000,0.0000,-0.002479,-0.128854,0.133456,1.1383,0.6998,-0.3419,0.001534,0.587515,-0.561437,0.556835,-0.595185,0.558369,-0.559903
0.9656,0.020089,0.000000,-0.030026,0.030026,0.0000,0.0000,0.0000,-0.002479,-0.101243,0.107379,1.1383,0.6998,-0.3419,0.001534,0.587515,-0.561437,0.556835,-0.595185,0.558369,-0.559903
0.9857,0.020085,0.000000,-0.012499,0.012499,0.0000,0.0000,0.0000,-0.002479,-0.073631,0.079767,1.1383,0.6998,-0.3419,0.001534,0.587515,-0.561437,0.556835,-0.595185,0.558369,-0.559903
1.0058,0.020085,0.000000,0.005029,-0.005029,0.0000,0.0000,0.0000,-0.002492,-0.052155,0.056757,1.1496,0.6473,-0.3960,0.001534,0.587515,-0.561437,0.555301,-0.595185,0.558369,-0.559903
1.0259,0.020090,0.000000,0.022561,-0.022561,0.0000,0.0000,0.0000,-0.002477,-0.032214,0.035282,1.1375,0.7050,-0.3368,0.001534,0.587515,-0.561437,0.556835,-0.595185,0.558369,-0.559903
1.0459,0.020055,0.000000,0.040062,-0.040062,0.0000,0.0000,0.0000,-0.002479,-0.013806,0.016874,1.1388,0.6989,-0.3430,0.001534,0.587515,-0.561437,0.556835,-0.595185,0.558369,-0.559903
1.0660,0.020090,0.000000,0.057594,-0.057594,0.0000,0.0000,0.0000,-0.002465,0.003068,0.000000,1.1777,0.6640,-0.4836,0.000000,0.587515,-0.562971,0.556835,-0.595185,0.558369,-0.559903
1.0861,0.020086,0.000000,0.075122,-0.075122,0.0000,0.0000,0.0000,-0.002480,0.019942,-0.016874,1.1346,0.7032,-0.3368,0.001534,0.587515,-0.561437,0.556835,-0.595185,0.558369,-0.559903
1.1062,0.020087,0.000000,0.092651,-0.092651,0.0000,0.0000,0.0000,-0.002478,0.035282,-0.032214,1.1391,0.6991,-0.3430,0.001534,0.587515,-0.561437,0.556835,-0.595185,0.558369,-0.559903
1.1263,0.020096,0.000000,0.110188,-0.110188,0.0000,0.0000,0.0000,-0.002478,0.053689,-0.052155,1.1391,0.6991,-0.3430,0.001534,0.587515,-0.561437,0.556835,-0.595185,0.558369,-0.559903
1.1464,0.020092,0.000000,0.127722,-0.127722,0.0000,0.0000,0.0000,-0.002478,0.072097,-0.067495,1.1391,0.6991,-0.3430,0.001534,0.587515,-0.561437,0.556835,-0.595185,0.558369,-0.559903
1.1664,0.020089,0.000000,0.145253,-0.145253,0.0000,0.0000,0.0000,-0.002478,0.088971,-0.085903,1.1391,0.6991,-0.3430,0.001534,0.587515,-0.561437,0.556835,-0.595185,0.558369,-0.559903
1.1865,0.020086,0.000000,0.162781,-0.162781,0.0000,0.0000,0.0000,-0.002478,0.107379,-0.101243,1.1391,0.6991,-0.3430,0.001534,0.587515,-0.561437,0.556835,-0.595185,0.558369,-0.559903
1.2066,0.020084,0.000000,0.168759,-0.168759,0.0000,0.0000,0.0000,-0.002478,0.125786,-0.116583,1.1391,0.6991,-0.3430,0.001534,0.587515,-0.561437,0.556835,-0.595185,0.558369,-0.559903
1.2267,0.020085,0.000000,0.151232,-0.151232,0.0000,0.0000,0.0000,-0.002478,0.145728,-0.133456,1.1391,0.6991,-0.3430,0.001534,0.587515,-0.561437,0.556835,-0.595185,0.558369,-0.559903
1.2470,0.020319,0.000000,0.133500,-0.133500,0.0000,0.0000,0.0000,-0.002478,0.164136,-0.153398,1.1391,0.6991,-0.3430,0.001534,0.587515,-0.561437,0.556835,-0.595185,0.558369,-0.559903
1.2671,0.020090,0.000000,0.115968,-0.115968,0.0000,0.0000,0.0000,-0.002478,0.176408,-0.170272,1.1391,0.6991,-0.3430,0.001534,0.587515,-0.561437,0.556835,-0.595185,0.558369,-0.559903
1.2872,0.020088,0.000000,0.098438,-0.098438,0.0000,0.0000,0.0000,-0.002478,0.170272,-0.173340,1.1391,0.6991,-0.3430,0.001534,0.587515,-0.561437,0.556835,-0.595185,0.558369,-0.559903
1.3073,0.020094,0.000000,0.080903,-0.080903,0.0000,0.0000,0.0000,-0.002478,0.156466,-0.165670,1.1391,0.6991,-0.3430,0.001534,0.587515,-0.561437,0.556835,-0.595185,0.558369,-0.559903
1.3274,0.020088,0.000000,0.063373,-0.063373,0.0000,0.0000,0.0000,-0.002478,0.134990,-0.142660,1.1391,0.6991,-0.3430,0.001534,0.587515,-0.561437,0.556835,-0.595185,0.558369,-0.559903
1.3475,0.020087,0.000000,0.045844,-0.045844,0.0000,0.0000,0.0000,-0.002478,0.110447,-0.119651,1.1391,0.6991,-0.3430,0.001534,0.587515,-0.561437,0.556835,-0.595185,0.558369,-0.559903
1.3676,0.020085,0.000000,0.028316,-0.028316,0.0000,0.0000,0.0000,-0.002478,0.085903,-0.095107,1.1391,0.6991,-0.3430,0.001534,0.587515,-0.561437,0.556835,-0.595185,0.558369,-0.559903
1.3876,0.020094,0.000000,0.010781,-0.010781,0.0000,0.0000,0.0000,-0.002478,0.067495,-0.075165,1.1391,0.6991,-0.3430,0.001534,0.587515,-0.561437,0.556835,-0.595185,0.558369,-0.559903
1.4077,0.020084,0.000000,-0.006746,0.006746,0.0000,0.0000,0.0000,-0.002478,0.047553,-0.052155,1.1391,0.6991,-0.3430,0.001534,0.587515,-0.561437,0.556835,-0.595185,0.558369,-0.559903
1.4278,0.020087,0.000000,-0.024275,0.024275,0.0000,0.0000,0.0000,-0.002478,0.029146,-0.030680,1.1391,0.6991,-0.3430,0.001534,0.587515,-0.561437,0.556835,-0.595185,0.558369,-0.559903
1.4479,0.020086,0.000000,-0.041803,0.041803,0.0000,0.0000,0.0000,-0.002478,0.013806,-0.012272,1.1391,0.6991,-0.3430,0.001534,0.587515,-0.561437,0.556835,-0.595185,0.558369,-0.559903
1.4680,0.020093,0.000000,-0.059337,0.059337,0.0000,0.0000,0.0000,-0.002478,-0.003068,0.003068,1.1391,0.6991,-0.3430,0.001534,0.587515,-0.561437,0.556835,-0.595185,0.558369,-0.559903
1.4881,0.020094,0.000000,-0.076873,0.076873,0.0000,0.0000,0.0000,-0.002478,-0.021476,0.018408,1.1391,0.6991,-0.3430,0.001534,0.587515,-0.561437,0.556835,-0.595185,0.558369,-0.559903
1.5082,0.020092,0.000000,-0.094406,0.094406,0.0000,0.0000,0.0000,-0.002478,-0.038350,0.035282,1.1391,0.6991,-0.3430,0.001534,0.587515,-0.561437,0.556835,-0.595185,0.558369,-0.559903
1.5283,0.020095,0.000000,-0.111942,0.111942,0.0000,0.0000,0.0000,-0.002478,-0.056757,0.052155,1.1391,0.6991,-0.3430,0.001534,0.587515,-0.561437,0.556835,-0.595185,0.558369,-0.559903
1.5484,0.020085,0.000000,-0.129470,0.129470,0.0000,0.0000,0.0000,-0.002478,-0.073631,0.072097,1.1391,0.6991,-0.3430,0.001534,0.587515,-0.561437,0.556835,-0.595185,0.558369,-0.559903
1.5685,0.020092,0.000000,-0.147003,0.147003,0.0000,0.0000,0.0000,-0.002478,-0.092039,0.090505,1.1391,0.6991,-0.3430,0.001534,0.587515,-0.561437,0.556835,-0.595185,0.558369,-0.559903
1.5887,0.020200,0.000000,-0.164631,0.164631,0.0000,0.0000,0.0000,-0.002478,-0.111981,0.107379,1.1391,0.6991,-0.3430,0.001534,0.587515,-0.561437,0.556835,-0.595185,0.558369,-0.559903
1.6087,0.020090,0.000000,-0.166903,0.166903,0.0000,0.0000,0.0000,-0.002492,-0.130388,0.125786,1.1495,0.6474,-0.3959,0.001534,0.587515,-0.561437,0.555301,-0.595185,0.558369,-0.559903
1.6288,0.020089,0.000000,-0.149372,0.149372,0.0000,0.0000,0.0000,-0.002477,-0.145728,0.142660,1.1375,0.7049,-0.3368,0.001534,0.587515,-0.561437,0.556835,-0.595185,0.558369,-0.559903
1.6489,0.020092,0.000000,-0.131838,0.131838,0.0000,0.0000,0.0000,-0.002479,-0.164136,0.161068,1.1388,0.6989,-0.3430,0.001534,0.587515,-0.561437,0.556835,-0.595185,0.558369,-0.559903
1.6690,0.020103,0.000000,-0.114295,0.114295,0.0000,0.0000,0.0000,-0.002479,-0.176408,0.173340,1.1388,0.6989,-0.3430,0.001534,0.587515,-0.561437,0.556835,-0.595185,0.558369,-0.559903
1.6891,0.020095,0.000000,-0.096759,0.096759,0.0000,0.0000,0.0000,-0.002479,-0.173340,0.170272,1.1388,0.6989,-0.3430,0.001534,0.587515,-0.561437,0.556835,-0.595185,0.558369,-0.559903
1.7092,0.020091,0.000000,-0.079226,0.079226,0.0000,0.0000,0.0000,-0.002465,-0.158000,0.158000,1.1777,0.6640,-0.4836,0.000000,0.587515,-0.562971,0.556835,-0.595185,0.558369,-0.559903
1.7293,0.020092,0.000000,-0.061692,0.061692,0.0000,0.0000,0.0000,-0.002480,-0.136524,0.142660,1.1346,0.7032,-0.3368,0.001534,0.587515,-0.561437,0.556835,-0.595185,0.558369,-0.559903
1.7494,0.020086,0.000000,-0.044164,0.044164,0.0000,0.0000,0.0000,-0.002478,-0.113515,0.119651,1.1391,0.6991,-0.3430,0.001534,0.587515,-0.561437,0.556835,-0.595185,0.558369,-0.559903
1.7695,0.020098,0.000000,-0.026625,0.026625,0.0000,0.0000,0.0000,-0.002478,-0.093573,0.101243,1.1391,0.6991,-0.3430,0.001534,0.587515,-0.561437,0.556835,-0.595185,0.558369,-0.559903
1.7896,0.020085,0.000000,-0.009098,0.009098,0.0000,0.0000,0.0000,-0.002478,-0.070563,0.075165,1.1391,0.6991,-0.3430,0.001534,0.587515,-0.561437,0.556835,-0.595185,0.558369,-0.559903
1.8097,0.020085,0.000000,0.008430,-0.008430,0.0000,0.0000,0.0000,-0.002478,-0.052155,0.055223,1.1391,0.6991,-0.3430,0.001534,0.587515,-0.561437,0.556835,-0.595185,0.558369,-0.559903
1.8298,0.020090,0.000000,0.025962,-0.025962,0.0000,0.0000,0.0000,-0.002478,-0.038350,0.039884,1.1391,0.6991,-0.3430,0.001534,0.587515,-0.561437,0.556835,-0.595185,0.558369,-0.559903
1.8498,0.020093,0.000000,0.043497,-0.043497,0.0000,0.0000,0.0000,-0.002478,-0.021476,0.023010,1.1391,0.6991,-0.3430,0.001534,0.587515,-0.561437,0.556835,-0.595185,0.558369,-0.559903
1.8699,0.020091,0.000000,0.061030,-0.061030,0.0000,0.0000,0.0000,-0.002478,-0.003068,0.006136,1.1391,0.6991,-0.3430,0.001534,0.587515,-0.561437,0.556835,-0.595185,0.558369,-0.559903
1.8900,0.020102,0.000000,0.078573,-0.078573,0.0000,0.0000,0.0000,-0.002478,0.015340,-0.010738,1.1391,0.6991,-0.3430,0.001534,0.587515,-0.561437,0.556835,-0.595185,0.558369,-0.559903
1.9101,0.020093,0.000000,0.096107,-0.096107,0.0000,0.0000,0.0000,-0.002478,0.050621,-0.049087,1.1391,0.6991,-0.3430,0.001534,0.587515,-0.561437,0.556835,-0.595185,0.558369,-0.559903
1.9302,0.020093,0.000000,0.113641,-0.113641,0.0000,0.0000,0.0000,-0.002478,0.065961,-0.064427,1.1391,0.6991,-0.3430,0.001534,0.587515,-0.561437,0.556835,-0.595185,0.558369,-0.559903
1.9503,0.020096,0.000000,0.131178,-0.131178,0.0000,0.0000,0.0000,-0.002478,0.070563,-0.069029,1.1391,0.6991,-0.3430,0.001534,0.587515,-0.561437,0.556835,-0.595185,0.558369,-0.559903
1.9704,0.020100,0.000000,0.148718,-0.148718,0.0000,0.0000,0.0000,-0.002478,0.073631,-0.078233,1.1391,0.6991,-0.3430,0.001534,0.587515,-0.561437,0.556835,-0.595185,0.558369,-0.559903
1.9907,0.020308,0.000000,0.166440,-0.166440,0.0000,0.0000,0.0000,-0.002478,0.095107,-0.095107,1.1391,0.6991,-0.3430,0.001534,0.587515,-0.561437,0.556835,-0.595185,0.558369,-0.559903
2.0109,0.020204,0.000000,0.164994,-0.164994,0.0000,0.0000,0.0000,-0.002478,0.127320,-0.121184,1.1391,0.6991,-0.3430,0.001534,0.587515,-0.561437,0.556835,-0.595185,0.558369,-0.559903
2.0311,0.020172,0.000000,0.147390,-0.147390,0.0000,0.0000,0.0000,-0.002478,0.158000,-0.144194,1.1391,0.6991,-0.3430,0.001534,0.587515,-0.561437,0.556835,-0.595185,0.558369,-0.559903
2.0512,0.020086,0.000000,0.129861,-0.129861,0.0000,0.0000,0.0000,-0.002478,0.176408,-0.167204,1.1391,0.6991,-0.3430,0.001534,0.587515,-0.561437,0.556835,-0.595185,0.558369,-0.559903
2.0713,0.020081,0.000000,0.112337,-0.112337,0.0000,0.0000,0.0000,-0.002492,0.173340,-0.174874,1.1495,0.6474,-0.3959,0.001534,0.587515,-0.561437,0.555301,-0.595185,0.558369,-0.559903
2.0920,0.020711,0.000000,0.094263,-0.094263,0.0000,0.0000,0.0000,-0.002464,0.158000,-0.165670,1.1766,0.6694,-0.3902,0.001534,0.587515,-0.562971,0.556835,-0.595185,0.558369,-0.559903
2.1121,0.020094,0.000000,0.076728,-0.076728,0.0000,0.0000,0.0000,-0.002480,0.138058,-0.148796,1.1347,0.7026,-0.3374,0.001534,0.587515,-0.561437,0.556835,-0.595185,0.558369,-0.559903
2.1322,0.020097,0.000000,0.059190,-0.059190,0.0000,0.0000,0.0000,-0.002478,0.116583,-0.127320,1.1391,0.6992,-0.3429,0.001534,0.587515,-0.561437,0.556835,-0.595185,0.558369,-0.559903
2.1523,0.020091,0.000000,0.041658,-0.041658,0.0000,0.0000,0.0000,-0.002478,0.095107,-0.104311,1.1391,0.6992,-0.3429,0.001534,0.587515,-0.561437,0.556835,-0.595185,0.558369,-0.559903
2.1724,0.020089,0.000000,0.024127,-0.024127,0.0000,0.0000,0.0000,-0.002478,0.073631,-0.082835,1.1391,0.6992,-0.3429,0.001534,0.587515,-0.561437,0.556835,-0.595185,0.558369,-0.559903
2.1924,0.020095,0.000000,0.006590,-0.006590,0.0000,0.0000,0.0000,-0.002478,0.055223,-0.058291,1.1391,0.6992,-0.3429,0.001534,0.587515,-0.561437,0.556835,-0.595185,0.558369,-0.559903
2.2126,0.020132,0.000000,-0.010978,0.010978,0.0000,0.0000,0.0000,-0.002478,0.036816,-0.038350,1.1391,0.6992,-0.3429,0.001534,0.587515,-0.561437,0.556835,-0.595185,0.558369,-0.559903
2.2327,0.020102,0.000000,-0.028520,0.028520,0.0000,0.0000,0.0000,-0.002478,0.018408,-0.019942,1.1391,0.6992,-0.3429,0.001534,0.587515,-0.561437,0.556835,-0.595185,0.558369,-0.559903
2.2528,0.020093,0.000000,-0.046054,0.046054,0.0000,0.0000,0.0000,-0.002478,0.001534,-0.001534,1.1391,0.6992,-0.3429,0.001534,0.587515,-0.561437,0.556835,-0.595185,0.558369,-0.559903
2.2729,0.020081,0.000000,-0.063579,0.063579,0.0000,0.0000,0.0000,-0.002478,-0.015340,0.016874,1.1391,0.6992,-0.3429,0.001534,0.587515,-0.561437,0.556835,-0.595185,0.558369,-0.559903
2.2929,0.020092,0.000000,-0.081113,0.081113,0.0000,0.0000,0.0000,-0.002478,-0.032214,0.032214,1.1391,0.6992,-0.3429,0.001534,0.587515,-0.561437,0.556835,-0.595185,0.558369,-0.559903
2.3131,0.020102,0.000000,-0.098655,0.098655,0.0000,0.0000,0.0000,-0.002465,-0.049087,0.047553,1.1777,0.6640,-0.3957,0.001534,0.587515,-0.562971,0.556835,-0.595185,0.558369,-0.559903
2.3332,0.020104,0.000000,-0.116199,0.116199,0.0000,0.0000,0.0000,-0.002480,-0.065961,0.062893,1.1346,0.7032,-0.3368,0.001534,0.587515,-0.561437,0.556835,-0.595185,0.558369,-0.559903
2.3533,0.020106,0.000000,-0.133745,0.133745,0.0000,0.0000,0.0000,-0.002478,-0.082835,0.081301,1.1391,0.6991,-0.3430,0.001534,0.587515,-0.561437,0.556835,-0.595185,0.558369,-0.559903
2.3733,0.020087,0.000000,-0.151275,0.151275,0.0000,0.0000,0.0000,-0.002492,-0.104311,0.101243,1.1495,0.6474,-0.3959,0.001534,0.587515,-0.561437,0.555301,-0.595185,0.558369,-0.559903
2.3934,0.020093,0.000000,-0.168809,0.168809,0.0000,0.0000,0.0000,-0.002477,-0.124252,0.121184,1.1375,0.7049,-0.3368,0.001534,0.587515,-0.561437,0.556835,-0.595185,0.558369,-0.559903
2.4135,0.020091,0.000000,-0.162724,0.162724,0.0000,0.0000,0.0000,-0.002479,-0.142660,0.138058,1.1388,0.6989,-0.3430,0.001534,0.587515,-0.561437,0.556835,-0.595185,0.558369,-0.559903
2.4336,0.020096,0.000000,-0.145187,0.145187,0.0000,0.0000,0.0000,-0.002479,-0.159534,0.156466,1.1388,0.6989,-0.3430,0.001534,0.587515,-0.561437,0.556835,-0.595185,0.558369,-0.559903
2.4537,0.020095,0.000000,-0.127651,0.127651,0.0000,0.0000,0.0000,-0.002479,-0.174874,0.171806,1.1388,0.6989,-0.3430,0.001534,0.587515,-0.561437,0.556835,-0.595185,0.558369,-0.559903
2.4738,0.020079,0.000000,-0.110129,0.110129,0.0000,0.0000,0.0000,-0.002479,-0.174874,0.173340,1.1388,0.6989,-0.3430,0.001534,0.587515,-0.561437,0.556835,-0.595185,0.558369,-0.559903
2.4939,0.020091,0.000000,-0.092596,0.092596,0.0000,0.0000,0.0000,-0.002479,-0.165670,0.164136,1.1388,0.6989,-0.3430,0.001534,0.587515,-0.561437,0.556835,-0.595185,0.558369,-0.559903
2.5140,0.020089,0.000000,-0.075065,0.075065,0.0000,0.0000,0.0000,-0.002479,-0.144194,0.147262,1.1388,0.6989,-0.3430,0.001534,0.587515,-0.561437,0.556835,-0.595185,0.558369,-0.559903
2.5340,0.020065,0.000000,-0.057555,0.057555,0.0000,0.0000,0.0000,-0.002479,-0.121184,0.125786,1.1388,0.6989,-0.3430,0.001534,0.587515,-0.561437,0.556835,-0.595185,0.558369,-0.559903
2.5541,0.020093,0.000000,-0.040021,0.040021,0.0000,0.0000,0.0000,-0.002479,-0.101243,0.107379,1.1388,0.6989,-0.3430,0.001534,0.587515,-0.561437,0.556835,-0.595185,0.558369,-0.559903
2.5742,0.020093,0.000000,-0.022486,0.022486,0.0000,0.0000,0.0000,-0.002479,-0.079767,0.084369,1.1388,0.6989,-0.3430,0.001534,0.587515,-0.561437,0.556835,-0.595185,0.558369,-0.559903
2.5943,0.020086,0.000000,-0.004958,0.004958,0.0000,0.0000,0.0000,-0.002479,-0.058291,0.059825,1.1388,0.6989,-0.3430,0.001534,0.587515,-0.561437,0.556835,-0.595185,0.558369,-0.559903
2.6144,0.020092,0.000000,0.012576,-0.012576,0.0000,0.0000,0.0000,-0.002479,-0.041417,0.044485,1.1388,0.6989,-0.3430,0.001534,0.587515,-0.561437,0.556835,-0.595185,0.558369,-0.559903
2.6345,0.020088,0.000000,0.030106,-0.030106,0.0000,0.0000,0.0000,-0.002479,-0.024544,0.026078,1.1388,0.6989,-0.3430,0.001534,0.587515,-0.561437,0.556835,-0.595185,0.558369,-0.559903
2.6546,0.020096,0.000000,0.047643,-0.047643,0.0000,0.0000,0.0000,-0.002479,-0.007670,0.010738,1.1388,0.6989,-0.3430,0.001534,0.587515,-0.561437,0.556835,-0.595185,0.558369,-0.559903
2.6747,0.020085,0.000000,0.065170,-0.065170,0.0000,0.0000,0.0000,-0.002479,0.010738,-0.004602,1.1388,0.6989,-0.3430,0.001534,0.587515,-0.561437,0.556835,-0.595185,0.558369,-0.559903
2.6948,0.020087,0.000000,0.082699,-0.082699,0.0000,0.0000,0.0000,-0.002479,0.030680,-0.026078,1.1388,0.6989,-0.3430,0.001534,0.587515,-0.561437,0.556835,-0.595185,0.558369,-0.559903
2.7149,0.020087,0.000000,0.100228,-0.100228,0.0000,0.0000,0.0000,-0.002479,0.046019,-0.042951,1.1388,0.6989,-0.3430,0.001534,0.587515,-0.561437,0.556835,-0.595185,0.558369,-0.559903
2.7349,0.020088,0.000000,0.117758,-0.117758,0.0000,0.0000,0.0000,-0.002479,0.062893,-0.061359,1.1388,0.6989,-0.3430,0.001534,0.587515,-0.561437,0.556835,-0.595185,0.558369,-0.559903
2.7550,0.020104,0.000000,0.135301,-0.135301,0.0000,0.0000,0.0000,-0.002479,0.082835,-0.079767,1.1388,0.6989,-0.3430,0.001534,0.587515,-0.561437,0.556835,-0.595185,0.558369,-0.559903
2.7751,0.020083,0.000000,0.152827,-0.152827,0.0000,0.0000,0.0000,-0.002479,0.099709,-0.095107,1.1388,0.6989,-0.3430,0.001534,0.587515,-0.561437,0.556835,-0.595185,0.558369,-0.559903
2.7952,0.020092,0.000000,0.170360,-0.170360,0.0000,0.0000,0.0000,-0.002479,0.118117,-0.110447,1.1388,0.6989,-0.3430,0.001534,0.587515,-0.561437,0.556835,-0.595185,0.558369,-0.559903
2.8153,0.020084,0.000000,0.161179,-0.161179,0.0000,0.0000,0.0000,-0.002479,0.134990,-0.125786,1.1388,0.6989,-0.3430,0.001534,0.587515,-0.561437,0.556835,-0.595185,0.558369,-0.559903
2.8354,0.020091,0.000000,0.143646,-0.143646,0.0000,0.0000,0.0000,-0.002479,0.156466,-0.145728,1.1388,0.6989,-0.3430,0.001534,0.587515,-0.561437,0.556835,-0.595185,0.558369,-0.559903
2.8555,0.020100,0.000000,0.126105,-0.126105,0.0000,0.0000,0.0000,-0.002479,0.171806,-0.161068,1.1388,0.6989,-0.3430,0.001534,0.587515,-0.561437,0.556835,-0.595185,0.558369,-0.559903
2.8756,0.020086,0.000000,0.108577,-0.108577,0.0000,0.0000,0.0000,-0.002479,0.174874,-0.170272,1.1388,0.6989,-0.3430,0.001534,0.587515,-0.561437,0.556835,-0.595185,0.558369,-0.559903
2.8957,0.020087,0.000000,0.091047,-0.091047,0.0000,0.0000,0.0000,-0.002479,0.162602,-0.164136,1.1388,0.6989,-0.3430,0.001534,0.587515,-0.561437,0.556835,-0.595185,0.558369,-0.559903
2.9158,0.020168,0.000000,0.073448,-0.073448,0.0000,0.0000,0.0000,-0.002479,0.142660,-0.147262,1.1388,0.6989,-0.3430,0.001534,0.587515,-0.561437,0.556835,-0.595185,0.558369,-0.559903
2.9359,0.020102,0.000000,0.055905,-0.055905,0.0000,0.0000,0.0000,-0.002479,0.121184,-0.130388,1.1388,0.6989,-0.3430,0.001534,0.587515,-0.561437,0.556835,-0.595185,0.558369,-0.559903
2.9560,0.020105,0.000000,0.038360,-0.038360,0.0000,0.0000,0.0000,-0.002479,0.101243,-0.110447,1.1388,0.6989,-0.3430,0.001534,0.587515,-0.561437,0.556835,-0.595185,0.558369,-0.559903
2.9762,0.020193,0.000000,0.020738,-0.020738,0.0000,0.0000,0.0000,-0.002479,0.075165,-0.085903,1.1388,0.6989,-0.3430,0.001534,0.587515,-0.561437,0.556835,-0.595185,0.558369,-0.559903
2.9963,0.020098,0.000000,0.003200,-0.003200,0.0000,0.0000,0.0000,-0.002479,0.053689,-0.062893,1.1388,0.6989,-0.3430,0.001534,0.587515,-0.561437,0.556835,-0.595185,0.558369,-0.559903
3.0164,0.020087,0.000000,-0.014329,0.014329,0.0000,0.0000,0.0000,-0.002479,0.038350,-0.044485,1.1388,0.6989,-0.3430,0.001534,0.587515,-0.561437,0.556835,-0.595185,0.558369,-0.559903
3.0365,0.020090,0.000000,-0.031861,0.031861,0.0000,0.0000,0.0000,-0.002479,0.024544,-0.024544,1.1388,0.6989,-0.3430,0.001534,0.587515,-0.561437,0.556835,-0.595185,0.558369,-0.559903
3.0566,0.020084,0.000000,-0.049388,0.049388,0.0000,0.0000,0.0000,-0.002479,0.024544,-0.024544,1.1388,0.6989,-0.3430,0.001534,0.587515,-0.561437,0.556835,-0.595185,0.558369,-0.559903
3.0767,0.020088,0.000000,-0.066918,0.066918,0.0000,0.0000,0.0000,-0.002492,0.006136,-0.004602,1.1496,0.6474,-0.3959,0.001534,0.587515,-0.561437,0.555301,-0.595185,0.558369,-0.559903
3.0968,0.020090,0.000000,-0.084449,0.084449,0.0000,0.0000,0.0000,-0.002477,-0.012272,0.012272,1.1375,0.7049,-0.3368,0.001534,0.587515,-0.561437,0.556835,-0.595185,0.558369,-0.559903
3.1169,0.020089,0.000000,-0.101980,0.101980,0.0000,0.0000,0.0000,-0.002479,-0.027612,0.024544,1.1388,0.6989,-0.3430,0.001534,0.587515,-0.561437,0.556835,-0.595185,0.558369,-0.559903
3.1369,0.020083,0.000000,-0.119506,0.119506,0.0000,0.0000,0.0000,-0.002479,-0.042951,0.038350,1.1388,0.6989,-0.3430,0.001534,0.587515,-0.561437,0.556835,-0.595185,0.558369,-0.559903
3.1572,0.020215,0.000000,-0.137147,0.137147,0.0000,0.0000,0.0000,-0.002479,-0.059825,0.053689,1.1388,0.6989,-0.3430,0.001534,0.587515,-0.561437,0.556835,-0.595185,0.558369,-0.559903
3.1772,0.020085,0.000000,-0.154675,0.154675,0.0000,0.0000,0.0000,-0.002479,-0.075165,0.073631,1.1388,0.6989,-0.3430,0.001534,0.587515,-0.561437,0.556835,-0.595185,0.558369,-0.559903
3.1973,0.020087,0.000000,-0.172204,0.172204,0.0000,0.0000,0.0000,-0.002479,-0.093573,0.092039,1.1388,0.6989,-0.3430,0.001534,0.587515,-0.561437,0.556835,-0.595185,0.558369,-0.559903
3.2174,0.020086,0.000000,-0.159333,0.159333,0.0000,0.0000,0.0000,-0.002479,-0.113515,0.111981,1.1388,0.6989,-0.3430,0.001534,0.587515,-0.561437,0.556835,-0.595185,0.558369,-0.559903
3.2375,0.020083,0.000000,-0.141807,0.141807,0.0000,0.0000,0.0000,-0.002479,-0.133456,0.130388,1.1388,0.6989,-0.3430,0.001534,0.587515,-0.561437,0.556835,-0.595185,0.558369,-0.559903
3.2576,0.020087,0.000000,-0.124278,0.124278,0.0000,0.0000,0.0000,-0.002465,-0.150330,0.147262,1.1777,0.6640,-0.3957,0.001534,0.587515,-0.562971,0.556835,-0.595185,0.558369,-0.559903
3.2777,0.020095,0.000000,-0.106741,0.106741,0.0000,0.0000,0.0000,-0.002480,-0.168738,0.164136,1.1346,0.7032,-0.3368,0.001534,0.587515,-0.561437,0.556835,-0.595185,0.558369,-0.559903
3.2978,0.020089,0.000000,-0.089211,0.089211,0.0000,0.0000,0.0000,-0.002478,-0.179476,0.176408,1.1391,0.6991,-0.3430,0.001534,0.587515,-0.561437,0.556835,-0.595185,0.558369,-0.559903
3.3179,0.020089,0.000000,-0.071680,0.071680,0.0000,0.0000,0.0000,-0.002478,-0.156466,0.156466,1.1391,0.6991,-0.3430,0.001534,0.587515,-0.561437,0.556835,-0.595185,0.558369,-0.559903
3.3380,0.020097,0.000000,-0.054142,0.054142,0.0000,0.0000,0.0000,-0.002478,-0.134990,0.139592,1.1391,0.6991,-0.3430,0.001534,0.587515,-0.561437,0.556835,-0.595185,0.558369,-0.559903
3.3580,0.020086,0.000000,-0.036613,0.036613,0.0000,0.0000,0.0000,-0.002478,-0.110447,0.113515,1.1391,0.6991,-0.3430,0.001534,0.587515,-0.561437,0.556835,-0.595185,0.558369,-0.559903
3.3781,0.020087,0.000000,-0.019084,0.019084,0.0000,0.0000,0.0000,-0.002478,-0.081301,0.085903,1.1391,0.6991,-0.3430,0.001534,0.587515,-0.561437,0.556835,-0.595185,0.558369,-0.559903
3.3982,0.020084,0.000000,-0.001557,0.001557,0.0000,0.0000,0.0000,-0.002478,-0.052155,0.058291,1.1391,0.6991,-0.3430,0.001534,0.587515,-0.561437,0.556835,-0.595185,0.558369,-0.559903
3.4183,0.020083,0.000000,0.015969,-0.015969,0.0000,0.0000,0.0000,-0.002478,-0.033748,0.038350,1.1391,0.6991,-0.3430,0.001534,0.587515,-0.561437,0.556835,-0.595185,0.558369,-0.559903
3.4384,0.020082,0.000000,0.033493,-0.033493,0.0000,0.0000,0.0000,-0.002478,-0.013806,0.018408,1.1391,0.6991,-0.3430,0.001534,0.587515,-0.561437,0.556835,-0.595185,0.558369,-0.559903
3.4585,0.020088,0.000000,0.051023,-0.051023,0.0000,0.0000,0.0000,-0.002478,0.004602,0.000000,1.1391,0.6991,-0.3430,0.001534,0.587515,-0.561437,0.556835,-0.595185,0.558369,-0.559903
3.4786,0.020094,0.000000,0.068558,-0.068558,0.0000,0.0000,0.0000,-0.002492,0.019942,-0.016874,1.1495,0.6474,-0.3959,0.001534,0.587515,-0.561437,0.555301,-0.595185,0.558369,-0.559903
3.4986,0.020086,0.000000,0.086087,-0.086087,0.0000,0.0000,0.0000,-0.002477,0.032214,-0.030680,1.1375,0.7049,-0.3368,0.001534,0.587515,-0.561437,0.556835,-0.595185,0.558369,-0.559903
3.5187,0.020088,0.000000,0.103617,-0.103617,0.0000,0.0000,0.0000,-0.002479,0.049087,-0.049087,1.1388,0.6989,-0.3430,0.001534,0.587515,-0.561437,0.556835,-0.595185,0.558369,-0.559903
3.5388,0.020087,0.000000,0.121146,-0.121146,0.0000,0.0000,0.0000,-0.002479,0.069029,-0.065961,1.1388,0.6989,-0.3430,0.001534,0.587515,-0.561437,0.556835,-0.595185,0.558369,-0.559903
3.5589,0.020086,0.000000,0.138675,-0.138675,0.0000,0.0000,0.0000,-0.002479,0.087437,-0.084369,1.1388,0.6989,-0.3430,0.001534,0.587515,-0.561437,0.556835,-0.595185,0.558369,-0.559903
3.5790,0.020097,0.000000,0.156213,-0.156213,0.0000,0.0000,0.0000,-0.002479,0.105845,-0.099709,1.1388,0.6989,-0.3430,0.001534,0.587515,-0.561437,0.556835,-0.595185,0.558369,-0.559903
3.5991,0.020088,0.000000,0.173743,-0.173743,0.0000,0.0000,0.0000,-0.002492,0.125786,-0.116583,1.1496,0.6474,-0.3959,0.001534,0.587515,-0.561437,0.555301,-0.595185,0.558369,-0.559903
3.6192,0.020097,0.000000,0.157785,-0.157785,0.0000,0.0000,0.0000,-0.002477,0.144194,-0.133456,1.1375,0.7049,-0.3368,0.001534,0.587515,-0.561437,0.556835,-0.595185,0.558369,-0.559903
3.6393,0.020086,0.000000,0.140257,-0.140257,0.0000,0.0000,0.0000,-0.002479,0.161068,-0.151864,1.1388,0.6989,-0.3430,0.001534,0.587515,-0.561437,0.556835,-0.595185,0.558369,-0.559903
3.6594,0.020084,0.000000,0.122730,-0.122730,0.0000,0.0000,0.0000,-0.002479,0.177942,-0.170272,1.1388,0.6989,-0.3430,0.001534,0.587515,-0.561437,0.556835,-0.595185,0.558369,-0.559903
3.6794,0.020083,0.000000,0.105205,-0.105205,0.0000,0.0000,0.0000,-0.002479,0.174874,-0.170272,1.1388,0.6989,-0.3430,0.001534,0.587515,-0.561437,0.556835,-0.595185,0.558369,-0.559903
3.6995,0.020076,0.000000,0.087685,-0.087685,0.0000,0.0000,0.0000,-0.002479,0.158000,-0.159534,1.1388,0.6989,-0.3430,0.001534,0.587515,-0.561437,0.556835,-0.595185,0.558369,-0.559903
3.7196,0.020087,0.000000,0.070156,-0.070156,0.0000,0.0000,0.0000,-0.002479,0.138058,-0.142660,1.1388,0.6989,-0.3430,0.001534,0.587515,-0.561437,0.556835,-0.595185,0.558369,-0.559903
3.7397,0.020076,0.000000,0.052637,-0.052637,0.0000,0.0000,0.0000,-0.002479,0.113515,-0.121184,1.1388,0.6989,-0.3430,0.001534,0.587515,-0.561437,0.556835,-0.595185,0.558369,-0.559903
3.7598,0.020086,0.000000,0.035108,-0.035108,0.0000,0.0000,0.0000,-0.002479,0.087437,-0.098175,1.1388,0.6989,-0.3430,0.001534,0.587515,-0.561437,0.556835,-0.595185,0.558369,-0.559903
3.7799,0.020084,0.000000,0.017582,-0.017582,0.0000,0.0000,0.0000,-0.002479,0.064427,-0.075165,1.1388,0.6989,-0.3430,0.001534,0.587515,-0.561437,0.556835,-0.595185,0.558369,-0.559903
3.7999,0.020077,0.000000,0.000061,-0.000061,0.0000,0.0000,0.0000,-0.002479,0.044485,-0.052155,1.1388,0.6989,-0.4309,0.000000,0.587515,-0.561437,0.556835,-0.595185,0.558369,-0.559903
3.8200,0.020085,0.000000,-0.017466,0.017466,0.0000,0.0000,0.0000,-0.002479,0.027612,-0.032214,1.1388,0.6989,-0.3430,0.001534,0.587515,-0.561437,0.556835,-0.595185,0.558369,-0.559903
3.8401,0.020076,0.000000,-0.034986,0.034986,0.0000,0.0000,0.0000,-0.002492,0.012272,-0.012272,1.1496,0.6474,-0.3959,0.001534,0.587515,-0.561437,0.555301,-0.595185,0.558369,-0.559903
3.8602,0.020113,0.000000,-0.052537,0.052537,0.0000,0.0000,0.0000,-0.002477,-0.004602,0.003068,1.1375,0.7049,-0.3368,0.001534,0.587515,-0.561437,0.556835,-0.595185,0.558369,-0.559903
3.8803,0.020080,0.000000,-0.070060,0.070060,0.0000,0.0000,0.0000,-0.002479,-0.019942,0.019942,1.1388,0.6989,-0.3430,0.001534,0.587515,-0.561437,0.556835,-0.595185,0.558369,-0.559903
3.9004,0.020075,0.000000,-0.087579,0.087579,0.0000,0.0000,0.0000,-0.002479,-0.036816,0.035282,1.1388,0.6989,-0.3430,0.001534,0.587515,-0.561437,0.556835,-0.595185,0.558369,-0.559903
3.9204,0.020090,0.000000,-0.105111,0.105111,0.0000,0.0000,0.0000,-0.002479,-0.055223,0.050621,1.1388,0.6989,-0.3430,0.001534,0.587515,-0.561437,0.556835,-0.595185,0.558369,-0.559903
3.9405,0.020078,0.000000,-0.122633,0.122633,0.0000,0.0000,0.0000,-0.002465,-0.073631,0.070563,1.1777,0.6640,-0.3957,0.001534,0.587515,-0.562971,0.556835,-0.595185,0.558369,-0.559903
3.9606,0.020095,0.000000,-0.140169,0.140169,0.0000,0.0000,0.0000,-0.002480,-0.090505,0.087437,1.1346,0.7032,-0.3368,0.001534,0.587515,-0.561437,0.556835,-0.595185,0.558369,-0.559903
3.9807,0.020052,0.000000,-0.157668,0.157668,0.0000,0.0000,0.0000,-0.002492,-0.110447,0.105845,1.1500,0.6469,-0.3965,0.001534,0.587515,-0.561437,0.555301,-0.595185,0.558369,-0.559903
4.0007,0.020075,0.000000,-0.173879,0.173879,0.0000,0.0000,0.0000,-0.002477,-0.127320,0.124252,1.1375,0.7050,-0.3368,0.001534,0.587515,-0.561437,0.556835,-0.595185,0.558369,-0.559903
4.0208,0.020081,0.000000,-0.156355,0.156355,0.0000,0.0000,0.0000,-0.002492,-0.144194,0.141126,1.1497,0.6468,-0.3965,0.001534,0.587515,-0.561437,0.555301,-0.595185,0.558369,-0.559903
4.0409,0.020079,0.000000,-0.138833,0.138833,0.0000,0.0000,0.0000,-0.002477,-0.162602,0.159534,1.1375,0.7050,-0.3368,0.001534,0.587515,-0.561437,0.556835,-0.595185,0.558369,-0.559903
4.0610,0.020087,0.000000,-0.121304,0.121304,0.0000,0.0000,0.0000,-0.002479,-0.179476,0.176408,1.1388,0.6989,-0.3430,0.001534,0.587515,-0.561437,0.556835,-0.595185,0.558369,-0.559903
4.0811,0.020073,0.000000,-0.103787,0.103787,0.0000,0.0000,0.0000,-0.002479,-0.179476,0.174874,1.1388,0.6989,-0.3430,0.001534,0.587515,-0.561437,0.556835,-0.595185,0.558369,-0.559903
4.1011,0.020075,0.000000,-0.086268,0.086268,0.0000,0.0000,0.0000,-0.002479,-0.165670,0.165670,1.1388,0.6989,-0.3430,0.001534,0.587515,-0.561437,0.556835,-0.595185,0.558369,-0.559903
4.1212,0.020078,0.000000,-0.068747,0.068747,0.0000,0.0000,0.0000,-0.002479,-0.144194,0.145728,1.1388,0.6989,-0.3430,0.001534,0.587515,-0.561437,0.556835,-0.595185,0.558369,-0.559903
4.1413,0.020078,0.000000,-0.051225,0.051225,0.0000,0.0000,0.0000,-0.002479,-0.121184,0.125786,1.1388,0.6989,-0.3430,0.001534,0.587515,-0.561437,0.556835,-0.595185,0.558369,-0.559903
4.1614,0.020084,0.000000,-0.033698,0.033698,0.0000,0.0000,0.0000,-0.002479,-0.095107,0.101243,1.1388,0.6989,-0.3430,0.001534,0.587515,-0.561437,0.556835,-0.595185,0.558369,-0.559903
4.1815,0.020071,0.000000,-0.016183,0.016183,0.0000,0.0000,0.0000,-0.002479,-0.075165,0.079767,1.1388,0.6989,-0.3430,0.001534,0.587515,-0.561437,0.556835,-0.595185,0.558369,-0.559903
4.2015,0.020075,0.000000,0.001335,-0.001335,0.0000,0.0000,0.0000,-0.002479,-0.056757,0.059825,1.1388,0.6989,-0.3430,0.001534,0.587515,-0.561437,0.556835,-0.595185,0.558369,-0.559903
4.2216,0.020079,0.000000,0.018858,-0.018858,0.0000,0.0000,0.0000,-0.002492,-0.038350,0.039884,1.1496,0.6474,-0.3959,0.001534,0.587515,-0.561437,0.555301,-0.595185,0.558369,-0.559903
4.2417,0.020080,0.000000,0.036381,-0.036381,0.0000,0.0000,0.0000,-0.002491,-0.018408,0.021476,1.1484,0.6527,-0.3904,0.001534,0.587515,-0.561437,0.555301,-0.595185,0.558369,-0.559903
4.2618,0.020082,0.000000,0.053906,-0.053906,0.0000,0.0000,0.0000,-0.002491,-0.003068,0.006136,1.1484,0.6527,-0.3904,0.001534,0.587515,-0.561437,0.555301,-0.595185,0.558369,-0.559903
4.2819,0.020095,0.000000,0.071441,-0.071441,0.0000,0.0000,0.0000,-0.002477,0.013806,-0.009204,1.1376,0.7044,-0.3374,0.001534,0.587515,-0.561437,0.556835,-0.595185,0.558369,-0.559903
4.3019,0.020075,0.000000,0.088960,-0.088960,0.0000,0.0000,0.0000,-0.002479,0.030680,-0.027612,1.1387,0.6990,-0.4308,0.000000,0.587515,-0.561437,0.556835,-0.595185,0.558369,-0.559903
4.3222,0.020274,0.000000,0.106652,-0.106652,0.0000,0.0000,0.0000,-0.002479,0.050621,-0.047553,1.1387,0.6990,-0.3429,0.001534,0.587515,-0.561437,0.556835,-0.595185,0.558369,-0.559903
4.3423,0.020047,0.000000,0.124147,-0.124147,0.0000,0.0000,0.0000,-0.002492,0.069029,-0.065961,1.1496,0.6474,-0.3959,0.001534,0.587515,-0.561437,0.555301,-0.595185,0.558369,-0.559903
4.3624,0.020089,0.000000,0.141677,-0.141677,0.0000,0.0000,0.0000,-0.002464,0.085903,-0.082835,1.1766,0.6694,-0.3902,0.001534,0.587515,-0.562971,0.556835,-0.595185,0.558369,-0.559903
4.3824,0.020071,0.000000,0.159193,-0.159193,0.0000,0.0000,0.0000,-0.002480,0.102777,-0.098175,1.1347,0.7026,-0.3374,0.001534,0.587515,-0.561437,0.556835,-0.595185,0.558369,-0.559903
4.4025,0.020076,0.000000,0.172353,-0.172353,0.0000,0.0000,0.0000,-0.002478,0.121184,-0.113515,1.1391,0.6992,-0.3429,0.001534,0.587515,-0.561437,0.556835,-0.595185,0.558369,-0.559903
4.4226,0.020077,0.000000,0.154832,-0.154832,0.0000,0.0000,0.0000,-0.002478,0.141126,-0.130388,1.1391,0.6992,-0.3429,0.001534,0.587515,-0.561437,0.556835,-0.595185,0.558369,-0.559903
4.4427,0.020080,0.000000,0.137309,-0.137309,0.0000,0.0000,0.0000,-0.002478,0.158000,-0.148796,1.1391,0.6992,-0.3429,0.001534,0.587515,-0.561437,0.556835,-0.595185,0.558369,-0.559903
4.4627,0.020086,0.000000,0.119781,-0.119781,0.0000,0.0000,0.0000,-0.002478,0.174874,-0.165670,1.1391,0.6992,-0.3429,0.001534,0.587515,-0.561437,0.556835,-0.595185,0.558369,-0.559903
4.4828,0.020075,0.000000,0.102262,-0.102262,0.0000,0.0000,0.0000,-0.002478,0.176408,-0.173340,1.1391,0.6992,-0.3429,0.001534,0.587515,-0.561437,0.556835,-0.595185,0.558369,-0.559903
4.5029,0.020116,0.000000,0.084707,-0.084707,0.0000,0.0000,0.0000,-0.002478,0.159534,-0.165670,1.1391,0.6992,-0.3429,0.001534,0.587515,-0.561437,0.556835,-0.595185,0.558369,-0.559903
4.5230,0.020085,0.000000,0.067180,-0.067180,0.0000,0.0000,0.0000,-0.002478,0.142660,-0.148796,1.1391,0.6992,-0.3429,0.001534,0.587515,-0.561437,0.556835,-0.595185,0.558369,-0.559903
4.5431,0.020076,0.000000,0.049660,-0.049660,0.0000,0.0000,0.0000,-0.002478,0.119651,-0.128854,1.1391,0.6992,-0.3429,0.001534,0.587515,-0.561437,0.556835,-0.595185,0.558369,-0.559903
4.5632,0.020084,0.000000,0.032133,-0.032133,0.0000,0.0000,0.0000,-0.002478,0.092039,-0.102777,1.1391,0.6992,-0.3429,0.001534,0.587515,-0.561437,0.556835,-0.595185,0.558369,-0.559903
4.5833,0.020086,0.000000,0.014605,-0.014605,0.0000,0.0000,0.0000,-0.002478,0.073631,-0.082835,1.1391,0.6992,-0.3429,0.001534,0.587515,-0.561437,0.556835,-0.595185,0.558369,-0.559903
4.6034,0.020141,0.000000,-0.002972,0.002972,0.0000,0.0000,0.0000,-0.002478,0.052155,-0.056757,1.1391,0.6992,-0.3429,0.001534,0.587515,-0.561437,0.556835,-0.595185,0.558369,-0.559903
4.6238,0.020361,0.000000,-0.020740,0.020740,0.0000,0.0000,0.0000,-0.002478,0.032214,-0.036816,1.1391,0.6992,-0.3429,0.001534,0.587515,-0.561437,0.556835,-0.595185,0.558369,-0.559903
4.6438,0.020083,0.000000,-0.038266,0.038266,0.0000,0.0000,0.0000,-0.002478,0.016874,-0.016874,1.1391,0.6992,-0.3429,0.001534,0.587515,-0.561437,0.556835,-0.595185,0.558369,-0.559903
4.6639,0.020087,0.000000,-0.055794,0.055794,0.0000,0.0000,0.0000,-0.002478,0.000000,0.000000,1.1391,0.6992,-0.3429,0.001534,0.587515,-0.561437,0.556835,-0.595185,0.558369,-0.559903
4.6840,0.020093,0.000000,-0.073329,0.073329,0.0000,0.0000,0.0000,-0.002478,-0.016874,0.016874,1.1391,0.6992,-0.3429,0.001534,0.587515,-0.561437,0.556835,-0.595185,0.558369,-0.559903
4.7041,0.020081,0.000000,-0.090853,0.090853,0.0000,0.0000,0.0000,-0.002478,-0.032214,0.033748,1.1391,0.6992,-0.3429,0.001534,0.587515,-0.561437,0.556835,-0.595185,0.558369,-0.559903
4.7242,0.020112,0.000000,-0.108403,0.108403,0.0000,0.0000,0.0000,-0.002492,-0.050621,0.049087,1.1495,0.6474,-0.3959,0.001534,0.587515,-0.561437,0.555301,-0.595185,0.558369,-0.559903
4.7443,0.020083,0.000000,-0.125929,0.125929,0.0000,0.0000,0.0000,-0.002477,-0.069029,0.067495,1.1375,0.7049,-0.3368,0.001534,0.587515,-0.561437,0.556835,-0.595185,0.558369,-0.559903
4.7644,0.020125,0.000000,-0.143491,0.143491,0.0000,0.0000,0.0000,-0.002479,-0.088971,0.084369,1.1388,0.6989,-0.3430,0.001534,0.587515,-0.561437,0.556835,-0.595185,0.558369,-0.559903
4.7845,0.020095,0.000000,-0.161027,0.161027,0.0000,0.0000,0.0000,-0.002479,-0.108913,0.104311,1.1388,0.6989,-0.3430,0.001534,0.587515,-0.561437,0.556835,-0.595185,0.558369,-0.559903
4.8046,0.020080,0.000000,-0.170515,0.170515,0.0000,0.0000,0.0000,-0.002479,-0.125786,0.122718,1.1388,0.6989,-0.3430,0.001534,0.587515,-0.561437,0.556835,-0.595185,0.558369,-0.559903
4.8247,0.020116,0.000000,-0.152961,0.152961,0.0000,0.0000,0.0000,-0.002479,-0.142660,0.139592,1.1388,0.6989,-0.3430,0.001534,0.587515,-0.561437,0.556835,-0.595185,0.558369,-0.559903
4.8448,0.020084,0.000000,-0.135434,0.135434,0.0000,0.0000,0.0000,-0.002479,-0.161068,0.158000,1.1388,0.6989,-0.3430,0.001534,0.587515,-0.561437,0.556835,-0.595185,0.558369,-0.559903
4.8649,0.020079,0.000000,-0.117912,0.117912,0.0000,0.0000,0.0000,-0.002479,-0.177942,0.174874,1.1388,0.6989,-0.3430,0.001534,0.587515,-0.561437,0.556835,-0.595185,0.558369,-0.559903
4.8850,0.020078,0.000000,-0.100391,0.100391,0.0000,0.0000,0.0000,-0.002479,-0.177942,0.174874,1.1388,0.6989,-0.3430,0.001534,0.587515,-0.561437,0.556835,-0.595185,0.558369,-0.559903
4.9053,0.020314,0.000000,-0.082664,0.082664,0.0000,0.0000,0.0000,-0.002479,-0.165670,0.164136,1.1388,0.6989,-0.3430,0.001534,0.587515,-0.561437,0.556835,-0.595185,0.558369,-0.559903
4.9253,0.020061,0.000000,-0.065157,0.065157,0.0000,0.0000,0.0000,-0.002479,-0.144194,0.145728,1.1388,0.6989,-0.3430,0.001534,0.587515,-0.561437,0.556835,-0.595185,0.558369,-0.559903
4.9454,0.020081,0.000000,-0.047633,0.047633,0.0000,0.0000,0.0000,-0.002479,-0.119651,0.124252,1.1388,0.6989,-0.3430,0.001534,0.587515,-0.561437,0.556835,-0.595185,0.558369,-0.559903
4.9655,0.020079,0.000000,-0.030111,0.030111,0.0000,0.0000,0.0000,-0.002479,-0.095107,0.101243,1.1388,0.6989,-0.3430,0.001534,0.587515,-0.561437,0.556835,-0.595185,0.558369,-0.559903
4.9856,0.020085,0.000000,-0.012584,0.012584,0.0000,0.0000,0.0000,-0.002479,-0.072097,0.076699,1.1388,0.6989,-0.3430,0.001534,0.587515,-0.561437,0.556835,-0.595185,0.558369,-0.559903
5.0057,0.020095,0.000000,0.004953,-0.004953,0.0000,0.0000,0.0000,-0.002479,-0.053689,0.056757,1.1388,0.6989,-0.3430,0.001534,0.587515,-0.561437,0.556835,-0.595185,0.558369,-0.559903
5.0258,0.020091,0.000000,0.022485,-0.022485,0.0000,0.0000,0.0000,-0.002479,-0.038350,0.041417,1.1388,0.6989,-0.3430,0.001534,0.587515,-0.561437,0.556835,-0.595185,0.558369,-0.559903
5.0458,0.020076,0.000000,0.040005,-0.040005,0.0000,0.0000,0.0000,-0.002479,-0.021476,0.024544,1.1388,0.6989,-0.3430,0.001534,0.587515,-0.561437,0.556835,-0.595185,0.558369,-0.559903
5.0659,0.020081,0.000000,0.057529,-0.057529,0.0000,0.0000,0.0000,-0.002479,-0.006136,0.009204,1.1388,0.6989,-0.3430,0.001534,0.587515,-0.561437,0.556835,-0.595185,0.558369,-0.559903
5.0860,0.020083,0.000000,0.075055,-0.075055,0.0000,0.0000,0.0000,-0.002479,0.010738,-0.004602,1.1388,0.6989,-0.3430,0.001534,0.587515,-0.561437,0.556835,-0.595185,0.558369,-0.559903
5.1065,0.020522,0.000000,0.092964,-0.092964,0.0000,0.0000,0.0000,-0.002479,0.027612,-0.024544,1.1388,0.6989,-0.3430,0.001534,0.587515,-0.561437,0.556835,-0.595185,0.558369,-0.559903
5.1266,0.020105,0.000000,0.110508,-0.110508,0.0000,0.0000,0.0000,-0.002479,0.044485,-0.042951,1.1388,0.6989,-0.3430,0.001534,0.587515,-0.561437,0.556835,-0.595185,0.558369,-0.559903
5.1467,0.020083,0.000000,0.128034,-0.128034,0.0000,0.0000,0.0000,-0.002492,0.062893,-0.061359,1.1496,0.6474,-0.3959,0.001534,0.587515,-0.561437,0.555301,-0.595185,0.558369,-0.559903
5.1668,0.020081,0.000000,0.145559,-0.145559,0.0000,0.0000,0.0000,-0.002477,0.082835,-0.081301,1.1375,0.7049,-0.3368,0.001534,0.587515,-0.561437,0.556835,-0.595185,0.558369,-0.559903
5.1869,0.020099,0.000000,0.163099,-0.163099,0.0000,0.0000,0.0000,-0.002479,0.101243,-0.096641,1.1388,0.6989,-0.3430,0.001534,0.587515,-0.561437,0.556835,-0.595185,0.558369,-0.559903
5.2070,0.020088,0.000000,0.168437,-0.168437,0.0000,0.0000,0.0000,-0.002479,0.119651,-0.111981,1.1388,0.6989,-0.3430,0.001534,0.587515,-0.561437,0.556835,-0.595185,0.558369,-0.559903
5.2271,0.020091,0.000000,0.150904,-0.150904,0.0000,0.0000,0.0000,-0.002479,0.156466,-0.145728,1.1388,0.6989,-0.3430,0.001534,0.587515,-0.561437,0.556835,-0.595185,0.558369,-0.559903
5.2472,0.020087,0.000000,0.133375,-0.133375,0.0000,0.0000,0.0000,-0.002479,0.171806,-0.164136,1.1388,0.6989,-0.3430,0.001534,0.587515,-0.561437,0.556835,-0.595185,0.558369,-0.559903
5.2672,0.020079,0.000000,0.115853,-0.115853,0.0000,0.0000,0.0000,-0.002479,0.173340,-0.173340,1.1388,0.6989,-0.3430,0.001534,0.587515,-0.561437,0.556835,-0.595185,0.558369,-0.559903
5.2873,0.020092,0.000000,0.098319,-0.098319,0.0000,0.0000,0.0000,-0.002479,0.161068,-0.168738,1.1388,0.6989,-0.4309,0.000000,0.587515,-0.561437,0.556835,-0.595185,0.558369,-0.559903
5.3074,0.020087,0.000000,0.080790,-0.080790,0.0000,0.0000,0.0000,-0.002479,0.142660,-0.150330,1.1388,0.6989,-0.3430,0.001534,0.587515,-0.561437,0.556835,-0.595185,0.558369,-0.559903
5.3275,0.020095,0.000000,0.063254,-0.063254,0.0000,0.0000,0.0000,-0.002479,0.118117,-0.128854,1.1388,0.6989,-0.3430,0.001534,0.587515,-0.561437,0.556835,-0.595185,0.558369,-0.559903
5.3476,0.020082,0.000000,0.045729,-0.045729,0.0000,0.0000,0.0000,-0.002465,0.095107,-0.104311,1.1777,0.6640,-0.3957,0.001534,0.587515,-0.562971,0.556835,-0.595185,0.558369,-0.559903
5.3677,0.020130,0.000000,0.028162,-0.028162,0.0000,0.0000,0.0000,-0.002480,0.072097,-0.081301,1.1346,0.7032,-0.3368,0.001534,0.587515,-0.561437,0.556835,-0.595185,0.558369,-0.559903
5.3882,0.020453,0.000000,0.010314,-0.010314,0.0000,0.0000,0.0000,-0.002478,0.050621,-0.056757,1.1391,0.6991,-0.3430,0.001534,0.587515,-0.561437,0.556835,-0.595185,0.558369,-0.559903
5.4083,0.020078,0.000000,-0.007208,0.007208,0.0000,0.0000,0.0000,-0.002478,0.033748,-0.036816,1.1391,0.6991,-0.3430,0.001534,0.587515,-0.561437,0.556835,-0.595185,0.558369,-0.559903
5.4283,0.020088,0.000000,-0.024738,0.024738,0.0000,0.0000,0.0000,-0.002478,0.018408,-0.016874,1.1391,0.6991,-0.3430,0.001534,0.587515,-0.561437,0.556835,-0.595185,0.558369,-0.559903
5.4484,0.020076,0.000000,-0.042257,0.042257,0.0000,0.0000,0.0000,-0.002478,0.001534,-0.001534,1.1391,0.6991,-0.3430,0.001534,0.587515,-0.561437,0.556835,-0.595185,0.558369,-0.559903
5.4685,0.020087,0.000000,-0.059787,0.059787,0.0000,0.0000,0.0000,-0.002478,-0.015340,0.016874,1.1391,0.6991,-0.3430,0.001534,0.587515,-0.561437,0.556835,-0.595185,0.558369,-0.559903
5.4886,0.020100,0.000000,-0.077328,0.077328,0.0000,0.0000,0.0000,-0.002478,-0.032214,0.030680,1.1391,0.6991,-0.3430,0.001534,0.587515,-0.561437,0.556835,-0.595185,0.558369,-0.559903
5.5090,0.020357,0.000000,-0.095093,0.095093,0.0000,0.0000,0.0000,-0.002478,-0.050621,0.047553,1.1391,0.6991,-0.3430,0.001534,0.587515,-0.561437,0.556835,-0.595185,0.558369,-0.559903
5.5291,0.020121,0.000000,-0.112651,0.112651,0.0000,0.0000,0.0000,-0.002478,-0.067495,0.065961,1.1391,0.6991,-0.3430,0.001534,0.587515,-0.561437,0.556835,-0.595185,0.558369,-0.559903
5.5492,0.020080,0.000000,-0.130174,0.130174,0.0000,0.0000,0.0000,-0.002478,-0.084369,0.082835,1.1391,0.6991,-0.3430,0.001534,0.587515,-0.561437,0.556835,-0.595185,0.558369,-0.559903
5.5692,0.020075,0.000000,-0.147693,0.147693,0.0000,0.0000,0.0000,-0.002478,-0.104311,0.101243,1.1391,0.6991,-0.3430,0.001534,0.587515,-0.561437,0.556835,-0.595185,0.558369,-0.559903
5.5893,0.020075,0.000000,-0.165212,0.165212,0.0000,0.0000,0.0000,-0.002478,-0.121184,0.118117,1.1391,0.6991,-0.3430,0.001534,0.587515,-0.561437,0.556835,-0.595185,0.558369,-0.559903
5.6094,0.020090,0.000000,-0.166322,0.166322,0.0000,0.0000,0.0000,-0.002478,-0.138058,0.134990,1.1391,0.6991,-0.3430,0.001534,0.587515,-0.561437,0.556835,-0.595185,0.558369,-0.559903
5.6295,0.020075,0.000000,-0.148804,0.148804,0.0000,0.0000,0.0000,-0.002478,-0.158000,0.151864,1.1391,0.6991,-0.3430,0.001534,0.587515,-0.561437,0.556835,-0.595185,0.558369,-0.559903
5.6496,0.020084,0.000000,-0.131277,0.131277,0.0000,0.0000,0.0000,-0.002478,-0.173340,0.170272,1.1391,0.6991,-0.3430,0.001534,0.587515,-0.561437,0.556835,-0.595185,0.558369,-0.559903
5.6696,0.020081,0.000000,-0.113753,0.113753,0.0000,0.0000,0.0000,-0.002478,-0.176408,0.171806,1.1391,0.6991,-0.3430,0.001534,0.587515,-0.561437,0.556835,-0.595185,0.558369,-0.559903
5.6897,0.020080,0.000000,-0.096229,0.096229,0.0000,0.0000,0.0000,-0.002478,-0.165670,0.165670,1.1391,0.6991,-0.3430,0.001534,0.587515,-0.561437,0.556835,-0.595185,0.558369,-0.559903
5.7098,0.020094,0.000000,-0.078694,0.078694,0.0000,0.0000,0.0000,-0.002478,-0.147262,0.148796,1.1391,0.6991,-0.3430,0.001534,0.587515,-0.561437,0.556835,-0.595185,0.558369,-0.559903
5.7299,0.020079,0.000000,-0.061172,0.061172,0.0000,0.0000,0.0000,-0.002478,-0.124252,0.130388,1.1391,0.6991,-0.3430,0.001534,0.587515,-0.561437,0.556835,-0.595185,0.558369,-0.559903
5.7500,0.020090,0.000000,-0.043640,0.043640,0.0000,0.0000,0.0000,-0.002492,-0.101243,0.105845,1.1495,0.6474,-0.3959,0.001534,0.587515,-0.561437,0.555301,-0.595185,0.558369,-0.559903
5.7701,0.020081,0.000000,-0.026117,0.026117,0.0000,0.0000,0.0000,-0.002477,-0.076699,0.082835,1.1375,0.7049,-0.3368,0.001534,0.587515,-0.561437,0.556835,-0.595185,0.558369,-0.559903
5.7901,0.020077,0.000000,-0.008596,0.008596,0.0000,0.0000,0.0000,-0.002466,-0.061359,0.064427,1.1779,0.6634,-0.3964,0.001534,0.587515,-0.562971,0.556835,-0.595185,0.558369,-0.559903
5.8102,0.020083,0.000000,0.008929,-0.008929,0.0000,0.0000,0.0000,-0.002480,-0.042951,0.044485,1.1346,0.7033,-0.3368,0.001534,0.587515,-0.561437,0.556835,-0.595185,0.558369,-0.559903
5.8303,0.020075,0.000000,0.026447,-0.026447,0.0000,0.0000,0.0000,-0.002478,-0.023010,0.026078,1.1391,0.6991,-0.3430,0.001534,0.587515,-0.561437,0.556835,-0.595185,0.558369,-0.559903
5.8504,0.020086,0.000000,0.043975,-0.043975,0.0000,0.0000,0.0000,-0.002492,-0.009204,0.010738,1.1495,0.6474,-0.3959,0.001534,0.587515,-0.561437,0.555301,-0.595185,0.558369,-0.559903
5.8705,0.020076,0.000000,0.061495,-0.061495,0.0000,0.0000,0.0000,-0.002477,0.012272,-0.006136,1.1375,0.7049,-0.3368,0.001534,0.587515,-0.561437,0.556835,-0.595185,0.558369,-0.559903
5.8906,0.020090,0.000000,0.079026,-0.079026,0.0000,0.0000,0.0000,-0.002466,0.029146,-0.026078,1.1779,0.6634,-0.3964,0.001534,0.587515,-0.562971,0.556835,-0.595185,0.558369,-0.559903
5.9106,0.020085,0.000000,0.096554,-0.096554,0.0000,0.0000,0.0000,-0.002480,0.044485,-0.041417,1.1346,0.7033,-0.3368,0.001534,0.587515,-0.561437,0.556835,-0.595185,0.558369,-0.559903
5.9307,0.020077,0.000000,0.114074,-0.114074,0.0000,0.0000,0.0000,-0.002478,0.062893,-0.059825,1.1391,0.6991,-0.3430,0.001534,0.587515,-0.561437,0.556835,-0.595185,0.558369,-0.559903
5.9511,0.020352,0.000000,0.131834,-0.131834,0.0000,0.0000,0.0000,-0.002478,0.081301,-0.079767,1.1391,0.6991,-0.3430,0.001534,0.587515,-0.561437,0.556835,-0.595185,0.558369,-0.559903
5.9712,0.020085,0.000000,0.149362,-0.149362,0.0000,0.0000,0.0000,-0.002478,0.099709,-0.095107,1.1391,0.6991,-0.3430,0.001534,0.587515,-0.561437,0.556835,-0.595185,0.558369,-0.559903
5.9912,0.020085,0.000000,0.166890,-0.166890,0.0000,0.0000,0.0000,-0.002478,0.118117,-0.110447,1.1391,0.6991,-0.3430,0.001534,0.587515,-0.561437,0.556835,-0.595185,0.558369,-0.559903
6.0113,0.020082,0.000000,0.164652,-0.164652,0.0000,0.0000,0.0000,-0.002478,0.136524,-0.127320,1.1391,0.6991,-0.3430,0.001534,0.587515,-0.561437,0.556835,-0.595185,0.558369,-0.559903
6.0314,0.020076,0.000000,0.147132,-0.147132,0.0000,0.0000,0.0000,-0.002478,0.154932,-0.144194,1.1391,0.6991,-0.3430,0.001534,0.587515,-0.561437,0.556835,-0.595185,0.558369,-0.559903
6.0515,0.020091,0.000000,0.129600,-0.129600,0.0000,0.0000,0.0000,-0.002478,0.170272,-0.159534,1.1391,0.6991,-0.3430,0.001534,0.587515,-0.561437,0.556835,-0.595185,0.558369,-0.559903
6.0716,0.020078,0.000000,0.112078,-0.112078,0.0000,0.0000,0.0000,-0.002478,0.171806,-0.173340,1.1391,0.6991,-0.3430,0.001534,0.587515,-0.561437,0.556835,-0.595185,0.558369,-0.559903
6.0917,0.020087,0.000000,0.094549,-0.094549,0.0000,0.0000,0.0000,-0.002478,0.161068,-0.167204,1.1391,0.6991,-0.3430,0.001534,0.587515,-0.561437,0.556835,-0.595185,0.558369,-0.559903
6.1117,0.020081,0.000000,0.077025,-0.077025,0.0000,0.0000,0.0000,-0.002465,0.144194,-0.150330,1.1777,0.6640,-0.3957,0.001534,0.587515,-0.562971,0.556835,-0.595185,0.558369,-0.559903
6.1318,0.020075,0.000000,0.059506,-0.059506,0.0000,0.0000,0.0000,-0.002480,0.121184,-0.130388,1.1346,0.7032,-0.3368,0.001534,0.587515,-0.561437,0.556835,-0.595185,0.558369,-0.559903
6.1519,0.020111,0.000000,0.041956,-0.041956,0.0000,0.0000,0.0000,-0.002478,0.099709,-0.108913,1.1391,0.6991,-0.3430,0.001534,0.587515,-0.561437,0.556835,-0.595185,0.558369,-0.559903
6.1720,0.020075,0.000000,0.024437,-0.024437,0.0000,0.0000,0.0000,-0.002478,0.079767,-0.087437,1.1391,0.6991,-0.3430,0.001534,0.587515,-0.561437,0.556835,-0.595185,0.558369,-0.559903
6.1921,0.020088,0.000000,0.006907,-0.006907,0.0000,0.0000,0.0000,-0.002478,0.056757,-0.064427,1.1391,0.6991,-0.3430,0.001534,0.587515,-0.561437,0.556835,-0.595185,0.558369,-0.559903
6.2122,0.020081,0.000000,-0.010617,0.010617,0.0000,0.0000,0.0000,-0.002478,0.038350,-0.042951,1.1391,0.6991,-0.3430,0.001534,0.587515,-0.561437,0.556835,-0.595185,0.558369,-0.559903
6.2323,0.020085,0.000000,-0.028144,0.028144,0.0000,0.0000,0.0000,-0.002465,0.021476,-0.021476,1.1777,0.6640,-0.3957,0.001534,0.587515,-0.562971,0.556835,-0.595185,0.558369,-0.559903
6.2523,0.020084,0.000000,-0.045671,0.045671,0.0000,0.0000,0.0000,-0.002480,0.004602,-0.003068,1.1346,0.7032,-0.3368,0.001534,0.587515,-0.561437,0.556835,-0.595185,0.558369,-0.559903
6.2724,0.020076,0.000000,-0.063190,0.063190,0.0000,0.0000,0.0000,-0.002478,-0.012272,0.013806,1.1391,0.6991,-0.3430,0.001534,0.587515,-0.561437,0.556835,-0.595185,0.558369,-0.559903
6.2925,0.020107,0.000000,-0.080737,0.080737,0.0000,0.0000,0.0000,-0.002478,-0.029146,0.027612,1.1391,0.6991,-0.4309,0.000000,0.587515,-0.561437,0.556835,-0.595185,0.558369,-0.559903
6.3126,0.020092,0.000000,-0.098270,0.098270,0.0000,0.0000,0.0000,-0.002478,-0.047553,0.042951,1.1391,0.6991,-0.3430,0.001534,0.587515,-0.561437,0.556835,-0.595185,0.558369,-0.559903
6.3327,0.020080,0.000000,-0.115793,0.115793,0.0000,0.0000,0.0000,-0.002478,-0.064427,0.059825,1.1391,0.6991,-0.3430,0.001534,0.587515,-0.561437,0.556835,-0.595185,0.558369,-0.559903
6.3528,0.020085,0.000000,-0.133321,0.133321,0.0000,0.0000,0.0000,-0.002478,-0.082835,0.079767,1.1391,0.6991,-0.3430,0.001534,0.587515,-0.561437,0.556835,-0.595185,0.558369,-0.559903
6.3729,0.020091,0.000000,-0.150853,0.150853,0.0000,0.0000,0.0000,-0.002478,-0.102777,0.099709,1.1391,0.6991,-0.3430,0.001534,0.587515,-0.561437,0.556835,-0.595185,0.558369,-0.559903
6.3930,0.020108,0.000000,-0.168401,0.168401,0.0000,0.0000,0.0000,-0.002478,-0.121184,0.118117,1.1391,0.6991,-0.3430,0.001534,0.587515,-0.561437,0.556835,-0.595185,0.558369,-0.559903
6.4131,0.020081,0.000000,-0.163141,0.163141,0.0000,0.0000,0.0000,-0.002478,-0.138058,0.134990,1.1391,0.6991,-0.3430,0.001534,0.587515,-0.561437,0.556835,-0.595185,0.558369,-0.559903
6.4331,0.020094,0.000000,-0.145605,0.145605,0.0000,0.0000,0.0000,-0.002478,-0.156466,0.151864,1.1391,0.6991,-0.3430,0.001534,0.587515,-0.561437,0.556835,-0.595185,0.558369,-0.559903
6.4532,0.020091,0.000000,-0.128073,0.128073,0.0000,0.0000,0.0000,-0.002478,-0.173340,0.168738,1.1391,0.6991,-0.3430,0.001534,0.587515,-0.561437,0.556835,-0.595185,0.558369,-0.559903
6.4733,0.020080,0.000000,-0.110549,0.110549,0.0000,0.0000,0.0000,-0.002478,-0.176408,0.171806,1.1391,0.6991,-0.3430,0.001534,0.587515,-0.561437,0.556835,-0.595185,0.558369,-0.559903
6.4936,0.020261,0.000000,-0.092869,0.092869,0.0000,0.0000,0.0000,-0.002478,-0.168738,0.167204,1.1391,0.6991,-0.3430,0.001534,0.587515,-0.561437,0.556835,-0.595185,0.558369,-0.559903
6.5137,0.020077,0.000000,-0.075348,0.075348,0.0000,0.0000,0.0000,-0.002478,-0.151864,0.151864,1.1391,0.6991,-0.3430,0.001534,0.587515,-0.561437,0.556835,-0.595185,0.558369,-0.559903
6.5337,0.020081,0.000000,-0.057824,0.057824,0.0000,0.0000,0.0000,-0.002478,-0.125786,0.130388,1.1391,0.6991,-0.3430,0.001534,0.587515,-0.561437,0.556835,-0.595185,0.558369,-0.559903
