t,loop_dt,cmd_z,cmd_ant_l,cmd_ant_r,cmd_roll,cmd_pitch,cmd_yaw,pres_z,pres_ant_l,pres_ant_r,pres_roll,pres_pitch,pres_yaw,pres_j0,pres_j1,pres_j2,pres_j3,pres_j4,pres_j5,pres_j6
0.0000,0.000001,0.000000,-0.349065,0.349065,0.0000,0.0000,0.0000,-0.002639,-0.170272,0.168738,1.1738,0.9854,0.0427,0.001534,0.582913,-0.555301,0.556835,-0.595185,0.558369,-0.549165
0.0208,0.020759,0.000000,-0.341819,0.341819,0.0000,0.0000,0.0000,-0.002653,-0.171806,0.170272,1.1842,0.9330,-0.0103,0.001534,0.582913,-0.555301,0.555301,-0.595185,0.558369,-0.549165
0.0410,0.020208,0.000000,-0.334765,0.334765,0.0000,0.0000,0.0000,-0.002638,-0.173340,0.170272,1.1723,0.9905,0.0488,0.001534,0.582913,-0.555301,0.556835,-0.595185,0.558369,-0.549165
0.0619,0.020886,0.000000,-0.327474,0.327474,0.0000,0.0000,0.0000,-0.002626,-0.216291,0.207087,1.1242,0.9662,-0.0109,0.001534,0.582913,-0.555301,0.556835,-0.595185,0.558369,-0.550699
0.0819,0.020087,0.000000,-0.320463,0.320463,0.0000,0.0000,0.0000,-0.002641,-0.291456,0.282252,1.1785,0.9870,0.0488,0.001534,0.582913,-0.555301,0.556835,-0.595185,0.558369,-0.549165
0.1022,0.020237,0.000000,-0.313399,0.313399,0.0000,0.0000,0.0000,-0.002626,-0.357418,0.348214,1.1235,0.9666,-0.0109,0.001534,0.582913,-0.555301,0.556835,-0.595185,0.558369,-0.550699
0.1224,0.020177,0.000000,-0.306356,0.306356,0.0000,0.0000,0.0000,-0.002627,-0.369689,0.365087,1.1293,0.9687,-0.0047,0.001534,0.582913,-0.555301,0.556835,-0.595185,0.558369,-0.550699
0.1425,0.020107,0.000000,-0.299337,0.299337,0.0000,0.0000,0.0000,-0.002627,-0.357418,0.355884,1.1293,0.9687,-0.0047,0.001534,0.582913,-0.555301,0.556835,-0.595185,0.558369,-0.552233
0.1626,0.020092,0.000000,-0.292324,0.292324,0.0000,0.0000,0.0000,-0.002614,-0.335942,0.339010,1.0794,0.9503,-0.0589,0.001534,0.584447,-0.555301,0.556835,-0.595185,0.558369,-0.552233
0.1826,0.020087,0.000000,-0.285312,0.285312,0.0000,0.0000,0.0000,-0.002581,-0.316000,0.323670,1.1291,0.9049,-0.0049,0.001534,0.585981,-0.555301,0.556835,-0.595185,0.558369,-0.553767
0.2027,0.020095,0.000000,-0.278297,0.278297,0.0000,0.0000,0.0000,-0.002581,-0.316000,0.323670,1.1291,0.9049,-0.0049,0.001534,0.585981,-0.555301,0.556835,-0.595185,0.558369,-0.553767
0.2242,0.021425,0.000000,-0.270819,0.270819,0.0000,0.0000,0.0000,-0.002560,-0.291456,0.299126,1.1300,0.8744,-0.0039,0.001534,0.587515,-0.555301,0.556835,-0.595185,0.558369,-0.555301
0.2443,0.020101,0.000000,-0.263802,0.263802,0.0000,0.0000,0.0000,-0.002549,-0.288388,0.288388,1.0808,0.8597,-0.0575,0.001534,0.587515,-0.555301,0.556835,-0.595185,0.558369,-0.556835
0.2644,0.020137,0.000000,-0.256773,0.256773,0.0000,0.0000,0.0000,-0.002549,-0.286854,0.283786,1.0808,0.8597,-0.0575,0.001534,0.587515,-0.555301,0.556835,-0.595185,0.558369,-0.558369
0.2845,0.020099,0.000000,-0.249757,0.249757,0.0000,0.0000,0.0000,-0.002539,-0.282252,0.279185,1.0414,0.8449,-0.1005,0.001534,0.587515,-0.555301,0.556835,-0.595185,0.558369,-0.558369
0.3046,0.020103,0.000000,-0.242740,0.242740,0.0000,0.0000,0.0000,-0.002526,-0.277651,0.277651,0.9918,0.8266,-0.1547,0.001534,0.587515,-0.555301,0.556835,-0.595185,0.558369,-0.559903
0.3247,0.020102,0.000000,-0.235723,0.235723,0.0000,0.0000,0.0000,-0.002527,-0.268447,0.273049,0.9970,0.8285,-0.1491,0.001534,0.587515,-0.555301,0.556835,-0.595185,0.558369,-0.559903
0.3448,0.020091,0.000000,-0.228710,0.228710,0.0000,0.0000,0.0000,-0.002527,-0.257709,0.263845,0.9970,0.8285,-0.1491,0.001534,0.587515,-0.555301,0.556835,-0.595185,0.558369,-0.559903
0.3649,0.020107,0.000000,-0.221691,0.221691,0.0000,0.0000,0.0000,-0.002527,-0.250039,0.253107,0.9970,0.8285,-0.1491,0.001534,0.587515,-0.555301,0.556835,-0.595185,0.558369,-0.559903
0.3850,0.020095,0.000000,-0.214677,0.214677,0.0000,0.0000,0.0000,-0.002527,-0.240835,0.246971,0.9970,0.8285,-0.1491,0.001534,0.587515,-0.555301,0.556835,-0.595185,0.558369,-0.559903
0.4051,0.020119,0.000000,-0.207654,0.207654,0.0000,0.0000,0.0000,-0.002527,-0.233165,0.239301,0.9970,0.8285,-0.2370,0.000000,0.587515,-0.555301,0.556835,-0.595185,0.558369,-0.559903
0.4252,0.020089,0.000000,-0.200642,0.200642,0.0000,0.0000,0.0000,-0.002527,-0.227029,0.231631,0.9970,0.8285,-0.1491,0.001534,0.587515,-0.555301,0.556835,-0.595185,0.558369,-0.559903
0.4453,0.020105,0.000000,-0.193624,0.193624,0.0000,0.0000,0.0000,-0.002527,-0.220893,0.225495,0.9970,0.8285,-0.1491,0.001534,0.587515,-0.555301,0.556835,-0.595185,0.558369,-0.559903
0.4654,0.020076,0.000000,-0.186616,0.186616,0.0000,0.0000,0.0000,-0.002527,-0.213223,0.220893,0.9970,0.8285,-0.1491,0.001534,0.587515,-0.555301,0.556835,-0.595185,0.558369,-0.559903
0.4855,0.020107,0.000000,-0.179597,0.179597,0.0000,0.0000,0.0000,-0.002527,-0.202485,0.214757,0.9970,0.8285,-0.1491,0.001534,0.587515,-0.555301,0.556835,-0.595185,0.558369,-0.559903
0.5056,0.020110,0.000000,-0.172578,0.172578,0.0000,0.0000,0.0000,-0.002527,-0.197884,0.207087,0.9970,0.8285,-0.1491,0.001534,0.587515,-0.555301,0.556835,-0.595185,0.558369,-0.559903
0.5257,0.020094,0.000000,-0.165564,0.165564,0.0000,0.0000,0.0000,-0.002527,-0.190214,0.197884,0.9970,0.8285,-0.1491,0.001534,0.587515,-0.555301,0.556835,-0.595185,0.558369,-0.559903
0.5458,0.020097,0.000000,-0.158548,0.158548,0.0000,0.0000,0.0000,-0.002527,-0.184078,0.191748,0.9970,0.8285,-0.1491,0.001534,0.587515,-0.555301,0.556835,-0.595185,0.558369,-0.559903
0.5659,0.020100,0.000000,-0.151532,0.151532,0.0000,0.0000,0.0000,-0.002527,-0.177942,0.182544,0.9970,0.8285,-0.1491,0.001534,0.587515,-0.555301,0.556835,-0.595185,0.558369,-0.559903
0.5860,0.020104,0.000000,-0.144515,0.144515,0.0000,0.0000,0.0000,-0.002527,-0.173340,0.173340,0.9970,0.8285,-0.1491,0.001534,0.587515,-0.555301,0.556835,-0.595185,0.558369,-0.559903
0.6061,0.020099,0.000000,-0.137499,0.137499,0.0000,0.0000,0.0000,-0.002527,-0.165670,0.164136,0.9970,0.8285,-0.1491,0.001534,0.587515,-0.555301,0.556835,-0.595185,0.558369,-0.559903
0.6262,0.020099,0.000000,-0.130483,0.130483,0.0000,0.0000,0.0000,-0.002527,-0.158000,0.156466,0.9970,0.8285,-0.1491,0.001534,0.587515,-0.555301,0.556835,-0.595185,0.558369,-0.559903
0.6463,0.020097,0.000000,-0.123468,0.123468,0.0000,0.0000,0.0000,-0.002527,-0.148796,0.150330,0.9970,0.8285,-0.1491,0.001534,0.587515,-0.555301,0.556835,-0.595185,0.558369,-0.559903
0.6664,0.020091,0.000000,-0.116455,0.116455,0.0000,0.0000,0.0000,-0.002527,-0.142660,0.142660,0.9970,0.8285,-0.1491,0.001534,0.587515,-0.555301,0.556835,-0.595185,0.558369,-0.559903
0.6865,0.020093,0.000000,-0.109441,0.109441,0.0000,0.0000,0.0000,-0.002527,-0.133456,0.136524,0.9970,0.8285,-0.1491,0.001534,0.587515,-0.555301,0.556835,-0.595185,0.558369,-0.559903
0.7066,0.020099,0.000000,-0.102425,0.102425,0.0000,0.0000,0.0000,-0.002527,-0.125786,0.130388,0.9970,0.8285,-0.1491,0.001534,0.587515,-0.555301,0.556835,-0.595185,0.558369,-0.559903
0.7271,0.020500,0.000000,-0.095269,0.095269,0.0000,0.0000,0.0000,-0.002527,-0.125786,0.130388,0.9970,0.8285,-0.1491,0.001534,0.587515,-0.555301,0.556835,-0.595185,0.558369,-0.559903
0.7472,0.020089,0.000000,-0.088257,0.088257,0.0000,0.0000,0.0000,-0.002527,-0.116583,0.113515,0.9970,0.8285,-0.1491,0.001534,0.587515,-0.555301,0.556835,-0.595185,0.558369,-0.559903
0.7673,0.020092,0.000000,-0.081244,0.081244,0.0000,0.0000,0.0000,-0.002527,-0.107379,0.108913,0.9970,0.8285,-0.1491,0.001534,0.587515,-0.555301,0.556835,-0.595185,0.558369,-0.559903
0.7873,0.020095,0.000000,-0.074229,0.074229,0.0000,0.0000,0.0000,-0.002527,-0.099709,0.101243,0.9970,0.8285,-0.1491,0.001534,0.587515,-0.555301,0.556835,-0.595185,0.558369,-0.559903
0.8074,0.020097,0.000000,-0.067214,0.067214,0.0000,0.0000,0.0000,-0.002527,-0.090505,0.092039,0.9970,0.8285,-0.1491,0.001534,0.587515,-0.555301,0.556835,-0.595185,0.558369,-0.559903
0.8275,0.020097,0.000000,-0.060199,0.060199,0.0000,0.0000,0.0000,-0.002527,-0.082835,0.084369,0.9970,0.8285,-0.1491,0.001534,0.587515,-0.555301,0.556835,-0.595185,0.558369,-0.559903
0.8476,0.020090,0.000000,-0.053186,0.053186,0.0000,0.0000,0.0000,-0.002527,-0.073631,0.076699,0.9970,0.8285,-0.1491,0.001534,0.587515,-0.555301,0.556835,-0.595185,0.558369,-0.559903
0.8678,0.020148,0.000000,-0.046153,0.046153,0.0000,0.0000,0.0000,-0.002527,-0.069029,0.069029,0.9970,0.8285,-0.1491,0.001534,0.587515,-0.555301,0.556835,-0.595185,0.558369,-0.559903
0.8878,0.020064,0.000000,-0.039149,0.039149,0.0000,0.0000,0.0000,-0.002527,-0.065961,0.062893,0.9970,0.8285,-0.1491,0.001534,0.587515,-0.555301,0.556835,-0.595185,0.558369,-0.559903
0.9079,0.020097,0.000000,-0.032134,0.032134,0.0000,0.0000,0.0000,-0.002527,-0.065961,0.062893,0.9970,0.8285,-0.1491,0.001534,0.587515,-0.555301,0.556835,-0.595185,0.558369,-0.559903
0.9281,0.020119,0.000000,-0.025111,0.025111,0.0000,0.0000,0.0000,-0.002527,-0.058291,0.058291,0.9970,0.8285,-0.1491,0.001534,0.587515,-0.555301,0.556835,-0.595185,0.558369,-0.559903
0.9482,0.020094,0.000000,-0.018097,0.018097,0.0000,0.0000,0.0000,-0.002527,-0.047553,0.052155,0.9970,0.8285,-0.1491,0.001534,0.587515,-0.555301,0.556835,-0.595185,0.558369,-0.559903
0.9683,0.020108,0.000000,-0.011078,0.011078,0.0000,0.0000,0.0000,-0.002527,-0.041417,0.046019,0.9970,0.8285,-0.1491,0.001534,0.587515,-0.555301,0.556835,-0.595185,0.558369,-0.559903
0.9884,0.020095,0.000000,-0.004064,0.004064,0.0000,0.0000,0.0000,-0.002527,-0.038350,0.038350,0.9970,0.8285,-0.1491,0.001534,0.587515,-0.555301,0.556835,-0.595185,0.558369,-0.559903
1.0085,0.020098,0.000000,-0.002951,0.002951,0.0000,0.0000,0.0000,-0.002527,-0.032214,0.032214,0.9970,0.8285,-0.1491,0.001534,0.587515,-0.555301,0.556835,-0.595185,0.558369,-0.559903
1.0286,0.020186,0.000000,-0.009998,0.009998,0.0000,0.0000,0.0000,-0.002527,-0.021476,0.026078,0.9970,0.8285,-0.2370,0.000000,0.587515,-0.555301,0.556835,-0.595185,0.558369,-0.559903
1.0488,0.020121,0.000000,-0.017021,0.017021,0.0000,0.0000,0.0000,-0.002527,-0.012272,0.018408,0.9970,0.8285,-0.1491,0.001534,0.587515,-0.555301,0.556835,-0.595185,0.558369,-0.559903
1.0689,0.020113,0.000000,-0.024042,0.024042,0.0000,0.0000,0.0000,-0.002527,-0.009204,0.007670,0.9970,0.8285,-0.1491,0.001534,0.587515,-0.555301,0.556835,-0.595185,0.558369,-0.559903
1.0890,0.020102,0.000000,-0.031059,0.031059,0.0000,0.0000,0.0000,-0.002527,-0.004602,0.001534,0.9970,0.8285,-0.1491,0.001534,0.587515,-0.555301,0.556835,-0.595185,0.558369,-0.559903
1.1091,0.020113,0.000000,-0.038080,0.038080,0.0000,0.0000,0.0000,-0.002527,0.001534,0.001534,0.9970,0.8285,-0.1491,0.001534,0.587515,-0.555301,0.556835,-0.595185,0.558369,-0.559903
1.1292,0.020091,0.000000,-0.045093,0.045093,0.0000,0.0000,0.0000,-0.002527,-0.001534,0.007670,0.9970,0.8285,-0.1491,0.001534,0.587515,-0.555301,0.556835,-0.595185,0.558369,-0.559903
1.1493,0.020105,0.000000,-0.052111,0.052111,0.0000,0.0000,0.0000,-0.002527,-0.012272,0.021476,0.9970,0.8285,-0.1491,0.001534,0.587515,-0.555301,0.556835,-0.595185,0.558369,-0.559903
1.1694,0.020087,0.000000,-0.059122,0.059122,0.0000,0.0000,0.0000,-0.002527,-0.042951,0.033748,0.9970,0.8285,-0.1491,0.001534,0.587515,-0.555301,0.556835,-0.595185,0.558369,-0.559903
1.1895,0.020084,0.000000,-0.066133,0.066133,0.0000,0.0000,0.0000,-0.002527,-0.046019,0.039884,0.9970,0.8285,-0.1491,0.001534,0.587515,-0.555301,0.556835,-0.595185,0.558369,-0.559903
1.2096,0.020093,0.000000,-0.073147,0.073147,0.0000,0.0000,0.0000,-0.002527,-0.047553,0.049087,0.9970,0.8285,-0.1491,0.001534,0.587515,-0.555301,0.556835,-0.595185,0.558369,-0.559903
1.2299,0.020321,0.000000,-0.080240,0.080240,0.0000,0.0000,0.0000,-0.002527,-0.056757,0.058291,0.9970,0.8285,-0.1491,0.001534,0.587515,-0.555301,0.556835,-0.595185,0.558369,-0.559903
1.2500,0.020080,0.000000,-0.087249,0.087249,0.0000,0.0000,0.0000,-0.002527,-0.069029,0.070563,0.9970,0.8285,-0.1491,0.001534,0.587515,-0.555301,0.556835,-0.595185,0.558369,-0.559903
1.2700,0.020083,0.000000,-0.094260,0.094260,0.0000,0.0000,0.0000,-0.002527,-0.079767,0.075165,0.9970,0.8285,-0.1491,0.001534,0.587515,-0.555301,0.556835,-0.595185,0.558369,-0.559903
1.2901,0.020108,0.000000,-0.101278,0.101278,0.0000,0.0000,0.0000,-0.002527,-0.081301,0.076699,0.9970,0.8285,-0.1491,0.001534,0.587515,-0.555301,0.556835,-0.595185,0.558369,-0.559903
1.3102,0.020093,0.000000,-0.108292,0.108292,0.0000,0.0000,0.0000,-0.002527,-0.082835,0.085903,0.9970,0.8285,-0.1491,0.001534,0.587515,-0.555301,0.556835,-0.595185,0.558369,-0.559903
1.3303,0.020103,0.000000,-0.115309,0.115309,0.0000,0.0000,0.0000,-0.002527,-0.090505,0.096641,0.9970,0.8285,-0.1491,0.001534,0.587515,-0.555301,0.556835,-0.595185,0.558369,-0.559903
1.3504,0.020085,0.000000,-0.122320,0.122320,0.0000,0.0000,0.0000,-0.002527,-0.104311,0.104311,0.9970,0.8285,-0.1491,0.001534,0.587515,-0.555301,0.556835,-0.595185,0.558369,-0.559903
1.3705,0.020085,0.000000,-0.129331,0.129331,0.0000,0.0000,0.0000,-0.002527,-0.113515,0.105845,0.9970,0.8285,-0.1491,0.001534,0.587515,-0.555301,0.556835,-0.595185,0.558369,-0.559903
1.3906,0.020086,0.000000,-0.136343,0.136343,0.0000,0.0000,0.0000,-0.002527,-0.118117,0.110447,0.9970,0.8285,-0.1491,0.001534,0.587515,-0.555301,0.556835,-0.595185,0.558369,-0.559903
1.4107,0.020091,0.000000,-0.143356,0.143356,0.0000,0.0000,0.0000,-0.002527,-0.122718,0.121184,0.9970,0.8285,-0.1491,0.001534,0.587515,-0.555301,0.556835,-0.595185,0.558369,-0.559903
1.4308,0.020087,0.000000,-0.150367,0.150367,0.0000,0.0000,0.0000,-0.002527,-0.134990,0.131922,0.9970,0.8285,-0.1491,0.001534,0.587515,-0.555301,0.556835,-0.595185,0.558369,-0.559903
1.4509,0.020085,0.000000,-0.157378,0.157378,0.0000,0.0000,0.0000,-0.002527,-0.141126,0.133456,0.9970,0.8285,-0.1491,0.001534,0.587515,-0.555301,0.556835,-0.595185,0.558369,-0.559903
1.4711,0.020285,0.000000,-0.164459,0.164459,0.0000,0.0000,0.0000,-0.002527,-0.142660,0.136524,0.9970,0.8285,-0.1491,0.001534,0.587515,-0.555301,0.556835,-0.595185,0.558369,-0.559903
1.4912,0.020088,0.000000,-0.171471,0.171471,0.0000,0.0000,0.0000,-0.002527,-0.151864,0.151864,0.9970,0.8285,-0.1491,0.001534,0.587515,-0.555301,0.556835,-0.595185,0.558369,-0.559903
1.5113,0.020085,0.000000,-0.178482,0.178482,0.0000,0.0000,0.0000,-0.002527,-0.164136,0.161068,0.9970,0.8285,-0.1491,0.001534,0.587515,-0.555301,0.556835,-0.595185,0.558369,-0.559903
1.5314,0.020099,0.000000,-0.185498,0.185498,0.0000,0.0000,0.0000,-0.002527,-0.167204,0.164136,0.9970,0.8285,-0.1491,0.001534,0.587515,-0.555301,0.556835,-0.595185,0.558369,-0.559903
1.5515,0.020095,0.000000,-0.192512,0.192512,0.0000,0.0000,0.0000,-0.002527,-0.167204,0.167204,0.9970,0.8285,-0.1491,0.001534,0.587515,-0.555301,0.556835,-0.595185,0.558369,-0.559903
1.5716,0.020084,0.000000,-0.199523,0.199523,0.0000,0.0000,0.0000,-0.002527,-0.174874,0.181010,0.9970,0.8285,-0.1491,0.001534,0.587515,-0.555301,0.556835,-0.595185,0.558369,-0.559903
1.5917,0.020091,0.000000,-0.206536,0.206536,0.0000,0.0000,0.0000,-0.002527,-0.190214,0.187146,0.9970,0.8285,-0.1491,0.001534,0.587515,-0.555301,0.556835,-0.595185,0.558369,-0.559903
1.6118,0.020093,0.000000,-0.213550,0.213550,0.0000,0.0000,0.0000,-0.002527,-0.197884,0.187146,0.9970,0.8285,-0.1491,0.001534,0.587515,-0.555301,0.556835,-0.595185,0.558369,-0.559903
1.6319,0.020092,0.000000,-0.220563,0.220563,0.0000,0.0000,0.0000,-0.002527,-0.199418,0.196350,0.9970,0.8285,-0.1491,0.001534,0.587515,-0.555301,0.556835,-0.595185,0.558369,-0.559903
1.6521,0.020204,0.000000,-0.227616,0.227616,0.0000,0.0000,0.0000,-0.002527,-0.204019,0.208621,0.9970,0.8285,-0.1491,0.001534,0.587515,-0.555301,0.556835,-0.595185,0.558369,-0.559903
1.6722,0.020088,0.000000,-0.234628,0.234628,0.0000,0.0000,0.0000,-0.002527,-0.217825,0.214757,0.9970,0.8285,-0.1491,0.001534,0.587515,-0.555301,0.556835,-0.595185,0.558369,-0.559903
1.6922,0.020085,0.000000,-0.241639,0.241639,0.0000,0.0000,0.0000,-0.002527,-0.222427,0.216291,0.9970,0.8285,-0.1491,0.001534,0.587515,-0.555301,0.556835,-0.595185,0.558369,-0.559903
1.7123,0.020086,0.000000,-0.248650,0.248650,0.0000,0.0000,0.0000,-0.002527,-0.225495,0.225495,0.9970,0.8285,-0.1491,0.001534,0.587515,-0.555301,0.556835,-0.595185,0.558369,-0.559903
1.7324,0.020085,0.000000,-0.255661,0.255661,0.0000,0.0000,0.0000,-0.002527,-0.234699,0.236233,0.9970,0.8285,-0.1491,0.001534,0.587515,-0.555301,0.556835,-0.595185,0.558369,-0.559903
1.7525,0.020083,0.000000,-0.262672,0.262672,0.0000,0.0000,0.0000,-0.002527,-0.246971,0.242369,0.9970,0.8285,-0.1491,0.001534,0.587515,-0.555301,0.556835,-0.595185,0.558369,-0.559903
1.7726,0.020081,0.000000,-0.269681,0.269681,0.0000,0.0000,0.0000,-0.002527,-0.248505,0.246971,0.9970,0.8285,-0.1491,0.001534,0.587515,-0.555301,0.556835,-0.595185,0.558369,-0.559903
1.7927,0.020084,0.000000,-0.276692,0.276692,0.0000,0.0000,0.0000,-0.002527,-0.250039,0.257709,0.9970,0.8285,-0.1491,0.001534,0.587515,-0.555301,0.556835,-0.595185,0.558369,-0.559903
1.8128,0.020098,0.000000,-0.283708,0.283708,0.0000,0.0000,0.0000,-0.002527,-0.260777,0.263845,0.9970,0.8285,-0.1491,0.001534,0.587515,-0.555301,0.556835,-0.595185,0.558369,-0.559903
1.8329,0.020142,0.000000,-0.290739,0.290739,0.0000,0.0000,0.0000,-0.002527,-0.274583,0.266913,0.9970,0.8285,-0.1491,0.001534,0.587515,-0.555301,0.556835,-0.595185,0.558369,-0.559903
1.8530,0.020089,0.000000,-0.297751,0.297751,0.0000,0.0000,0.0000,-0.002527,-0.277651,0.274583,0.9970,0.8285,-0.1491,0.001534,0.587515,-0.555301,0.556835,-0.595185,0.558369,-0.559903
1.8731,0.020089,0.000000,-0.304763,0.304763,0.0000,0.0000,0.0000,-0.002527,-0.277651,0.285320,0.9970,0.8285,-0.1491,0.001534,0.587515,-0.555301,0.556835,-0.595185,0.558369,-0.559903
1.8932,0.020092,0.000000,-0.311777,0.311777,0.0000,0.0000,0.0000,-0.002527,-0.288388,0.291456,0.9970,0.8285,-0.1491,0.001534,0.587515,-0.555301,0.556835,-0.595185,0.558369,-0.559903
1.9133,0.020086,0.000000,-0.318788,0.318788,0.0000,0.0000,0.0000,-0.002527,-0.305262,0.294524,0.9970,0.8285,-0.1491,0.001534,0.587515,-0.555301,0.556835,-0.595185,0.558369,-0.559903
1.9333,0.020082,0.000000,-0.325798,0.325798,0.0000,0.0000,0.0000,-0.002527,-0.305262,0.302194,0.9970,0.8285,-0.1491,0.001534,0.587515,-0.555301,0.556835,-0.595185,0.558369,-0.559903
1.9534,0.020086,0.000000,-0.332809,0.332809,0.0000,0.0000,0.0000,-0.002527,-0.306796,0.314466,0.9970,0.8285,-0.1491,0.001534,0.587515,-0.555301,0.556835,-0.595185,0.558369,-0.559903
1.9735,0.020085,0.000000,-0.339821,0.339821,0.0000,0.0000,0.0000,-0.002527,-0.319068,0.317534,0.9970,0.8285,-0.1491,0.001534,0.587515,-0.555301,0.556835,-0.595185,0.558369,-0.559903
1.9936,0.020090,0.000000,-0.346833,0.346833,0.0000,0.0000,0.0000,-0.002527,-0.332874,0.319068,0.9970,0.8285,-0.1491,0.001534,0.587515,-0.555301,0.556835,-0.595185,0.558369,-0.559903
2.0137,0.020083,0.000000,-0.344288,0.344288,0.0000,0.0000,0.0000,-0.002527,-0.332874,0.329806,0.9970,0.8285,-0.1491,0.001534,0.587515,-0.555301,0.556835,-0.595185,0.558369,-0.559903
2.0338,0.020087,0.000000,-0.337276,0.337276,0.0000,0.0000,0.0000,-0.002527,-0.332874,0.342078,0.9970,0.8285,-0.1491,0.001534,0.587515,-0.555301,0.556835,-0.595185,0.558369,-0.559903
2.0539,0.020087,0.000000,-0.330265,0.330265,0.0000,0.0000,0.0000,-0.002527,-0.346680,0.348214,0.9970,0.8285,-0.1491,0.001534,0.587515,-0.555301,0.556835,-0.595185,0.558369,-0.559903
2.0742,0.020362,0.000000,-0.323157,0.323157,0.0000,0.0000,0.0000,-0.002527,-0.354350,0.346680,0.9970,0.8285,-0.1491,0.001534,0.587515,-0.555301,0.556835,-0.595185,0.558369,-0.559903
2.0944,0.020162,0.000000,-0.316119,0.316119,0.0000,0.0000,0.0000,-0.002527,-0.352816,0.342078,0.9970,0.8285,-0.1491,0.001534,0.587515,-0.555301,0.556835,-0.595185,0.558369,-0.559903
2.1145,0.020086,0.000000,-0.309108,0.309108,0.0000,0.0000,0.0000,-0.002527,-0.343612,0.337476,0.9970,0.8285,-0.1491,0.001534,0.587515,-0.555301,0.556835,-0.595185,0.558369,-0.559903
2.1346,0.020086,0.000000,-0.302097,0.302097,0.0000,0.0000,0.0000,-0.002527,-0.337476,0.334408,0.9970,0.8285,-0.1491,0.001534,0.587515,-0.555301,0.556835,-0.595185,0.558369,-0.559903
2.1546,0.020091,0.000000,-0.295084,0.295084,0.0000,0.0000,0.0000,-0.002527,-0.328272,0.329806,0.9970,0.8285,-0.1491,0.001534,0.587515,-0.555301,0.556835,-0.595185,0.558369,-0.559903
2.1747,0.020087,0.000000,-0.288072,0.288072,0.0000,0.0000,0.0000,-0.002527,-0.320602,0.325204,0.9970,0.8285,-0.1491,0.001534,0.587515,-0.555301,0.556835,-0.595185,0.558369,-0.559903
2.1948,0.020098,0.000000,-0.281056,0.281056,0.0000,0.0000,0.0000,-0.002527,-0.309864,0.316000,0.9970,0.8285,-0.1491,0.001534,0.587515,-0.555301,0.556835,-0.595185,0.558369,-0.559903
2.2149,0.020085,0.000000,-0.274046,0.274046,0.0000,0.0000,0.0000,-0.002527,-0.302194,0.308330,0.9970,0.8285,-0.1491,0.001534,0.587515,-0.555301,0.556835,-0.595185,0.558369,-0.559903
2.2350,0.020086,0.000000,-0.267034,0.267034,0.0000,0.0000,0.0000,-0.002527,-0.292990,0.300660,0.9970,0.8285,-0.1491,0.001534,0.587515,-0.555301,0.556835,-0.595185,0.558369,-0.559903
2.2551,0.020086,0.000000,-0.260023,0.260023,0.0000,0.0000,0.0000,-0.002527,-0.286854,0.294524,0.9970,0.8285,-0.1491,0.001534,0.587515,-0.555301,0.556835,-0.595185,0.558369,-0.559903
2.2752,0.020096,0.000000,-0.253008,0.253008,0.0000,0.0000,0.0000,-0.002527,-0.282252,0.286854,0.9970,0.8285,-0.1491,0.001534,0.587515,-0.555301,0.556835,-0.595185,0.558369,-0.559903
2.2955,0.020294,0.000000,-0.245924,0.245924,0.0000,0.0000,0.0000,-0.002527,-0.277651,0.279185,0.9970,0.8285,-0.1491,0.001534,0.587515,-0.555301,0.556835,-0.595185,0.558369,-0.559903
2.3156,0.020085,0.000000,-0.238913,0.238913,0.0000,0.0000,0.0000,-0.002527,-0.269981,0.274583,0.9970,0.8285,-0.1491,0.001534,0.587515,-0.555301,0.556835,-0.595185,0.558369,-0.559903
2.3357,0.020137,0.000000,-0.231884,0.231884,0.0000,0.0000,0.0000,-0.002527,-0.262311,0.266913,0.9970,0.8285,-0.1491,0.001534,0.587515,-0.555301,0.556835,-0.595185,0.558369,-0.559903
2.3558,0.020135,0.000000,-0.224855,0.224855,0.0000,0.0000,0.0000,-0.002527,-0.254641,0.257709,0.9970,0.8285,-0.1491,0.001534,0.587515,-0.555301,0.556835,-0.595185,0.558369,-0.559903
2.3759,0.020099,0.000000,-0.217840,0.217840,0.0000,0.0000,0.0000,-0.002527,-0.246971,0.250039,0.9970,0.8285,-0.1491,0.001534,0.587515,-0.555301,0.556835,-0.595185,0.558369,-0.559903
2.3966,0.020671,0.000000,-0.210624,0.210624,0.0000,0.0000,0.0000,-0.002527,-0.237767,0.243903,0.9970,0.8285,-0.1491,0.001534,0.587515,-0.555301,0.556835,-0.595185,0.558369,-0.559903
2.4169,0.020278,0.000000,-0.203545,0.203545,0.0000,0.0000,0.0000,-0.002527,-0.230097,0.237767,0.9970,0.8285,-0.1491,0.001534,0.587515,-0.555301,0.556835,-0.595185,0.558369,-0.559903
2.4370,0.020098,0.000000,-0.196530,0.196530,0.0000,0.0000,0.0000,-0.002527,-0.223961,0.230097,0.9970,0.8285,-0.1491,0.001534,0.587515,-0.555301,0.556835,-0.595185,0.558369,-0.559903
2.4571,0.020092,0.000000,-0.189517,0.189517,0.0000,0.0000,0.0000,-0.002527,-0.214757,0.223961,0.9970,0.8285,-0.1491,0.001534,0.587515,-0.555301,0.556835,-0.595185,0.558369,-0.559903
2.4774,0.020299,0.000000,-0.182431,0.182431,0.0000,0.0000,0.0000,-0.002527,-0.205553,0.220893,0.9970,0.8285,-0.1491,0.001534,0.587515,-0.555301,0.556835,-0.595185,0.558369,-0.559903
2.4975,0.020087,0.000000,-0.175419,0.175419,0.0000,0.0000,0.0000,-0.002527,-0.199418,0.211689,0.9970,0.8285,-0.1491,0.001534,0.587515,-0.555301,0.556835,-0.595185,0.558369,-0.559903
2.5178,0.020360,0.000000,-0.168312,0.168312,0.0000,0.0000,0.0000,-0.002527,-0.197884,0.204019,0.9970,0.8285,-0.1491,0.001534,0.587515,-0.555301,0.556835,-0.595185,0.558369,-0.559903
2.5379,0.020088,0.000000,-0.161300,0.161300,0.0000,0.0000,0.0000,-0.002527,-0.191748,0.196350,0.9970,0.8285,-0.1491,0.001534,0.587515,-0.555301,0.556835,-0.595185,0.558369,-0.559903
2.5580,0.020090,0.000000,-0.154287,0.154287,0.0000,0.0000,0.0000,-0.002527,-0.182544,0.188680,0.9970,0.8285,-0.1491,0.001534,0.587515,-0.555301,0.556835,-0.595185,0.558369,-0.559903
2.5781,0.020085,0.000000,-0.147276,0.147276,0.0000,0.0000,0.0000,-0.002527,-0.174874,0.177942,0.9970,0.8285,-0.1491,0.001534,0.587515,-0.555301,0.556835,-0.595185,0.558369,-0.559903
2.5982,0.020087,0.000000,-0.140264,0.140264,0.0000,0.0000,0.0000,-0.002527,-0.170272,0.168738,0.9970,0.8285,-0.1491,0.001534,0.587515,-0.555301,0.556835,-0.595185,0.558369,-0.559903
2.6183,0.020089,0.000000,-0.133252,0.133252,0.0000,0.0000,0.0000,-0.002527,-0.161068,0.162602,0.9970,0.8285,-0.1491,0.001534,0.587515,-0.555301,0.556835,-0.595185,0.558369,-0.559903
2.6384,0.020145,0.000000,-0.126220,0.126220,0.0000,0.0000,0.0000,-0.002527,-0.153398,0.154932,0.9970,0.8285,-0.1491,0.001534,0.587515,-0.555301,0.556835,-0.595185,0.558369,-0.559903
2.6585,0.020094,0.000000,-0.119206,0.119206,0.0000,0.0000,0.0000,-0.002527,-0.145728,0.145728,0.9970,0.8285,-0.1491,0.001534,0.587515,-0.555301,0.556835,-0.595185,0.558369,-0.559903
2.6789,0.020447,0.000000,-0.112068,0.112068,0.0000,0.0000,0.0000,-0.002527,-0.139592,0.141126,0.9970,0.8285,-0.1491,0.001534,0.587515,-0.555301,0.556835,-0.595185,0.558369,-0.559903
2.6992,0.020301,0.000000,-0.104982,0.104982,0.0000,0.0000,0.0000,-0.002527,-0.124252,0.127320,0.9970,0.8285,-0.1491,0.001534,0.587515,-0.555301,0.556835,-0.595185,0.558369,-0.559903
2.7193,0.020093,0.000000,-0.097968,0.097968,0.0000,0.0000,0.0000,-0.002527,-0.116583,0.119651,0.9970,0.8285,-0.1491,0.001534,0.587515,-0.555301,0.556835,-0.595185,0.558369,-0.559903
2.7397,0.020312,0.000000,-0.090878,0.090878,0.0000,0.0000,0.0000,-0.002527,-0.116583,0.119651,0.9970,0.8285,-0.1491,0.001534,0.587515,-0.555301,0.556835,-0.595185,0.558369,-0.559903
2.7597,0.020084,0.000000,-0.083867,0.083867,0.0000,0.0000,0.0000,-0.002527,-0.102777,0.104311,0.9970,0.8285,-0.1491,0.001534,0.587515,-0.555301,0.556835,-0.595185,0.558369,-0.559903
2.7798,0.020085,0.000000,-0.076856,0.076856,0.0000,0.0000,0.0000,-0.002527,-0.096641,0.096641,0.9970,0.8285,-0.1491,0.001534,0.587515,-0.555301,0.556835,-0.595185,0.558369,-0.559903
2.7999,0.020086,0.000000,-0.069845,0.069845,0.0000,0.0000,0.0000,-0.002527,-0.090505,0.088971,0.9970,0.8285,-0.1491,0.001534,0.587515,-0.555301,0.556835,-0.595185,0.558369,-0.559903
2.8200,0.020078,0.000000,-0.062836,0.062836,0.0000,0.0000,0.0000,-0.002527,-0.082835,0.081301,0.9970,0.8285,-0.1491,0.001534,0.587515,-0.555301,0.556835,-0.595185,0.558369,-0.559903
2.8401,0.020077,0.000000,-0.055828,0.055828,0.0000,0.0000,0.0000,-0.002527,-0.073631,0.075165,0.9970,0.8285,-0.1491,0.001534,0.587515,-0.555301,0.556835,-0.595185,0.558369,-0.559903
2.8602,0.020089,0.000000,-0.048816,0.048816,0.0000,0.0000,0.0000,-0.002527,-0.065961,0.067495,0.9970,0.8285,-0.1491,0.001534,0.587515,-0.555301,0.556835,-0.595185,0.558369,-0.559903
2.8802,0.020077,0.000000,-0.041808,0.041808,0.0000,0.0000,0.0000,-0.002527,-0.058291,0.059825,0.9970,0.8285,-0.1491,0.001534,0.587515,-0.555301,0.556835,-0.595185,0.558369,-0.559903
2.9003,0.020082,0.000000,-0.034798,0.034798,0.0000,0.0000,0.0000,-0.002527,-0.050621,0.055223,0.9970,0.8285,-0.1491,0.001534,0.587515,-0.555301,0.556835,-0.595185,0.558369,-0.559903
2.9204,0.020076,0.000000,-0.027790,0.027790,0.0000,0.0000,0.0000,-0.002527,-0.044485,0.047553,0.9970,0.8285,-0.1491,0.001534,0.587515,-0.555301,0.556835,-0.595185,0.558369,-0.559903
2.9405,0.020075,0.000000,-0.020783,0.020783,0.0000,0.0000,0.0000,-0.002527,-0.041417,0.039884,0.9970,0.8285,-0.1491,0.001534,0.587515,-0.555301,0.556835,-0.595185,0.558369,-0.559903
2.9605,0.020081,0.000000,-0.013773,0.013773,0.0000,0.0000,0.0000,-0.002527,-0.036816,0.033748,0.9970,0.8285,-0.1491,0.001534,0.587515,-0.555301,0.556835,-0.595185,0.558369,-0.559903
2.9806,0.020073,0.000000,-0.006766,0.006766,0.0000,0.0000,0.0000,-0.002527,-0.026078,0.029146,0.9970,0.8285,-0.1491,0.001534,0.587515,-0.555301,0.556835,-0.595185,0.558369,-0.559903
3.0007,0.020087,0.000000,-0.000246,0.000246,0.0000,0.0000,0.0000,-0.002527,-0.015340,0.021476,0.9970,0.8285,-0.1491,0.001534,0.587515,-0.555301,0.556835,-0.595185,0.558369,-0.559903
3.0208,0.020075,0.000000,-0.007253,0.007253,0.0000,0.0000,0.0000,-0.002527,-0.007670,0.012272,0.9970,0.8285,-0.1491,0.001534,0.587515,-0.555301,0.556835,-0.595185,0.558369,-0.559903
3.0409,0.020076,0.000000,-0.014261,0.014261,0.0000,0.0000,0.0000,-0.002527,-0.001534,0.003068,0.9970,0.8285,-0.1491,0.001534,0.587515,-0.555301,0.556835,-0.595185,0.558369,-0.559903
3.0610,0.020119,0.000000,-0.021284,0.021284,0.0000,0.0000,0.0000,-0.002527,0.000000,-0.001534,0.9970,0.8285,-0.1491,0.001534,0.587515,-0.555301,0.556835,-0.595185,0.558369,-0.559903
3.0811,0.020081,0.000000,-0.028293,0.028293,0.0000,0.0000,0.0000,-0.002527,-0.003068,0.003068,0.9970,0.8285,-0.1491,0.001534,0.587515,-0.555301,0.556835,-0.595185,0.558369,-0.559903
3.1011,0.020092,0.000000,-0.035307,0.035307,0.0000,0.0000,0.0000,-0.002527,-0.013806,0.018408,0.9970,0.8285,-0.1491,0.001534,0.587515,-0.555301,0.556835,-0.595185,0.558369,-0.559903
3.1212,0.020082,0.000000,-0.042317,0.042317,0.0000,0.0000,0.0000,-0.002527,-0.024544,0.024544,0.9970,0.8285,-0.1491,0.001534,0.587515,-0.555301,0.556835,-0.595185,0.558369,-0.559903
3.1413,0.020084,0.000000,-0.049327,0.049327,0.0000,0.0000,0.0000,-0.002527,-0.036816,0.027612,0.9970,0.8285,-0.1491,0.001534,0.587515,-0.555301,0.556835,-0.595185,0.558369,-0.559903
3.1614,0.020081,0.000000,-0.056337,0.056337,0.0000,0.0000,0.0000,-0.002527,-0.039884,0.033748,0.9970,0.8285,-0.1491,0.001534,0.587515,-0.555301,0.556835,-0.595185,0.558369,-0.559903
3.1815,0.020082,0.000000,-0.063347,0.063347,0.0000,0.0000,0.0000,-0.002527,-0.039884,0.046019,0.9970,0.8285,-0.1491,0.001534,0.587515,-0.555301,0.556835,-0.595185,0.558369,-0.559903
3.2019,0.020384,0.000000,-0.070462,0.070462,0.0000,0.0000,0.0000,-0.002527,-0.047553,0.053689,0.9970,0.8285,-0.1491,0.001534,0.587515,-0.555301,0.556835,-0.595185,0.558369,-0.559903
3.2219,0.020078,0.000000,-0.077471,0.077471,0.0000,0.0000,0.0000,-0.002527,-0.058291,0.055223,0.9970,0.8285,-0.1491,0.001534,0.587515,-0.555301,0.556835,-0.595185,0.558369,-0.559903
3.2420,0.020079,0.000000,-0.084480,0.084480,0.0000,0.0000,0.0000,-0.002527,-0.070563,0.061359,0.9970,0.8285,-0.1491,0.001534,0.587515,-0.555301,0.556835,-0.595185,0.558369,-0.559903
3.2621,0.020079,0.000000,-0.091489,0.091489,0.0000,0.0000,0.0000,-0.002527,-0.075165,0.075165,0.9970,0.8285,-0.1491,0.001534,0.587515,-0.555301,0.556835,-0.595185,0.558369,-0.559903
3.2822,0.020093,0.000000,-0.098502,0.098502,0.0000,0.0000,0.0000,-0.002527,-0.076699,0.081301,0.9970,0.8285,-0.1491,0.001534,0.587515,-0.555301,0.556835,-0.595185,0.558369,-0.559903
3.3025,0.020264,0.000000,-0.105576,0.105576,0.0000,0.0000,0.0000,-0.002527,-0.082835,0.084369,0.9970,0.8285,-0.1491,0.001534,0.587515,-0.555301,0.556835,-0.595185,0.558369,-0.559903
3.3225,0.020082,0.000000,-0.112586,0.112586,0.0000,0.0000,0.0000,-0.002527,-0.095107,0.095107,0.9970,0.8285,-0.1491,0.001534,0.587515,-0.555301,0.556835,-0.595185,0.558369,-0.559903
3.3428,0.020278,0.000000,-0.119664,0.119664,0.0000,0.0000,0.0000,-0.002527,-0.105845,0.101243,0.9970,0.8285,-0.1491,0.001534,0.587515,-0.555301,0.556835,-0.595185,0.558369,-0.559903
3.3629,0.020085,0.000000,-0.126675,0.126675,0.0000,0.0000,0.0000,-0.002527,-0.110447,0.104311,0.9970,0.8285,-0.1491,0.001534,0.587515,-0.555301,0.556835,-0.595185,0.558369,-0.559903
3.3830,0.020080,0.000000,-0.133684,0.133684,0.0000,0.0000,0.0000,-0.002527,-0.113515,0.108913,0.9970,0.8285,-0.1491,0.001534,0.587515,-0.555301,0.556835,-0.595185,0.558369,-0.559903
3.4032,0.020230,0.000000,-0.140746,0.140746,0.0000,0.0000,0.0000,-0.002527,-0.122718,0.122718,0.9970,0.8285,-0.1491,0.001534,0.587515,-0.555301,0.556835,-0.595185,0.558369,-0.559903
3.4233,0.020083,0.000000,-0.147756,0.147756,0.0000,0.0000,0.0000,-0.002527,-0.134990,0.131922,0.9970,0.8285,-0.1491,0.001534,0.587515,-0.555301,0.556835,-0.595185,0.558369,-0.559903
3.4434,0.020082,0.000000,-0.154766,0.154766,0.0000,0.0000,0.0000,-0.002527,-0.141126,0.133456,0.9970,0.8285,-0.1491,0.001534,0.587515,-0.555301,0.556835,-0.595185,0.558369,-0.559903
3.4635,0.020086,0.000000,-0.161777,0.161777,0.0000,0.0000,0.0000,-0.002527,-0.141126,0.138058,0.9970,0.8285,-0.1491,0.001534,0.587515,-0.555301,0.556835,-0.595185,0.558369,-0.559903
3.4836,0.020098,0.000000,-0.168793,0.168793,0.0000,0.0000,0.0000,-0.002527,-0.147262,0.150330,0.9970,0.8285,-0.1491,0.001534,0.587515,-0.555301,0.556835,-0.595185,0.558369,-0.559903
3.5037,0.020113,0.000000,-0.175814,0.175814,0.0000,0.0000,0.0000,-0.002527,-0.158000,0.156466,0.9970,0.8285,-0.1491,0.001534,0.587515,-0.555301,0.556835,-0.595185,0.558369,-0.559903
3.5237,0.020080,0.000000,-0.182823,0.182823,0.0000,0.0000,0.0000,-0.002527,-0.168738,0.161068,0.9970,0.8285,-0.1491,0.001534,0.587515,-0.555301,0.556835,-0.595185,0.558369,-0.559903
3.5440,0.020240,0.000000,-0.189888,0.189888,0.0000,0.0000,0.0000,-0.002527,-0.170272,0.168738,0.9970,0.8285,-0.1491,0.001534,0.587515,-0.555301,0.556835,-0.595185,0.558369,-0.559903
3.5641,0.020078,0.000000,-0.196896,0.196896,0.0000,0.0000,0.0000,-0.002527,-0.174874,0.179476,0.9970,0.8285,-0.1491,0.001534,0.587515,-0.555301,0.556835,-0.595185,0.558369,-0.559903
3.5842,0.020085,0.000000,-0.203907,0.203907,0.0000,0.0000,0.0000,-0.002527,-0.188680,0.184078,0.9970,0.8285,-0.1491,0.001534,0.587515,-0.555301,0.556835,-0.595185,0.558369,-0.559903
3.6043,0.020099,0.000000,-0.210923,0.210923,0.0000,0.0000,0.0000,-0.002527,-0.196350,0.187146,0.9970,0.8285,-0.1491,0.001534,0.587515,-0.555301,0.556835,-0.595185,0.558369,-0.559903
3.6243,0.020077,0.000000,-0.217931,0.217931,0.0000,0.0000,0.0000,-0.002527,-0.197884,0.194816,0.9970,0.8285,-0.1491,0.001534,0.587515,-0.555301,0.556835,-0.595185,0.558369,-0.559903
3.6445,0.020159,0.000000,-0.224968,0.224968,0.0000,0.0000,0.0000,-0.002527,-0.202485,0.208621,0.9970,0.8285,-0.1491,0.001534,0.587515,-0.555301,0.556835,-0.595185,0.558369,-0.559903
3.6646,0.020104,0.000000,-0.231986,0.231986,0.0000,0.0000,0.0000,-0.002527,-0.216291,0.211689,0.9970,0.8285,-0.1491,0.001534,0.587515,-0.555301,0.556835,-0.595185,0.558369,-0.559903
3.6847,0.020080,0.000000,-0.238995,0.238995,0.0000,0.0000,0.0000,-0.002527,-0.222427,0.214757,0.9970,0.8285,-0.1491,0.001534,0.587515,-0.555301,0.556835,-0.595185,0.558369,-0.559903
3.7048,0.020086,0.000000,-0.246006,0.246006,0.0000,0.0000,0.0000,-0.002527,-0.223961,0.227029,0.9970,0.8285,-0.1491,0.001534,0.587515,-0.555301,0.556835,-0.595185,0.558369,-0.559903
3.7248,0.020075,0.000000,-0.253013,0.253013,0.0000,0.0000,0.0000,-0.002527,-0.231631,0.236233,0.9970,0.8285,-0.1491,0.001534,0.587515,-0.555301,0.556835,-0.595185,0.558369,-0.559903
3.7449,0.020081,0.000000,-0.260023,0.260023,0.0000,0.0000,0.0000,-0.002527,-0.243903,0.236233,0.9970,0.8285,-0.1491,0.001534,0.587515,-0.555301,0.556835,-0.595185,0.558369,-0.559903
3.7650,0.020090,0.000000,-0.267036,0.267036,0.0000,0.0000,0.0000,-0.002527,-0.250039,0.239301,0.9970,0.8285,-0.1491,0.001534,0.587515,-0.555301,0.556835,-0.595185,0.558369,-0.559903
3.7852,0.020158,0.000000,-0.274072,0.274072,0.0000,0.0000,0.0000,-0.002527,-0.251573,0.250039,0.9970,0.8285,-0.1491,0.001534,0.587515,-0.555301,0.556835,-0.595185,0.558369,-0.559903
3.8052,0.020081,0.000000,-0.281082,0.281082,0.0000,0.0000,0.0000,-0.002527,-0.256175,0.263845,0.9970,0.8285,-0.1491,0.001534,0.587515,-0.555301,0.556835,-0.595185,0.558369,-0.559903
3.8253,0.020105,0.000000,-0.288100,0.288100,0.0000,0.0000,0.0000,-0.002527,-0.268447,0.268447,0.9970,0.8285,-0.1491,0.001534,0.587515,-0.555301,0.556835,-0.595185,0.558369,-0.559903
3.8455,0.020107,0.000000,-0.295119,0.295119,0.0000,0.0000,0.0000,-0.002527,-0.277651,0.271515,0.9970,0.8285,-0.1491,0.001534,0.587515,-0.555301,0.556835,-0.595185,0.558369,-0.559903
3.8655,0.020094,0.000000,-0.302133,0.302133,0.0000,0.0000,0.0000,-0.002527,-0.282252,0.282252,0.9970,0.8285,-0.1491,0.001534,0.587515,-0.555301,0.556835,-0.595185,0.558369,-0.559903
3.8856,0.020098,0.000000,-0.309148,0.309148,0.0000,0.0000,0.0000,-0.002527,-0.289922,0.289922,0.9970,0.8285,-0.1491,0.001534,0.587515,-0.555301,0.556835,-0.595185,0.558369,-0.559903
3.9057,0.020084,0.000000,-0.316159,0.316159,0.0000,0.0000,0.0000,-0.002527,-0.300660,0.292990,0.9970,0.8285,-0.1491,0.001534,0.587515,-0.555301,0.556835,-0.595185,0.558369,-0.559903
3.9258,0.020093,0.000000,-0.323172,0.323172,0.0000,0.0000,0.0000,-0.002527,-0.303728,0.299126,0.9970,0.8285,-0.1491,0.001534,0.587515,-0.555301,0.556835,-0.595185,0.558369,-0.559903
3.9459,0.020091,0.000000,-0.330185,0.330185,0.0000,0.0000,0.0000,-0.002527,-0.306796,0.309864,0.9970,0.8285,-0.1491,0.001534,0.587515,-0.555301,0.556835,-0.595185,0.558369,-0.559903
3.9660,0.020095,0.000000,-0.337200,0.337200,0.0000,0.0000,0.0000,-0.002527,-0.319068,0.319068,0.9970,0.8285,-0.1491,0.001534,0.587515,-0.555301,0.556835,-0.595185,0.558369,-0.559903
3.9861,0.020122,0.000000,-0.344224,0.344224,0.0000,0.0000,0.0000,-0.002527,-0.331340,0.323670,0.9970,0.8285,-0.1491,0.001534,0.587515,-0.555301,0.556835,-0.595185,0.558369,-0.559903
4.0062,0.020084,0.000000,-0.346897,0.346897,0.0000,0.0000,0.0000,-0.002527,-0.331340,0.323670,0.9970,0.8285,-0.1491,0.001534,0.587515,-0.555301,0.556835,-0.595185,0.558369,-0.559903
4.0263,0.020094,0.000000,-0.339883,0.339883,0.0000,0.0000,0.0000,-0.002527,-0.332874,0.332874,0.9970,0.8285,-0.1491,0.001534,0.587515,-0.555301,0.556835,-0.595185,0.558369,-0.559903
4.0463,0.020040,0.000000,-0.332888,0.332888,0.0000,0.0000,0.0000,-0.002527,-0.346680,0.346680,0.9970,0.8285,-0.1491,0.001534,0.587515,-0.555301,0.556835,-0.595185,0.558369,-0.559903
4.0664,0.020086,0.000000,-0.325877,0.325877,0.0000,0.0000,0.0000,-0.002527,-0.354350,0.349748,0.9970,0.8285,-0.1491,0.001534,0.587515,-0.555301,0.556835,-0.595185,0.558369,-0.559903
4.0865,0.020077,0.000000,-0.318868,0.318868,0.0000,0.0000,0.0000,-0.002527,-0.352816,0.345146,0.9970,0.8285,-0.1491,0.001534,0.587515,-0.555301,0.556835,-0.595185,0.558369,-0.559903
4.1066,0.020076,0.000000,-0.311861,0.311861,0.0000,0.0000,0.0000,-0.002527,-0.346680,0.339010,0.9970,0.8285,-0.1491,0.001534,0.587515,-0.555301,0.556835,-0.595185,0.558369,-0.559903
4.1267,0.020077,0.000000,-0.304852,0.304852,0.0000,0.0000,0.0000,-0.002527,-0.340544,0.334408,0.9970,0.8285,-0.1491,0.001534,0.587515,-0.555301,0.556835,-0.595185,0.558369,-0.559903
4.1467,0.020074,0.000000,-0.297845,0.297845,0.0000,0.0000,0.0000,-0.002527,-0.331340,0.329806,0.9970,0.8285,-0.2370,0.000000,0.587515,-0.555301,0.556835,-0.595185,0.558369,-0.559903
4.1668,0.020088,0.000000,-0.290833,0.290833,0.0000,0.0000,0.0000,-0.002527,-0.322136,0.323670,0.9970,0.8285,-0.1491,0.001534,0.587515,-0.555301,0.556835,-0.595185,0.558369,-0.559903
4.1869,0.020078,0.000000,-0.283825,0.283825,0.0000,0.0000,0.0000,-0.002527,-0.312932,0.316000,0.9970,0.8285,-0.1491,0.001534,0.587515,-0.555301,0.556835,-0.595185,0.558369,-0.559903
4.2070,0.020082,0.000000,-0.276815,0.276815,0.0000,0.0000,0.0000,-0.002527,-0.305262,0.308330,0.9970,0.8285,-0.1491,0.001534,0.587515,-0.555301,0.556835,-0.595185,0.558369,-0.559903
4.2271,0.020085,0.000000,-0.269804,0.269804,0.0000,0.0000,0.0000,-0.002527,-0.297592,0.303728,0.9970,0.8285,-0.1491,0.001534,0.587515,-0.555301,0.556835,-0.595185,0.558369,-0.559903
4.2471,0.020073,0.000000,-0.262797,0.262797,0.0000,0.0000,0.0000,-0.002527,-0.288388,0.297592,0.9970,0.8285,-0.1491,0.001534,0.587515,-0.555301,0.556835,-0.595185,0.558369,-0.559903
4.2672,0.020081,0.000000,-0.255787,0.255787,0.0000,0.0000,0.0000,-0.002527,-0.283786,0.289922,0.9970,0.8285,-0.1491,0.001534,0.587515,-0.555301,0.556835,-0.595185,0.558369,-0.559903
4.2873,0.020078,0.000000,-0.248778,0.248778,0.0000,0.0000,0.0000,-0.002527,-0.279185,0.282252,0.9970,0.8285,-0.1491,0.001534,0.587515,-0.555301,0.556835,-0.595185,0.558369,-0.559903
4.3074,0.020076,0.000000,-0.241770,0.241770,0.0000,0.0000,0.0000,-0.002527,-0.274583,0.276117,0.9970,0.8285,-0.1491,0.001534,0.587515,-0.555301,0.556835,-0.595185,0.558369,-0.559903
4.3275,0.020079,0.000000,-0.234761,0.234761,0.0000,0.0000,0.0000,-0.002527,-0.265379,0.269981,0.9970,0.8285,-0.1491,0.001534,0.587515,-0.555301,0.556835,-0.595185,0.558369,-0.559903
4.3475,0.020073,0.000000,-0.227754,0.227754,0.0000,0.0000,0.0000,-0.002527,-0.256175,0.259243,0.9970,0.8285,-0.1491,0.001534,0.587515,-0.555301,0.556835,-0.595185,0.558369,-0.559903
4.3676,0.020106,0.000000,-0.220736,0.220736,0.0000,0.0000,0.0000,-0.002527,-0.250039,0.251573,0.9970,0.8285,-0.1491,0.001534,0.587515,-0.555301,0.556835,-0.595185,0.558369,-0.559903
4.3877,0.020076,0.000000,-0.213728,0.213728,0.0000,0.0000,0.0000,-0.002527,-0.242369,0.246971,0.9970,0.8285,-0.1491,0.001534,0.587515,-0.555301,0.556835,-0.595185,0.558369,-0.559903
4.4078,0.020075,0.000000,-0.206721,0.206721,0.0000,0.0000,0.0000,-0.002527,-0.233165,0.239301,0.9970,0.8285,-0.1491,0.001534,0.587515,-0.555301,0.556835,-0.595185,0.558369,-0.559903
4.4279,0.020077,0.000000,-0.199713,0.199713,0.0000,0.0000,0.0000,-0.002527,-0.227029,0.231631,0.9970,0.8285,-0.1491,0.001534,0.587515,-0.555301,0.556835,-0.595185,0.558369,-0.559903
4.4479,0.020075,0.000000,-0.192705,0.192705,0.0000,0.0000,0.0000,-0.002527,-0.217825,0.225495,0.9970,0.8285,-0.1491,0.001534,0.587515,-0.555301,0.556835,-0.595185,0.558369,-0.559903
4.4682,0.020285,0.000000,-0.185625,0.185625,0.0000,0.0000,0.0000,-0.002527,-0.210155,0.222427,0.9970,0.8285,-0.1491,0.001534,0.587515,-0.555301,0.556835,-0.595185,0.558369,-0.559903
4.4883,0.020091,0.000000,-0.178612,0.178612,0.0000,0.0000,0.0000,-0.002527,-0.202485,0.216291,0.9970,0.8285,-0.1491,0.001534,0.587515,-0.555301,0.556835,-0.595185,0.558369,-0.559903
4.5084,0.020078,0.000000,-0.171603,0.171603,0.0000,0.0000,0.0000,-0.002527,-0.196350,0.207087,0.9970,0.8285,-0.1491,0.001534,0.587515,-0.555301,0.556835,-0.595185,0.558369,-0.559903
4.5285,0.020130,0.000000,-0.164577,0.164577,0.0000,0.0000,0.0000,-0.002527,-0.188680,0.197884,0.9970,0.8285,-0.1491,0.001534,0.587515,-0.555301,0.556835,-0.595185,0.558369,-0.559903
4.5486,0.020077,0.000000,-0.157568,0.157568,0.0000,0.0000,0.0000,-0.002527,-0.182544,0.190214,0.9970,0.8285,-0.1491,0.001534,0.587515,-0.555301,0.556835,-0.595185,0.558369,-0.559903
4.5687,0.020113,0.000000,-0.150548,0.150548,0.0000,0.0000,0.0000,-0.002527,-0.177942,0.181010,0.9970,0.8285,-0.1491,0.001534,0.587515,-0.555301,0.556835,-0.595185,0.558369,-0.559903
4.5888,0.020080,0.000000,-0.143539,0.143539,0.0000,0.0000,0.0000,-0.002527,-0.171806,0.171806,0.9970,0.8285,-0.1491,0.001534,0.587515,-0.555301,0.556835,-0.595185,0.558369,-0.559903
4.6089,0.020081,0.000000,-0.136529,0.136529,0.0000,0.0000,0.0000,-0.002527,-0.165670,0.162602,0.9970,0.8285,-0.1491,0.001534,0.587515,-0.555301,0.556835,-0.595185,0.558369,-0.559903
4.6291,0.020246,0.000000,-0.129462,0.129462,0.0000,0.0000,0.0000,-0.002527,-0.156466,0.156466,0.9970,0.8285,-0.1491,0.001534,0.587515,-0.555301,0.556835,-0.595185,0.558369,-0.559903
4.6492,0.020083,0.000000,-0.122452,0.122452,0.0000,0.0000,0.0000,-0.002527,-0.147262,0.147262,0.9970,0.8285,-0.1491,0.001534,0.587515,-0.555301,0.556835,-0.595185,0.558369,-0.559903
4.6693,0.020099,0.000000,-0.115436,0.115436,0.0000,0.0000,0.0000,-0.002527,-0.141126,0.141126,0.9970,0.8285,-0.1491,0.001534,0.587515,-0.555301,0.556835,-0.595185,0.558369,-0.559903
4.6894,0.020090,0.000000,-0.108423,0.108423,0.0000,0.0000,0.0000,-0.002527,-0.131922,0.136524,0.9970,0.8285,-0.1491,0.001534,0.587515,-0.555301,0.556835,-0.595185,0.558369,-0.559903
4.7095,0.020107,0.000000,-0.101404,0.101404,0.0000,0.0000,0.0000,-0.002527,-0.124252,0.128854,0.9970,0.8285,-0.1491,0.001534,0.587515,-0.555301,0.556835,-0.595185,0.558369,-0.559903
4.7296,0.020073,0.000000,-0.094398,0.094398,0.0000,0.0000,0.0000,-0.002527,-0.119651,0.121184,0.9970,0.8285,-0.1491,0.001534,0.587515,-0.555301,0.556835,-0.595185,0.558369,-0.559903
4.7497,0.020149,0.000000,-0.087364,0.087364,0.0000,0.0000,0.0000,-0.002527,-0.115049,0.115049,0.9970,0.8285,-0.1491,0.001534,0.587515,-0.555301,0.556835,-0.595185,0.558369,-0.559903
4.7698,0.020098,0.000000,-0.080349,0.080349,0.0000,0.0000,0.0000,-0.002527,-0.107379,0.108913,0.9970,0.8285,-0.1491,0.001534,0.587515,-0.555301,0.556835,-0.595185,0.558369,-0.559903
4.7899,0.020086,0.000000,-0.073337,0.073337,0.0000,0.0000,0.0000,-0.002527,-0.099709,0.101243,0.9970,0.8285,-0.1491,0.001534,0.587515,-0.555301,0.556835,-0.595185,0.558369,-0.559903
4.8101,0.020225,0.000000,-0.066278,0.066278,0.0000,0.0000,0.0000,-0.002527,-0.092039,0.092039,0.9970,0.8285,-0.2370,0.000000,0.587515,-0.555301,0.556835,-0.595185,0.558369,-0.559903
4.8303,0.020162,0.000000,-0.059240,0.059240,0.0000,0.0000,0.0000,-0.002527,-0.084369,0.084369,0.9970,0.8285,-0.1491,0.001534,0.587515,-0.555301,0.556835,-0.595185,0.558369,-0.559903
4.8505,0.020236,0.000000,-0.052176,0.052176,0.0000,0.0000,0.0000,-0.002527,-0.076699,0.078233,0.9970,0.8285,-0.1491,0.001534,0.587515,-0.555301,0.556835,-0.595185,0.558369,-0.559903
4.8706,0.020085,0.000000,-0.045165,0.045165,0.0000,0.0000,0.0000,-0.002527,-0.069029,0.070563,0.9970,0.8285,-0.1491,0.001534,0.587515,-0.555301,0.556835,-0.595185,0.558369,-0.559903
4.8907,0.020079,0.000000,-0.038156,0.038156,0.0000,0.0000,0.0000,-0.002527,-0.064427,0.062893,0.9970,0.8285,-0.1491,0.001534,0.587515,-0.555301,0.556835,-0.595185,0.558369,-0.559903
4.9108,0.020081,0.000000,-0.031146,0.031146,0.0000,0.0000,0.0000,-0.002527,-0.055223,0.058291,0.9970,0.8285,-0.1491,0.001534,0.587515,-0.555301,0.556835,-0.595185,0.558369,-0.559903
4.9315,0.020710,0.000000,-0.023917,0.023917,0.0000,0.0000,0.0000,-0.002527,-0.047553,0.052155,0.9970,0.8285,-0.1491,0.001534,0.587515,-0.555301,0.556835,-0.595185,0.558369,-0.559903
4.9516,0.020085,0.000000,-0.016906,0.016906,0.0000,0.0000,0.0000,-0.002527,-0.041417,0.044485,0.9970,0.8285,-0.1491,0.001534,0.587515,-0.555301,0.556835,-0.595185,0.558369,-0.559903
4.9717,0.020082,0.000000,-0.009896,0.009896,0.0000,0.0000,0.0000,-0.002527,-0.033748,0.036816,0.9970,0.8285,-0.1491,0.001534,0.587515,-0.555301,0.556835,-0.595185,0.558369,-0.559903
4.9919,0.020264,0.000000,-0.002822,0.002822,0.0000,0.0000,0.0000,-0.002527,-0.026078,0.030680,0.9970,0.8285,-0.1491,0.001534,0.587515,-0.555301,0.556835,-0.595185,0.558369,-0.559903
5.0120,0.020079,0.000000,-0.004186,0.004186,0.0000,0.0000,0.0000,-0.002527,-0.015340,0.016874,0.9970,0.8285,-0.1491,0.001534,0.587515,-0.555301,0.556835,-0.595185,0.558369,-0.559903
5.0321,0.020156,0.000000,-0.011222,0.011222,0.0000,0.0000,0.0000,-0.002527,-0.013806,0.006136,0.9970,0.8285,-0.1491,0.001534,0.587515,-0.555301,0.556835,-0.595185,0.558369,-0.559903
5.0522,0.020083,0.000000,-0.018233,0.018233,0.0000,0.0000,0.0000,-0.002527,-0.006136,0.001534,0.9970,0.8285,-0.1491,0.001534,0.587515,-0.555301,0.556835,-0.595185,0.558369,-0.559903
5.0723,0.020080,0.000000,-0.025242,0.025242,0.0000,0.0000,0.0000,-0.002527,0.001534,0.003068,0.9970,0.8285,-0.1491,0.001534,0.587515,-0.555301,0.556835,-0.595185,0.558369,-0.559903
5.0924,0.020091,0.000000,-0.032255,0.032255,0.0000,0.0000,0.0000,-0.002527,-0.001534,0.013806,0.9970,0.8285,-0.1491,0.001534,0.587515,-0.555301,0.556835,-0.595185,0.558369,-0.559903
5.1125,0.020078,0.000000,-0.039264,0.039264,0.0000,0.0000,0.0000,-0.002527,-0.013806,0.023010,0.9970,0.8285,-0.1491,0.001534,0.587515,-0.555301,0.556835,-0.595185,0.558369,-0.559903
5.1328,0.020351,0.000000,-0.046367,0.046367,0.0000,0.0000,0.0000,-0.002527,-0.029146,0.026078,0.9970,0.8285,-0.1491,0.001534,0.587515,-0.555301,0.556835,-0.595185,0.558369,-0.559903
5.1529,0.020084,0.000000,-0.053378,0.053378,0.0000,0.0000,0.0000,-0.002527,-0.044485,0.032214,0.9970,0.8285,-0.1491,0.001534,0.587515,-0.555301,0.556835,-0.595185,0.558369,-0.559903
5.1730,0.020081,0.000000,-0.060388,0.060388,0.0000,0.0000,0.0000,-0.002527,-0.047553,0.044485,0.9970,0.8285,-0.1491,0.001534,0.587515,-0.555301,0.556835,-0.595185,0.558369,-0.559903
5.1931,0.020109,0.000000,-0.067407,0.067407,0.0000,0.0000,0.0000,-0.002527,-0.044485,0.050621,0.9970,0.8285,-0.1491,0.001534,0.587515,-0.555301,0.556835,-0.595185,0.558369,-0.559903
5.2132,0.020090,0.000000,-0.074420,0.074420,0.0000,0.0000,0.0000,-0.002540,-0.050621,0.053689,1.0075,0.7763,-0.2031,0.001534,0.587515,-0.555301,0.555301,-0.595185,0.558369,-0.559903
5.2333,0.020109,0.000000,-0.081439,0.081439,0.0000,0.0000,0.0000,-0.002525,-0.061359,0.056757,0.9953,0.8338,-0.1440,0.001534,0.587515,-0.555301,0.556835,-0.595185,0.558369,-0.559903
5.2534,0.020081,0.000000,-0.088449,0.088449,0.0000,0.0000,0.0000,-0.002527,-0.073631,0.067495,0.9966,0.8278,-0.1502,0.001534,0.587515,-0.555301,0.556835,-0.595185,0.558369,-0.559903
5.2735,0.020082,0.000000,-0.095458,0.095458,0.0000,0.0000,0.0000,-0.002527,-0.082835,0.079767,0.9966,0.8278,-0.1502,0.001534,0.587515,-0.555301,0.556835,-0.595185,0.558369,-0.559903
5.2935,0.020077,0.000000,-0.102467,0.102467,0.0000,0.0000,0.0000,-0.002527,-0.084369,0.087437,0.9966,0.8278,-0.1502,0.001534,0.587515,-0.555301,0.556835,-0.595185,0.558369,-0.559903
5.3139,0.020316,0.000000,-0.109558,0.109558,0.0000,0.0000,0.0000,-0.002527,-0.084369,0.088971,0.9966,0.8278,-0.1502,0.001534,0.587515,-0.555301,0.556835,-0.595185,0.558369,-0.559903
5.3340,0.020111,0.000000,-0.116578,0.116578,0.0000,0.0000,0.0000,-0.002527,-0.093573,0.098175,0.9966,0.8278,-0.1502,0.001534,0.587515,-0.555301,0.556835,-0.595185,0.558369,-0.559903
5.3541,0.020082,0.000000,-0.123588,0.123588,0.0000,0.0000,0.0000,-0.002527,-0.107379,0.104311,0.9966,0.8278,-0.1502,0.001534,0.587515,-0.555301,0.556835,-0.595185,0.558369,-0.559903
5.3742,0.020126,0.000000,-0.130613,0.130613,0.0000,0.0000,0.0000,-0.002527,-0.118117,0.110447,0.9966,0.8278,-0.1502,0.001534,0.587515,-0.555301,0.556835,-0.595185,0.558369,-0.559903
5.3943,0.020080,0.000000,-0.137623,0.137623,0.0000,0.0000,0.0000,-0.002527,-0.121184,0.119651,0.9966,0.8278,-0.1502,0.001534,0.587515,-0.555301,0.556835,-0.595185,0.558369,-0.559903
5.4145,0.020235,0.000000,-0.144686,0.144686,0.0000,0.0000,0.0000,-0.002527,-0.124252,0.127320,0.9966,0.8278,-0.1502,0.001534,0.587515,-0.555301,0.556835,-0.595185,0.558369,-0.559903
5.4346,0.020080,0.000000,-0.151695,0.151695,0.0000,0.0000,0.0000,-0.002527,-0.136524,0.131922,0.9966,0.8278,-0.1502,0.001534,0.587515,-0.555301,0.556835,-0.595185,0.558369,-0.559903
5.4547,0.020165,0.000000,-0.158734,0.158734,0.0000,0.0000,0.0000,-0.002527,-0.144194,0.138058,0.9966,0.8278,-0.1502,0.001534,0.587515,-0.555301,0.556835,-0.595185,0.558369,-0.559903
5.4748,0.020078,0.000000,-0.165743,0.165743,0.0000,0.0000,0.0000,-0.002527,-0.148796,0.148796,0.9966,0.8278,-0.1502,0.001534,0.587515,-0.555301,0.556835,-0.595185,0.558369,-0.559903
5.4949,0.020103,0.000000,-0.172760,0.172760,0.0000,0.0000,0.0000,-0.002527,-0.158000,0.153398,0.9966,0.8278,-0.1502,0.001534,0.587515,-0.555301,0.556835,-0.595185,0.558369,-0.559903
5.5150,0.020087,0.000000,-0.179772,0.179772,0.0000,0.0000,0.0000,-0.002527,-0.167204,0.156466,0.9966,0.8278,-0.1502,0.001534,0.587515,-0.555301,0.556835,-0.595185,0.558369,-0.559903
5.5351,0.020101,0.000000,-0.186788,0.186788,0.0000,0.0000,0.0000,-0.002527,-0.167204,0.156466,0.9966,0.8278,-0.1502,0.001534,0.587515,-0.555301,0.556835,-0.595185,0.558369,-0.559903
5.5553,0.020167,0.000000,-0.193828,0.193828,0.0000,0.0000,0.0000,-0.002527,-0.173340,0.177942,0.9966,0.8278,-0.1502,0.001534,0.587515,-0.555301,0.556835,-0.595185,0.558369,-0.559903
5.5755,0.020218,0.000000,-0.200885,0.200885,0.0000,0.0000,0.0000,-0.002527,-0.185612,0.182544,0.9966,0.8278,-0.1502,0.001534,0.587515,-0.555301,0.556835,-0.595185,0.558369,-0.559903
5.5956,0.020088,0.000000,-0.207897,0.207897,0.0000,0.0000,0.0000,-0.002527,-0.194816,0.184078,0.9966,0.8278,-0.1502,0.001534,0.587515,-0.555301,0.556835,-0.595185,0.558369,-0.559903
5.6157,0.020080,0.000000,-0.214907,0.214907,0.0000,0.0000,0.0000,-0.002527,-0.197884,0.190214,0.9966,0.8278,-0.1502,0.001534,0.587515,-0.555301,0.556835,-0.595185,0.558369,-0.559903
5.6358,0.020096,0.000000,-0.221922,0.221922,0.0000,0.0000,0.0000,-0.002527,-0.200951,0.202485,0.9966,0.8278,-0.1502,0.001534,0.587515,-0.555301,0.556835,-0.595185,0.558369,-0.559903
5.6563,0.020505,0.000000,-0.229079,0.229079,0.0000,0.0000,0.0000,-0.002527,-0.214757,0.213223,0.9966,0.8278,-0.1502,0.001534,0.587515,-0.555301,0.556835,-0.595185,0.558369,-0.559903
5.6763,0.020079,0.000000,-0.236088,0.236088,0.0000,0.0000,0.0000,-0.002527,-0.220893,0.217825,0.9966,0.8278,-0.1502,0.001534,0.587515,-0.555301,0.556835,-0.595185,0.558369,-0.559903
5.6969,0.020543,0.000000,-0.243259,0.243259,0.0000,0.0000,0.0000,-0.002527,-0.220893,0.220893,0.9966,0.8278,-0.1502,0.001534,0.587515,-0.555301,0.556835,-0.595185,0.558369,-0.559903
5.7170,0.020080,0.000000,-0.250269,0.250269,0.0000,0.0000,0.0000,-0.002527,-0.222427,0.231631,0.9966,0.8278,-0.1502,0.001534,0.587515,-0.555301,0.556835,-0.595185,0.558369,-0.559903
5.7372,0.020191,0.000000,-0.257317,0.257317,0.0000,0.0000,0.0000,-0.002527,-0.237767,0.237767,0.9966,0.8278,-0.1502,0.001534,0.587515,-0.555301,0.556835,-0.595185,0.558369,-0.559903
5.7573,0.020155,0.000000,-0.264352,0.264352,0.0000,0.0000,0.0000,-0.002527,-0.250039,0.242369,0.9966,0.8278,-0.1502,0.001534,0.587515,-0.555301,0.556835,-0.595185,0.558369,-0.559903
5.7774,0.020081,0.000000,-0.271362,0.271362,0.0000,0.0000,0.0000,-0.002527,-0.251573,0.250039,0.9966,0.8278,-0.1502,0.001534,0.587515,-0.555301,0.556835,-0.595185,0.558369,-0.559903
5.7978,0.020373,0.000000,-0.278473,0.278473,0.0000,0.0000,0.0000,-0.002527,-0.254641,0.260777,0.9966,0.8278,-0.1502,0.001534,0.587515,-0.555301,0.556835,-0.595185,0.558369,-0.559903
5.8178,0.020078,0.000000,-0.285482,0.285482,0.0000,0.0000,0.0000,-0.002527,-0.266913,0.265379,0.9966,0.8278,-0.1502,0.001534,0.587515,-0.555301,0.556835,-0.595185,0.558369,-0.559903
5.8380,0.020155,0.000000,-0.292517,0.292517,0.0000,0.0000,0.0000,-0.002527,-0.276117,0.269981,0.9966,0.8278,-0.1502,0.001534,0.587515,-0.555301,0.556835,-0.595185,0.558369,-0.559903
5.8586,0.020619,0.000000,-0.299714,0.299714,0.0000,0.0000,0.0000,-0.002527,-0.277651,0.279185,0.9966,0.8278,-0.1502,0.001534,0.587515,-0.555301,0.556835,-0.595185,0.558369,-0.559903
5.8787,0.020079,0.000000,-0.306723,0.306723,0.0000,0.0000,0.0000,-0.002527,-0.283786,0.289922,0.9966,0.8278,-0.1502,0.001534,0.587515,-0.555301,0.556835,-0.595185,0.558369,-0.559903
5.8988,0.020080,0.000000,-0.313732,0.313732,0.0000,0.0000,0.0000,-0.002527,-0.299126,0.292990,0.9966,0.8278,-0.2381,0.000000,0.587515,-0.555301,0.556835,-0.595185,0.558369,-0.559903
5.9189,0.020077,0.000000,-0.320740,0.320740,0.0000,0.0000,0.0000,-0.002527,-0.306796,0.294524,0.9966,0.8278,-0.1502,0.001534,0.587515,-0.555301,0.556835,-0.595185,0.558369,-0.559903
5.9389,0.020078,0.000000,-0.327749,0.327749,0.0000,0.0000,0.0000,-0.002527,-0.306796,0.308330,0.9966,0.8278,-0.1502,0.001534,0.587515,-0.555301,0.556835,-0.595185,0.558369,-0.559903
5.9599,0.020924,0.000000,-0.335053,0.335053,0.0000,0.0000,0.0000,-0.002527,-0.312932,0.319068,0.9966,0.8278,-0.1502,0.001534,0.587515,-0.555301,0.556835,-0.595185,0.558369,-0.559903
5.9799,0.020078,0.000000,-0.342061,0.342061,0.0000,0.0000,0.0000,-0.002527,-0.328272,0.320602,0.9966,0.8278,-0.1502,0.001534,0.587515,-0.555301,0.556835,-0.595185,0.558369,-0.559903
6.0000,0.020090,0.000000,-0.349058,0.349058,0.0000,0.0000,0.0000,-0.002527,-0.334408,0.325204,0.9966,0.8278,-0.1502,0.001534,0.587515,-0.555301,0.556835,-0.595185,0.558369,-0.559903
6.0201,0.020075,0.000000,-0.342050,0.342050,0.0000,0.0000,0.0000,-0.002527,-0.335942,0.337476,0.9966,0.8278,-0.1502,0.001534,0.587515,-0.555301,0.556835,-0.595185,0.558369,-0.559903
6.0402,0.020074,0.000000,-0.335043,0.335043,0.0000,0.0000,0.0000,-0.002527,-0.343612,0.345146,0.9966,0.8278,-0.1502,0.001534,0.587515,-0.555301,0.556835,-0.595185,0.558369,-0.559903
6.0605,0.020318,0.000000,-0.327951,0.327951,0.0000,0.0000,0.0000,-0.002527,-0.355884,0.348214,0.9966,0.8278,-0.1502,0.001534,0.587515,-0.555301,0.556835,-0.595185,0.558369,-0.559903
6.0806,0.020084,0.000000,-0.320940,0.320940,0.0000,0.0000,0.0000,-0.002527,-0.354350,0.345146,0.9966,0.8278,-0.1502,0.001534,0.587515,-0.555301,0.556835,-0.595185,0.558369,-0.559903
6.1008,0.020268,0.000000,-0.313865,0.313865,0.0000,0.0000,0.0000,-0.002527,-0.346680,0.340544,0.9966,0.8278,-0.1502,0.001534,0.587515,-0.555301,0.556835,-0.595185,0.558369,-0.559903
6.1209,0.020084,0.000000,-0.306855,0.306855,0.0000,0.0000,0.0000,-0.002527,-0.340544,0.334408,0.9966,0.8278,-0.1502,0.001534,0.587515,-0.555301,0.556835,-0.595185,0.558369,-0.559903
6.1410,0.020079,0.000000,-0.299846,0.299846,0.0000,0.0000,0.0000,-0.002527,-0.331340,0.329806,0.9966,0.8278,-0.1502,0.001534,0.587515,-0.555301,0.556835,-0.595185,0.558369,-0.559903
6.1611,0.020088,0.000000,-0.292834,0.292834,0.0000,0.0000,0.0000,-0.002527,-0.322136,0.325204,0.9966,0.8278,-0.1502,0.001534,0.587515,-0.555301,0.556835,-0.595185,0.558369,-0.559903
6.1812,0.020087,0.000000,-0.285822,0.285822,0.0000,0.0000,0.0000,-0.002527,-0.312932,0.319068,0.9966,0.8278,-0.1502,0.001534,0.587515,-0.555301,0.556835,-0.595185,0.558369,-0.559903
6.2014,0.020241,0.000000,-0.278757,0.278757,0.0000,0.0000,0.0000,-0.002527,-0.305262,0.309864,0.9966,0.8278,-0.1502,0.001534,0.587515,-0.555301,0.556835,-0.595185,0.558369,-0.559903
6.2215,0.020080,0.000000,-0.271748,0.271748,0.0000,0.0000,0.0000,-0.002527,-0.297592,0.303728,0.9966,0.8278,-0.1502,0.001534,0.587515,-0.555301,0.556835,-0.595185,0.558369,-0.559903
6.2416,0.020082,0.000000,-0.264738,0.264738,0.0000,0.0000,0.0000,-0.002527,-0.288388,0.297592,0.9966,0.8278,-0.1502,0.001534,0.587515,-0.555301,0.556835,-0.595185,0.558369,-0.559903
6.2617,0.020092,0.000000,-0.257725,0.257725,0.0000,0.0000,0.0000,-0.002527,-0.283786,0.289922,0.9966,0.8278,-0.1502,0.001534,0.587515,-0.555301,0.556835,-0.595185,0.558369,-0.559903
6.2818,0.020085,0.000000,-0.250714,0.250714,0.0000,0.0000,0.0000,-0.002527,-0.279185,0.282252,0.9966,0.8278,-0.1502,0.001534,0.587515,-0.555301,0.556835,-0.595185,0.558369,-0.559903
6.3023,0.020558,0.000000,-0.243537,0.243537,0.0000,0.0000,0.0000,-0.002527,-0.273049,0.276117,0.9966,0.8278,-0.1502,0.001534,0.587515,-0.555301,0.556835,-0.595185,0.558369,-0.559903
6.3224,0.020083,0.000000,-0.236527,0.236527,0.0000,0.0000,0.0000,-0.002527,-0.265379,0.269981,0.9966,0.8278,-0.1502,0.001534,0.587515,-0.555301,0.556835,-0.595185,0.558369,-0.559903
6.3425,0.020086,0.000000,-0.229516,0.229516,0.0000,0.0000,0.0000,-0.002527,-0.257709,0.262311,0.9966,0.8278,-0.1502,0.001534,0.587515,-0.555301,0.556835,-0.595185,0.558369,-0.559903
6.3626,0.020088,0.000000,-0.222504,0.222504,0.0000,0.0000,0.0000,-0.002527,-0.251573,0.253107,0.9966,0.8278,-0.1502,0.001534,0.587515,-0.555301,0.556835,-0.595185,0.558369,-0.559903
6.3827,0.020087,0.000000,-0.215492,0.215492,0.0000,0.0000,0.0000,-0.002527,-0.242369,0.245437,0.9966,0.8278,-0.1502,0.001534,0.587515,-0.555301,0.556835,-0.595185,0.558369,-0.559903
6.4027,0.020082,0.000000,-0.208482,0.208482,0.0000,0.0000,0.0000,-0.002527,-0.233165,0.239301,0.9966,0.8278,-0.1502,0.001534,0.587515,-0.555301,0.556835,-0.595185,0.558369,-0.559903
6.4228,0.020081,0.000000,-0.201472,0.201472,0.0000,0.0000,0.0000,-0.002527,-0.225495,0.231631,0.9966,0.8278,-0.1502,0.001534,0.587515,-0.555301,0.556835,-0.595185,0.558369,-0.559903
6.4429,0.020078,0.000000,-0.194464,0.194464,0.0000,0.0000,0.0000,-0.002527,-0.217825,0.225495,0.9966,0.8278,-0.1502,0.001534,0.587515,-0.555301,0.556835,-0.595185,0.558369,-0.559903
6.4630,0.020086,0.000000,-0.187453,0.187453,0.0000,0.0000,0.0000,-0.002527,-0.208621,0.220893,0.9966,0.8278,-0.1502,0.001534,0.587515,-0.555301,0.556835,-0.595185,0.558369,-0.559903
6.4831,0.020086,0.000000,-0.180441,0.180441,0.0000,0.0000,0.0000,-0.002527,-0.200951,0.214757,0.9966,0.8278,-0.1502,0.001534,0.587515,-0.555301,0.556835,-0.595185,0.558369,-0.559903
6.5033,0.020207,0.000000,-0.173388,0.173388,0.0000,0.0000,0.0000,-0.002527,-0.197884,0.208621,0.9966,0.8278,-0.1502,0.001534,0.587515,-0.555301,0.556835,-0.595185,0.558369,-0.559903
6.5234,0.020115,0.000000,-0.166366,0.166366,0.0000,0.0000,0.0000,-0.002527,-0.190214,0.197884,0.9966,0.8278,-0.1502,0.001534,0.587515,-0.555301,0.556835,-0.595185,0.558369,-0.559903
6.5435,0.020082,0.000000,-0.159356,0.159356,0.0000,0.0000,0.0000,-0.002527,-0.182544,0.190214,0.9966,0.8278,-0.1502,0.001534,0.587515,-0.555301,0.556835,-0.595185,0.558369,-0.559903
