t,loop_dt,cmd_z,cmd_ant_l,cmd_ant_r,cmd_roll,cmd_pitch,cmd_yaw,pres_z,pres_ant_l,pres_ant_r,pres_roll,pres_pitch,pres_yaw,pres_j0,pres_j1,pres_j2,pres_j3,pres_j4,pres_j5,pres_j6
0.0000,0.000001,0.000000,-1.745329,1.745329,0.0000,0.0000,0.0000,-0.002707,-1.566194,1.563126,1.0030,1.1267,-0.0655,0.001534,0.578311,-0.552233,0.556835,-0.595185,0.556835,-0.549165
0.0201,0.020081,0.000000,-1.734814,1.734814,0.0000,0.0000,0.0000,-0.002694,-1.569262,1.564660,1.0532,1.1059,0.0001,0.001534,0.579845,-0.552233,0.556835,-0.595185,0.556835,-0.549165
0.0402,0.020087,0.000000,-1.724297,1.724297,0.0000,0.0000,0.0000,-0.002682,-1.572330,1.569262,1.0076,1.0745,0.0457,0.001534,0.579845,-0.552233,0.556835,-0.595185,0.558369,-0.549165
0.0602,0.020080,0.000000,-1.713783,1.713783,0.0000,0.0000,0.0000,-0.002696,-1.616816,1.621418,1.0527,1.1113,-0.0115,0.001534,0.579845,-0.552233,0.556835,-0.595185,0.556835,-0.549165
0.0804,0.020101,0.000000,-1.703258,1.703258,0.0000,0.0000,0.0000,-0.002693,-1.691981,1.704253,0.9579,1.0893,-0.0071,0.001534,0.578311,-0.552233,0.556835,-0.595185,0.558369,-0.549165
0.1004,0.020097,0.000000,-1.692735,1.692735,0.0000,0.0000,0.0000,-0.002695,-1.762544,1.759476,1.0579,1.1098,-0.0060,0.001534,0.579845,-0.552233,0.556835,-0.595185,0.556835,-0.549165
0.1205,0.020097,0.000000,-1.682213,1.682213,0.0000,0.0000,0.0000,-0.002682,-1.768680,1.764078,1.0869,1.0719,-0.0591,0.001534,0.579845,-0.553767,0.556835,-0.595185,0.556835,-0.549165
0.1407,0.020139,0.000000,-1.671668,1.671668,0.0000,0.0000,0.0000,-0.002670,-1.754874,1.754874,1.1232,1.0401,-0.1065,0.001534,0.579845,-0.555301,0.556835,-0.595185,0.556835,-0.549165
0.1608,0.020105,0.000000,-1.661141,1.661141,0.0000,0.0000,0.0000,-0.002671,-1.731864,1.736466,1.1194,1.0435,-0.1016,0.001534,0.579845,-0.555301,0.556835,-0.595185,0.556835,-0.549165
0.1809,0.020090,0.000000,-1.650622,1.650622,0.0000,0.0000,0.0000,-0.002658,-1.711923,1.719592,1.0794,1.0095,-0.0497,0.001534,0.579845,-0.555301,0.556835,-0.595185,0.558369,-0.549165
0.2010,0.020098,0.000000,-1.640099,1.640099,0.0000,0.0000,0.0000,-0.002659,-1.698117,1.705787,1.0836,1.0131,-0.0551,0.001534,0.579845,-0.555301,0.556835,-0.595185,0.558369,-0.549165
0.2211,0.020094,0.000000,-1.629578,1.629578,0.0000,0.0000,0.0000,-0.002659,-1.687379,1.691981,1.0836,1.0131,-0.0551,0.001534,0.579845,-0.555301,0.556835,-0.595185,0.558369,-0.549165
0.2412,0.020090,0.000000,-1.619059,1.619059,0.0000,0.0000,0.0000,-0.002646,-1.675107,1.678175,1.0338,0.9946,-0.1080,0.001534,0.579845,-0.555301,0.556835,-0.595185,0.558369,-0.550699
0.2613,0.020172,0.000000,-1.608497,1.608497,0.0000,0.0000,0.0000,-0.002648,-1.665903,1.668971,1.0390,0.9965,-0.1025,0.001534,0.579845,-0.555301,0.556835,-0.595185,0.558369,-0.550699
0.2814,0.020092,0.000000,-1.597976,1.597976,0.0000,0.0000,0.0000,-0.002634,-1.658233,1.658233,0.9892,0.9782,-0.1566,0.001534,0.579845,-0.555301,0.556835,-0.595185,0.558369,-0.552233
0.3020,0.020560,0.000000,-1.587211,1.587211,0.0000,0.0000,0.0000,-0.002636,-1.650563,1.652097,0.9944,0.9802,-0.1510,0.001534,0.579845,-0.555301,0.556835,-0.595185,0.558369,-0.552233
0.3221,0.020085,0.000000,-1.576695,1.576695,0.0000,0.0000,0.0000,-0.002623,-1.639825,1.645961,0.9446,0.9620,-0.2051,0.001534,0.579845,-0.555301,0.556835,-0.595185,0.558369,-0.553767
0.3422,0.020088,0.000000,-1.566177,1.566177,0.0000,0.0000,0.0000,-0.002611,-1.633690,1.636758,0.9006,0.9459,-0.2531,0.001534,0.579845,-0.555301,0.556835,-0.595185,0.558369,-0.555301
0.3623,0.020094,0.000000,-1.555656,1.555656,0.0000,0.0000,0.0000,-0.002599,-1.621418,1.626020,0.8560,0.9297,-0.3017,0.001534,0.579845,-0.555301,0.556835,-0.595185,0.558369,-0.556835
0.3823,0.020095,0.000000,-1.545134,1.545134,0.0000,0.0000,0.0000,-0.002601,-1.610680,1.613748,0.8606,0.9314,-0.2966,0.001534,0.579845,-0.555301,0.556835,-0.595185,0.558369,-0.556835
0.4024,0.020096,0.000000,-1.534611,1.534611,0.0000,0.0000,0.0000,-0.002613,-1.598408,1.603010,0.9006,0.9649,-0.3497,0.001534,0.579845,-0.555301,0.556835,-0.595185,0.556835,-0.556835
0.4225,0.020083,0.000000,-1.524096,1.524096,0.0000,0.0000,0.0000,-0.002599,-1.589204,1.592272,0.8560,0.9277,-0.2916,0.001534,0.579845,-0.555301,0.556835,-0.595185,0.558369,-0.556835
0.4427,0.020141,0.000000,-1.513550,1.513550,0.0000,0.0000,0.0000,-0.002601,-1.578466,1.581534,0.8606,0.9316,-0.2977,0.001534,0.579845,-0.555301,0.556835,-0.595185,0.558369,-0.556835
0.4627,0.020084,0.000000,-1.503034,1.503034,0.0000,0.0000,0.0000,-0.002601,-1.569262,1.575398,0.8606,0.9316,-0.2977,0.001534,0.579845,-0.555301,0.556835,-0.595185,0.558369,-0.556835
0.4828,0.020091,0.000000,-1.492515,1.492515,0.0000,0.0000,0.0000,-0.002613,-1.556990,1.567728,0.9006,0.9649,-0.3495,0.001534,0.579845,-0.555301,0.556835,-0.595185,0.556835,-0.556835
0.5030,0.020187,0.000000,-1.481945,1.481945,0.0000,0.0000,0.0000,-0.002599,-1.546253,1.555457,0.8560,0.9277,-0.2916,0.001534,0.579845,-0.555301,0.556835,-0.595185,0.558369,-0.556835
0.5231,0.020089,0.000000,-1.471427,1.471427,0.0000,0.0000,0.0000,-0.002601,-1.535515,1.541651,0.8606,0.9316,-0.2977,0.001534,0.579845,-0.555301,0.556835,-0.595185,0.558369,-0.556835
0.5432,0.020088,0.000000,-1.460909,1.460909,0.0000,0.0000,0.0000,-0.002601,-1.523243,1.527845,0.8606,0.9316,-0.2977,0.001534,0.579845,-0.555301,0.556835,-0.595185,0.558369,-0.556835
0.5633,0.020088,0.000000,-1.450390,1.450390,0.0000,0.0000,0.0000,-0.002589,-1.510971,1.515573,0.9100,0.9156,-0.2431,0.001534,0.581379,-0.555301,0.556835,-0.595185,0.558369,-0.556835
0.5836,0.020268,0.000000,-1.439778,1.439778,0.0000,0.0000,0.0000,-0.002579,-1.500233,1.504835,0.9546,0.9017,-0.1947,0.001534,0.582913,-0.555301,0.556835,-0.595185,0.558369,-0.556835
0.6037,0.020097,0.000000,-1.429255,1.429255,0.0000,0.0000,0.0000,-0.002580,-1.489495,1.495631,0.9499,0.9032,-0.1998,0.001534,0.582913,-0.555301,0.556835,-0.595185,0.558369,-0.556835
0.6237,0.020089,0.000000,-1.418737,1.418737,0.0000,0.0000,0.0000,-0.002580,-1.480291,1.484893,0.9499,0.9032,-0.1998,0.001534,0.582913,-0.555301,0.556835,-0.595185,0.558369,-0.556835
0.6438,0.020085,0.000000,-1.408220,1.408220,0.0000,0.0000,0.0000,-0.002580,-1.472622,1.472622,0.9499,0.9032,-0.1998,0.001534,0.582913,-0.555301,0.556835,-0.595185,0.558369,-0.556835
0.6639,0.020066,0.000000,-1.397714,1.397714,0.0000,0.0000,0.0000,-0.002580,-1.461884,1.461884,0.9499,0.9032,-0.1998,0.001534,0.582913,-0.555301,0.556835,-0.595185,0.558369,-0.556835
0.6840,0.020095,0.000000,-1.405335,1.405335,0.0000,0.0000,0.0000,-0.002580,-1.449612,1.449612,0.9499,0.9032,-0.1998,0.001534,0.582913,-0.555301,0.556835,-0.595185,0.558369,-0.556835
0.7041,0.020090,0.000000,-1.415854,1.415854,0.0000,0.0000,0.0000,-0.002580,-1.440408,1.440408,0.9499,0.9032,-0.1998,0.001534,0.582913,-0.555301,0.556835,-0.595185,0.558369,-0.556835
0.7242,0.020088,0.000000,-1.426372,1.426372,0.0000,0.0000,0.0000,-0.002580,-1.429670,1.431204,0.9499,0.9032,-0.1998,0.001534,0.582913,-0.555301,0.556835,-0.595185,0.558369,-0.556835
0.7443,0.020084,0.000000,-1.436888,1.436888,0.0000,0.0000,0.0000,-0.002580,-1.423534,1.425068,0.9499,0.9032,-0.1998,0.001534,0.582913,-0.555301,0.556835,-0.595185,0.558369,-0.556835
0.7643,0.020087,0.000000,-1.447405,1.447405,0.0000,0.0000,0.0000,-0.002580,-1.423534,1.423534,0.9499,0.9032,-0.1998,0.001534,0.582913,-0.555301,0.556835,-0.595185,0.558369,-0.556835
0.7844,0.020095,0.000000,-1.457927,1.457927,0.0000,0.0000,0.0000,-0.002580,-1.429670,1.425068,0.9499,0.9032,-0.1998,0.001534,0.582913,-0.555301,0.556835,-0.595185,0.558369,-0.556835
0.8047,0.020283,0.000000,-1.468547,1.468547,0.0000,0.0000,0.0000,-0.002580,-1.438874,1.431204,0.9499,0.9032,-0.1998,0.001534,0.582913,-0.555301,0.556835,-0.595185,0.558369,-0.556835
0.8248,0.020094,0.000000,-1.479068,1.479068,0.0000,0.0000,0.0000,-0.002580,-1.451146,1.445010,0.9499,0.9032,-0.1998,0.001534,0.582913,-0.555301,0.556835,-0.595185,0.558369,-0.556835
0.8451,0.020295,0.000000,-1.489695,1.489695,0.0000,0.0000,0.0000,-0.002580,-1.464952,1.463418,0.9499,0.9032,-0.1998,0.001534,0.582913,-0.555301,0.556835,-0.595185,0.558369,-0.556835
0.8652,0.020089,0.000000,-1.500213,1.500213,0.0000,0.0000,0.0000,-0.002580,-1.472622,1.472622,0.9499,0.9032,-0.1998,0.001534,0.582913,-0.555301,0.556835,-0.595185,0.558369,-0.556835
0.8853,0.020102,0.000000,-1.510738,1.510738,0.0000,0.0000,0.0000,-0.002580,-1.477223,1.475690,0.9499,0.9032,-0.1998,0.001534,0.582913,-0.555301,0.556835,-0.595185,0.558369,-0.556835
0.9054,0.020095,0.000000,-1.521260,1.521260,0.0000,0.0000,0.0000,-0.002580,-1.489495,1.487961,0.9499,0.9032,-0.1998,0.001534,0.582913,-0.555301,0.556835,-0.595185,0.558369,-0.556835
0.9255,0.020089,0.000000,-1.531779,1.531779,0.0000,0.0000,0.0000,-0.002580,-1.507903,1.503301,0.9499,0.9032,-0.1998,0.001534,0.582913,-0.555301,0.556835,-0.595185,0.558369,-0.556835
0.9456,0.020085,0.000000,-1.542295,1.542295,0.0000,0.0000,0.0000,-0.002580,-1.515573,1.510971,0.9499,0.9032,-0.1998,0.001534,0.582913,-0.555301,0.556835,-0.595185,0.558369,-0.556835
0.9657,0.020087,0.000000,-1.552813,1.552813,0.0000,0.0000,0.0000,-0.002580,-1.520175,1.517107,0.9499,0.9032,-0.1998,0.001534,0.582913,-0.555301,0.556835,-0.595185,0.558369,-0.556835
0.9863,0.020648,0.000000,-1.563624,1.563624,0.0000,0.0000,0.0000,-0.002580,-1.533981,1.529379,0.9499,0.9032,-0.1998,0.001534,0.582913,-0.555301,0.556835,-0.595185,0.558369,-0.556835
1.0064,0.020087,0.000000,-1.574142,1.574142,0.0000,0.0000,0.0000,-0.002580,-1.550855,1.546253,0.9499,0.9032,-0.1998,0.001534,0.582913,-0.555301,0.556835,-0.595185,0.558369,-0.556835
1.0265,0.020125,0.000000,-1.584680,1.584680,0.0000,0.0000,0.0000,-0.002580,-1.555457,1.555457,0.9499,0.9032,-0.1998,0.001534,0.582913,-0.555301,0.556835,-0.595185,0.558369,-0.556835
1.0467,0.020173,0.000000,-1.595242,1.595242,0.0000,0.0000,0.0000,-0.002580,-1.560058,1.561592,0.9499,0.9032,-0.1998,0.001534,0.582913,-0.555301,0.556835,-0.595185,0.558369,-0.556835
1.0668,0.020084,0.000000,-1.605758,1.605758,0.0000,0.0000,0.0000,-0.002580,-1.575398,1.573864,0.9499,0.9032,-0.1998,0.001534,0.582913,-0.555301,0.556835,-0.595185,0.558369,-0.556835
1.0869,0.020086,0.000000,-1.616275,1.616275,0.0000,0.0000,0.0000,-0.002580,-1.590738,1.589204,0.9499,0.9032,-0.1998,0.001534,0.582913,-0.555301,0.556835,-0.595185,0.558369,-0.556835
1.1078,0.020931,0.000000,-1.627235,1.627235,0.0000,0.0000,0.0000,-0.002580,-1.596874,1.596874,0.9499,0.9032,-0.1998,0.001534,0.582913,-0.555301,0.556835,-0.595185,0.558369,-0.556835
1.1279,0.020096,0.000000,-1.637757,1.637757,0.0000,0.0000,0.0000,-0.002580,-1.599942,1.599942,0.9499,0.9032,-0.1998,0.001534,0.582913,-0.555301,0.556835,-0.595185,0.558369,-0.556835
1.1480,0.020085,0.000000,-1.648274,1.648274,0.0000,0.0000,0.0000,-0.002580,-1.612214,1.613748,0.9499,0.9032,-0.1998,0.001534,0.582913,-0.555301,0.556835,-0.595185,0.558369,-0.556835
1.1681,0.020097,0.000000,-1.658797,1.658797,0.0000,0.0000,0.0000,-0.002580,-1.629088,1.627554,0.9499,0.9032,-0.1998,0.001534,0.582913,-0.555301,0.556835,-0.595185,0.558369,-0.556835
1.1882,0.020094,0.000000,-1.669318,1.669318,0.0000,0.0000,0.0000,-0.002580,-1.636758,1.638291,0.9499,0.9032,-0.1998,0.001534,0.582913,-0.555301,0.556835,-0.595185,0.558369,-0.556835
1.2083,0.020108,0.000000,-1.679846,1.679846,0.0000,0.0000,0.0000,-0.002580,-1.659767,1.653631,0.9499,0.9032,-0.1998,0.001534,0.582913,-0.555301,0.556835,-0.595185,0.558369,-0.556835
1.2284,0.020097,0.000000,-1.690369,1.690369,0.0000,0.0000,0.0000,-0.002580,-1.672039,1.672039,0.9499,0.9032,-0.1998,0.001534,0.582913,-0.555301,0.556835,-0.595185,0.558369,-0.556835
1.2485,0.020119,0.000000,-1.700904,1.700904,0.0000,0.0000,0.0000,-0.002580,-1.678175,1.678175,0.9499,0.9032,-0.1998,0.001534,0.582913,-0.555301,0.556835,-0.595185,0.558369,-0.556835
1.2686,0.020101,0.000000,-1.711428,1.711428,0.0000,0.0000,0.0000,-0.002580,-1.678175,1.678175,0.9499,0.9032,-0.1998,0.001534,0.582913,-0.555301,0.556835,-0.595185,0.558369,-0.556835
1.2887,0.020107,0.000000,-1.721956,1.721956,0.0000,0.0000,0.0000,-0.002580,-1.704253,1.698117,0.9499,0.9032,-0.1998,0.001534,0.582913,-0.555301,0.556835,-0.595185,0.558369,-0.556835
1.3088,0.020120,0.000000,-1.732491,1.732491,0.0000,0.0000,0.0000,-0.002580,-1.713457,1.713457,0.9499,0.9032,-0.1998,0.001534,0.582913,-0.555301,0.556835,-0.595185,0.558369,-0.556835
1.3289,0.020100,0.000000,-1.743016,1.743016,0.0000,0.0000,0.0000,-0.002580,-1.718058,1.718058,0.9499,0.9032,-0.1998,0.001534,0.582913,-0.555301,0.556835,-0.595185,0.558369,-0.556835
1.3490,0.020102,0.000000,-1.737118,1.737118,0.0000,0.0000,0.0000,-0.002580,-1.727262,1.722660,0.9499,0.9032,-0.1998,0.001534,0.582913,-0.555301,0.556835,-0.595185,0.558369,-0.556835
1.3691,0.020102,0.000000,-1.726592,1.726592,0.0000,0.0000,0.0000,-0.002580,-1.744136,1.733398,0.9499,0.9032,-0.1998,0.001534,0.582913,-0.555301,0.556835,-0.595185,0.558369,-0.556835
1.3892,0.020091,0.000000,-1.716073,1.716073,0.0000,0.0000,0.0000,-0.002580,-1.754874,1.747204,0.9499,0.9032,-0.1998,0.001534,0.582913,-0.555301,0.556835,-0.595185,0.558369,-0.556835
1.4093,0.020106,0.000000,-1.705545,1.705545,0.0000,0.0000,0.0000,-0.002580,-1.754874,1.747204,0.9499,0.9032,-0.1998,0.001534,0.582913,-0.555301,0.556835,-0.595185,0.558369,-0.556835
1.4294,0.020102,0.000000,-1.695020,1.695020,0.0000,0.0000,0.0000,-0.002580,-1.748738,1.744136,0.9499,0.9032,-0.1998,0.001534,0.582913,-0.555301,0.556835,-0.595185,0.558369,-0.556835
1.4495,0.020100,0.000000,-1.684496,1.684496,0.0000,0.0000,0.0000,-0.002580,-1.748738,1.744136,0.9499,0.9032,-0.1998,0.001534,0.582913,-0.555301,0.556835,-0.595185,0.558369,-0.556835
1.4696,0.020108,0.000000,-1.673967,1.673967,0.0000,0.0000,0.0000,-0.002567,-1.745670,1.742602,0.9013,0.8851,-0.2529,0.001534,0.582913,-0.555301,0.556835,-0.595185,0.558369,-0.558369
1.4897,0.020084,0.000000,-1.663451,1.663451,0.0000,0.0000,0.0000,-0.002569,-1.725728,1.738000,0.9064,0.8870,-0.2474,0.001534,0.582913,-0.555301,0.556835,-0.595185,0.558369,-0.558369
1.5098,0.020103,0.000000,-1.652925,1.652925,0.0000,0.0000,0.0000,-0.002569,-1.725728,1.738000,0.9064,0.8870,-0.2474,0.001534,0.582913,-0.555301,0.556835,-0.595185,0.558369,-0.558369
1.5299,0.020096,0.000000,-1.642402,1.642402,0.0000,0.0000,0.0000,-0.002569,-1.713457,1.728796,0.9064,0.8870,-0.2474,0.001534,0.582913,-0.555301,0.556835,-0.595185,0.558369,-0.558369
1.5500,0.020091,0.000000,-1.631883,1.631883,0.0000,0.0000,0.0000,-0.002569,-1.701185,1.713457,0.9064,0.8870,-0.2474,0.001534,0.582913,-0.555301,0.556835,-0.595185,0.558369,-0.558369
1.5701,0.020103,0.000000,-1.621357,1.621357,0.0000,0.0000,0.0000,-0.002569,-1.690447,1.699651,0.9064,0.8870,-0.2474,0.001534,0.582913,-0.555301,0.556835,-0.595185,0.558369,-0.558369
1.5902,0.020085,0.000000,-1.610840,1.610840,0.0000,0.0000,0.0000,-0.002569,-1.679709,1.682777,0.9064,0.8870,-0.2474,0.001534,0.582913,-0.555301,0.556835,-0.595185,0.558369,-0.558369
1.6103,0.020099,0.000000,-1.600316,1.600316,0.0000,0.0000,0.0000,-0.002569,-1.667437,1.668971,0.9064,0.8870,-0.2474,0.001534,0.582913,-0.555301,0.556835,-0.595185,0.558369,-0.558369
1.6304,0.020094,0.000000,-1.589795,1.589795,0.0000,0.0000,0.0000,-0.002569,-1.658233,1.659767,0.9064,0.8870,-0.2474,0.001534,0.582913,-0.555301,0.556835,-0.595185,0.558369,-0.558369
1.6505,0.020092,0.000000,-1.579275,1.579275,0.0000,0.0000,0.0000,-0.002569,-1.649029,1.652097,0.9064,0.8870,-0.2474,0.001534,0.582913,-0.555301,0.556835,-0.595185,0.558369,-0.558369
1.6706,0.020102,0.000000,-1.568749,1.568749,0.0000,0.0000,0.0000,-0.002569,-1.639825,1.645961,0.9064,0.8870,-0.2474,0.001534,0.582913,-0.555301,0.556835,-0.595185,0.558369,-0.558369
1.6907,0.020092,0.000000,-1.558229,1.558229,0.0000,0.0000,0.0000,-0.002569,-1.630622,1.636758,0.9064,0.8870,-0.2474,0.001534,0.582913,-0.555301,0.556835,-0.595185,0.558369,-0.558369
1.7108,0.020093,0.000000,-1.547709,1.547709,0.0000,0.0000,0.0000,-0.002569,-1.622952,1.629088,0.9064,0.8870,-0.2474,0.001534,0.582913,-0.555301,0.556835,-0.595185,0.558369,-0.558369
1.7308,0.020083,0.000000,-1.537193,1.537193,0.0000,0.0000,0.0000,-0.002569,-1.612214,1.618350,0.9064,0.8870,-0.2474,0.001534,0.582913,-0.555301,0.556835,-0.595185,0.558369,-0.558369
1.7509,0.020087,0.000000,-1.526675,1.526675,0.0000,0.0000,0.0000,-0.002569,-1.603010,1.606078,0.9064,0.8870,-0.2474,0.001534,0.582913,-0.555301,0.556835,-0.595185,0.558369,-0.558369
1.7710,0.020091,0.000000,-1.516156,1.516156,0.0000,0.0000,0.0000,-0.002569,-1.592272,1.593806,0.9064,0.8870,-0.2474,0.001534,0.582913,-0.555301,0.556835,-0.595185,0.558369,-0.558369
1.7913,0.020315,0.000000,-1.505519,1.505519,0.0000,0.0000,0.0000,-0.002569,-1.578466,1.581534,0.9064,0.8870,-0.3352,0.000000,0.582913,-0.555301,0.556835,-0.595185,0.558369,-0.558369
1.8114,0.020084,0.000000,-1.495003,1.495003,0.0000,0.0000,0.0000,-0.002569,-1.564660,1.570796,0.9064,0.8870,-0.2474,0.001534,0.582913,-0.555301,0.556835,-0.595185,0.558369,-0.558369
1.8315,0.020084,0.000000,-1.484487,1.484487,0.0000,0.0000,0.0000,-0.002556,-1.547787,1.556990,0.8567,0.8689,-0.3016,0.001534,0.582913,-0.555301,0.556835,-0.595185,0.558369,-0.559903
1.8516,0.020087,0.000000,-1.473969,1.473969,0.0000,0.0000,0.0000,-0.002557,-1.533981,1.543185,0.8619,0.8708,-0.2959,0.001534,0.582913,-0.555301,0.556835,-0.595185,0.558369,-0.559903
1.8717,0.020102,0.000000,-1.463444,1.463444,0.0000,0.0000,0.0000,-0.002557,-1.524777,1.530913,0.8619,0.8708,-0.2959,0.001534,0.582913,-0.555301,0.556835,-0.595185,0.558369,-0.559903
1.8918,0.020101,0.000000,-1.452919,1.452919,0.0000,0.0000,0.0000,-0.002557,-1.512505,1.518641,0.8619,0.8708,-0.2959,0.001534,0.582913,-0.555301,0.556835,-0.595185,0.558369,-0.559903
1.9118,0.020037,0.000000,-1.442427,1.442427,0.0000,0.0000,0.0000,-0.002557,-1.501767,1.506369,0.8619,0.8708,-0.2959,0.001534,0.582913,-0.555301,0.556835,-0.595185,0.558369,-0.559903
1.9319,0.020084,0.000000,-1.431911,1.431911,0.0000,0.0000,0.0000,-0.002557,-1.491029,1.495631,0.8619,0.8708,-0.2959,0.001534,0.582913,-0.555301,0.556835,-0.595185,0.558369,-0.559903
1.9520,0.020087,0.000000,-1.421394,1.421394,0.0000,0.0000,0.0000,-0.002557,-1.481825,1.486427,0.8619,0.8708,-0.2959,0.001534,0.582913,-0.555301,0.556835,-0.595185,0.558369,-0.559903
1.9721,0.020092,0.000000,-1.410874,1.410874,0.0000,0.0000,0.0000,-0.002557,-1.474156,1.475690,0.8619,0.8708,-0.2959,0.001534,0.582913,-0.555301,0.556835,-0.595185,0.558369,-0.559903
1.9922,0.020094,0.000000,-1.400352,1.400352,0.0000,0.0000,0.0000,-0.002557,-1.463418,1.463418,0.8619,0.8708,-0.2959,0.001534,0.582913,-0.555301,0.556835,-0.595185,0.558369,-0.559903
2.0123,0.020088,0.000000,-1.402693,1.402693,0.0000,0.0000,0.0000,-0.002557,-1.454214,1.454214,0.8619,0.8708,-0.2959,0.001534,0.582913,-0.555301,0.556835,-0.595185,0.558369,-0.559903
2.0324,0.020087,0.000000,-1.413210,1.413210,0.0000,0.0000,0.0000,-0.002557,-1.443476,1.441942,0.8619,0.8708,-0.2959,0.001534,0.582913,-0.555301,0.556835,-0.595185,0.558369,-0.559903
2.0525,0.020090,0.000000,-1.423730,1.423730,0.0000,0.0000,0.0000,-0.002557,-1.431204,1.432738,0.8619,0.8708,-0.2959,0.001534,0.582913,-0.555301,0.556835,-0.595185,0.558369,-0.559903
2.0729,0.020417,0.000000,-1.434420,1.434420,0.0000,0.0000,0.0000,-0.002557,-1.423534,1.425068,0.8619,0.8708,-0.2959,0.001534,0.582913,-0.555301,0.556835,-0.595185,0.558369,-0.559903
2.0930,0.020086,0.000000,-1.444937,1.444937,0.0000,0.0000,0.0000,-0.002557,-1.423534,1.423534,0.8619,0.8708,-0.2959,0.001534,0.582913,-0.555301,0.556835,-0.595185,0.558369,-0.559903
2.1130,0.020082,0.000000,-1.455452,1.455452,0.0000,0.0000,0.0000,-0.002557,-1.428136,1.425068,0.8619,0.8708,-0.2959,0.001534,0.582913,-0.555301,0.556835,-0.595185,0.558369,-0.559903
2.1331,0.020084,0.000000,-1.465968,1.465968,0.0000,0.0000,0.0000,-0.002557,-1.438874,1.431204,0.8619,0.8708,-0.2959,0.001534,0.582913,-0.555301,0.556835,-0.595185,0.558369,-0.559903
2.1532,0.020082,0.000000,-1.476483,1.476483,0.0000,0.0000,0.0000,-0.002557,-1.449612,1.445010,0.8619,0.8708,-0.2959,0.001534,0.582913,-0.555301,0.556835,-0.595185,0.558369,-0.559903
2.1733,0.020087,0.000000,-1.487000,1.487000,0.0000,0.0000,0.0000,-0.002557,-1.460350,1.460350,0.8619,0.8708,-0.2959,0.001534,0.582913,-0.555301,0.556835,-0.595185,0.558369,-0.559903
2.1934,0.020095,0.000000,-1.497522,1.497522,0.0000,0.0000,0.0000,-0.002557,-1.468020,1.464952,0.8619,0.8708,-0.2959,0.001534,0.582913,-0.555301,0.556835,-0.595185,0.558369,-0.559903
2.2134,0.020053,0.000000,-1.508021,1.508021,0.0000,0.0000,0.0000,-0.002557,-1.478757,1.475690,0.8619,0.8708,-0.2959,0.001534,0.582913,-0.555301,0.556835,-0.595185,0.558369,-0.559903
2.2336,0.020152,0.000000,-1.518573,1.518573,0.0000,0.0000,0.0000,-0.002557,-1.494097,1.489495,0.8619,0.8708,-0.2959,0.001534,0.582913,-0.555301,0.556835,-0.595185,0.558369,-0.559903
2.2537,0.020087,0.000000,-1.529090,1.529090,0.0000,0.0000,0.0000,-0.002557,-1.501767,1.498699,0.8619,0.8708,-0.2959,0.001534,0.582913,-0.555301,0.556835,-0.595185,0.558369,-0.559903
2.2740,0.020337,0.000000,-1.539739,1.539739,0.0000,0.0000,0.0000,-0.002557,-1.509437,1.507903,0.8619,0.8708,-0.2959,0.001534,0.582913,-0.555301,0.556835,-0.595185,0.558369,-0.559903
2.2941,0.020087,0.000000,-1.550257,1.550257,0.0000,0.0000,0.0000,-0.002557,-1.514039,1.509437,0.8619,0.8708,-0.2959,0.001534,0.582913,-0.555301,0.556835,-0.595185,0.558369,-0.559903
2.3142,0.020085,0.000000,-1.560773,1.560773,0.0000,0.0000,0.0000,-0.002557,-1.521709,1.514039,0.8619,0.8708,-0.2959,0.001534,0.582913,-0.555301,0.556835,-0.595185,0.558369,-0.559903
2.3343,0.020087,0.000000,-1.571291,1.571291,0.0000,0.0000,0.0000,-0.002557,-1.538583,1.527845,0.8619,0.8708,-0.2959,0.001534,0.582913,-0.555301,0.556835,-0.595185,0.558369,-0.559903
2.3544,0.020085,0.000000,-1.581807,1.581807,0.0000,0.0000,0.0000,-0.002557,-1.558524,1.552389,0.8619,0.8708,-0.2959,0.001534,0.582913,-0.555301,0.556835,-0.595185,0.558369,-0.559903
2.3745,0.020088,0.000000,-1.592326,1.592326,0.0000,0.0000,0.0000,-0.002557,-1.566194,1.566194,0.8619,0.8708,-0.2959,0.001534,0.582913,-0.555301,0.556835,-0.595185,0.558369,-0.559903
2.3945,0.020082,0.000000,-1.602840,1.602840,0.0000,0.0000,0.0000,-0.002557,-1.572330,1.570796,0.8619,0.8708,-0.2959,0.001534,0.582913,-0.555301,0.556835,-0.595185,0.558369,-0.559903
2.4146,0.020078,0.000000,-1.613353,1.613353,0.0000,0.0000,0.0000,-0.002557,-1.583068,1.576932,0.8619,0.8708,-0.2959,0.001534,0.582913,-0.555301,0.556835,-0.595185,0.558369,-0.559903
2.4347,0.020090,0.000000,-1.623872,1.623872,0.0000,0.0000,0.0000,-0.002557,-1.596874,1.595340,0.8619,0.8708,-0.2959,0.001534,0.582913,-0.555301,0.556835,-0.595185,0.558369,-0.559903
2.4548,0.020074,0.000000,-1.634383,1.634383,0.0000,0.0000,0.0000,-0.002557,-1.604544,1.606078,0.8619,0.8708,-0.2959,0.001534,0.582913,-0.555301,0.556835,-0.595185,0.558369,-0.559903
2.4749,0.020082,0.000000,-1.644898,1.644898,0.0000,0.0000,0.0000,-0.002557,-1.609146,1.613748,0.8619,0.8708,-0.2959,0.001534,0.582913,-0.555301,0.556835,-0.595185,0.558369,-0.559903
2.4949,0.020077,0.000000,-1.655411,1.655411,0.0000,0.0000,0.0000,-0.002557,-1.622952,1.619884,0.8619,0.8708,-0.2959,0.001534,0.582913,-0.555301,0.556835,-0.595185,0.558369,-0.559903
2.5150,0.020076,0.000000,-1.665922,1.665922,0.0000,0.0000,0.0000,-0.002557,-1.641359,1.635224,0.8619,0.8708,-0.2959,0.001534,0.582913,-0.555301,0.556835,-0.595185,0.558369,-0.559903
2.5351,0.020089,0.000000,-1.676441,1.676441,0.0000,0.0000,0.0000,-0.002557,-1.649029,1.649029,0.8619,0.8708,-0.2959,0.001534,0.582913,-0.555301,0.556835,-0.595185,0.558369,-0.559903
2.5552,0.020075,0.000000,-1.686952,1.686952,0.0000,0.0000,0.0000,-0.002557,-1.655165,1.656699,0.8619,0.8708,-0.2959,0.001534,0.582913,-0.555301,0.556835,-0.595185,0.558369,-0.559903
2.5753,0.020082,0.000000,-1.697467,1.697467,0.0000,0.0000,0.0000,-0.002557,-1.665903,1.664369,0.8619,0.8708,-0.2959,0.001534,0.582913,-0.555301,0.556835,-0.595185,0.558369,-0.559903
2.5953,0.020074,0.000000,-1.707978,1.707978,0.0000,0.0000,0.0000,-0.002557,-1.675107,1.670505,0.8619,0.8708,-0.2959,0.001534,0.582913,-0.555301,0.556835,-0.595185,0.558369,-0.559903
2.6154,0.020079,0.000000,-1.718491,1.718491,0.0000,0.0000,0.0000,-0.002557,-1.678175,1.672039,0.8619,0.8708,-0.2959,0.001534,0.582913,-0.555301,0.556835,-0.595185,0.558369,-0.559903
2.6355,0.020077,0.000000,-1.729003,1.729003,0.0000,0.0000,0.0000,-0.002557,-1.690447,1.681243,0.8619,0.8708,-0.2959,0.001534,0.582913,-0.555301,0.556835,-0.595185,0.558369,-0.559903
2.6556,0.020077,0.000000,-1.739516,1.739516,0.0000,0.0000,0.0000,-0.002557,-1.713457,1.704253,0.8619,0.8708,-0.2959,0.001534,0.582913,-0.555301,0.556835,-0.595185,0.558369,-0.559903
2.6756,0.020082,0.000000,-1.740628,1.740628,0.0000,0.0000,0.0000,-0.002557,-1.721126,1.722660,0.8619,0.8708,-0.2959,0.001534,0.582913,-0.555301,0.556835,-0.595185,0.558369,-0.559903
2.6957,0.020077,0.000000,-1.730116,1.730116,0.0000,0.0000,0.0000,-0.002557,-1.725728,1.725728,0.8619,0.8708,-0.2959,0.001534,0.582913,-0.555301,0.556835,-0.595185,0.558369,-0.559903
2.7158,0.020075,0.000000,-1.719604,1.719604,0.0000,0.0000,0.0000,-0.002557,-1.738000,1.731864,0.8619,0.8708,-0.2959,0.001534,0.582913,-0.555301,0.556835,-0.595185,0.558369,-0.559903
2.7359,0.020084,0.000000,-1.709088,1.709088,0.0000,0.0000,0.0000,-0.002557,-1.748738,1.744136,0.8619,0.8708,-0.2959,0.001534,0.582913,-0.555301,0.556835,-0.595185,0.558369,-0.559903
2.7560,0.020079,0.000000,-1.698575,1.698575,0.0000,0.0000,0.0000,-0.002557,-1.744136,1.744136,0.8619,0.8708,-0.2959,0.001534,0.582913,-0.555301,0.556835,-0.595185,0.558369,-0.559903
2.7760,0.020082,0.000000,-1.688060,1.688060,0.0000,0.0000,0.0000,-0.002557,-1.741068,1.744136,0.8619,0.8708,-0.2959,0.001534,0.582913,-0.555301,0.556835,-0.595185,0.558369,-0.559903
2.7961,0.020077,0.000000,-1.677548,1.677548,0.0000,0.0000,0.0000,-0.002557,-1.731864,1.742602,0.8619,0.8708,-0.2959,0.001534,0.582913,-0.555301,0.556835,-0.595185,0.558369,-0.559903
2.8162,0.020075,0.000000,-1.667036,1.667036,0.0000,0.0000,0.0000,-0.002557,-1.724194,1.739534,0.8619,0.8708,-0.2959,0.001534,0.582913,-0.555301,0.556835,-0.595185,0.558369,-0.559903
2.8363,0.020080,0.000000,-1.656522,1.656522,0.0000,0.0000,0.0000,-0.002557,-1.716525,1.731864,0.8619,0.8708,-0.2959,0.001534,0.582913,-0.555301,0.556835,-0.595185,0.558369,-0.559903
2.8564,0.020077,0.000000,-1.646010,1.646010,0.0000,0.0000,0.0000,-0.002557,-1.707321,1.718058,0.8619,0.8708,-0.2959,0.001534,0.582913,-0.555301,0.556835,-0.595185,0.558369,-0.559903
2.8764,0.020085,0.000000,-1.635494,1.635494,0.0000,0.0000,0.0000,-0.002557,-1.695049,1.701185,0.8619,0.8708,-0.2959,0.001534,0.582913,-0.555301,0.556835,-0.595185,0.558369,-0.559903
2.8965,0.020076,0.000000,-1.624982,1.624982,0.0000,0.0000,0.0000,-0.002557,-1.682777,1.684311,0.8619,0.8708,-0.2959,0.001534,0.582913,-0.555301,0.556835,-0.595185,0.558369,-0.559903
2.9166,0.020075,0.000000,-1.614471,1.614471,0.0000,0.0000,0.0000,-0.002557,-1.670505,1.670505,0.8619,0.8708,-0.2959,0.001534,0.582913,-0.555301,0.556835,-0.595185,0.558369,-0.559903
2.9367,0.020080,0.000000,-1.603957,1.603957,0.0000,0.0000,0.0000,-0.002557,-1.658233,1.659767,0.8619,0.8708,-0.2959,0.001534,0.582913,-0.555301,0.556835,-0.595185,0.558369,-0.559903
2.9567,0.020078,0.000000,-1.593444,1.593444,0.0000,0.0000,0.0000,-0.002557,-1.647495,1.652097,0.8619,0.8708,-0.2959,0.001534,0.582913,-0.555301,0.556835,-0.595185,0.558369,-0.559903
2.9768,0.020073,0.000000,-1.582934,1.582934,0.0000,0.0000,0.0000,-0.002557,-1.638291,1.645961,0.8619,0.8708,-0.2959,0.001534,0.582913,-0.555301,0.556835,-0.595185,0.558369,-0.559903
2.9969,0.020078,0.000000,-1.572422,1.572422,0.0000,0.0000,0.0000,-0.002557,-1.630622,1.636758,0.8619,0.8708,-0.2959,0.001534,0.582913,-0.555301,0.556835,-0.595185,0.558369,-0.559903
3.0170,0.020082,0.000000,-1.561907,1.561907,0.0000,0.0000,0.0000,-0.002557,-1.621418,1.627554,0.8619,0.8708,-0.2959,0.001534,0.582913,-0.555301,0.556835,-0.595185,0.558369,-0.559903
3.0372,0.020248,0.000000,-1.551305,1.551305,0.0000,0.0000,0.0000,-0.002557,-1.612214,1.618350,0.8619,0.8708,-0.2959,0.001534,0.582913,-0.555301,0.556835,-0.595185,0.558369,-0.559903
3.0573,0.020091,0.000000,-1.540785,1.540785,0.0000,0.0000,0.0000,-0.002557,-1.603010,1.606078,0.8619,0.8708,-0.2959,0.001534,0.582913,-0.555301,0.556835,-0.595185,0.558369,-0.559903
3.0774,0.020081,0.000000,-1.530271,1.530271,0.0000,0.0000,0.0000,-0.002557,-1.592272,1.595340,0.8619,0.8708,-0.2959,0.001534,0.582913,-0.555301,0.556835,-0.595185,0.558369,-0.559903
3.0977,0.020282,0.000000,-1.519651,1.519651,0.0000,0.0000,0.0000,-0.002557,-1.581534,1.584602,0.8619,0.8708,-0.2959,0.001534,0.582913,-0.555301,0.556835,-0.595185,0.558369,-0.559903
3.1178,0.020079,0.000000,-1.509138,1.509138,0.0000,0.0000,0.0000,-0.002557,-1.569262,1.576932,0.8619,0.8708,-0.2959,0.001534,0.582913,-0.555301,0.556835,-0.595185,0.558369,-0.559903
3.1378,0.020089,0.000000,-1.498619,1.498619,0.0000,0.0000,0.0000,-0.002557,-1.558524,1.567728,0.8619,0.8708,-0.2959,0.001534,0.582913,-0.555301,0.556835,-0.595185,0.558369,-0.559903
3.1580,0.020110,0.000000,-1.488089,1.488089,0.0000,0.0000,0.0000,-0.002557,-1.546253,1.556990,0.8619,0.8708,-0.2959,0.001534,0.582913,-0.555301,0.556835,-0.595185,0.558369,-0.559903
3.1780,0.020079,0.000000,-1.477576,1.477576,0.0000,0.0000,0.0000,-0.002557,-1.535515,1.544719,0.8619,0.8708,-0.2959,0.001534,0.582913,-0.555301,0.556835,-0.595185,0.558369,-0.559903
3.1981,0.020109,0.000000,-1.467047,1.467047,0.0000,0.0000,0.0000,-0.002557,-1.524777,1.530913,0.8619,0.8708,-0.2959,0.001534,0.582913,-0.555301,0.556835,-0.595185,0.558369,-0.559903
3.2182,0.020077,0.000000,-1.456534,1.456534,0.0000,0.0000,0.0000,-0.002557,-1.512505,1.517107,0.8619,0.8708,-0.2959,0.001534,0.582913,-0.555301,0.556835,-0.595185,0.558369,-0.559903
3.2384,0.020178,0.000000,-1.445969,1.445969,0.0000,0.0000,0.0000,-0.002557,-1.501767,1.504835,0.8619,0.8708,-0.2959,0.001534,0.582913,-0.555301,0.556835,-0.595185,0.558369,-0.559903
3.2585,0.020076,0.000000,-1.435458,1.435458,0.0000,0.0000,0.0000,-0.002557,-1.491029,1.495631,0.8619,0.8708,-0.3838,0.000000,0.582913,-0.555301,0.556835,-0.595185,0.558369,-0.559903
3.2789,0.020377,0.000000,-1.424788,1.424788,0.0000,0.0000,0.0000,-0.002557,-1.481825,1.484893,0.8619,0.8708,-0.2959,0.001534,0.582913,-0.555301,0.556835,-0.595185,0.558369,-0.559903
3.2989,0.020091,0.000000,-1.414269,1.414269,0.0000,0.0000,0.0000,-0.002557,-1.471088,1.474156,0.8619,0.8708,-0.2959,0.001534,0.582913,-0.555301,0.556835,-0.595185,0.558369,-0.559903
3.3190,0.020077,0.000000,-1.403756,1.403756,0.0000,0.0000,0.0000,-0.002557,-1.461884,1.461884,0.8619,0.8708,-0.2959,0.001534,0.582913,-0.555301,0.556835,-0.595185,0.558369,-0.559903
3.3391,0.020094,0.000000,-1.399292,1.399292,0.0000,0.0000,0.0000,-0.002557,-1.451146,1.451146,0.8619,0.8708,-0.2959,0.001534,0.582913,-0.555301,0.556835,-0.595185,0.558369,-0.559903
3.3592,0.020075,0.000000,-1.409803,1.409803,0.0000,0.0000,0.0000,-0.002557,-1.440408,1.440408,0.8619,0.8708,-0.2959,0.001534,0.582913,-0.555301,0.556835,-0.595185,0.558369,-0.559903
3.3793,0.020078,0.000000,-1.420316,1.420316,0.0000,0.0000,0.0000,-0.002557,-1.429670,1.431204,0.8619,0.8708,-0.2959,0.001534,0.582913,-0.555301,0.556835,-0.595185,0.558369,-0.559903
3.3997,0.020439,0.000000,-1.431017,1.431017,0.0000,0.0000,0.0000,-0.002557,-1.423534,1.425068,0.8619,0.8708,-0.2959,0.001534,0.582913,-0.555301,0.556835,-0.595185,0.558369,-0.559903
3.4198,0.020075,0.000000,-1.441529,1.441529,0.0000,0.0000,0.0000,-0.002557,-1.423534,1.423534,0.8619,0.8708,-0.2959,0.001534,0.582913,-0.555301,0.556835,-0.595185,0.558369,-0.559903
3.4400,0.020190,0.000000,-1.452100,1.452100,0.0000,0.0000,0.0000,-0.002557,-1.425068,1.425068,0.8619,0.8708,-0.2959,0.001534,0.582913,-0.555301,0.556835,-0.595185,0.558369,-0.559903
3.4600,0.020074,0.000000,-1.462611,1.462611,0.0000,0.0000,0.0000,-0.002570,-1.437340,1.432738,0.9019,0.9042,-0.3490,0.001534,0.582913,-0.555301,0.556835,-0.595185,0.556835,-0.559903
3.4803,0.020215,0.000000,-1.473195,1.473195,0.0000,0.0000,0.0000,-0.002556,-1.451146,1.445010,0.8572,0.8671,-0.2910,0.001534,0.582913,-0.555301,0.556835,-0.595185,0.558369,-0.559903
3.5003,0.020081,0.000000,-1.483710,1.483710,0.0000,0.0000,0.0000,-0.002557,-1.460350,1.457282,0.8619,0.8709,-0.2970,0.001534,0.582913,-0.555301,0.556835,-0.595185,0.558369,-0.559903
3.5204,0.020083,0.000000,-1.494225,1.494225,0.0000,0.0000,0.0000,-0.002557,-1.469554,1.468020,0.8619,0.8709,-0.2970,0.001534,0.582913,-0.555301,0.556835,-0.595185,0.558369,-0.559903
3.5405,0.020083,0.000000,-1.504740,1.504740,0.0000,0.0000,0.0000,-0.002557,-1.480291,1.478757,0.8619,0.8709,-0.2970,0.001534,0.582913,-0.555301,0.556835,-0.595185,0.558369,-0.559903
3.5606,0.020082,0.000000,-1.515255,1.515255,0.0000,0.0000,0.0000,-0.002557,-1.492563,1.487961,0.8619,0.8709,-0.2970,0.001534,0.582913,-0.555301,0.556835,-0.595185,0.558369,-0.559903
3.5809,0.020269,0.000000,-1.525868,1.525868,0.0000,0.0000,0.0000,-0.002557,-1.503301,1.500233,0.8619,0.8709,-0.2970,0.001534,0.582913,-0.555301,0.556835,-0.595185,0.558369,-0.559903
3.6009,0.020086,0.000000,-1.536385,1.536385,0.0000,0.0000,0.0000,-0.002557,-1.510971,1.507903,0.8619,0.8709,-0.2970,0.001534,0.582913,-0.555301,0.556835,-0.595185,0.558369,-0.559903
3.6210,0.020083,0.000000,-1.546901,1.546901,0.0000,0.0000,0.0000,-0.002557,-1.521709,1.514039,0.8619,0.8709,-0.2970,0.001534,0.582913,-0.555301,0.556835,-0.595185,0.558369,-0.559903
3.6416,0.020588,0.000000,-1.557680,1.557680,0.0000,0.0000,0.0000,-0.002557,-1.535515,1.526311,0.8619,0.8709,-0.2970,0.001534,0.582913,-0.555301,0.556835,-0.595185,0.558369,-0.559903
3.6617,0.020071,0.000000,-1.568190,1.568190,0.0000,0.0000,0.0000,-0.002557,-1.546253,1.544719,0.8619,0.8709,-0.2970,0.001534,0.582913,-0.555301,0.556835,-0.595185,0.558369,-0.559903
3.6820,0.020300,0.000000,-1.578819,1.578819,0.0000,0.0000,0.0000,-0.002557,-1.552389,1.552389,0.8619,0.8709,-0.2970,0.001534,0.582913,-0.555301,0.556835,-0.595185,0.558369,-0.559903
3.7021,0.020079,0.000000,-1.589332,1.589332,0.0000,0.0000,0.0000,-0.002557,-1.561592,1.558524,0.8619,0.8709,-0.2970,0.001534,0.582913,-0.555301,0.556835,-0.595185,0.558369,-0.559903
3.7221,0.020078,0.000000,-1.599845,1.599845,0.0000,0.0000,0.0000,-0.002557,-1.578466,1.570796,0.8619,0.8709,-0.2970,0.001534,0.582913,-0.555301,0.556835,-0.595185,0.558369,-0.559903
3.7424,0.020278,0.000000,-1.610462,1.610462,0.0000,0.0000,0.0000,-0.002557,-1.584602,1.584602,0.8619,0.8709,-0.2970,0.001534,0.582913,-0.555301,0.556835,-0.595185,0.558369,-0.559903
3.7625,0.020073,0.000000,-1.620972,1.620972,0.0000,0.0000,0.0000,-0.002557,-1.592272,1.595340,0.8619,0.8709,-0.2970,0.001534,0.582913,-0.555301,0.556835,-0.595185,0.558369,-0.559903
3.7828,0.020326,0.000000,-1.631615,1.631615,0.0000,0.0000,0.0000,-0.002557,-1.603010,1.601476,0.8619,0.8709,-0.2970,0.001534,0.582913,-0.555301,0.556835,-0.595185,0.558369,-0.559903
3.8029,0.020100,0.000000,-1.642139,1.642139,0.0000,0.0000,0.0000,-0.002557,-1.615282,1.610680,0.8619,0.8709,-0.2970,0.001534,0.582913,-0.555301,0.556835,-0.595185,0.558369,-0.559903
3.8230,0.020112,0.000000,-1.652669,1.652669,0.0000,0.0000,0.0000,-0.002557,-1.626020,1.626020,0.8619,0.8709,-0.2970,0.001534,0.582913,-0.555301,0.556835,-0.595185,0.558369,-0.559903
3.8431,0.020080,0.000000,-1.663183,1.663183,0.0000,0.0000,0.0000,-0.002557,-1.635224,1.638291,0.8619,0.8709,-0.2970,0.001534,0.582913,-0.555301,0.556835,-0.595185,0.558369,-0.559903
3.8632,0.020076,0.000000,-1.673695,1.673695,0.0000,0.0000,0.0000,-0.002557,-1.644427,1.644427,0.8619,0.8709,-0.2970,0.001534,0.582913,-0.555301,0.556835,-0.595185,0.558369,-0.559903
3.8833,0.020082,0.000000,-1.684210,1.684210,0.0000,0.0000,0.0000,-0.002557,-1.659767,1.652097,0.8619,0.8709,-0.2970,0.001534,0.582913,-0.555301,0.556835,-0.595185,0.558369,-0.559903
3.9034,0.020158,0.000000,-1.694765,1.694765,0.0000,0.0000,0.0000,-0.002557,-1.672039,1.667437,0.8619,0.8709,-0.2970,0.001534,0.582913,-0.555301,0.556835,-0.595185,0.558369,-0.559903
3.9236,0.020124,0.000000,-1.705302,1.705302,0.0000,0.0000,0.0000,-0.002557,-1.679709,1.679709,0.8619,0.8709,-0.2970,0.001534,0.582913,-0.555301,0.556835,-0.595185,0.558369,-0.559903
3.9437,0.020172,0.000000,-1.715864,1.715864,0.0000,0.0000,0.0000,-0.002557,-1.688913,1.685845,0.8619,0.8709,-0.2970,0.001534,0.582913,-0.555301,0.556835,-0.595185,0.558369,-0.559903
3.9638,0.020077,0.000000,-1.726377,1.726377,0.0000,0.0000,0.0000,-0.002557,-1.699651,1.696583,0.8619,0.8709,-0.2970,0.001534,0.582913,-0.555301,0.556835,-0.595185,0.558369,-0.559903
3.9839,0.020077,0.000000,-1.736889,1.736889,0.0000,0.0000,0.0000,-0.002557,-1.713457,1.708855,0.8619,0.8709,-0.2970,0.001534,0.582913,-0.555301,0.556835,-0.595185,0.558369,-0.559903
4.0041,0.020219,0.000000,-1.743183,1.743183,0.0000,0.0000,0.0000,-0.002557,-1.719592,1.721126,0.8619,0.8709,-0.2970,0.001534,0.582913,-0.555301,0.556835,-0.595185,0.558369,-0.559903
4.0242,0.020079,0.000000,-1.732670,1.732670,0.0000,0.0000,0.0000,-0.002557,-1.728796,1.727262,0.8619,0.8709,-0.2970,0.001534,0.582913,-0.555301,0.556835,-0.595185,0.558369,-0.559903
4.0444,0.020242,0.000000,-1.722071,1.722071,0.0000,0.0000,0.0000,-0.002557,-1.744136,1.736466,0.8619,0.8709,-0.2970,0.001534,0.582913,-0.555301,0.556835,-0.595185,0.558369,-0.559903
4.0645,0.020086,0.000000,-1.711554,1.711554,0.0000,0.0000,0.0000,-0.002557,-1.753340,1.748738,0.8619,0.8709,-0.2970,0.001534,0.582913,-0.555301,0.556835,-0.595185,0.558369,-0.559903
4.0846,0.020079,0.000000,-1.701041,1.701041,0.0000,0.0000,0.0000,-0.002557,-1.751806,1.748738,0.8619,0.8709,-0.2970,0.001534,0.582913,-0.555301,0.556835,-0.595185,0.558369,-0.559903
4.1049,0.020279,0.000000,-1.690423,1.690423,0.0000,0.0000,0.0000,-0.002557,-1.748738,1.745670,0.8619,0.8709,-0.2970,0.001534,0.582913,-0.555301,0.556835,-0.595185,0.558369,-0.559903
4.1249,0.020083,0.000000,-1.679908,1.679908,0.0000,0.0000,0.0000,-0.002557,-1.745670,1.744136,0.8619,0.8709,-0.2970,0.001534,0.582913,-0.555301,0.556835,-0.595185,0.558369,-0.559903
4.1452,0.020295,0.000000,-1.669282,1.669282,0.0000,0.0000,0.0000,-0.002557,-1.736466,1.741068,0.8619,0.8709,-0.2970,0.001534,0.582913,-0.555301,0.556835,-0.595185,0.558369,-0.559903
4.1653,0.020060,0.000000,-1.658778,1.658778,0.0000,0.0000,0.0000,-0.002557,-1.724194,1.736466,0.8619,0.8709,-0.2970,0.001534,0.582913,-0.555301,0.556835,-0.595185,0.558369,-0.559903
4.1854,0.020081,0.000000,-1.648264,1.648264,0.0000,0.0000,0.0000,-0.002557,-1.713457,1.728796,0.8619,0.8709,-0.2970,0.001534,0.582913,-0.555301,0.556835,-0.595185,0.558369,-0.559903
4.2060,0.020621,0.000000,-1.637466,1.637466,0.0000,0.0000,0.0000,-0.002557,-1.702719,1.714991,0.8619,0.8709,-0.2970,0.001534,0.582913,-0.555301,0.556835,-0.595185,0.558369,-0.559903
4.2261,0.020086,0.000000,-1.626949,1.626949,0.0000,0.0000,0.0000,-0.002557,-1.690447,1.698117,0.8619,0.8709,-0.2970,0.001534,0.582913,-0.555301,0.556835,-0.595185,0.558369,-0.559903
4.2462,0.020132,0.000000,-1.616408,1.616408,0.0000,0.0000,0.0000,-0.002557,-1.678175,1.681243,0.8619,0.8709,-0.2970,0.001534,0.582913,-0.555301,0.556835,-0.595185,0.558369,-0.559903
4.2663,0.020082,0.000000,-1.605893,1.605893,0.0000,0.0000,0.0000,-0.002557,-1.665903,1.667437,0.8619,0.8709,-0.2970,0.001534,0.582913,-0.555301,0.556835,-0.595185,0.558369,-0.559903
4.2864,0.020077,0.000000,-1.595381,1.595381,0.0000,0.0000,0.0000,-0.002557,-1.656699,1.658233,0.8619,0.8709,-0.2970,0.001534,0.582913,-0.555301,0.556835,-0.595185,0.558369,-0.559903
4.3065,0.020102,0.000000,-1.584856,1.584856,0.0000,0.0000,0.0000,-0.002557,-1.645961,1.649029,0.8619,0.8709,-0.2970,0.001534,0.582913,-0.555301,0.556835,-0.595185,0.558369,-0.559903
4.3266,0.020076,0.000000,-1.574344,1.574344,0.0000,0.0000,0.0000,-0.002557,-1.636758,1.642893,0.8619,0.8709,-0.2970,0.001534,0.582913,-0.555301,0.556835,-0.595185,0.558369,-0.559903
4.3466,0.020089,0.000000,-1.563825,1.563825,0.0000,0.0000,0.0000,-0.002557,-1.627554,1.633690,0.8619,0.8709,-0.2970,0.001534,0.582913,-0.555301,0.556835,-0.595185,0.558369,-0.559903
4.3668,0.020107,0.000000,-1.553297,1.553297,0.0000,0.0000,0.0000,-0.002557,-1.619884,1.624486,0.8619,0.8709,-0.2970,0.001534,0.582913,-0.555301,0.556835,-0.595185,0.558369,-0.559903
4.3868,0.020081,0.000000,-1.542783,1.542783,0.0000,0.0000,0.0000,-0.002557,-1.610680,1.613748,0.8619,0.8709,-0.2970,0.001534,0.582913,-0.555301,0.556835,-0.595185,0.558369,-0.559903
4.4069,0.020114,0.000000,-1.532251,1.532251,0.0000,0.0000,0.0000,-0.002557,-1.599942,1.603010,0.8619,0.8709,-0.2970,0.001534,0.582913,-0.555301,0.556835,-0.595185,0.558369,-0.559903
4.4270,0.020082,0.000000,-1.521736,1.521736,0.0000,0.0000,0.0000,-0.002557,-1.589204,1.592272,0.8619,0.8709,-0.2970,0.001534,0.582913,-0.555301,0.556835,-0.595185,0.558369,-0.559903
4.4472,0.020190,0.000000,-1.511164,1.511164,0.0000,0.0000,0.0000,-0.002557,-1.576932,1.581534,0.8619,0.8709,-0.2970,0.001534,0.582913,-0.555301,0.556835,-0.595185,0.558369,-0.559903
4.4674,0.020138,0.000000,-1.500620,1.500620,0.0000,0.0000,0.0000,-0.002557,-1.564660,1.573864,0.8619,0.8709,-0.2970,0.001534,0.582913,-0.555301,0.556835,-0.595185,0.558369,-0.559903
4.4874,0.020080,0.000000,-1.490106,1.490106,0.0000,0.0000,0.0000,-0.002557,-1.553923,1.563126,0.8619,0.8709,-0.2970,0.001534,0.582913,-0.555301,0.556835,-0.595185,0.558369,-0.559903
4.5076,0.020117,0.000000,-1.479573,1.479573,0.0000,0.0000,0.0000,-0.002546,-1.543185,1.550855,0.9111,0.8549,-0.2424,0.001534,0.584447,-0.555301,0.556835,-0.595185,0.558369,-0.559903
4.5276,0.020087,0.000000,-1.469056,1.469056,0.0000,0.0000,0.0000,-0.002558,-1.532447,1.540117,0.8563,0.8722,-0.3021,0.001534,0.582913,-0.555301,0.556835,-0.595185,0.558369,-0.559903
4.5477,0.020094,0.000000,-1.458534,1.458534,0.0000,0.0000,0.0000,-0.002557,-1.521709,1.527845,0.8620,0.8704,-0.2959,0.001534,0.582913,-0.555301,0.556835,-0.595185,0.558369,-0.559903
4.5680,0.020246,0.000000,-1.447934,1.447934,0.0000,0.0000,0.0000,-0.002557,-1.510971,1.517107,0.8620,0.8704,-0.2959,0.001534,0.582913,-0.555301,0.556835,-0.595185,0.558369,-0.559903
4.5881,0.020083,0.000000,-1.437418,1.437418,0.0000,0.0000,0.0000,-0.002557,-1.500233,1.503301,0.8620,0.8704,-0.2959,0.001534,0.582913,-0.555301,0.556835,-0.595185,0.558369,-0.559903
4.6082,0.020117,0.000000,-1.426885,1.426885,0.0000,0.0000,0.0000,-0.002557,-1.489495,1.494097,0.8620,0.8704,-0.2959,0.001534,0.582913,-0.555301,0.556835,-0.595185,0.558369,-0.559903
4.6283,0.020081,0.000000,-1.416370,1.416370,0.0000,0.0000,0.0000,-0.002557,-1.478757,1.481825,0.8620,0.8704,-0.2959,0.001534,0.582913,-0.555301,0.556835,-0.595185,0.558369,-0.559903
4.6484,0.020093,0.000000,-1.405850,1.405850,0.0000,0.0000,0.0000,-0.002557,-1.469554,1.471088,0.8620,0.8704,-0.2959,0.001534,0.582913,-0.555301,0.556835,-0.595185,0.558369,-0.559903
4.6685,0.020103,0.000000,-1.397203,1.397203,0.0000,0.0000,0.0000,-0.002557,-1.458816,1.458816,0.8620,0.8704,-0.2959,0.001534,0.582913,-0.555301,0.556835,-0.595185,0.558369,-0.559903
4.6885,0.020087,0.000000,-1.407720,1.407720,0.0000,0.0000,0.0000,-0.002546,-1.449612,1.449612,0.9111,0.8550,-0.2425,0.001534,0.584447,-0.555301,0.556835,-0.595185,0.558369,-0.559903
4.7087,0.020108,0.000000,-1.418249,1.418249,0.0000,0.0000,0.0000,-0.002558,-1.438874,1.438874,0.8563,0.8722,-0.3021,0.001534,0.582913,-0.555301,0.556835,-0.595185,0.558369,-0.559903
4.7289,0.020282,0.000000,-1.428869,1.428869,0.0000,0.0000,0.0000,-0.002557,-1.428136,1.431204,0.8620,0.8704,-0.2959,0.001534,0.582913,-0.555301,0.556835,-0.595185,0.558369,-0.559903
4.7490,0.020098,0.000000,-1.439392,1.439392,0.0000,0.0000,0.0000,-0.002546,-1.423534,1.423534,0.9111,0.8550,-0.2425,0.001534,0.584447,-0.555301,0.556835,-0.595185,0.558369,-0.559903
4.7691,0.020089,0.000000,-1.449911,1.449911,0.0000,0.0000,0.0000,-0.002547,-1.423534,1.423534,0.9060,0.8566,-0.2481,0.001534,0.584447,-0.555301,0.556835,-0.595185,0.558369,-0.559903
4.7894,0.020242,0.000000,-1.460509,1.460509,0.0000,0.0000,0.0000,-0.002571,-1.431204,1.428136,0.8678,0.8199,-0.3549,0.001534,0.582913,-0.555301,0.555301,-0.595185,0.558369,-0.559903
4.8094,0.020078,0.000000,-1.471022,1.471022,0.0000,0.0000,0.0000,-0.002555,-1.443476,1.437340,0.8608,0.8759,-0.2904,0.001534,0.582913,-0.555301,0.556835,-0.595185,0.558369,-0.559903
4.8296,0.020195,0.000000,-1.481596,1.481596,0.0000,0.0000,0.0000,-0.002557,-1.457282,1.452680,0.8615,0.8700,-0.2971,0.001534,0.582913,-0.555301,0.556835,-0.595185,0.558369,-0.559903
4.8497,0.020078,0.000000,-1.492109,1.492109,0.0000,0.0000,0.0000,-0.002557,-1.466486,1.463418,0.8615,0.8700,-0.2971,0.001534,0.582913,-0.555301,0.556835,-0.595185,0.558369,-0.559903
4.8698,0.020088,0.000000,-1.502627,1.502627,0.0000,0.0000,0.0000,-0.002557,-1.472622,1.472622,0.8615,0.8700,-0.2971,0.001534,0.582913,-0.555301,0.556835,-0.595185,0.558369,-0.559903
4.8899,0.020089,0.000000,-1.513145,1.513145,0.0000,0.0000,0.0000,-0.002557,-1.480291,1.478757,0.8615,0.8700,-0.2971,0.001534,0.582913,-0.555301,0.556835,-0.595185,0.558369,-0.559903
4.9100,0.020078,0.000000,-1.523658,1.523658,0.0000,0.0000,0.0000,-0.002557,-1.497165,1.491029,0.8615,0.8700,-0.2971,0.001534,0.582913,-0.555301,0.556835,-0.595185,0.558369,-0.559903
4.9301,0.020084,0.000000,-1.534174,1.534174,0.0000,0.0000,0.0000,-0.002557,-1.510971,1.504835,0.8615,0.8700,-0.2971,0.001534,0.582913,-0.555301,0.556835,-0.595185,0.558369,-0.559903
4.9501,0.020090,0.000000,-1.544693,1.544693,0.0000,0.0000,0.0000,-0.002557,-1.517107,1.512505,0.8615,0.8700,-0.2971,0.001534,0.582913,-0.555301,0.556835,-0.595185,0.558369,-0.559903
4.9702,0.020085,0.000000,-1.555209,1.555209,0.0000,0.0000,0.0000,-0.002546,-1.524777,1.521709,0.9112,0.8550,-0.3303,0.000000,0.584447,-0.555301,0.556835,-0.595185,0.558369,-0.559903
4.9903,0.020090,0.000000,-1.565728,1.565728,0.0000,0.0000,0.0000,-0.002547,-1.538583,1.537049,0.9060,0.8566,-0.2481,0.001534,0.584447,-0.555301,0.556835,-0.595185,0.558369,-0.559903
5.0104,0.020091,0.000000,-1.576248,1.576248,0.0000,0.0000,0.0000,-0.002536,-1.550855,1.546253,0.9562,0.8409,-0.1934,0.001534,0.585981,-0.555301,0.556835,-0.595185,0.558369,-0.559903
5.0305,0.020122,0.000000,-1.586784,1.586784,0.0000,0.0000,0.0000,-0.002537,-1.556990,1.552389,0.9510,0.8425,-0.1991,0.001534,0.585981,-0.555301,0.556835,-0.595185,0.558369,-0.559903
5.0506,0.020081,0.000000,-1.597298,1.597298,0.0000,0.0000,0.0000,-0.002537,-1.563126,1.563126,0.9510,0.8425,-0.1991,0.001534,0.585981,-0.555301,0.556835,-0.595185,0.558369,-0.559903
5.0707,0.020090,0.000000,-1.607817,1.607817,0.0000,0.0000,0.0000,-0.002537,-1.578466,1.575398,0.9510,0.8425,-0.1991,0.001534,0.585981,-0.555301,0.556835,-0.595185,0.558369,-0.559903
5.0908,0.020088,0.000000,-1.618335,1.618335,0.0000,0.0000,0.0000,-0.002537,-1.584602,1.584602,0.9510,0.8425,-0.1991,0.001534,0.585981,-0.555301,0.556835,-0.595185,0.558369,-0.559903
5.1109,0.020079,0.000000,-1.628848,1.628848,0.0000,0.0000,0.0000,-0.002537,-1.595340,1.592272,0.9510,0.8425,-0.1991,0.001534,0.585981,-0.555301,0.556835,-0.595185,0.558369,-0.559903
5.1310,0.020099,0.000000,-1.639372,1.639372,0.0000,0.0000,0.0000,-0.002537,-1.607612,1.603010,0.9510,0.8425,-0.1991,0.001534,0.585981,-0.555301,0.556835,-0.595185,0.558369,-0.559903
5.1511,0.020085,0.000000,-1.649889,1.649889,0.0000,0.0000,0.0000,-0.002537,-1.618350,1.619884,0.9510,0.8425,-0.1991,0.001534,0.585981,-0.555301,0.556835,-0.595185,0.558369,-0.559903
5.1712,0.020096,0.000000,-1.660411,1.660411,0.0000,0.0000,0.0000,-0.002537,-1.626020,1.627554,0.9510,0.8425,-0.1991,0.001534,0.585981,-0.555301,0.556835,-0.595185,0.558369,-0.559903
5.1912,0.020085,0.000000,-1.670927,1.670927,0.0000,0.0000,0.0000,-0.002537,-1.636758,1.633690,0.9510,0.8425,-0.1991,0.001534,0.585981,-0.555301,0.556835,-0.595185,0.558369,-0.559903
5.2113,0.020085,0.000000,-1.681443,1.681443,0.0000,0.0000,0.0000,-0.002537,-1.650563,1.645961,0.9510,0.8425,-0.1991,0.001534,0.585981,-0.555301,0.556835,-0.595185,0.558369,-0.559903
5.2314,0.020087,0.000000,-1.691961,1.691961,0.0000,0.0000,0.0000,-0.002537,-1.662835,1.661301,0.9510,0.8425,-0.1991,0.001534,0.585981,-0.555301,0.556835,-0.595185,0.558369,-0.559903
5.2515,0.020083,0.000000,-1.702476,1.702476,0.0000,0.0000,0.0000,-0.002537,-1.670505,1.672039,0.9510,0.8425,-0.1991,0.001534,0.585981,-0.555301,0.556835,-0.595185,0.558369,-0.559903
5.2716,0.020096,0.000000,-1.712998,1.712998,0.0000,0.0000,0.0000,-0.002537,-1.695049,1.685845,0.9510,0.8425,-0.1991,0.001534,0.585981,-0.555301,0.556835,-0.595185,0.558369,-0.559903
5.2917,0.020085,0.000000,-1.723515,1.723515,0.0000,0.0000,0.0000,-0.002537,-1.704253,1.701185,0.9510,0.8425,-0.1991,0.001534,0.585981,-0.555301,0.556835,-0.595185,0.558369,-0.559903
5.3117,0.020068,0.000000,-1.734023,1.734023,0.0000,0.0000,0.0000,-0.002537,-1.711923,1.713457,0.9510,0.8425,-0.1991,0.001534,0.585981,-0.555301,0.556835,-0.595185,0.558369,-0.559903
5.3320,0.020288,0.000000,-1.744645,1.744645,0.0000,0.0000,0.0000,-0.002537,-1.722660,1.719592,0.9510,0.8425,-0.1991,0.001534,0.585981,-0.555301,0.556835,-0.595185,0.558369,-0.559903
5.3521,0.020084,0.000000,-1.735497,1.735497,0.0000,0.0000,0.0000,-0.002537,-1.736466,1.725728,0.9510,0.8425,-0.1991,0.001534,0.585981,-0.555301,0.556835,-0.595185,0.558369,-0.559903
5.3722,0.020094,0.000000,-1.724976,1.724976,0.0000,0.0000,0.0000,-0.002537,-1.747204,1.738000,0.9510,0.8425,-0.1991,0.001534,0.585981,-0.555301,0.556835,-0.595185,0.558369,-0.559903
5.3923,0.020080,0.000000,-1.714462,1.714462,0.0000,0.0000,0.0000,-0.002537,-1.751806,1.748738,0.9510,0.8425,-0.1991,0.001534,0.585981,-0.555301,0.556835,-0.595185,0.558369,-0.559903
5.4124,0.020083,0.000000,-1.703947,1.703947,0.0000,0.0000,0.0000,-0.002526,-1.750272,1.747204,1.0012,0.8269,-0.1444,0.001534,0.587515,-0.555301,0.556835,-0.595185,0.558369,-0.559903
5.4325,0.020102,0.000000,-1.693422,1.693422,0.0000,0.0000,0.0000,-0.002538,-1.748738,1.742602,0.9463,0.8440,-0.2042,0.001534,0.585981,-0.555301,0.556835,-0.595185,0.558369,-0.559903
5.4526,0.020083,0.000000,-1.682906,1.682906,0.0000,0.0000,0.0000,-0.002537,-1.747204,1.741068,0.9520,0.8422,-0.1980,0.001534,0.585981,-0.555301,0.556835,-0.595185,0.558369,-0.559903
5.4726,0.020095,0.000000,-1.672385,1.672385,0.0000,0.0000,0.0000,-0.002537,-1.738000,1.739534,0.9520,0.8422,-0.1980,0.001534,0.585981,-0.555301,0.556835,-0.595185,0.558369,-0.559903
5.4927,0.020086,0.000000,-1.661868,1.661868,0.0000,0.0000,0.0000,-0.002537,-1.725728,1.739534,0.9520,0.8422,-0.1980,0.001534,0.585981,-0.555301,0.556835,-0.595185,0.558369,-0.559903
5.5128,0.020077,0.000000,-1.651356,1.651356,0.0000,0.0000,0.0000,-0.002537,-1.710389,1.731864,0.9520,0.8422,-0.1980,0.001534,0.585981,-0.555301,0.556835,-0.595185,0.558369,-0.559903
5.5329,0.020092,0.000000,-1.640836,1.640836,0.0000,0.0000,0.0000,-0.002537,-1.698117,1.716525,0.9520,0.8422,-0.1980,0.001534,0.585981,-0.555301,0.556835,-0.595185,0.558369,-0.559903
5.5530,0.020081,0.000000,-1.630321,1.630321,0.0000,0.0000,0.0000,-0.002537,-1.685845,1.698117,0.9520,0.8422,-0.1980,0.001534,0.585981,-0.555301,0.556835,-0.595185,0.558369,-0.559903
5.5731,0.020101,0.000000,-1.619797,1.619797,0.0000,0.0000,0.0000,-0.002526,-1.675107,1.679709,1.0011,0.8269,-0.1446,0.001534,0.587515,-0.555301,0.556835,-0.595185,0.558369,-0.559903
5.5932,0.020080,0.000000,-1.609283,1.609283,0.0000,0.0000,0.0000,-0.002527,-1.664369,1.664369,0.9960,0.8285,-0.1501,0.001534,0.587515,-0.555301,0.556835,-0.595185,0.558369,-0.559903
5.6132,0.020076,0.000000,-1.598771,1.598771,0.0000,0.0000,0.0000,-0.002538,-1.653631,1.653631,0.9469,0.8438,-0.2036,0.001534,0.585981,-0.555301,0.556835,-0.595185,0.558369,-0.559903
5.6333,0.020088,0.000000,-1.588253,1.588253,0.0000,0.0000,0.0000,-0.002537,-1.644427,1.645961,0.9520,0.8422,-0.1981,0.001534,0.585981,-0.555301,0.556835,-0.595185,0.558369,-0.559903
5.6534,0.020086,0.000000,-1.577736,1.577736,0.0000,0.0000,0.0000,-0.002537,-1.636758,1.638291,0.9520,0.8422,-0.1981,0.001534,0.585981,-0.555301,0.556835,-0.595185,0.558369,-0.559903
5.6735,0.020097,0.000000,-1.567213,1.567213,0.0000,0.0000,0.0000,-0.002537,-1.629088,1.630622,0.9520,0.8422,-0.1981,0.001534,0.585981,-0.555301,0.556835,-0.595185,0.558369,-0.559903
5.6940,0.020486,0.000000,-1.556487,1.556487,0.0000,0.0000,0.0000,-0.002526,-1.618350,1.622952,1.0011,0.8269,-0.1446,0.001534,0.587515,-0.555301,0.556835,-0.595185,0.558369,-0.559903
5.7141,0.020082,0.000000,-1.545972,1.545972,0.0000,0.0000,0.0000,-0.002538,-1.609146,1.613748,0.9463,0.8440,-0.2042,0.001534,0.585981,-0.555301,0.556835,-0.595185,0.558369,-0.559903
5.7342,0.020084,0.000000,-1.535456,1.535456,0.0000,0.0000,0.0000,-0.002537,-1.598408,1.601476,0.9520,0.8422,-0.1980,0.001534,0.585981,-0.555301,0.556835,-0.595185,0.558369,-0.559903
5.7542,0.020081,0.000000,-1.524941,1.524941,0.0000,0.0000,0.0000,-0.002537,-1.587670,1.590738,0.9520,0.8422,-0.1980,0.001534,0.585981,-0.555301,0.556835,-0.595185,0.558369,-0.559903
5.7743,0.020080,0.000000,-1.514427,1.514427,0.0000,0.0000,0.0000,-0.002537,-1.575398,1.580000,0.9520,0.8422,-0.1980,0.001534,0.585981,-0.555301,0.556835,-0.595185,0.558369,-0.559903
5.7944,0.020079,0.000000,-1.503914,1.503914,0.0000,0.0000,0.0000,-0.002537,-1.563126,1.572330,0.9520,0.8422,-0.1980,0.001534,0.585981,-0.555301,0.556835,-0.595185,0.558369,-0.559903
5.8145,0.020075,0.000000,-1.493403,1.493403,0.0000,0.0000,0.0000,-0.002537,-1.550855,1.563126,0.9520,0.8422,-0.1980,0.001534,0.585981,-0.555301,0.556835,-0.595185,0.558369,-0.559903
5.8346,0.020078,0.000000,-1.482890,1.482890,0.0000,0.0000,0.0000,-0.002537,-1.540117,1.550855,0.9520,0.8422,-0.1980,0.001534,0.585981,-0.555301,0.556835,-0.595185,0.558369,-0.559903
5.8546,0.020081,0.000000,-1.472375,1.472375,0.0000,0.0000,0.0000,-0.002526,-1.529379,1.537049,1.0011,0.8269,-0.1446,0.001534,0.587515,-0.555301,0.556835,-0.595185,0.558369,-0.559903
5.8747,0.020086,0.000000,-1.461858,1.461858,0.0000,0.0000,0.0000,-0.002538,-1.518641,1.524777,0.9463,0.8440,-0.2042,0.001534,0.585981,-0.555301,0.556835,-0.595185,0.558369,-0.559903
5.8948,0.020075,0.000000,-1.451347,1.451347,0.0000,0.0000,0.0000,-0.002537,-1.507903,1.512505,0.9520,0.8422,-0.1980,0.001534,0.585981,-0.555301,0.556835,-0.595185,0.558369,-0.559903
5.9149,0.020077,0.000000,-1.440835,1.440835,0.0000,0.0000,0.0000,-0.002537,-1.497165,1.500233,0.9520,0.8422,-0.1980,0.001534,0.585981,-0.555301,0.556835,-0.595185,0.558369,-0.559903
5.9350,0.020081,0.000000,-1.430320,1.430320,0.0000,0.0000,0.0000,-0.002537,-1.484893,1.489495,0.9520,0.8422,-0.1980,0.001534,0.585981,-0.555301,0.556835,-0.595185,0.558369,-0.559903
5.9550,0.020079,0.000000,-1.419807,1.419807,0.0000,0.0000,0.0000,-0.002537,-1.477223,1.480291,0.9520,0.8422,-0.1980,0.001534,0.585981,-0.555301,0.556835,-0.595185,0.558369,-0.559903
5.9751,0.020083,0.000000,-1.409292,1.409292,0.0000,0.0000,0.0000,-0.002526,-1.468020,1.469554,1.0011,0.8269,-0.1446,0.001534,0.587515,-0.555301,0.556835,-0.595185,0.558369,-0.559903
5.9952,0.020076,0.000000,-1.398780,1.398780,0.0000,0.0000,0.0000,-0.002538,-1.458816,1.457282,0.9463,0.8440,-0.2042,0.001534,0.585981,-0.555301,0.556835,-0.595185,0.558369,-0.559903
6.0153,0.020080,0.000000,-1.404260,1.404260,0.0000,0.0000,0.0000,-0.002537,-1.448078,1.448078,0.9520,0.8422,-0.1980,0.001534,0.585981,-0.555301,0.556835,-0.595185,0.558369,-0.559903
6.0354,0.020081,0.000000,-1.414775,1.414775,0.0000,0.0000,0.0000,-0.002526,-1.437340,1.438874,1.0011,0.8269,-0.1446,0.001534,0.587515,-0.555301,0.556835,-0.595185,0.558369,-0.559903
6.0554,0.020083,0.000000,-1.425290,1.425290,0.0000,0.0000,0.0000,-0.002538,-1.426602,1.429670,0.9463,0.8440,-0.2042,0.001534,0.585981,-0.555301,0.556835,-0.595185,0.558369,-0.559903
6.0755,0.020078,0.000000,-1.435803,1.435803,0.0000,0.0000,0.0000,-0.002537,-1.423534,1.423534,0.9520,0.8422,-0.1980,0.001534,0.585981,-0.555301,0.556835,-0.595185,0.558369,-0.559903
6.0956,0.020079,0.000000,-1.446316,1.446316,0.0000,0.0000,0.0000,-0.002537,-1.423534,1.423534,0.9520,0.8422,-0.1980,0.001534,0.585981,-0.555301,0.556835,-0.595185,0.558369,-0.559903
6.1157,0.020078,0.000000,-1.456829,1.456829,0.0000,0.0000,0.0000,-0.002537,-1.431204,1.425068,0.9520,0.8422,-0.1980,0.001534,0.585981,-0.555301,0.556835,-0.595185,0.558369,-0.559903
6.1357,0.020076,0.000000,-1.467341,1.467341,0.0000,0.0000,0.0000,-0.002537,-1.443476,1.434272,0.9520,0.8422,-0.1980,0.001534,0.585981,-0.555301,0.556835,-0.595185,0.558369,-0.559903
6.1558,0.020083,0.000000,-1.477856,1.477856,0.0000,0.0000,0.0000,-0.002537,-1.454214,1.451146,0.9520,0.8422,-0.1980,0.001534,0.585981,-0.555301,0.556835,-0.595185,0.558369,-0.559903
6.1759,0.020082,0.000000,-1.488371,1.488371,0.0000,0.0000,0.0000,-0.002526,-1.464952,1.464952,1.0011,0.8269,-0.1446,0.001534,0.587515,-0.555301,0.556835,-0.595185,0.558369,-0.559903
6.1960,0.020083,0.000000,-1.498887,1.498887,0.0000,0.0000,0.0000,-0.002538,-1.474156,1.471088,0.9463,0.8440,-0.2042,0.001534,0.585981,-0.555301,0.556835,-0.595185,0.558369,-0.559903
6.2161,0.020080,0.000000,-1.509400,1.509400,0.0000,0.0000,0.0000,-0.002526,-1.483359,1.480291,1.0017,0.8267,-0.1439,0.001534,0.587515,-0.555301,0.556835,-0.595185,0.558369,-0.559903
6.2362,0.020094,0.000000,-1.519922,1.519922,0.0000,0.0000,0.0000,-0.002538,-1.498699,1.494097,0.9463,0.8440,-0.2043,0.001534,0.585981,-0.555301,0.556835,-0.595185,0.558369,-0.559903
6.2563,0.020087,0.000000,-1.530439,1.530439,0.0000,0.0000,0.0000,-0.002537,-1.509437,1.506369,0.9520,0.8422,-0.1980,0.001534,0.585981,-0.555301,0.556835,-0.595185,0.558369,-0.559903
6.2765,0.020223,0.000000,-1.541028,1.541028,0.0000,0.0000,0.0000,-0.002537,-1.515573,1.510971,0.9520,0.8422,-0.1980,0.001534,0.585981,-0.555301,0.556835,-0.595185,0.558369,-0.559903
6.2966,0.020084,0.000000,-1.551544,1.551544,0.0000,0.0000,0.0000,-0.002537,-1.523243,1.515573,0.9520,0.8422,-0.1980,0.001534,0.585981,-0.555301,0.556835,-0.595185,0.558369,-0.559903
6.3166,0.020080,0.000000,-1.562058,1.562058,0.0000,0.0000,0.0000,-0.002537,-1.538583,1.529379,0.9520,0.8422,-0.1980,0.001534,0.585981,-0.555301,0.556835,-0.595185,0.558369,-0.559903
6.3367,0.020092,0.000000,-1.572578,1.572578,0.0000,0.0000,0.0000,-0.002526,-1.550855,1.547787,1.0011,0.8269,-0.1446,0.001534,0.587515,-0.555301,0.556835,-0.595185,0.558369,-0.559903
6.3568,0.020083,0.000000,-1.583094,1.583094,0.0000,0.0000,0.0000,-0.002527,-1.555457,1.556990,0.9960,0.8285,-0.1501,0.001534,0.587515,-0.555301,0.556835,-0.595185,0.558369,-0.559903
6.3769,0.020082,0.000000,-1.593609,1.593609,0.0000,0.0000,0.0000,-0.002527,-1.563126,1.561592,0.9960,0.8285,-0.1501,0.001534,0.587515,-0.555301,0.556835,-0.595185,0.558369,-0.559903
6.3970,0.020083,0.000000,-1.604124,1.604124,0.0000,0.0000,0.0000,-0.002538,-1.578466,1.572330,0.9469,0.8438,-0.2036,0.001534,0.585981,-0.555301,0.556835,-0.595185,0.558369,-0.559903
6.4171,0.020080,0.000000,-1.614638,1.614638,0.0000,0.0000,0.0000,-0.002526,-1.590738,1.589204,1.0017,0.8267,-0.1440,0.001534,0.587515,-0.555301,0.556835,-0.595185,0.558369,-0.559903
6.4372,0.020140,0.000000,-1.625183,1.625183,0.0000,0.0000,0.0000,-0.002527,-1.595340,1.598408,0.9959,0.8285,-0.1502,0.001534,0.587515,-0.555301,0.556835,-0.595185,0.558369,-0.559903
6.4573,0.020082,0.000000,-1.635698,1.635698,0.0000,0.0000,0.0000,-0.002538,-1.604544,1.606078,0.9469,0.8438,-0.2036,0.001534,0.585981,-0.555301,0.556835,-0.595185,0.558369,-0.559903
6.4774,0.020080,0.000000,-1.646212,1.646212,0.0000,0.0000,0.0000,-0.002526,-1.618350,1.616816,1.0017,0.8267,-0.1440,0.001534,0.587515,-0.555301,0.556835,-0.595185,0.558369,-0.559903
6.4974,0.020039,0.000000,-1.656704,1.656704,0.0000,0.0000,0.0000,-0.002538,-1.633690,1.630622,0.9463,0.8440,-0.2043,0.001534,0.585981,-0.555301,0.556835,-0.595185,0.558369,-0.559903
6.5175,0.020075,0.000000,-1.667216,1.667216,0.0000,0.0000,0.0000,-0.002526,-1.639825,1.638291,1.0017,0.8267,-0.1439,0.001534,0.587515,-0.555301,0.556835,-0.595185,0.558369,-0.559903
6.5376,0.020097,0.000000,-1.677739,1.677739,0.0000,0.0000,0.0000,-0.002538,-1.649029,1.647495,0.9463,0.8440,-0.2043,0.001534,0.585981,-0.555301,0.556835,-0.595185,0.558369,-0.559903
