t,loop_dt,cmd_z,cmd_ant_l,cmd_ant_r,cmd_roll,cmd_pitch,cmd_yaw,pres_z,pres_ant_l,pres_ant_r,pres_roll,pres_pitch,pres_yaw,pres_j0,pres_j1,pres_j2,pres_j3,pres_j4,pres_j5,pres_j6
0.0000,0.000001,0.000000,-1.745329,1.745329,0.0000,0.0000,0.0000,-0.002705,-1.567728,1.561592,1.0030,1.1214,-0.0545,0.001534,0.578311,-0.552233,0.556835,-0.595185,0.556835,-0.549165
0.0201,0.020086,0.000000,-1.738318,1.738318,0.0000,0.0000,0.0000,-0.002705,-1.566194,1.563126,1.0030,1.1214,-0.0545,0.001534,0.578311,-0.552233,0.556835,-0.595185,0.556835,-0.549165
0.0402,0.020101,0.000000,-1.731301,1.731301,0.0000,0.0000,0.0000,-0.002705,-1.572330,1.567728,1.0030,1.1214,-0.0545,0.001534,0.579845,-0.552233,0.556835,-0.595185,0.558369,-0.549165
0.0603,0.020102,0.000000,-1.724284,1.724284,0.0000,0.0000,0.0000,-0.002681,-1.572330,1.567728,1.0129,1.0729,0.0514,0.001534,0.579845,-0.552233,0.556835,-0.595185,0.558369,-0.549165
0.0804,0.020086,0.000000,-1.717273,1.717273,0.0000,0.0000,0.0000,-0.002696,-1.598408,1.598408,1.0522,1.1115,-0.0120,0.001534,0.579845,-0.552233,0.556835,-0.595185,0.556835,-0.549165
0.1005,0.020097,0.000000,-1.710258,1.710258,0.0000,0.0000,0.0000,-0.002683,-1.750272,1.747204,1.0124,1.0778,0.0408,0.001534,0.579845,-0.552233,0.556835,-0.595185,0.558369,-0.549165
0.1206,0.020093,0.000000,-1.703244,1.703244,0.0000,0.0000,0.0000,-0.002683,-1.777884,1.771748,1.0124,1.0778,0.0408,0.001534,0.579845,-0.552233,0.556835,-0.595185,0.558369,-0.549165
0.1407,0.020101,0.000000,-1.696227,1.696227,0.0000,0.0000,0.0000,-0.002683,-1.771748,1.767146,1.0124,1.0778,0.0408,0.001534,0.579845,-0.553767,0.556835,-0.595185,0.558369,-0.549165
0.1608,0.020103,0.000000,-1.689210,1.689210,0.0000,0.0000,0.0000,-0.002658,-1.757942,1.757942,1.0865,1.0097,-0.0591,0.001534,0.579845,-0.555301,0.556835,-0.595185,0.558369,-0.549165
0.1809,0.020082,0.000000,-1.682200,1.682200,0.0000,0.0000,0.0000,-0.002658,-1.757942,1.757942,1.0865,1.0097,-0.0591,0.001534,0.579845,-0.555301,0.556835,-0.595185,0.558369,-0.549165
0.2009,0.020091,0.000000,-1.675187,1.675187,0.0000,0.0000,0.0000,-0.002646,-1.725728,1.734932,1.0335,0.9949,-0.1076,0.001534,0.579845,-0.555301,0.556835,-0.595185,0.558369,-0.550699
0.2210,0.020085,0.000000,-1.668176,1.668176,0.0000,0.0000,0.0000,-0.002635,-1.718058,1.727262,0.9897,0.9784,-0.1561,0.001534,0.579845,-0.555301,0.556835,-0.595185,0.558369,-0.552233
0.2411,0.020092,0.000000,-1.661163,1.661163,0.0000,0.0000,0.0000,-0.002636,-1.708855,1.716525,0.9943,0.9801,-0.1510,0.001534,0.579845,-0.555301,0.556835,-0.595185,0.558369,-0.552233
0.2613,0.020188,0.000000,-1.654116,1.654116,0.0000,0.0000,0.0000,-0.002636,-1.701185,1.708855,0.9943,0.9801,-0.1510,0.001534,0.579845,-0.555301,0.556835,-0.595185,0.558369,-0.552233
0.2814,0.020086,0.000000,-1.647104,1.647104,0.0000,0.0000,0.0000,-0.002623,-1.695049,1.701185,0.9446,0.9620,-0.2051,0.001534,0.579845,-0.555301,0.556835,-0.595185,0.558369,-0.553767
0.3015,0.020089,0.000000,-1.640092,1.640092,0.0000,0.0000,0.0000,-0.002611,-1.690447,1.690447,0.9006,0.9459,-0.2531,0.001534,0.579845,-0.555301,0.556835,-0.595185,0.558369,-0.555301
0.3216,0.020087,0.000000,-1.633080,1.633080,0.0000,0.0000,0.0000,-0.002599,-1.684311,1.682777,0.8560,0.9297,-0.3017,0.001534,0.579845,-0.555301,0.556835,-0.595185,0.558369,-0.556835
0.3417,0.020085,0.000000,-1.626069,1.626069,0.0000,0.0000,0.0000,-0.002601,-1.675107,1.678175,0.8606,0.9314,-0.2966,0.001534,0.579845,-0.555301,0.556835,-0.595185,0.558369,-0.556835
0.3618,0.020104,0.000000,-1.619051,1.619051,0.0000,0.0000,0.0000,-0.002601,-1.665903,1.670505,0.8606,0.9314,-0.2966,0.001534,0.579845,-0.555301,0.556835,-0.595185,0.558369,-0.556835
0.3818,0.020088,0.000000,-1.612039,1.612039,0.0000,0.0000,0.0000,-0.002601,-1.659767,1.662835,0.8606,0.9314,-0.2966,0.001534,0.579845,-0.555301,0.556835,-0.595185,0.558369,-0.556835
0.4019,0.020091,0.000000,-1.605026,1.605026,0.0000,0.0000,0.0000,-0.002601,-1.652097,1.659767,0.8606,0.9314,-0.2966,0.001534,0.579845,-0.555301,0.556835,-0.595185,0.558369,-0.556835
0.4220,0.020090,0.000000,-1.598013,1.598013,0.0000,0.0000,0.0000,-0.002601,-1.645961,1.656699,0.8606,0.9314,-0.2966,0.001534,0.579845,-0.555301,0.556835,-0.595185,0.558369,-0.556835
0.4421,0.020094,0.000000,-1.590999,1.590999,0.0000,0.0000,0.0000,-0.002601,-1.641359,1.652097,0.8606,0.9314,-0.2966,0.001534,0.579845,-0.555301,0.556835,-0.595185,0.558369,-0.556835
0.4622,0.020099,0.000000,-1.583983,1.583983,0.0000,0.0000,0.0000,-0.002601,-1.636758,1.642893,0.8606,0.9314,-0.2966,0.001534,0.579845,-0.555301,0.556835,-0.595185,0.558369,-0.556835
0.4823,0.020087,0.000000,-1.576972,1.576972,0.0000,0.0000,0.0000,-0.002601,-1.630622,1.633690,0.8606,0.9314,-0.2966,0.001534,0.579845,-0.555301,0.556835,-0.595185,0.558369,-0.556835
0.5024,0.020091,0.000000,-1.569959,1.569959,0.0000,0.0000,0.0000,-0.002601,-1.621418,1.624486,0.8606,0.9314,-0.2966,0.001534,0.579845,-0.555301,0.556835,-0.595185,0.558369,-0.556835
0.5225,0.020091,0.000000,-1.562946,1.562946,0.0000,0.0000,0.0000,-0.002601,-1.613748,1.615282,0.8606,0.9314,-0.2966,0.001534,0.579845,-0.555301,0.556835,-0.595185,0.558369,-0.556835
0.5426,0.020102,0.000000,-1.555929,1.555929,0.0000,0.0000,0.0000,-0.002601,-1.609146,1.607612,0.8606,0.9314,-0.2966,0.001534,0.579845,-0.555301,0.556835,-0.595185,0.558369,-0.556835
0.5627,0.020101,0.000000,-1.548912,1.548912,0.0000,0.0000,0.0000,-0.002601,-1.601476,1.601476,0.8606,0.9314,-0.2966,0.001534,0.579845,-0.555301,0.556835,-0.595185,0.558369,-0.556835
0.5828,0.020089,0.000000,-1.541900,1.541900,0.0000,0.0000,0.0000,-0.002601,-1.595340,1.596874,0.8606,0.9314,-0.2966,0.001534,0.579845,-0.555301,0.556835,-0.595185,0.558369,-0.556835
0.6029,0.020092,0.000000,-1.534887,1.534887,0.0000,0.0000,0.0000,-0.002601,-1.586136,1.590738,0.8606,0.9314,-0.2966,0.001534,0.579845,-0.555301,0.556835,-0.595185,0.558369,-0.556835
0.6230,0.020090,0.000000,-1.527874,1.527874,0.0000,0.0000,0.0000,-0.002601,-1.581534,1.583068,0.8606,0.9314,-0.2966,0.001534,0.579845,-0.555301,0.556835,-0.595185,0.558369,-0.556835
0.6431,0.020092,0.000000,-1.520860,1.520860,0.0000,0.0000,0.0000,-0.002601,-1.572330,1.578466,0.8606,0.9314,-0.2966,0.001534,0.579845,-0.555301,0.556835,-0.595185,0.558369,-0.556835
0.6632,0.020098,0.000000,-1.513845,1.513845,0.0000,0.0000,0.0000,-0.002601,-1.566194,1.576932,0.8606,0.9314,-0.2966,0.001534,0.579845,-0.555301,0.556835,-0.595185,0.558369,-0.556835
0.6832,0.020095,0.000000,-1.506831,1.506831,0.0000,0.0000,0.0000,-0.002601,-1.558524,1.570796,0.8606,0.9314,-0.2966,0.001534,0.579845,-0.555301,0.556835,-0.595185,0.558369,-0.556835
0.7033,0.020092,0.000000,-1.499817,1.499817,0.0000,0.0000,0.0000,-0.002601,-1.553923,1.561592,0.8606,0.9314,-0.2966,0.001534,0.579845,-0.555301,0.556835,-0.595185,0.558369,-0.556835
0.7234,0.020086,0.000000,-1.492806,1.492806,0.0000,0.0000,0.0000,-0.002601,-1.544719,1.550855,0.8606,0.9314,-0.2966,0.001534,0.579845,-0.555301,0.556835,-0.595185,0.558369,-0.556835
0.7435,0.020096,0.000000,-1.485791,1.485791,0.0000,0.0000,0.0000,-0.002601,-1.537049,1.540117,0.8606,0.9314,-0.2966,0.001534,0.579845,-0.555301,0.556835,-0.595185,0.558369,-0.556835
0.7636,0.020099,0.000000,-1.478775,1.478775,0.0000,0.0000,0.0000,-0.002601,-1.529379,1.529379,0.8606,0.9314,-0.2966,0.001534,0.579845,-0.555301,0.556835,-0.595185,0.558369,-0.556835
0.7837,0.020096,0.000000,-1.471760,1.471760,0.0000,0.0000,0.0000,-0.002601,-1.520175,1.521709,0.8606,0.9314,-0.2966,0.001534,0.579845,-0.555301,0.556835,-0.595185,0.558369,-0.556835
0.8040,0.020263,0.000000,-1.464687,1.464687,0.0000,0.0000,0.0000,-0.002601,-1.510971,1.515573,0.8606,0.9314,-0.2966,0.001534,0.579845,-0.555301,0.556835,-0.595185,0.558369,-0.556835
0.8241,0.020094,0.000000,-1.457673,1.457673,0.0000,0.0000,0.0000,-0.002601,-1.504835,1.510971,0.8606,0.9314,-0.2966,0.001534,0.579845,-0.555301,0.556835,-0.595185,0.558369,-0.556835
0.8442,0.020088,0.000000,-1.450661,1.450661,0.0000,0.0000,0.0000,-0.002601,-1.498699,1.504835,0.8606,0.9314,-0.2966,0.001534,0.579845,-0.555301,0.556835,-0.595185,0.558369,-0.556835
0.8642,0.020086,0.000000,-1.443650,1.443650,0.0000,0.0000,0.0000,-0.002601,-1.491029,1.498699,0.8606,0.9314,-0.2966,0.001534,0.579845,-0.555301,0.556835,-0.595185,0.558369,-0.556835
0.8843,0.020091,0.000000,-1.436637,1.436637,0.0000,0.0000,0.0000,-0.002601,-1.483359,1.492563,0.8606,0.9314,-0.2966,0.001534,0.579845,-0.555301,0.556835,-0.595185,0.558369,-0.556835
0.9044,0.020089,0.000000,-1.429624,1.429624,0.0000,0.0000,0.0000,-0.002601,-1.480291,1.486427,0.8606,0.9314,-0.2966,0.001534,0.579845,-0.555301,0.556835,-0.595185,0.558369,-0.556835
0.9245,0.020090,0.000000,-1.422611,1.422611,0.0000,0.0000,0.0000,-0.002601,-1.475690,1.475690,0.8606,0.9314,-0.2966,0.001534,0.579845,-0.555301,0.556835,-0.595185,0.558369,-0.556835
0.9446,0.020089,0.000000,-1.415599,1.415599,0.0000,0.0000,0.0000,-0.002601,-1.468020,1.466486,0.8606,0.9314,-0.2966,0.001534,0.579845,-0.555301,0.556835,-0.595185,0.558369,-0.556835
0.9647,0.020095,0.000000,-1.408585,1.408585,0.0000,0.0000,0.0000,-0.002601,-1.460350,1.458816,0.8606,0.9314,-0.2966,0.001534,0.579845,-0.555301,0.556835,-0.595185,0.558369,-0.556835
0.9848,0.020095,0.000000,-1.401570,1.401570,0.0000,0.0000,0.0000,-0.002601,-1.451146,1.449612,0.8606,0.9314,-0.2966,0.001534,0.579845,-0.555301,0.556835,-0.595185,0.558369,-0.556835
1.0049,0.020087,0.000000,-1.397968,1.397968,0.0000,0.0000,0.0000,-0.002601,-1.446544,1.443476,0.8606,0.9314,-0.2966,0.001534,0.579845,-0.555301,0.556835,-0.595185,0.558369,-0.556835
1.0250,0.020085,0.000000,-1.404979,1.404979,0.0000,0.0000,0.0000,-0.002601,-1.437340,1.440408,0.8606,0.9314,-0.2966,0.001534,0.579845,-0.555301,0.556835,-0.595185,0.558369,-0.556835
1.0451,0.020120,0.000000,-1.412003,1.412003,0.0000,0.0000,0.0000,-0.002601,-1.429670,1.435806,0.8606,0.9314,-0.2966,0.001534,0.579845,-0.555301,0.556835,-0.595185,0.558369,-0.556835
1.0652,0.020085,0.000000,-1.419014,1.419014,0.0000,0.0000,0.0000,-0.002601,-1.425068,1.431204,0.8606,0.9314,-0.2966,0.001534,0.579845,-0.555301,0.556835,-0.595185,0.558369,-0.556835
1.0853,0.020085,0.000000,-1.426025,1.426025,0.0000,0.0000,0.0000,-0.002601,-1.425068,1.426602,0.8606,0.9314,-0.2966,0.001534,0.579845,-0.555301,0.556835,-0.595185,0.558369,-0.556835
1.1053,0.020085,0.000000,-1.433036,1.433036,0.0000,0.0000,0.0000,-0.002601,-1.425068,1.425068,0.8606,0.9314,-0.2966,0.001534,0.579845,-0.555301,0.556835,-0.595185,0.558369,-0.556835
1.1254,0.020081,0.000000,-1.440045,1.440045,0.0000,0.0000,0.0000,-0.002601,-1.425068,1.425068,0.8606,0.9314,-0.2966,0.001534,0.579845,-0.555301,0.556835,-0.595185,0.558369,-0.556835
1.1455,0.020083,0.000000,-1.447055,1.447055,0.0000,0.0000,0.0000,-0.002601,-1.429670,1.425068,0.8606,0.9314,-0.2966,0.001534,0.579845,-0.555301,0.556835,-0.595185,0.558369,-0.556835
1.1656,0.020081,0.000000,-1.454065,1.454065,0.0000,0.0000,0.0000,-0.002601,-1.437340,1.431204,0.8606,0.9314,-0.2966,0.001534,0.579845,-0.555301,0.556835,-0.595185,0.558369,-0.556835
1.1857,0.020094,0.000000,-1.461079,1.461079,0.0000,0.0000,0.0000,-0.002601,-1.445010,1.441942,0.8606,0.9314,-0.2966,0.001534,0.579845,-0.555301,0.556835,-0.595185,0.558369,-0.556835
1.2058,0.020105,0.000000,-1.468097,1.468097,0.0000,0.0000,0.0000,-0.002601,-1.449612,1.451146,0.8606,0.9314,-0.2966,0.001534,0.579845,-0.555301,0.556835,-0.595185,0.558369,-0.556835
1.2259,0.020092,0.000000,-1.475111,1.475111,0.0000,0.0000,0.0000,-0.002601,-1.458816,1.451146,0.8606,0.9314,-0.2966,0.001534,0.579845,-0.555301,0.556835,-0.595185,0.558369,-0.556835
1.2460,0.020086,0.000000,-1.482122,1.482122,0.0000,0.0000,0.0000,-0.002601,-1.458816,1.451146,0.8606,0.9314,-0.2966,0.001534,0.579845,-0.555301,0.556835,-0.595185,0.558369,-0.556835
1.2662,0.020276,0.000000,-1.489200,1.489200,0.0000,0.0000,0.0000,-0.002601,-1.460350,1.455748,0.8606,0.9314,-0.2966,0.001534,0.579845,-0.555301,0.556835,-0.595185,0.558369,-0.556835
1.2863,0.020084,0.000000,-1.496210,1.496210,0.0000,0.0000,0.0000,-0.002601,-1.480291,1.475690,0.8606,0.9314,-0.2966,0.001534,0.579845,-0.555301,0.556835,-0.595185,0.558369,-0.556835
1.3064,0.020091,0.000000,-1.503223,1.503223,0.0000,0.0000,0.0000,-0.002601,-1.491029,1.489495,0.8606,0.9314,-0.2966,0.001534,0.579845,-0.555301,0.556835,-0.595185,0.558369,-0.556835
1.3265,0.020110,0.000000,-1.510243,1.510243,0.0000,0.0000,0.0000,-0.002601,-1.492563,1.489495,0.8606,0.9314,-0.2966,0.001534,0.579845,-0.555301,0.556835,-0.595185,0.558369,-0.556835
1.3466,0.020091,0.000000,-1.517256,1.517256,0.0000,0.0000,0.0000,-0.002601,-1.497165,1.492563,0.8606,0.9314,-0.2966,0.001534,0.579845,-0.555301,0.556835,-0.595185,0.558369,-0.556835
1.3667,0.020092,0.000000,-1.524269,1.524269,0.0000,0.0000,0.0000,-0.002601,-1.506369,1.504835,0.8606,0.9314,-0.2966,0.001534,0.579845,-0.555301,0.556835,-0.595185,0.558369,-0.556835
1.3868,0.020085,0.000000,-1.531280,1.531280,0.0000,0.0000,0.0000,-0.002601,-1.515573,1.510971,0.8606,0.9314,-0.2966,0.001534,0.579845,-0.555301,0.556835,-0.595185,0.558369,-0.556835
1.4069,0.020100,0.000000,-1.538297,1.538297,0.0000,0.0000,0.0000,-0.002601,-1.521709,1.512505,0.8606,0.9314,-0.2966,0.001534,0.579845,-0.555301,0.556835,-0.595185,0.558369,-0.556835
1.4270,0.020093,0.000000,-1.545310,1.545310,0.0000,0.0000,0.0000,-0.002601,-1.526311,1.521709,0.8606,0.9314,-0.2966,0.001534,0.579845,-0.555301,0.556835,-0.595185,0.558369,-0.556835
1.4471,0.020088,0.000000,-1.552323,1.552323,0.0000,0.0000,0.0000,-0.002601,-1.533981,1.535515,0.8606,0.9314,-0.2966,0.001534,0.579845,-0.555301,0.556835,-0.595185,0.558369,-0.556835
1.4672,0.020111,0.000000,-1.559343,1.559343,0.0000,0.0000,0.0000,-0.002601,-1.543185,1.537049,0.8606,0.9314,-0.2966,0.001534,0.579845,-0.555301,0.556835,-0.595185,0.558369,-0.556835
1.4873,0.020089,0.000000,-1.566355,1.566355,0.0000,0.0000,0.0000,-0.002601,-1.549321,1.538583,0.8606,0.9314,-0.2966,0.001534,0.579845,-0.555301,0.556835,-0.595185,0.558369,-0.556835
1.5075,0.020237,0.000000,-1.573419,1.573419,0.0000,0.0000,0.0000,-0.002601,-1.553923,1.549321,0.8606,0.9314,-0.2966,0.001534,0.579845,-0.555301,0.556835,-0.595185,0.558369,-0.556835
1.5280,0.020458,0.000000,-1.580560,1.580560,0.0000,0.0000,0.0000,-0.002601,-1.561592,1.563126,0.8606,0.9314,-0.2966,0.001534,0.579845,-0.555301,0.556835,-0.595185,0.558369,-0.556835
1.5481,0.020087,0.000000,-1.587572,1.587572,0.0000,0.0000,0.0000,-0.002601,-1.572330,1.567728,0.8606,0.9314,-0.2966,0.001534,0.579845,-0.555301,0.556835,-0.595185,0.558369,-0.556835
1.5681,0.020088,0.000000,-1.594584,1.594584,0.0000,0.0000,0.0000,-0.002601,-1.576932,1.569262,0.8606,0.9314,-0.2966,0.001534,0.579845,-0.555301,0.556835,-0.595185,0.558369,-0.556835
1.5882,0.020084,0.000000,-1.601594,1.601594,0.0000,0.0000,0.0000,-0.002601,-1.578466,1.581534,0.8606,0.9314,-0.2966,0.001534,0.579845,-0.555301,0.556835,-0.595185,0.558369,-0.556835
1.6083,0.020081,0.000000,-1.608604,1.608604,0.0000,0.0000,0.0000,-0.002601,-1.589204,1.589204,0.8606,0.9314,-0.2966,0.001534,0.579845,-0.555301,0.556835,-0.595185,0.558369,-0.556835
1.6303,0.022023,0.000000,-1.616292,1.616292,0.0000,0.0000,0.0000,-0.002601,-1.598408,1.593806,0.8606,0.9314,-0.2966,0.001534,0.579845,-0.555301,0.556835,-0.595185,0.558369,-0.556835
1.6504,0.020086,0.000000,-1.623303,1.623303,0.0000,0.0000,0.0000,-0.002601,-1.603010,1.596874,0.8606,0.9314,-0.2966,0.001534,0.579845,-0.555301,0.556835,-0.595185,0.558369,-0.556835
1.6705,0.020093,0.000000,-1.630317,1.630317,0.0000,0.0000,0.0000,-0.002601,-1.609146,1.610680,0.8606,0.9314,-0.2966,0.001534,0.579845,-0.555301,0.556835,-0.595185,0.558369,-0.556835
1.6906,0.020089,0.000000,-1.637329,1.637329,0.0000,0.0000,0.0000,-0.002601,-1.616816,1.616816,0.8606,0.9314,-0.2966,0.001534,0.579845,-0.555301,0.556835,-0.595185,0.558369,-0.556835
1.7107,0.020091,0.000000,-1.644342,1.644342,0.0000,0.0000,0.0000,-0.002601,-1.629088,1.621418,0.8606,0.9314,-0.2966,0.001534,0.579845,-0.555301,0.556835,-0.595185,0.558369,-0.556835
1.7308,0.020099,0.000000,-1.651358,1.651358,0.0000,0.0000,0.0000,-0.002601,-1.629088,1.630622,0.8606,0.9314,-0.2966,0.001534,0.579845,-0.555301,0.556835,-0.595185,0.558369,-0.556835
1.7509,0.020094,0.000000,-1.658372,1.658372,0.0000,0.0000,0.0000,-0.002601,-1.630622,1.641359,0.8606,0.9314,-0.2966,0.001534,0.579845,-0.555301,0.556835,-0.595185,0.558369,-0.556835
1.7710,0.020098,0.000000,-1.665387,1.665387,0.0000,0.0000,0.0000,-0.002601,-1.642893,1.641359,0.8606,0.9314,-0.2966,0.001534,0.579845,-0.555301,0.556835,-0.595185,0.558369,-0.556835
1.7910,0.020044,0.000000,-1.672384,1.672384,0.0000,0.0000,0.0000,-0.002601,-1.656699,1.642893,0.8606,0.9314,-0.2966,0.001534,0.579845,-0.555301,0.556835,-0.595185,0.558369,-0.556835
1.8111,0.020093,0.000000,-1.679397,1.679397,0.0000,0.0000,0.0000,-0.002601,-1.659767,1.653631,0.8606,0.9314,-0.2966,0.001534,0.579845,-0.555301,0.556835,-0.595185,0.558369,-0.556835
1.8312,0.020088,0.000000,-1.686409,1.686409,0.0000,0.0000,0.0000,-0.002601,-1.661301,1.668971,0.8606,0.9314,-0.2966,0.001534,0.579845,-0.555301,0.556835,-0.595185,0.558369,-0.556835
1.8513,0.020091,0.000000,-1.693423,1.693423,0.0000,0.0000,0.0000,-0.002601,-1.672039,1.670505,0.8606,0.9314,-0.2966,0.001534,0.579845,-0.555301,0.556835,-0.595185,0.558369,-0.556835
1.8714,0.020092,0.000000,-1.700436,1.700436,0.0000,0.0000,0.0000,-0.002601,-1.685845,1.672039,0.8606,0.9314,-0.2966,0.001534,0.579845,-0.555301,0.556835,-0.595185,0.558369,-0.556835
1.8915,0.020093,0.000000,-1.707450,1.707450,0.0000,0.0000,0.0000,-0.002601,-1.687379,1.679709,0.8606,0.9314,-0.2966,0.001534,0.579845,-0.555301,0.556835,-0.595185,0.558369,-0.556835
1.9116,0.020081,0.000000,-1.714459,1.714459,0.0000,0.0000,0.0000,-0.002601,-1.690447,1.695049,0.8606,0.9314,-0.2966,0.001534,0.579845,-0.555301,0.556835,-0.595185,0.558369,-0.556835
1.9317,0.020091,0.000000,-1.721472,1.721472,0.0000,0.0000,0.0000,-0.002578,-1.702719,1.698117,0.9598,0.9000,-0.1892,0.001534,0.582913,-0.555301,0.556835,-0.595185,0.558369,-0.556835
1.9517,0.020093,0.000000,-1.728486,1.728486,0.0000,0.0000,0.0000,-0.002580,-1.714991,1.707321,0.9494,0.9034,-0.2004,0.001534,0.582913,-0.555301,0.556835,-0.595185,0.558369,-0.556835
1.9718,0.020094,0.000000,-1.735500,1.735500,0.0000,0.0000,0.0000,-0.002580,-1.719592,1.722660,0.9508,0.9029,-0.1988,0.001534,0.582913,-0.555301,0.556835,-0.595185,0.558369,-0.556835
1.9919,0.020084,0.000000,-1.742511,1.742511,0.0000,0.0000,0.0000,-0.002580,-1.730330,1.727262,0.9508,0.9029,-0.1988,0.001534,0.582913,-0.555301,0.556835,-0.595185,0.558369,-0.556835
2.0120,0.020103,0.000000,-1.741130,1.741130,0.0000,0.0000,0.0000,-0.002580,-1.739534,1.727262,0.9508,0.9029,-0.1988,0.001534,0.582913,-0.555301,0.556835,-0.595185,0.558369,-0.556835
2.0321,0.020098,0.000000,-1.734115,1.734115,0.0000,0.0000,0.0000,-0.002569,-1.741068,1.734932,1.0001,0.8876,-0.1453,0.001534,0.584447,-0.555301,0.556835,-0.595185,0.558369,-0.556835
2.0523,0.020144,0.000000,-1.727083,1.727083,0.0000,0.0000,0.0000,-0.002570,-1.744136,1.747204,0.9949,0.8892,-0.1509,0.001534,0.584447,-0.555301,0.556835,-0.595185,0.558369,-0.556835
2.0724,0.020103,0.000000,-1.720066,1.720066,0.0000,0.0000,0.0000,-0.002570,-1.744136,1.747204,0.9949,0.8892,-0.1509,0.001534,0.584447,-0.555301,0.556835,-0.595185,0.558369,-0.556835
2.0925,0.020093,0.000000,-1.713052,1.713052,0.0000,0.0000,0.0000,-0.002559,-1.739534,1.744136,1.0452,0.8736,-0.0963,0.001534,0.585981,-0.555301,0.556835,-0.595185,0.558369,-0.556835
2.1126,0.020088,0.000000,-1.706040,1.706040,0.0000,0.0000,0.0000,-0.002560,-1.739534,1.744136,1.0400,0.8752,-0.1020,0.001534,0.585981,-0.555301,0.556835,-0.595185,0.558369,-0.556835
2.1327,0.020142,0.000000,-1.699009,1.699009,0.0000,0.0000,0.0000,-0.002560,-1.738000,1.742602,1.0400,0.8752,-0.1020,0.001534,0.585981,-0.555301,0.556835,-0.595185,0.558369,-0.556835
2.1528,0.020091,0.000000,-1.691996,1.691996,0.0000,0.0000,0.0000,-0.002560,-1.736466,1.742602,1.0400,0.8752,-0.1020,0.001534,0.585981,-0.555301,0.556835,-0.595185,0.558369,-0.556835
2.1729,0.020092,0.000000,-1.684983,1.684983,0.0000,0.0000,0.0000,-0.002560,-1.736466,1.741068,1.0400,0.8752,-0.1020,0.001534,0.585981,-0.555301,0.556835,-0.595185,0.558369,-0.556835
2.1930,0.020091,0.000000,-1.677969,1.677969,0.0000,0.0000,0.0000,-0.002560,-1.733398,1.739534,1.0400,0.8752,-0.1020,0.001534,0.585981,-0.555301,0.556835,-0.595185,0.558369,-0.556835
2.2131,0.020089,0.000000,-1.670957,1.670957,0.0000,0.0000,0.0000,-0.002560,-1.730330,1.738000,1.0400,0.8752,-0.1020,0.001534,0.585981,-0.555301,0.556835,-0.595185,0.558369,-0.556835
2.2332,0.020112,0.000000,-1.663937,1.663937,0.0000,0.0000,0.0000,-0.002560,-1.719592,1.727262,1.0400,0.8752,-0.1020,0.001534,0.585981,-0.555301,0.556835,-0.595185,0.558369,-0.556835
2.2533,0.020107,0.000000,-1.656918,1.656918,0.0000,0.0000,0.0000,-0.002560,-1.708855,1.716525,1.0400,0.8752,-0.1020,0.001534,0.585981,-0.555301,0.556835,-0.595185,0.558369,-0.556835
2.2734,0.020100,0.000000,-1.649902,1.649902,0.0000,0.0000,0.0000,-0.002560,-1.698117,1.702719,1.0400,0.8752,-0.1020,0.001534,0.585981,-0.555301,0.556835,-0.595185,0.558369,-0.556835
2.2935,0.020100,0.000000,-1.642886,1.642886,0.0000,0.0000,0.0000,-0.002560,-1.690447,1.690447,1.0400,0.8752,-0.1020,0.001534,0.585981,-0.555301,0.556835,-0.595185,0.558369,-0.556835
2.3136,0.020088,0.000000,-1.635874,1.635874,0.0000,0.0000,0.0000,-0.002560,-1.682777,1.684311,1.0400,0.8752,-0.1020,0.001534,0.585981,-0.555301,0.556835,-0.595185,0.558369,-0.556835
2.3337,0.020097,0.000000,-1.628859,1.628859,0.0000,0.0000,0.0000,-0.002560,-1.682777,1.684311,1.0400,0.8752,-0.1020,0.001534,0.585981,-0.555301,0.556835,-0.595185,0.558369,-0.556835
2.3538,0.020096,0.000000,-1.621844,1.621844,0.0000,0.0000,0.0000,-0.002560,-1.675107,1.678175,1.0400,0.8752,-0.1020,0.001534,0.585981,-0.555301,0.556835,-0.595185,0.558369,-0.556835
2.3739,0.020095,0.000000,-1.614830,1.614830,0.0000,0.0000,0.0000,-0.002560,-1.667437,1.672039,1.0400,0.8752,-0.1020,0.001534,0.585981,-0.555301,0.556835,-0.595185,0.558369,-0.556835
2.3940,0.020097,0.000000,-1.607814,1.607814,0.0000,0.0000,0.0000,-0.002560,-1.665903,1.665903,1.0400,0.8752,-0.1020,0.001534,0.585981,-0.555301,0.556835,-0.595185,0.558369,-0.556835
2.4140,0.020083,0.000000,-1.600804,1.600804,0.0000,0.0000,0.0000,-0.002560,-1.664369,1.661301,1.0400,0.8752,-0.1020,0.001534,0.585981,-0.555301,0.556835,-0.595185,0.558369,-0.556835
2.4341,0.020097,0.000000,-1.593789,1.593789,0.0000,0.0000,0.0000,-0.002560,-1.658233,1.659767,1.0400,0.8752,-0.1020,0.001534,0.585981,-0.555301,0.556835,-0.595185,0.558369,-0.556835
2.4542,0.020090,0.000000,-1.586776,1.586776,0.0000,0.0000,0.0000,-0.002560,-1.649029,1.659767,1.0400,0.8752,-0.1020,0.001534,0.585981,-0.555301,0.556835,-0.595185,0.558369,-0.556835
2.4743,0.020102,0.000000,-1.579759,1.579759,0.0000,0.0000,0.0000,-0.002560,-1.638291,1.655165,1.0400,0.8752,-0.1020,0.001534,0.585981,-0.555301,0.556835,-0.595185,0.558369,-0.556835
2.4944,0.020107,0.000000,-1.572741,1.572741,0.0000,0.0000,0.0000,-0.002560,-1.632156,1.647495,1.0400,0.8752,-0.1020,0.001534,0.585981,-0.555301,0.556835,-0.595185,0.558369,-0.556835
2.5145,0.020087,0.000000,-1.565729,1.565729,0.0000,0.0000,0.0000,-0.002560,-1.624486,1.636758,1.0400,0.8752,-0.1020,0.001534,0.585981,-0.555301,0.556835,-0.595185,0.558369,-0.556835
2.5346,0.020093,0.000000,-1.558715,1.558715,0.0000,0.0000,0.0000,-0.002560,-1.616816,1.622952,1.0400,0.8752,-0.1020,0.001534,0.585981,-0.555301,0.556835,-0.595185,0.558369,-0.556835
2.5547,0.020095,0.000000,-1.551701,1.551701,0.0000,0.0000,0.0000,-0.002549,-1.612214,1.613748,1.0902,0.8596,-0.0473,0.001534,0.587515,-0.555301,0.556835,-0.595185,0.558369,-0.556835
2.5748,0.020096,0.000000,-1.544686,1.544686,0.0000,0.0000,0.0000,-0.002561,-1.610680,1.604544,1.0353,0.8766,-0.1071,0.001534,0.585981,-0.555301,0.556835,-0.595185,0.558369,-0.556835
2.5949,0.020146,0.000000,-1.537654,1.537654,0.0000,0.0000,0.0000,-0.002560,-1.606078,1.601476,1.0410,0.8749,-0.1008,0.001534,0.585981,-0.555301,0.556835,-0.595185,0.558369,-0.556835
2.6150,0.020084,0.000000,-1.530643,1.530643,0.0000,0.0000,0.0000,-0.002560,-1.596874,1.595340,1.0410,0.8749,-0.1008,0.001534,0.585981,-0.555301,0.556835,-0.595185,0.558369,-0.556835
2.6351,0.020087,0.000000,-1.523632,1.523632,0.0000,0.0000,0.0000,-0.002560,-1.586136,1.590738,1.0410,0.8749,-0.1008,0.001534,0.585981,-0.555301,0.556835,-0.595185,0.558369,-0.556835
2.6552,0.020085,0.000000,-1.516620,1.516620,0.0000,0.0000,0.0000,-0.002560,-1.576932,1.583068,1.0410,0.8749,-0.1008,0.001534,0.585981,-0.555301,0.556835,-0.595185,0.558369,-0.556835
2.6753,0.020090,0.000000,-1.509608,1.509608,0.0000,0.0000,0.0000,-0.002560,-1.567728,1.578466,1.0410,0.8749,-0.1008,0.001534,0.585981,-0.555301,0.556835,-0.595185,0.558369,-0.556835
2.6965,0.021217,0.000000,-1.502201,1.502201,0.0000,0.0000,0.0000,-0.002560,-1.560058,1.573864,1.0410,0.8749,-0.1008,0.001534,0.585981,-0.555301,0.556835,-0.595185,0.558369,-0.556835
2.7166,0.020086,0.000000,-1.495190,1.495190,0.0000,0.0000,0.0000,-0.002560,-1.547787,1.555457,1.0410,0.8749,-0.1008,0.001534,0.585981,-0.555301,0.556835,-0.595185,0.558369,-0.556835
2.7367,0.020083,0.000000,-1.488180,1.488180,0.0000,0.0000,0.0000,-0.002560,-1.541651,1.546253,1.0410,0.8749,-0.1008,0.001534,0.585981,-0.555301,0.556835,-0.595185,0.558369,-0.556835
2.7568,0.020083,0.000000,-1.481169,1.481169,0.0000,0.0000,0.0000,-0.002560,-1.532447,1.535515,1.0410,0.8749,-0.1008,0.001534,0.585981,-0.555301,0.556835,-0.595185,0.558369,-0.556835
2.7769,0.020088,0.000000,-1.474157,1.474157,0.0000,0.0000,0.0000,-0.002560,-1.524777,1.524777,1.0410,0.8749,-0.1008,0.001534,0.585981,-0.555301,0.556835,-0.595185,0.558369,-0.556835
2.7969,0.020076,0.000000,-1.467150,1.467150,0.0000,0.0000,0.0000,-0.002560,-1.514039,1.515573,1.0410,0.8749,-0.1008,0.001534,0.585981,-0.555301,0.556835,-0.595185,0.558369,-0.556835
2.8170,0.020085,0.000000,-1.460139,1.460139,0.0000,0.0000,0.0000,-0.002560,-1.504835,1.507903,1.0410,0.8749,-0.1008,0.001534,0.585981,-0.555301,0.556835,-0.595185,0.558369,-0.556835
2.8371,0.020077,0.000000,-1.453131,1.453131,0.0000,0.0000,0.0000,-0.002560,-1.495631,1.500233,1.0410,0.8749,-0.1008,0.001534,0.585981,-0.555301,0.556835,-0.595185,0.558369,-0.556835
2.8572,0.020087,0.000000,-1.446119,1.446119,0.0000,0.0000,0.0000,-0.002560,-1.489495,1.495631,1.0410,0.8749,-0.1008,0.001534,0.585981,-0.555301,0.556835,-0.595185,0.558369,-0.556835
2.8772,0.020075,0.000000,-1.439111,1.439111,0.0000,0.0000,0.0000,-0.002560,-1.481825,1.491029,1.0410,0.8749,-0.1008,0.001534,0.585981,-0.555301,0.556835,-0.595185,0.558369,-0.556835
2.8973,0.020089,0.000000,-1.432099,1.432099,0.0000,0.0000,0.0000,-0.002560,-1.478757,1.484893,1.0410,0.8749,-0.1008,0.001534,0.585981,-0.555301,0.556835,-0.595185,0.558369,-0.556835
2.9174,0.020087,0.000000,-1.425087,1.425087,0.0000,0.0000,0.0000,-0.002549,-1.474156,1.472622,1.0901,0.8597,-0.0474,0.001534,0.587515,-0.555301,0.556835,-0.595185,0.558369,-0.556835
2.9375,0.020075,0.000000,-1.418080,1.418080,0.0000,0.0000,0.0000,-0.002561,-1.468020,1.466486,1.0353,0.8766,-0.1071,0.001534,0.585981,-0.555301,0.556835,-0.595185,0.558369,-0.556835
2.9576,0.020084,0.000000,-1.411069,1.411069,0.0000,0.0000,0.0000,-0.002560,-1.458816,1.457282,1.0410,0.8749,-0.1008,0.001534,0.585981,-0.555301,0.556835,-0.595185,0.558369,-0.556835
2.9777,0.020075,0.000000,-1.404062,1.404062,0.0000,0.0000,0.0000,-0.002560,-1.451146,1.451146,1.0410,0.8749,-0.1008,0.001534,0.585981,-0.555301,0.556835,-0.595185,0.558369,-0.556835
2.9977,0.020082,0.000000,-1.397052,1.397052,0.0000,0.0000,0.0000,-0.002560,-1.446544,1.443476,1.0410,0.8749,-0.1008,0.001534,0.585981,-0.555301,0.556835,-0.595185,0.558369,-0.556835
3.0178,0.020084,0.000000,-1.402486,1.402486,0.0000,0.0000,0.0000,-0.002560,-1.437340,1.438874,1.0410,0.8749,-0.1008,0.001534,0.585981,-0.555301,0.556835,-0.595185,0.558369,-0.556835
3.0379,0.020075,0.000000,-1.409493,1.409493,0.0000,0.0000,0.0000,-0.002560,-1.431204,1.434272,1.0410,0.8749,-0.1008,0.001534,0.585981,-0.555301,0.556835,-0.595185,0.558369,-0.556835
3.0580,0.020088,0.000000,-1.416505,1.416505,0.0000,0.0000,0.0000,-0.002560,-1.425068,1.429670,1.0410,0.8749,-0.1008,0.001534,0.585981,-0.555301,0.556835,-0.595185,0.558369,-0.556835
3.0781,0.020076,0.000000,-1.423513,1.423513,0.0000,0.0000,0.0000,-0.002560,-1.425068,1.425068,1.0410,0.8749,-0.1008,0.001534,0.585981,-0.555301,0.556835,-0.595185,0.558369,-0.556835
3.0981,0.020078,0.000000,-1.430522,1.430522,0.0000,0.0000,0.0000,-0.002560,-1.425068,1.425068,1.0410,0.8749,-0.1008,0.001534,0.585981,-0.555301,0.556835,-0.595185,0.558369,-0.556835
3.1182,0.020082,0.000000,-1.437532,1.437532,0.0000,0.0000,0.0000,-0.002560,-1.425068,1.425068,1.0410,0.8749,-0.1008,0.001534,0.585981,-0.555301,0.556835,-0.595185,0.558369,-0.556835
3.1383,0.020074,0.000000,-1.444539,1.444539,0.0000,0.0000,0.0000,-0.002560,-1.428136,1.426602,1.0410,0.8749,-0.1008,0.001534,0.585981,-0.555301,0.556835,-0.595185,0.558369,-0.556835
3.1584,0.020091,0.000000,-1.451552,1.451552,0.0000,0.0000,0.0000,-0.002560,-1.437340,1.432738,1.0410,0.8749,-0.1008,0.001534,0.585981,-0.555301,0.556835,-0.595185,0.558369,-0.556835
3.1785,0.020073,0.000000,-1.458559,1.458559,0.0000,0.0000,0.0000,-0.002560,-1.446544,1.441942,1.0410,0.8749,-0.1008,0.001534,0.585981,-0.555301,0.556835,-0.595185,0.558369,-0.556835
3.1985,0.020085,0.000000,-1.465570,1.465570,0.0000,0.0000,0.0000,-0.002560,-1.446544,1.449612,1.0410,0.8749,-0.1008,0.001534,0.585981,-0.555301,0.556835,-0.595185,0.558369,-0.556835
3.2186,0.020080,0.000000,-1.472579,1.472579,0.0000,0.0000,0.0000,-0.002560,-1.455748,1.451146,1.0410,0.8749,-0.1008,0.001534,0.585981,-0.555301,0.556835,-0.595185,0.558369,-0.556835
3.2387,0.020078,0.000000,-1.479588,1.479588,0.0000,0.0000,0.0000,-0.002560,-1.468020,1.458816,1.0410,0.8749,-0.1008,0.001534,0.585981,-0.555301,0.556835,-0.595185,0.558369,-0.556835
3.2588,0.020092,0.000000,-1.486601,1.486601,0.0000,0.0000,0.0000,-0.002549,-1.472622,1.472622,1.0901,0.8597,-0.0474,0.001534,0.587515,-0.555301,0.556835,-0.595185,0.558369,-0.556835
3.2789,0.020078,0.000000,-1.493610,1.493610,0.0000,0.0000,0.0000,-0.002561,-1.474156,1.475690,1.0353,0.8766,-0.1071,0.001534,0.585981,-0.555301,0.556835,-0.595185,0.558369,-0.556835
3.2990,0.020080,0.000000,-1.500619,1.500619,0.0000,0.0000,0.0000,-0.002549,-1.484893,1.480291,1.0907,0.8595,-0.0468,0.001534,0.587515,-0.555301,0.556835,-0.595185,0.558369,-0.556835
3.3190,0.020084,0.000000,-1.507629,1.507629,0.0000,0.0000,0.0000,-0.002561,-1.497165,1.487961,1.0352,0.8767,-0.1071,0.001534,0.585981,-0.555301,0.556835,-0.595185,0.558369,-0.556835
3.3391,0.020074,0.000000,-1.514637,1.514637,0.0000,0.0000,0.0000,-0.002549,-1.498699,1.497165,1.0907,0.8595,-0.0468,0.001534,0.587515,-0.555301,0.556835,-0.595185,0.558369,-0.556835
3.3592,0.020086,0.000000,-1.521648,1.521648,0.0000,0.0000,0.0000,-0.002561,-1.503301,1.503301,1.0352,0.8767,-0.1071,0.001534,0.585981,-0.555301,0.556835,-0.595185,0.558369,-0.556835
3.3793,0.020074,0.000000,-1.528655,1.528655,0.0000,0.0000,0.0000,-0.002549,-1.515573,1.507903,1.0907,0.8595,-0.0468,0.001534,0.587515,-0.555301,0.556835,-0.595185,0.558369,-0.556835
3.3994,0.020082,0.000000,-1.535665,1.535665,0.0000,0.0000,0.0000,-0.002561,-1.521709,1.510971,1.0352,0.8767,-0.1071,0.001534,0.585981,-0.555301,0.556835,-0.595185,0.558369,-0.556835
3.4194,0.020077,0.000000,-1.542673,1.542673,0.0000,0.0000,0.0000,-0.002560,-1.523243,1.521709,1.0410,0.8749,-0.1008,0.001534,0.585981,-0.555301,0.556835,-0.595185,0.558369,-0.556835
3.4395,0.020075,0.000000,-1.549681,1.549681,0.0000,0.0000,0.0000,-0.002560,-1.530913,1.535515,1.0410,0.8749,-0.1008,0.001534,0.585981,-0.555301,0.556835,-0.595185,0.558369,-0.556835
3.4596,0.020088,0.000000,-1.556693,1.556693,0.0000,0.0000,0.0000,-0.002560,-1.546253,1.538583,1.0410,0.8749,-0.1008,0.001534,0.585981,-0.555301,0.556835,-0.595185,0.558369,-0.556835
3.4797,0.020074,0.000000,-1.563700,1.563700,0.0000,0.0000,0.0000,-0.002549,-1.550855,1.543185,1.0901,0.8597,-0.0474,0.001534,0.587515,-0.555301,0.556835,-0.595185,0.558369,-0.556835
3.4998,0.020080,0.000000,-1.570709,1.570709,0.0000,0.0000,0.0000,-0.002561,-1.552389,1.552389,1.0353,0.8766,-0.1071,0.001534,0.585981,-0.555301,0.556835,-0.595185,0.558369,-0.556835
3.5198,0.020073,0.000000,-1.577716,1.577716,0.0000,0.0000,0.0000,-0.002549,-1.560058,1.560058,1.0907,0.8595,-0.0468,0.001534,0.587515,-0.555301,0.556835,-0.595185,0.558369,-0.556835
3.5399,0.020074,0.000000,-1.584723,1.584723,0.0000,0.0000,0.0000,-0.002550,-1.573864,1.564660,1.0849,0.8613,-0.0530,0.001534,0.587515,-0.555301,0.556835,-0.595185,0.558369,-0.556835
3.5600,0.020087,0.000000,-1.591735,1.591735,0.0000,0.0000,0.0000,-0.002550,-1.576932,1.570796,1.0849,0.8613,-0.0530,0.001534,0.587515,-0.555301,0.556835,-0.595185,0.558369,-0.556835
3.5801,0.020075,0.000000,-1.598743,1.598743,0.0000,0.0000,0.0000,-0.002561,-1.576932,1.583068,1.0358,0.8765,-0.1065,0.001534,0.585981,-0.555301,0.556835,-0.595185,0.558369,-0.556835
3.6001,0.020082,0.000000,-1.605752,1.605752,0.0000,0.0000,0.0000,-0.002573,-1.584602,1.589204,1.0814,0.9085,-0.1534,0.001534,0.585981,-0.555301,0.556835,-0.595185,0.556835,-0.556835
3.6202,0.020073,0.000000,-1.612759,1.612759,0.0000,0.0000,0.0000,-0.002548,-1.598408,1.589204,1.0858,0.8562,-0.0419,0.001534,0.587515,-0.555301,0.556835,-0.595185,0.558369,-0.556835
3.6403,0.020074,0.000000,-1.619766,1.619766,0.0000,0.0000,0.0000,-0.002550,-1.604544,1.595340,1.0854,0.8616,-0.0536,0.001534,0.587515,-0.555301,0.556835,-0.595185,0.558369,-0.556835
3.6604,0.020087,0.000000,-1.626778,1.626778,0.0000,0.0000,0.0000,-0.002561,-1.604544,1.607612,1.0358,0.8764,-0.1064,0.001534,0.585981,-0.555301,0.556835,-0.595185,0.558369,-0.556835
3.6804,0.020072,0.000000,-1.633784,1.633784,0.0000,0.0000,0.0000,-0.002549,-1.609146,1.618350,1.0906,0.8595,-0.0468,0.001534,0.587515,-0.555301,0.556835,-0.595185,0.558369,-0.556835
3.7005,0.020082,0.000000,-1.640794,1.640794,0.0000,0.0000,0.0000,-0.002561,-1.627554,1.619884,1.0352,0.8767,-0.1071,0.001534,0.585981,-0.555301,0.556835,-0.595185,0.558369,-0.556835
3.7206,0.020075,0.000000,-1.647802,1.647802,0.0000,0.0000,0.0000,-0.002549,-1.632156,1.622952,1.0907,0.8595,-0.0468,0.001534,0.587515,-0.555301,0.556835,-0.595185,0.558369,-0.556835
3.7407,0.020074,0.000000,-1.654809,1.654809,0.0000,0.0000,0.0000,-0.002561,-1.635224,1.638291,1.0352,0.8767,-0.1071,0.001534,0.585981,-0.555301,0.556835,-0.595185,0.558369,-0.556835
3.7608,0.020078,0.000000,-1.661817,1.661817,0.0000,0.0000,0.0000,-0.002549,-1.641359,1.645961,1.0907,0.8595,-0.0468,0.001534,0.587515,-0.555301,0.556835,-0.595185,0.558369,-0.556835
3.7808,0.020077,0.000000,-1.668825,1.668825,0.0000,0.0000,0.0000,-0.002561,-1.655165,1.647495,1.0352,0.8767,-0.1071,0.001534,0.585981,-0.555301,0.556835,-0.595185,0.558369,-0.556835
3.8011,0.020230,0.000000,-1.675887,1.675887,0.0000,0.0000,0.0000,-0.002549,-1.658233,1.653631,1.0907,0.8595,-0.0468,0.001534,0.587515,-0.555301,0.556835,-0.595185,0.558369,-0.556835
3.8211,0.020079,0.000000,-1.682896,1.682896,0.0000,0.0000,0.0000,-0.002561,-1.662835,1.667437,1.0352,0.8767,-0.1071,0.001534,0.585981,-0.555301,0.556835,-0.595185,0.558369,-0.556835
3.8412,0.020079,0.000000,-1.689905,1.689905,0.0000,0.0000,0.0000,-0.002560,-1.673573,1.670505,1.0410,0.8749,-0.1008,0.001534,0.585981,-0.555301,0.556835,-0.595185,0.558369,-0.556835
3.8613,0.020082,0.000000,-1.696915,1.696915,0.0000,0.0000,0.0000,-0.002560,-1.684311,1.675107,1.0410,0.8749,-0.1008,0.001534,0.585981,-0.555301,0.556835,-0.595185,0.558369,-0.556835
3.8814,0.020081,0.000000,-1.703925,1.703925,0.0000,0.0000,0.0000,-0.002560,-1.685845,1.682777,1.0410,0.8749,-0.1008,0.001534,0.585981,-0.555301,0.556835,-0.595185,0.558369,-0.556835
3.9015,0.020080,0.000000,-1.710934,1.710934,0.0000,0.0000,0.0000,-0.002560,-1.691981,1.695049,1.0410,0.8749,-0.1008,0.001534,0.585981,-0.555301,0.556835,-0.595185,0.558369,-0.556835
3.9215,0.020074,0.000000,-1.717941,1.717941,0.0000,0.0000,0.0000,-0.002560,-1.705787,1.696583,1.0410,0.8749,-0.1008,0.001534,0.585981,-0.555301,0.556835,-0.595185,0.558369,-0.556835
3.9416,0.020077,0.000000,-1.724949,1.724949,0.0000,0.0000,0.0000,-0.002560,-1.710389,1.701185,1.0410,0.8749,-0.1008,0.001534,0.585981,-0.555301,0.556835,-0.595185,0.558369,-0.556835
3.9617,0.020080,0.000000,-1.731958,1.731958,0.0000,0.0000,0.0000,-0.002560,-1.713457,1.713457,1.0410,0.8749,-0.1008,0.001534,0.585981,-0.555301,0.556835,-0.595185,0.558369,-0.556835
3.9820,0.020321,0.000000,-1.739052,1.739052,0.0000,0.0000,0.0000,-0.002560,-1.719592,1.722660,1.0410,0.8749,-0.1008,0.001534,0.585981,-0.555301,0.556835,-0.595185,0.558369,-0.556835
4.0021,0.020076,0.000000,-1.744599,1.744599,0.0000,0.0000,0.0000,-0.002549,-1.730330,1.722660,1.0901,0.8597,-0.0474,0.001534,0.587515,-0.555301,0.556835,-0.595185,0.558369,-0.556835
4.0222,0.020075,0.000000,-1.737591,1.737591,0.0000,0.0000,0.0000,-0.002561,-1.739534,1.725728,1.0353,0.8766,-0.1071,0.001534,0.585981,-0.555301,0.556835,-0.595185,0.558369,-0.556835
4.0422,0.020081,0.000000,-1.730582,1.730582,0.0000,0.0000,0.0000,-0.002549,-1.739534,1.736466,1.0907,0.8595,-0.0468,0.001534,0.587515,-0.555301,0.556835,-0.595185,0.558369,-0.556835
4.0623,0.020081,0.000000,-1.723572,1.723572,0.0000,0.0000,0.0000,-0.002561,-1.744136,1.750272,1.0352,0.8767,-0.1071,0.001534,0.585981,-0.555301,0.556835,-0.595185,0.558369,-0.556835
4.0824,0.020116,0.000000,-1.716550,1.716550,0.0000,0.0000,0.0000,-0.002549,-1.745670,1.750272,1.0907,0.8595,-0.0468,0.001534,0.587515,-0.555301,0.556835,-0.595185,0.558369,-0.556835
4.1025,0.020077,0.000000,-1.709542,1.709542,0.0000,0.0000,0.0000,-0.002550,-1.744136,1.745670,1.0849,0.8613,-0.0530,0.001534,0.587515,-0.555301,0.556835,-0.595185,0.558369,-0.556835
4.1230,0.020509,0.000000,-1.702383,1.702383,0.0000,0.0000,0.0000,-0.002550,-1.738000,1.744136,1.0849,0.8613,-0.0530,0.001534,0.587515,-0.555301,0.556835,-0.595185,0.558369,-0.556835
4.1431,0.020073,0.000000,-1.695377,1.695377,0.0000,0.0000,0.0000,-0.002561,-1.738000,1.744136,1.0358,0.8765,-0.1065,0.001534,0.585981,-0.555301,0.556835,-0.595185,0.558369,-0.556835
4.1632,0.020077,0.000000,-1.688369,1.688369,0.0000,0.0000,0.0000,-0.002549,-1.734932,1.741068,1.0906,0.8595,-0.0468,0.001534,0.587515,-0.555301,0.556835,-0.595185,0.558369,-0.556835
4.1833,0.020081,0.000000,-1.681359,1.681359,0.0000,0.0000,0.0000,-0.002561,-1.734932,1.741068,1.0352,0.8767,-0.1071,0.001534,0.585981,-0.555301,0.556835,-0.595185,0.558369,-0.556835
4.2033,0.020074,0.000000,-1.674352,1.674352,0.0000,0.0000,0.0000,-0.002549,-1.730330,1.738000,1.0907,0.8595,-0.0468,0.001534,0.587515,-0.555301,0.556835,-0.595185,0.558369,-0.556835
4.2234,0.020091,0.000000,-1.667339,1.667339,0.0000,0.0000,0.0000,-0.002550,-1.724194,1.734932,1.0849,0.8613,-0.0530,0.001534,0.587515,-0.555301,0.556835,-0.595185,0.558369,-0.556835
4.2435,0.020073,0.000000,-1.660332,1.660332,0.0000,0.0000,0.0000,-0.002550,-1.714991,1.724194,1.0849,0.8613,-0.0530,0.001534,0.587515,-0.555301,0.556835,-0.595185,0.558369,-0.556835
4.2636,0.020094,0.000000,-1.653318,1.653318,0.0000,0.0000,0.0000,-0.002550,-1.707321,1.711923,1.0849,0.8613,-0.0530,0.001534,0.587515,-0.555301,0.556835,-0.595185,0.558369,-0.556835
4.2837,0.020081,0.000000,-1.646308,1.646308,0.0000,0.0000,0.0000,-0.002561,-1.696583,1.699651,1.0358,0.8765,-0.1065,0.001534,0.585981,-0.555301,0.556835,-0.595185,0.558369,-0.556835
4.3038,0.020078,0.000000,-1.639300,1.639300,0.0000,0.0000,0.0000,-0.002549,-1.688913,1.688913,1.0906,0.8595,-0.0468,0.001534,0.587515,-0.555301,0.556835,-0.595185,0.558369,-0.556835
4.3238,0.020091,0.000000,-1.632287,1.632287,0.0000,0.0000,0.0000,-0.002561,-1.679709,1.681243,1.0352,0.8767,-0.1071,0.001534,0.585981,-0.555301,0.556835,-0.595185,0.558369,-0.556835
4.3439,0.020081,0.000000,-1.625277,1.625277,0.0000,0.0000,0.0000,-0.002549,-1.672039,1.675107,1.0907,0.8595,-0.0468,0.001534,0.587515,-0.555301,0.556835,-0.595185,0.558369,-0.556835
4.3640,0.020087,0.000000,-1.618266,1.618266,0.0000,0.0000,0.0000,-0.002550,-1.665903,1.668971,1.0849,0.8613,-0.0530,0.001534,0.587515,-0.555301,0.556835,-0.595185,0.558369,-0.556835
4.3841,0.020078,0.000000,-1.611257,1.611257,0.0000,0.0000,0.0000,-0.002550,-1.662835,1.662835,1.0849,0.8613,-0.0530,0.001534,0.587515,-0.555301,0.556835,-0.595185,0.558369,-0.556835
4.4042,0.020078,0.000000,-1.604249,1.604249,0.0000,0.0000,0.0000,-0.002550,-1.653631,1.659767,1.0849,0.8613,-0.0530,0.001534,0.587515,-0.555301,0.556835,-0.595185,0.558369,-0.556835
4.4243,0.020085,0.000000,-1.597238,1.597238,0.0000,0.0000,0.0000,-0.002561,-1.647495,1.658233,1.0358,0.8765,-0.1065,0.001534,0.585981,-0.555301,0.556835,-0.595185,0.558369,-0.556835
4.4443,0.020080,0.000000,-1.590229,1.590229,0.0000,0.0000,0.0000,-0.002549,-1.641359,1.655165,1.0906,0.8595,-0.0468,0.001534,0.587515,-0.555301,0.556835,-0.595185,0.558369,-0.556835
4.4645,0.020179,0.000000,-1.583185,1.583185,0.0000,0.0000,0.0000,-0.002561,-1.638291,1.647495,1.0352,0.8767,-0.1071,0.001534,0.585981,-0.555301,0.556835,-0.595185,0.558369,-0.556835
4.4846,0.020081,0.000000,-1.576175,1.576175,0.0000,0.0000,0.0000,-0.002560,-1.633690,1.636758,1.0410,0.8749,-0.1008,0.001534,0.585981,-0.555301,0.556835,-0.595185,0.558369,-0.556835
4.5047,0.020087,0.000000,-1.569163,1.569163,0.0000,0.0000,0.0000,-0.002560,-1.626020,1.627554,1.0410,0.8749,-0.1008,0.001534,0.585981,-0.555301,0.556835,-0.595185,0.558369,-0.556835
4.5248,0.020085,0.000000,-1.562152,1.562152,0.0000,0.0000,0.0000,-0.002560,-1.616816,1.618350,1.0410,0.8749,-0.1008,0.001534,0.585981,-0.555301,0.556835,-0.595185,0.558369,-0.556835
4.5448,0.020080,0.000000,-1.555143,1.555143,0.0000,0.0000,0.0000,-0.002560,-1.610680,1.610680,1.0410,0.8749,-0.1008,0.001534,0.585981,-0.555301,0.556835,-0.595185,0.558369,-0.556835
4.5652,0.020337,0.000000,-1.548044,1.548044,0.0000,0.0000,0.0000,-0.002549,-1.604544,1.603010,1.0901,0.8597,-0.0474,0.001534,0.587515,-0.555301,0.556835,-0.595185,0.558369,-0.556835
4.5853,0.020079,0.000000,-1.541035,1.541035,0.0000,0.0000,0.0000,-0.002550,-1.596874,1.596874,1.0850,0.8613,-0.0530,0.001534,0.587515,-0.555301,0.556835,-0.595185,0.558369,-0.556835
4.6054,0.020140,0.000000,-1.534005,1.534005,0.0000,0.0000,0.0000,-0.002561,-1.589204,1.592272,1.0358,0.8765,-0.1065,0.001534,0.585981,-0.555301,0.556835,-0.595185,0.558369,-0.556835
4.6255,0.020079,0.000000,-1.526996,1.526996,0.0000,0.0000,0.0000,-0.002560,-1.583068,1.586136,1.0409,0.8749,-0.1009,0.001534,0.585981,-0.555301,0.556835,-0.595185,0.558369,-0.556835
4.6456,0.020079,0.000000,-1.519987,1.519987,0.0000,0.0000,0.0000,-0.002560,-1.575398,1.580000,1.0409,0.8749,-0.1009,0.001534,0.585981,-0.555301,0.556835,-0.595185,0.558369,-0.556835
4.6657,0.020110,0.000000,-1.512967,1.512967,0.0000,0.0000,0.0000,-0.002560,-1.567728,1.576932,1.0409,0.8749,-0.1009,0.001534,0.585981,-0.555301,0.556835,-0.595185,0.558369,-0.556835
4.6857,0.020080,0.000000,-1.505958,1.505958,0.0000,0.0000,0.0000,-0.002549,-1.558524,1.572330,1.0901,0.8597,-0.0474,0.001534,0.587515,-0.555301,0.556835,-0.595185,0.558369,-0.556835
4.7060,0.020283,0.000000,-1.498878,1.498878,0.0000,0.0000,0.0000,-0.002550,-1.552389,1.563126,1.0850,0.8613,-0.0530,0.001534,0.587515,-0.555301,0.556835,-0.595185,0.558369,-0.556835
4.7261,0.020099,0.000000,-1.491862,1.491862,0.0000,0.0000,0.0000,-0.002561,-1.543185,1.550855,1.0358,0.8765,-0.1065,0.001534,0.585981,-0.555301,0.556835,-0.595185,0.558369,-0.556835
4.7462,0.020081,0.000000,-1.484853,1.484853,0.0000,0.0000,0.0000,-0.002549,-1.535515,1.541651,1.0906,0.8595,-0.0468,0.001534,0.587515,-0.555301,0.556835,-0.595185,0.558369,-0.556835
4.7663,0.020123,0.000000,-1.477828,1.477828,0.0000,0.0000,0.0000,-0.002561,-1.529379,1.532447,1.0352,0.8767,-0.1071,0.001534,0.585981,-0.555301,0.556835,-0.595185,0.558369,-0.556835
4.7864,0.020081,0.000000,-1.470819,1.470819,0.0000,0.0000,0.0000,-0.002560,-1.520175,1.523243,1.0410,0.8749,-0.1008,0.001534,0.585981,-0.555301,0.556835,-0.595185,0.558369,-0.556835
4.8068,0.020368,0.000000,-1.463709,1.463709,0.0000,0.0000,0.0000,-0.002560,-1.512505,1.517107,1.0410,0.8749,-0.1008,0.001534,0.585981,-0.555301,0.556835,-0.595185,0.558369,-0.556835
4.8270,0.020223,0.000000,-1.456650,1.456650,0.0000,0.0000,0.0000,-0.002549,-1.504835,1.510971,1.0901,0.8597,-0.0474,0.001534,0.587515,-0.555301,0.556835,-0.595185,0.558369,-0.556835
4.8471,0.020078,0.000000,-1.449641,1.449641,0.0000,0.0000,0.0000,-0.002563,-1.500233,1.504835,1.1254,0.8948,-0.1054,0.001534,0.587515,-0.555301,0.556835,-0.595185,0.556835,-0.556835
4.8672,0.020110,0.000000,-1.442621,1.442621,0.0000,0.0000,0.0000,-0.002560,-1.492563,1.498699,1.0316,0.8730,-0.1010,0.001534,0.585981,-0.555301,0.556835,-0.595185,0.558369,-0.556835
4.8873,0.020076,0.000000,-1.435614,1.435614,0.0000,0.0000,0.0000,-0.002549,-1.486427,1.492563,1.0911,0.8599,-0.0474,0.001534,0.587515,-0.555301,0.556835,-0.595185,0.558369,-0.556835
4.9078,0.020546,0.000000,-1.428442,1.428442,0.0000,0.0000,0.0000,-0.002561,-1.480291,1.484893,1.0352,0.8766,-0.1071,0.001534,0.585981,-0.555301,0.556835,-0.595185,0.558369,-0.556835
4.9279,0.020115,0.000000,-1.421420,1.421420,0.0000,0.0000,0.0000,-0.002549,-1.475690,1.475690,1.0907,0.8595,-0.0468,0.001534,0.587515,-0.555301,0.556835,-0.595185,0.558369,-0.556835
4.9480,0.020089,0.000000,-1.414408,1.414408,0.0000,0.0000,0.0000,-0.002550,-1.469554,1.466486,1.0849,0.8613,-0.0530,0.001534,0.587515,-0.555301,0.556835,-0.595185,0.558369,-0.556835
4.9681,0.020083,0.000000,-1.407397,1.407397,0.0000,0.0000,0.0000,-0.002550,-1.460350,1.457282,1.0849,0.8613,-0.0530,0.001534,0.587515,-0.555301,0.556835,-0.595185,0.558369,-0.556835
4.9882,0.020081,0.000000,-1.400388,1.400388,0.0000,0.0000,0.0000,-0.002550,-1.451146,1.449612,1.0849,0.8613,-0.0530,0.001534,0.587515,-0.555301,0.556835,-0.595185,0.558369,-0.556835
5.0084,0.020228,0.000000,-1.399200,1.399200,0.0000,0.0000,0.0000,-0.002561,-1.446544,1.443476,1.0358,0.8765,-0.1065,0.001534,0.585981,-0.555301,0.556835,-0.595185,0.558369,-0.556835
5.0285,0.020081,0.000000,-1.406210,1.406210,0.0000,0.0000,0.0000,-0.002560,-1.437340,1.440408,1.0409,0.8749,-0.1009,0.001534,0.585981,-0.555301,0.556835,-0.595185,0.558369,-0.556835
5.0486,0.020085,0.000000,-1.413221,1.413221,0.0000,0.0000,0.0000,-0.002549,-1.432738,1.435806,1.0901,0.8597,-0.0474,0.001534,0.587515,-0.555301,0.556835,-0.595185,0.558369,-0.556835
5.0687,0.020081,0.000000,-1.420230,1.420230,0.0000,0.0000,0.0000,-0.002550,-1.425068,1.429670,1.0850,0.8613,-0.0530,0.001534,0.587515,-0.555301,0.556835,-0.595185,0.558369,-0.556835
5.0888,0.020090,0.000000,-1.427243,1.427243,0.0000,0.0000,0.0000,-0.002550,-1.425068,1.426602,1.0850,0.8613,-0.0530,0.001534,0.587515,-0.555301,0.556835,-0.595185,0.558369,-0.556835
5.1089,0.020124,0.000000,-1.434268,1.434268,0.0000,0.0000,0.0000,-0.002550,-1.425068,1.425068,1.0850,0.8613,-0.0530,0.001534,0.587515,-0.555301,0.556835,-0.595185,0.558369,-0.556835
5.1290,0.020083,0.000000,-1.441278,1.441278,0.0000,0.0000,0.0000,-0.002550,-1.425068,1.425068,1.0850,0.8613,-0.0530,0.001534,0.587515,-0.555301,0.556835,-0.595185,0.558369,-0.556835
5.1490,0.020079,0.000000,-1.448287,1.448287,0.0000,0.0000,0.0000,-0.002561,-1.428136,1.425068,1.0358,0.8765,-0.1065,0.001534,0.585981,-0.555301,0.556835,-0.595185,0.558369,-0.556835
5.1691,0.020076,0.000000,-1.455295,1.455295,0.0000,0.0000,0.0000,-0.002549,-1.435806,1.428136,1.0906,0.8595,-0.0468,0.001534,0.587515,-0.555301,0.556835,-0.595185,0.558369,-0.556835
5.1892,0.020077,0.000000,-1.462303,1.462303,0.0000,0.0000,0.0000,-0.002550,-1.443476,1.437340,1.0849,0.8613,-0.0530,0.001534,0.587515,-0.555301,0.556835,-0.595185,0.558369,-0.556835
5.2093,0.020119,0.000000,-1.469326,1.469326,0.0000,0.0000,0.0000,-0.002561,-1.446544,1.451146,1.0358,0.8765,-0.1065,0.001534,0.585981,-0.555301,0.556835,-0.595185,0.558369,-0.556835
5.2295,0.020211,0.000000,-1.476381,1.476381,0.0000,0.0000,0.0000,-0.002549,-1.466486,1.454214,1.0906,0.8595,-0.0468,0.001534,0.587515,-0.555301,0.556835,-0.595185,0.558369,-0.556835
5.2496,0.020075,0.000000,-1.483388,1.483388,0.0000,0.0000,0.0000,-0.002550,-1.466486,1.454214,1.0849,0.8613,-0.0530,0.001534,0.587515,-0.555301,0.556835,-0.595185,0.558369,-0.556835
5.2697,0.020076,0.000000,-1.490396,1.490396,0.0000,0.0000,0.0000,-0.002550,-1.469554,1.463418,1.0849,0.8613,-0.0530,0.001534,0.587515,-0.555301,0.556835,-0.595185,0.558369,-0.556835
5.2898,0.020086,0.000000,-1.497408,1.497408,0.0000,0.0000,0.0000,-0.002550,-1.472622,1.478757,1.0849,0.8613,-0.0530,0.001534,0.587515,-0.555301,0.556835,-0.595185,0.558369,-0.556835
5.3098,0.020075,0.000000,-1.504415,1.504415,0.0000,0.0000,0.0000,-0.002561,-1.495631,1.484893,1.0358,0.8765,-0.1065,0.001534,0.585981,-0.555301,0.556835,-0.595185,0.558369,-0.556835
5.3299,0.020097,0.000000,-1.511430,1.511430,0.0000,0.0000,0.0000,-0.002549,-1.498699,1.492563,1.0906,0.8595,-0.0468,0.001534,0.587515,-0.555301,0.556835,-0.595185,0.558369,-0.556835
5.3500,0.020095,0.000000,-1.518445,1.518445,0.0000,0.0000,0.0000,-0.002561,-1.501767,1.506369,1.0352,0.8767,-0.1071,0.001534,0.585981,-0.555301,0.556835,-0.595185,0.558369,-0.556835
5.3701,0.020062,0.000000,-1.525447,1.525447,0.0000,0.0000,0.0000,-0.002549,-1.514039,1.509437,1.0907,0.8595,-0.0468,0.001534,0.587515,-0.555301,0.556835,-0.595185,0.558369,-0.556835
5.3902,0.020089,0.000000,-1.532460,1.532460,0.0000,0.0000,0.0000,-0.002550,-1.521709,1.510971,1.0849,0.8613,-0.0530,0.001534,0.587515,-0.555301,0.556835,-0.595185,0.558369,-0.556835
5.4103,0.020079,0.000000,-1.539469,1.539469,0.0000,0.0000,0.0000,-0.002550,-1.524777,1.520175,1.0849,0.8613,-0.0530,0.001534,0.587515,-0.555301,0.556835,-0.595185,0.558369,-0.556835
5.4304,0.020107,0.000000,-1.546488,1.546488,0.0000,0.0000,0.0000,-0.002561,-1.532447,1.535515,1.0358,0.8765,-0.1065,0.001534,0.585981,-0.555301,0.556835,-0.595185,0.558369,-0.556835
5.4505,0.020126,0.000000,-1.553513,1.553513,0.0000,0.0000,0.0000,-0.002560,-1.546253,1.538583,1.0409,0.8749,-0.1009,0.001534,0.585981,-0.555301,0.556835,-0.595185,0.558369,-0.556835
5.4706,0.020083,0.000000,-1.560523,1.560523,0.0000,0.0000,0.0000,-0.002549,-1.547787,1.538583,1.0901,0.8597,-0.0474,0.001534,0.587515,-0.555301,0.556835,-0.595185,0.558369,-0.556835
5.4907,0.020087,0.000000,-1.567535,1.567535,0.0000,0.0000,0.0000,-0.002561,-1.549321,1.547787,1.0353,0.8766,-0.1071,0.001534,0.585981,-0.555301,0.556835,-0.595185,0.558369,-0.556835
5.5110,0.020368,0.000000,-1.574644,1.574644,0.0000,0.0000,0.0000,-0.002549,-1.558524,1.563126,1.0907,0.8595,-0.0468,0.001534,0.587515,-0.555301,0.556835,-0.595185,0.558369,-0.556835
5.5311,0.020104,0.000000,-1.581662,1.581662,0.0000,0.0000,0.0000,-0.002561,-1.572330,1.564660,1.0352,0.8767,-0.1071,0.001534,0.585981,-0.555301,0.556835,-0.595185,0.558369,-0.556835
5.5512,0.020092,0.000000,-1.588676,1.588676,0.0000,0.0000,0.0000,-0.002549,-1.575398,1.564660,1.0907,0.8595,-0.0468,0.001534,0.587515,-0.555301,0.556835,-0.595185,0.558369,-0.556835
5.5713,0.020085,0.000000,-1.595686,1.595686,0.0000,0.0000,0.0000,-0.002561,-1.576932,1.572330,1.0352,0.8767,-0.1071,0.001534,0.585981,-0.555301,0.556835,-0.595185,0.558369,-0.556835
5.5914,0.020097,0.000000,-1.602702,1.602702,0.0000,0.0000,0.0000,-0.002549,-1.584602,1.590738,1.0907,0.8595,-0.0468,0.001534,0.587515,-0.555301,0.556835,-0.595185,0.558369,-0.556835
5.6116,0.020175,0.000000,-1.609744,1.609744,0.0000,0.0000,0.0000,-0.002561,-1.596874,1.595340,1.0352,0.8767,-0.1071,0.001534,0.585981,-0.555301,0.556835,-0.595185,0.558369,-0.556835
5.6317,0.020104,0.000000,-1.616762,1.616762,0.0000,0.0000,0.0000,-0.002560,-1.601476,1.593806,1.0410,0.8749,-0.1008,0.001534,0.585981,-0.555301,0.556835,-0.595185,0.558369,-0.556835
5.6518,0.020087,0.000000,-1.623773,1.623773,0.0000,0.0000,0.0000,-0.002560,-1.604544,1.601476,1.0410,0.8749,-0.1008,0.001534,0.585981,-0.555301,0.556835,-0.595185,0.558369,-0.556835
5.6720,0.020265,0.000000,-1.630847,1.630847,0.0000,0.0000,0.0000,-0.002560,-1.612214,1.616816,1.0410,0.8749,-0.1008,0.001534,0.585981,-0.555301,0.556835,-0.595185,0.558369,-0.556835
5.6921,0.020091,0.000000,-1.637860,1.637860,0.0000,0.0000,0.0000,-0.002549,-1.624486,1.622952,1.0901,0.8597,-0.0474,0.001534,0.587515,-0.555301,0.556835,-0.595185,0.558369,-0.556835
5.7122,0.020080,0.000000,-1.644869,1.644869,0.0000,0.0000,0.0000,-0.002550,-1.630622,1.622952,1.0850,0.8613,-0.0530,0.001534,0.587515,-0.555301,0.556835,-0.595185,0.558369,-0.556835
5.7323,0.020101,0.000000,-1.651886,1.651886,0.0000,0.0000,0.0000,-0.002563,-1.630622,1.632156,1.1260,0.8946,-0.1049,0.001534,0.587515,-0.555301,0.556835,-0.595185,0.556835,-0.556835
5.7524,0.020089,0.000000,-1.658898,1.658898,0.0000,0.0000,0.0000,-0.002560,-1.639825,1.645961,1.0315,0.8730,-0.1011,0.001534,0.585981,-0.555301,0.556835,-0.595185,0.558369,-0.556835
5.7725,0.020084,0.000000,-1.665909,1.665909,0.0000,0.0000,0.0000,-0.002560,-1.655165,1.649029,1.0414,0.8753,-0.1015,0.001534,0.585981,-0.555301,0.556835,-0.595185,0.558369,-0.556835
5.7926,0.020087,0.000000,-1.672920,1.672920,0.0000,0.0000,0.0000,-0.002549,-1.658233,1.652097,1.0900,0.8596,-0.0473,0.001534,0.587515,-0.555301,0.556835,-0.595185,0.558369,-0.556835
5.8127,0.020088,0.000000,-1.679932,1.679932,0.0000,0.0000,0.0000,-0.002550,-1.658233,1.664369,1.0850,0.8613,-0.0530,0.001534,0.587515,-0.555301,0.556835,-0.595185,0.558369,-0.556835
5.8327,0.020096,0.000000,-1.686947,1.686947,0.0000,0.0000,0.0000,-0.002561,-1.670505,1.672039,1.0358,0.8765,-0.1065,0.001534,0.585981,-0.555301,0.556835,-0.595185,0.558369,-0.556835
5.8528,0.020089,0.000000,-1.693959,1.693959,0.0000,0.0000,0.0000,-0.002549,-1.685845,1.675107,1.0906,0.8595,-0.0468,0.001534,0.587515,-0.555301,0.556835,-0.595185,0.558369,-0.556835
5.8729,0.020094,0.000000,-1.700973,1.700973,0.0000,0.0000,0.0000,-0.002561,-1.687379,1.679709,1.0352,0.8767,-0.1071,0.001534,0.585981,-0.555301,0.556835,-0.595185,0.558369,-0.556835
5.8930,0.020087,0.000000,-1.707985,1.707985,0.0000,0.0000,0.0000,-0.002560,-1.687379,1.693515,1.0410,0.8749,-0.1887,0.000000,0.585981,-0.555301,0.556835,-0.595185,0.558369,-0.556835
5.9131,0.020086,0.000000,-1.714996,1.714996,0.0000,0.0000,0.0000,-0.002549,-1.698117,1.699651,1.0901,0.8597,-0.0474,0.001534,0.587515,-0.555301,0.556835,-0.595185,0.558369,-0.556835
5.9332,0.020095,0.000000,-1.722011,1.722011,0.0000,0.0000,0.0000,-0.002561,-1.713457,1.701185,1.0353,0.8766,-0.1071,0.001534,0.585981,-0.555301,0.556835,-0.595185,0.558369,-0.556835
5.9533,0.020085,0.000000,-1.729022,1.729022,0.0000,0.0000,0.0000,-0.002549,-1.716525,1.707321,1.0907,0.8595,-0.0468,0.001534,0.587515,-0.555301,0.556835,-0.595185,0.558369,-0.556835
5.9734,0.020083,0.000000,-1.736032,1.736032,0.0000,0.0000,0.0000,-0.002550,-1.718058,1.722660,1.0849,0.8613,-0.0530,0.001534,0.587515,-0.555301,0.556835,-0.595185,0.558369,-0.556835
5.9935,0.020091,0.000000,-1.743045,1.743045,0.0000,0.0000,0.0000,-0.002561,-1.727262,1.725728,1.0358,0.8765,-0.1065,0.001534,0.585981,-0.555301,0.556835,-0.595185,0.558369,-0.556835
6.0135,0.020084,0.000000,-1.740603,1.740603,0.0000,0.0000,0.0000,-0.002560,-1.739534,1.730330,1.0409,0.8749,-0.1009,0.001534,0.585981,-0.555301,0.556835,-0.595185,0.558369,-0.556835
6.0336,0.020093,0.000000,-1.733589,1.733589,0.0000,0.0000,0.0000,-0.002549,-1.741068,1.734932,1.0901,0.8597,-0.0474,0.001534,0.587515,-0.555301,0.556835,-0.595185,0.558369,-0.556835
6.0537,0.020084,0.000000,-1.726578,1.726578,0.0000,0.0000,0.0000,-0.002561,-1.745670,1.747204,1.0353,0.8766,-0.1071,0.001534,0.585981,-0.555301,0.556835,-0.595185,0.558369,-0.556835
6.0738,0.020084,0.000000,-1.719568,1.719568,0.0000,0.0000,0.0000,-0.002549,-1.745670,1.747204,1.0907,0.8595,-0.0468,0.001534,0.587515,-0.555301,0.556835,-0.595185,0.558369,-0.556835
6.0939,0.020090,0.000000,-1.712555,1.712555,0.0000,0.0000,0.0000,-0.002550,-1.742602,1.744136,1.0849,0.8613,-0.0530,0.001534,0.587515,-0.555301,0.556835,-0.595185,0.558369,-0.556835
6.1140,0.020082,0.000000,-1.705545,1.705545,0.0000,0.0000,0.0000,-0.002561,-1.739534,1.744136,1.0358,0.8765,-0.1065,0.001534,0.585981,-0.555301,0.556835,-0.595185,0.558369,-0.556835
6.1341,0.020080,0.000000,-1.698536,1.698536,0.0000,0.0000,0.0000,-0.002560,-1.736466,1.742602,1.0409,0.8749,-0.1009,0.001534,0.585981,-0.555301,0.556835,-0.595185,0.558369,-0.556835
6.1541,0.020080,0.000000,-1.691526,1.691526,0.0000,0.0000,0.0000,-0.002560,-1.734932,1.741068,1.0409,0.8749,-0.1009,0.001534,0.585981,-0.555301,0.556835,-0.595185,0.558369,-0.556835
6.1742,0.020084,0.000000,-1.684515,1.684515,0.0000,0.0000,0.0000,-0.002549,-1.734932,1.741068,1.0901,0.8597,-0.0474,0.001534,0.587515,-0.555301,0.556835,-0.595185,0.558369,-0.556835
6.1943,0.020088,0.000000,-1.677503,1.677503,0.0000,0.0000,0.0000,-0.002550,-1.731864,1.741068,1.0850,0.8613,-0.0530,0.001534,0.587515,-0.555301,0.556835,-0.595185,0.558369,-0.556835
6.2144,0.020087,0.000000,-1.670492,1.670492,0.0000,0.0000,0.0000,-0.002550,-1.725728,1.741068,1.0850,0.8613,-0.0530,0.001534,0.587515,-0.555301,0.556835,-0.595185,0.558369,-0.556835
6.2345,0.020078,0.000000,-1.663483,1.663483,0.0000,0.0000,0.0000,-0.002550,-1.716525,1.736466,1.0850,0.8613,-0.0530,0.001534,0.587515,-0.555301,0.556835,-0.595185,0.558369,-0.556835
6.2546,0.020085,0.000000,-1.656472,1.656472,0.0000,0.0000,0.0000,-0.002550,-1.707321,1.724194,1.0850,0.8613,-0.0530,0.001534,0.587515,-0.555301,0.556835,-0.595185,0.558369,-0.556835
6.2746,0.020080,0.000000,-1.649463,1.649463,0.0000,0.0000,0.0000,-0.002550,-1.696583,1.708855,1.0850,0.8613,-0.0530,0.001534,0.587515,-0.555301,0.556835,-0.595185,0.558369,-0.556835
6.2947,0.020083,0.000000,-1.642453,1.642453,0.0000,0.0000,0.0000,-0.002550,-1.688913,1.693515,1.0850,0.8613,-0.0530,0.001534,0.587515,-0.555301,0.556835,-0.595185,0.558369,-0.556835
6.3148,0.020082,0.000000,-1.635443,1.635443,0.0000,0.0000,0.0000,-0.002561,-1.679709,1.679709,1.0358,0.8765,-0.1065,0.001534,0.585981,-0.555301,0.556835,-0.595185,0.558369,-0.556835
6.3349,0.020072,0.000000,-1.628436,1.628436,0.0000,0.0000,0.0000,-0.002560,-1.673573,1.673573,1.0409,0.8749,-0.1009,0.001534,0.585981,-0.555301,0.556835,-0.595185,0.558369,-0.556835
6.3550,0.020087,0.000000,-1.621425,1.621425,0.0000,0.0000,0.0000,-0.002549,-1.667437,1.665903,1.0901,0.8597,-0.0474,0.001534,0.587515,-0.555301,0.556835,-0.595185,0.558369,-0.556835
6.3750,0.020076,0.000000,-1.614417,1.614417,0.0000,0.0000,0.0000,-0.002561,-1.664369,1.662835,1.0353,0.8766,-0.1071,0.001534,0.585981,-0.555301,0.556835,-0.595185,0.558369,-0.556835
6.3951,0.020087,0.000000,-1.607405,1.607405,0.0000,0.0000,0.0000,-0.002560,-1.661301,1.661301,1.0410,0.8749,-0.1008,0.001534,0.585981,-0.555301,0.556835,-0.595185,0.558369,-0.556835
6.4152,0.020080,0.000000,-1.600396,1.600396,0.0000,0.0000,0.0000,-0.002549,-1.653631,1.661301,1.0901,0.8597,-0.0474,0.001534,0.587515,-0.555301,0.556835,-0.595185,0.558369,-0.556835
6.4353,0.020076,0.000000,-1.593388,1.593388,0.0000,0.0000,0.0000,-0.002561,-1.644427,1.661301,1.0353,0.8766,-0.1071,0.001534,0.585981,-0.555301,0.556835,-0.595185,0.558369,-0.556835
6.4554,0.020090,0.000000,-1.586375,1.586375,0.0000,0.0000,0.0000,-0.002549,-1.638291,1.659767,1.0907,0.8595,-0.0468,0.001534,0.587515,-0.555301,0.556835,-0.595185,0.558369,-0.556835
6.4754,0.020079,0.000000,-1.579366,1.579366,0.0000,0.0000,0.0000,-0.002561,-1.632156,1.652097,1.0352,0.8767,-0.1071,0.001534,0.585981,-0.555301,0.556835,-0.595185,0.558369,-0.556835
6.4955,0.020088,0.000000,-1.572354,1.572354,0.0000,0.0000,0.0000,-0.002549,-1.624486,1.638291,1.0907,0.8595,-0.0468,0.001534,0.587515,-0.555301,0.556835,-0.595185,0.558369,-0.556835
6.5156,0.020080,0.000000,-1.565345,1.565345,0.0000,0.0000,0.0000,-0.002550,-1.616816,1.624486,1.0849,0.8613,-0.0530,0.001534,0.587515,-0.555301,0.556835,-0.595185,0.558369,-0.556835
6.5357,0.020076,0.000000,-1.558337,1.558337,0.0000,0.0000,0.0000,-0.002561,-1.612214,1.612214,1.0358,0.8765,-0.1065,0.001534,0.585981,-0.555301,0.556835,-0.595185,0.558369,-0.556835
