t,loop_dt,cmd_z,cmd_ant_l,cmd_ant_r,cmd_roll,cmd_pitch,cmd_yaw,pres_z,pres_ant_l,pres_ant_r,pres_roll,pres_pitch,pres_yaw,pres_j0,pres_j1,pres_j2,pres_j3,pres_j4,pres_j5,pres_j6
0.0000,0.000001,0.000000,-0.349065,0.349065,0.0000,0.0000,0.0000,-0.002652,-0.168738,0.162602,1.2142,1.0189,-0.0098,0.001534,0.582913,-0.555301,0.556835,-0.595185,0.556835,-0.549165
0.0201,0.020087,0.000000,-0.338548,0.338548,0.0000,0.0000,0.0000,-0.002638,-0.167204,0.170272,1.1691,0.9815,0.0487,0.001534,0.582913,-0.555301,0.556835,-0.595185,0.558369,-0.549165
0.0402,0.020103,0.000000,-0.328022,0.328022,0.0000,0.0000,0.0000,-0.002652,-0.176408,0.174874,1.2142,1.0189,-0.0098,0.001534,0.582913,-0.555301,0.556835,-0.595185,0.556835,-0.549165
0.0603,0.020107,0.000000,-0.317494,0.317494,0.0000,0.0000,0.0000,-0.002638,-0.179476,0.173340,1.1691,0.9815,0.0487,0.001534,0.582913,-0.555301,0.556835,-0.595185,0.558369,-0.549165
0.0804,0.020090,0.000000,-0.306975,0.306975,0.0000,0.0000,0.0000,-0.002626,-0.213223,0.200951,1.1245,0.9672,-0.0109,0.001534,0.582913,-0.555301,0.556835,-0.595185,0.558369,-0.550699
0.1005,0.020102,0.000000,-0.296449,0.296449,0.0000,0.0000,0.0000,-0.002627,-0.283786,0.276117,1.1292,0.9687,-0.0047,0.001534,0.582913,-0.555301,0.556835,-0.595185,0.558369,-0.550699
0.1206,0.020078,0.000000,-0.285936,0.285936,0.0000,0.0000,0.0000,-0.002627,-0.346680,0.340544,1.1292,0.9687,-0.0047,0.001534,0.582913,-0.555301,0.556835,-0.595185,0.558369,-0.550699
0.1407,0.020086,0.000000,-0.275419,0.275419,0.0000,0.0000,0.0000,-0.002603,-0.362019,0.357418,1.1291,0.9350,-0.0048,0.001534,0.584447,-0.555301,0.556835,-0.595185,0.558369,-0.552233
0.1607,0.020081,0.000000,-0.264905,0.264905,0.0000,0.0000,0.0000,-0.002593,-0.349748,0.346680,1.0799,0.9204,-0.0584,0.001534,0.584447,-0.555301,0.556835,-0.595185,0.558369,-0.553767
0.1808,0.020078,0.000000,-0.254392,0.254392,0.0000,0.0000,0.0000,-0.002594,-0.317534,0.320602,1.0850,0.9219,-0.0528,0.001534,0.584447,-0.555301,0.556835,-0.595185,0.558369,-0.553767
0.2009,0.020084,0.000000,-0.243877,0.243877,0.0000,0.0000,0.0000,-0.002570,-0.288388,0.297592,1.0850,0.8883,-0.0529,0.001534,0.585981,-0.555301,0.556835,-0.595185,0.558369,-0.555301
0.2210,0.020077,0.000000,-0.233364,0.233364,0.0000,0.0000,0.0000,-0.002548,-0.266913,0.274583,1.0855,0.8583,-0.0524,0.001534,0.587515,-0.555301,0.556835,-0.595185,0.558369,-0.556835
0.2411,0.020100,0.000000,-0.222840,0.222840,0.0000,0.0000,0.0000,-0.002537,-0.254641,0.260777,1.0363,0.8433,-0.1061,0.001534,0.587515,-0.555301,0.556835,-0.595185,0.558369,-0.558369
0.2612,0.020078,0.000000,-0.212327,0.212327,0.0000,0.0000,0.0000,-0.002526,-0.246971,0.248505,0.9923,0.8268,-0.1541,0.001534,0.587515,-0.555301,0.556835,-0.595185,0.558369,-0.559903
0.2812,0.020078,0.000000,-0.201814,0.201814,0.0000,0.0000,0.0000,-0.002527,-0.237767,0.242369,0.9969,0.8285,-0.1491,0.001534,0.587515,-0.555301,0.556835,-0.595185,0.558369,-0.559903
0.3013,0.020068,0.000000,-0.191306,0.191306,0.0000,0.0000,0.0000,-0.002527,-0.230097,0.234699,0.9969,0.8285,-0.1491,0.001534,0.587515,-0.555301,0.556835,-0.595185,0.558369,-0.559903
0.3214,0.020073,0.000000,-0.180796,0.180796,0.0000,0.0000,0.0000,-0.002527,-0.220893,0.225495,0.9969,0.8285,-0.1491,0.001534,0.587515,-0.555301,0.556835,-0.595185,0.558369,-0.559903
0.3414,0.020076,0.000000,-0.170284,0.170284,0.0000,0.0000,0.0000,-0.002527,-0.211689,0.217825,0.9969,0.8285,-0.1491,0.001534,0.587515,-0.555301,0.556835,-0.595185,0.558369,-0.559903
0.3615,0.020076,0.000000,-0.159773,0.159773,0.0000,0.0000,0.0000,-0.002527,-0.199418,0.207087,0.9969,0.8285,-0.1491,0.001534,0.587515,-0.555301,0.556835,-0.595185,0.558369,-0.559903
0.3816,0.020076,0.000000,-0.149261,0.149261,0.0000,0.0000,0.0000,-0.002527,-0.188680,0.196350,0.9969,0.8285,-0.1491,0.001534,0.587515,-0.555301,0.556835,-0.595185,0.558369,-0.559903
0.4017,0.020081,0.000000,-0.138747,0.138747,0.0000,0.0000,0.0000,-0.002527,-0.177942,0.184078,0.9969,0.8285,-0.1491,0.001534,0.587515,-0.555301,0.556835,-0.595185,0.558369,-0.559903
0.4218,0.020075,0.000000,-0.128235,0.128235,0.0000,0.0000,0.0000,-0.002527,-0.167204,0.170272,0.9969,0.8285,-0.1491,0.001534,0.587515,-0.555301,0.556835,-0.595185,0.558369,-0.559903
0.4418,0.020086,0.000000,-0.117718,0.117718,0.0000,0.0000,0.0000,-0.002527,-0.158000,0.161068,0.9969,0.8285,-0.1491,0.001534,0.587515,-0.555301,0.556835,-0.595185,0.558369,-0.559903
0.4619,0.020075,0.000000,-0.107207,0.107207,0.0000,0.0000,0.0000,-0.002527,-0.148796,0.148796,0.9969,0.8285,-0.1491,0.001534,0.587515,-0.555301,0.556835,-0.595185,0.558369,-0.559903
0.4820,0.020073,0.000000,-0.096696,0.096696,0.0000,0.0000,0.0000,-0.002527,-0.136524,0.136524,0.9969,0.8285,-0.1491,0.001534,0.587515,-0.555301,0.556835,-0.595185,0.558369,-0.559903
0.5021,0.020081,0.000000,-0.086182,0.086182,0.0000,0.0000,0.0000,-0.002527,-0.127320,0.127320,0.9969,0.8285,-0.1491,0.001534,0.587515,-0.555301,0.556835,-0.595185,0.558369,-0.559903
0.5222,0.020079,0.000000,-0.075668,0.075668,0.0000,0.0000,0.0000,-0.002527,-0.115049,0.116583,0.9969,0.8285,-0.1491,0.001534,0.587515,-0.555301,0.556835,-0.595185,0.558369,-0.559903
0.5422,0.020087,0.000000,-0.065151,0.065151,0.0000,0.0000,0.0000,-0.002527,-0.104311,0.107379,0.9969,0.8285,-0.1491,0.001534,0.587515,-0.555301,0.556835,-0.595185,0.558369,-0.559903
0.5623,0.020083,0.000000,-0.054635,0.054635,0.0000,0.0000,0.0000,-0.002527,-0.093573,0.096641,0.9969,0.8285,-0.1491,0.001534,0.587515,-0.555301,0.556835,-0.595185,0.558369,-0.559903
0.5824,0.020074,0.000000,-0.044125,0.044125,0.0000,0.0000,0.0000,-0.002527,-0.082835,0.085903,0.9969,0.8285,-0.1491,0.001534,0.587515,-0.555301,0.556835,-0.595185,0.558369,-0.559903
0.6025,0.020078,0.000000,-0.033612,0.033612,0.0000,0.0000,0.0000,-0.002527,-0.072097,0.075165,0.9969,0.8285,-0.1491,0.001534,0.587515,-0.555301,0.556835,-0.595185,0.558369,-0.559903
0.6225,0.020075,0.000000,-0.023101,0.023101,0.0000,0.0000,0.0000,-0.002527,-0.062893,0.062893,0.9969,0.8285,-0.1491,0.001534,0.587515,-0.555301,0.556835,-0.595185,0.558369,-0.559903
0.6426,0.020082,0.000000,-0.012586,0.012586,0.0000,0.0000,0.0000,-0.002527,-0.050621,0.053689,0.9969,0.8285,-0.1491,0.001534,0.587515,-0.555301,0.556835,-0.595185,0.558369,-0.559903
0.6627,0.020077,0.000000,-0.002074,0.002074,0.0000,0.0000,0.0000,-0.002527,-0.038350,0.042951,0.9969,0.8285,-0.1491,0.001534,0.587515,-0.555301,0.556835,-0.595185,0.558369,-0.559903
0.6828,0.020080,0.000000,-0.008440,0.008440,0.0000,0.0000,0.0000,-0.002527,-0.027612,0.032214,0.9969,0.8285,-0.1491,0.001534,0.587515,-0.555301,0.556835,-0.595185,0.558369,-0.559903
0.7029,0.020085,0.000000,-0.018956,0.018956,0.0000,0.0000,0.0000,-0.002527,-0.016874,0.021476,0.9969,0.8285,-0.1491,0.001534,0.587515,-0.555301,0.556835,-0.595185,0.558369,-0.559903
0.7229,0.020074,0.000000,-0.029467,0.029467,0.0000,0.0000,0.0000,-0.002527,-0.007670,0.010738,0.9969,0.8285,-0.1491,0.001534,0.587515,-0.555301,0.556835,-0.595185,0.558369,-0.559903
0.7430,0.020083,0.000000,-0.039982,0.039982,0.0000,0.0000,0.0000,-0.002527,0.000000,0.003068,0.9969,0.8285,-0.1491,0.001534,0.587515,-0.555301,0.556835,-0.595185,0.558369,-0.559903
0.7631,0.020078,0.000000,-0.050495,0.050495,0.0000,0.0000,0.0000,-0.002527,-0.012272,0.019942,0.9969,0.8285,-0.1491,0.001534,0.587515,-0.555301,0.556835,-0.595185,0.558369,-0.559903
0.7832,0.020077,0.000000,-0.061007,0.061007,0.0000,0.0000,0.0000,-0.002527,-0.029146,0.033748,0.9969,0.8285,-0.1491,0.001534,0.587515,-0.555301,0.556835,-0.595185,0.558369,-0.559903
0.8033,0.020079,0.000000,-0.071521,0.071521,0.0000,0.0000,0.0000,-0.002527,-0.047553,0.049087,0.9969,0.8285,-0.1491,0.001534,0.587515,-0.555301,0.556835,-0.595185,0.558369,-0.559903
0.8233,0.020072,0.000000,-0.082030,0.082030,0.0000,0.0000,0.0000,-0.002527,-0.062893,0.055223,0.9969,0.8285,-0.1491,0.001534,0.587515,-0.555301,0.556835,-0.595185,0.558369,-0.559903
0.8434,0.020082,0.000000,-0.092545,0.092545,0.0000,0.0000,0.0000,-0.002527,-0.065961,0.061359,0.9969,0.8285,-0.1491,0.001534,0.587515,-0.555301,0.556835,-0.595185,0.558369,-0.559903
0.8635,0.020081,0.000000,-0.103059,0.103059,0.0000,0.0000,0.0000,-0.002527,-0.069029,0.075165,0.9969,0.8285,-0.1491,0.001534,0.587515,-0.555301,0.556835,-0.595185,0.558369,-0.559903
0.8836,0.020080,0.000000,-0.113573,0.113573,0.0000,0.0000,0.0000,-0.002527,-0.081301,0.088971,0.9969,0.8285,-0.1491,0.001534,0.587515,-0.555301,0.556835,-0.595185,0.558369,-0.559903
0.9037,0.020081,0.000000,-0.124088,0.124088,0.0000,0.0000,0.0000,-0.002527,-0.099709,0.101243,0.9969,0.8285,-0.1491,0.001534,0.587515,-0.555301,0.556835,-0.595185,0.558369,-0.559903
0.9239,0.020198,0.000000,-0.134664,0.134664,0.0000,0.0000,0.0000,-0.002527,-0.113515,0.108913,0.9969,0.8285,-0.1491,0.001534,0.587515,-0.555301,0.556835,-0.595185,0.558369,-0.559903
0.9439,0.020084,0.000000,-0.145180,0.145180,0.0000,0.0000,0.0000,-0.002527,-0.125786,0.116583,0.9969,0.8285,-0.1491,0.001534,0.587515,-0.555301,0.556835,-0.595185,0.558369,-0.559903
0.9640,0.020075,0.000000,-0.155691,0.155691,0.0000,0.0000,0.0000,-0.002527,-0.130388,0.131922,0.9969,0.8285,-0.1491,0.001534,0.587515,-0.555301,0.556835,-0.595185,0.558369,-0.559903
0.9841,0.020077,0.000000,-0.166203,0.166203,0.0000,0.0000,0.0000,-0.002527,-0.136524,0.141126,0.9969,0.8285,-0.1491,0.001534,0.587515,-0.555301,0.556835,-0.595185,0.558369,-0.559903
1.0042,0.020084,0.000000,-0.176719,0.176719,0.0000,0.0000,0.0000,-0.002527,-0.148796,0.150330,0.9969,0.8285,-0.1491,0.001534,0.587515,-0.555301,0.556835,-0.595185,0.558369,-0.559903
1.0243,0.020118,0.000000,-0.187253,0.187253,0.0000,0.0000,0.0000,-0.002540,-0.165670,0.161068,1.0075,0.7763,-0.2031,0.001534,0.587515,-0.555301,0.555301,-0.595185,0.558369,-0.559903
1.0444,0.020081,0.000000,-0.197767,0.197767,0.0000,0.0000,0.0000,-0.002525,-0.177942,0.173340,0.9953,0.8338,-0.1440,0.001534,0.587515,-0.555301,0.556835,-0.595185,0.558369,-0.559903
1.0646,0.020242,0.000000,-0.208366,0.208366,0.0000,0.0000,0.0000,-0.002527,-0.187146,0.182544,0.9966,0.8278,-0.1502,0.001534,0.587515,-0.555301,0.556835,-0.595185,0.558369,-0.559903
1.0847,0.020082,0.000000,-0.218881,0.218881,0.0000,0.0000,0.0000,-0.002527,-0.194816,0.191748,0.9966,0.8278,-0.1502,0.001534,0.587515,-0.555301,0.556835,-0.595185,0.558369,-0.559903
1.1048,0.020093,0.000000,-0.229401,0.229401,0.0000,0.0000,0.0000,-0.002527,-0.204019,0.202485,0.9966,0.8278,-0.1502,0.001534,0.587515,-0.555301,0.556835,-0.595185,0.558369,-0.559903
1.1249,0.020086,0.000000,-0.239918,0.239918,0.0000,0.0000,0.0000,-0.002527,-0.213223,0.211689,0.9966,0.8278,-0.1502,0.001534,0.587515,-0.555301,0.556835,-0.595185,0.558369,-0.559903
1.1450,0.020081,0.000000,-0.250433,0.250433,0.0000,0.0000,0.0000,-0.002527,-0.223961,0.220893,0.9966,0.8278,-0.1502,0.001534,0.587515,-0.555301,0.556835,-0.595185,0.558369,-0.559903
1.1650,0.020088,0.000000,-0.260951,0.260951,0.0000,0.0000,0.0000,-0.002527,-0.234699,0.234699,0.9966,0.8278,-0.1502,0.001534,0.587515,-0.555301,0.556835,-0.595185,0.558369,-0.559903
1.1851,0.020074,0.000000,-0.271462,0.271462,0.0000,0.0000,0.0000,-0.002527,-0.248505,0.246971,0.9966,0.8278,-0.1502,0.001534,0.587515,-0.555301,0.556835,-0.595185,0.558369,-0.559903
1.2053,0.020162,0.000000,-0.282019,0.282019,0.0000,0.0000,0.0000,-0.002527,-0.256175,0.254641,0.9966,0.8278,-0.1502,0.001534,0.587515,-0.555301,0.556835,-0.595185,0.558369,-0.559903
1.2254,0.020082,0.000000,-0.292534,0.292534,0.0000,0.0000,0.0000,-0.002527,-0.265379,0.265379,0.9966,0.8278,-0.1502,0.001534,0.587515,-0.555301,0.556835,-0.595185,0.558369,-0.559903
1.2454,0.020077,0.000000,-0.303046,0.303046,0.0000,0.0000,0.0000,-0.002527,-0.277651,0.277651,0.9966,0.8278,-0.1502,0.001534,0.587515,-0.555301,0.556835,-0.595185,0.558369,-0.559903
1.2655,0.020089,0.000000,-0.313564,0.313564,0.0000,0.0000,0.0000,-0.002527,-0.288388,0.286854,0.9966,0.8278,-0.1502,0.001534,0.587515,-0.555301,0.556835,-0.595185,0.558369,-0.559903
1.2856,0.020075,0.000000,-0.324076,0.324076,0.0000,0.0000,0.0000,-0.002527,-0.300660,0.296058,0.9966,0.8278,-0.1502,0.001534,0.587515,-0.555301,0.556835,-0.595185,0.558369,-0.559903
1.3057,0.020088,0.000000,-0.334593,0.334593,0.0000,0.0000,0.0000,-0.002527,-0.309864,0.305262,0.9966,0.8278,-0.1502,0.001534,0.587515,-0.555301,0.556835,-0.595185,0.558369,-0.559903
1.3258,0.020083,0.000000,-0.345109,0.345109,0.0000,0.0000,0.0000,-0.002527,-0.319068,0.320602,0.9966,0.8278,-0.1502,0.001534,0.587515,-0.555301,0.556835,-0.595185,0.558369,-0.559903
1.3459,0.020076,0.000000,-0.342511,0.342511,0.0000,0.0000,0.0000,-0.002527,-0.331340,0.329806,0.9966,0.8278,-0.1502,0.001534,0.587515,-0.555301,0.556835,-0.595185,0.558369,-0.559903
1.3659,0.020092,0.000000,-0.331991,0.331991,0.0000,0.0000,0.0000,-0.002527,-0.345146,0.340544,0.9966,0.8278,-0.1502,0.001534,0.587515,-0.555301,0.556835,-0.595185,0.558369,-0.559903
1.3860,0.020073,0.000000,-0.321481,0.321481,0.0000,0.0000,0.0000,-0.002527,-0.348214,0.345146,0.9966,0.8278,-0.1502,0.001534,0.587515,-0.555301,0.556835,-0.595185,0.558369,-0.559903
1.4061,0.020086,0.000000,-0.310964,0.310964,0.0000,0.0000,0.0000,-0.002527,-0.346680,0.343612,0.9966,0.8278,-0.1502,0.001534,0.587515,-0.555301,0.556835,-0.595185,0.558369,-0.559903
1.4262,0.020084,0.000000,-0.300448,0.300448,0.0000,0.0000,0.0000,-0.002527,-0.339010,0.334408,0.9966,0.8278,-0.1502,0.001534,0.587515,-0.555301,0.556835,-0.595185,0.558369,-0.559903
1.4463,0.020080,0.000000,-0.289933,0.289933,0.0000,0.0000,0.0000,-0.002527,-0.332874,0.329806,0.9966,0.8278,-0.1502,0.001534,0.587515,-0.555301,0.556835,-0.595185,0.558369,-0.559903
1.4664,0.020165,0.000000,-0.279375,0.279375,0.0000,0.0000,0.0000,-0.002527,-0.322136,0.322136,0.9966,0.8278,-0.1502,0.001534,0.587515,-0.555301,0.556835,-0.595185,0.558369,-0.559903
1.4865,0.020082,0.000000,-0.268860,0.268860,0.0000,0.0000,0.0000,-0.002527,-0.308330,0.309864,0.9966,0.8278,-0.1502,0.001534,0.587515,-0.555301,0.556835,-0.595185,0.558369,-0.559903
1.5066,0.020089,0.000000,-0.258341,0.258341,0.0000,0.0000,0.0000,-0.002527,-0.297592,0.302194,0.9966,0.8278,-0.1502,0.001534,0.587515,-0.555301,0.556835,-0.595185,0.558369,-0.559903
1.5267,0.020084,0.000000,-0.247825,0.247825,0.0000,0.0000,0.0000,-0.002527,-0.288388,0.294524,0.9966,0.8278,-0.1502,0.001534,0.587515,-0.555301,0.556835,-0.595185,0.558369,-0.559903
1.5468,0.020076,0.000000,-0.237314,0.237314,0.0000,0.0000,0.0000,-0.002527,-0.280718,0.285320,0.9966,0.8278,-0.1502,0.001534,0.587515,-0.555301,0.556835,-0.595185,0.558369,-0.559903
1.5669,0.020087,0.000000,-0.226796,0.226796,0.0000,0.0000,0.0000,-0.002527,-0.271515,0.274583,0.9966,0.8278,-0.1502,0.001534,0.587515,-0.555301,0.556835,-0.595185,0.558369,-0.559903
1.5869,0.020073,0.000000,-0.216286,0.216286,0.0000,0.0000,0.0000,-0.002527,-0.259243,0.262311,0.9966,0.8278,-0.1502,0.001534,0.587515,-0.555301,0.556835,-0.595185,0.558369,-0.559903
1.6070,0.020086,0.000000,-0.205769,0.205769,0.0000,0.0000,0.0000,-0.002527,-0.245437,0.248505,0.9966,0.8278,-0.1502,0.001534,0.587515,-0.555301,0.556835,-0.595185,0.558369,-0.559903
1.6272,0.020193,0.000000,-0.195196,0.195196,0.0000,0.0000,0.0000,-0.002527,-0.231631,0.236233,0.9966,0.8278,-0.2381,0.000000,0.587515,-0.555301,0.556835,-0.595185,0.558369,-0.559903
1.6473,0.020075,0.000000,-0.184685,0.184685,0.0000,0.0000,0.0000,-0.002527,-0.219359,0.227029,0.9966,0.8278,-0.1502,0.001534,0.587515,-0.555301,0.556835,-0.595185,0.558369,-0.559903
1.6674,0.020077,0.000000,-0.174172,0.174172,0.0000,0.0000,0.0000,-0.002527,-0.207087,0.217825,0.9966,0.8278,-0.1502,0.001534,0.587515,-0.555301,0.556835,-0.595185,0.558369,-0.559903
1.6874,0.020073,0.000000,-0.163662,0.163662,0.0000,0.0000,0.0000,-0.002527,-0.196350,0.207087,0.9966,0.8278,-0.1502,0.001534,0.587515,-0.555301,0.556835,-0.595185,0.558369,-0.559903
1.7075,0.020085,0.000000,-0.153146,0.153146,0.0000,0.0000,0.0000,-0.002527,-0.187146,0.196350,0.9966,0.8278,-0.1502,0.001534,0.587515,-0.555301,0.556835,-0.595185,0.558369,-0.559903
1.7276,0.020078,0.000000,-0.142633,0.142633,0.0000,0.0000,0.0000,-0.002527,-0.176408,0.184078,0.9966,0.8278,-0.1502,0.001534,0.587515,-0.555301,0.556835,-0.595185,0.558369,-0.559903
1.7477,0.020060,0.000000,-0.132129,0.132129,0.0000,0.0000,0.0000,-0.002527,-0.167204,0.170272,0.9966,0.8278,-0.1502,0.001534,0.587515,-0.555301,0.556835,-0.595185,0.558369,-0.559903
1.7686,0.020976,0.000000,-0.121146,0.121146,0.0000,0.0000,0.0000,-0.002527,-0.154932,0.158000,0.9966,0.8278,-0.1502,0.001534,0.587515,-0.555301,0.556835,-0.595185,0.558369,-0.559903
1.7887,0.020077,0.000000,-0.110634,0.110634,0.0000,0.0000,0.0000,-0.002527,-0.144194,0.145728,0.9966,0.8278,-0.1502,0.001534,0.587515,-0.555301,0.556835,-0.595185,0.558369,-0.559903
1.8088,0.020081,0.000000,-0.100120,0.100120,0.0000,0.0000,0.0000,-0.002527,-0.134990,0.134990,0.9966,0.8278,-0.1502,0.001534,0.587515,-0.555301,0.556835,-0.595185,0.558369,-0.559903
1.8289,0.020074,0.000000,-0.089609,0.089609,0.0000,0.0000,0.0000,-0.002527,-0.122718,0.122718,0.9966,0.8278,-0.1502,0.001534,0.587515,-0.555301,0.556835,-0.595185,0.558369,-0.559903
1.8489,0.020076,0.000000,-0.079097,0.079097,0.0000,0.0000,0.0000,-0.002527,-0.111981,0.113515,0.9966,0.8278,-0.1502,0.001534,0.587515,-0.555301,0.556835,-0.595185,0.558369,-0.559903
1.8692,0.020251,0.000000,-0.068494,0.068494,0.0000,0.0000,0.0000,-0.002527,-0.101243,0.102777,0.9966,0.8278,-0.1502,0.001534,0.587515,-0.555301,0.556835,-0.595185,0.558369,-0.559903
1.8893,0.020074,0.000000,-0.057984,0.057984,0.0000,0.0000,0.0000,-0.002527,-0.090505,0.092039,0.9966,0.8278,-0.1502,0.001534,0.587515,-0.555301,0.556835,-0.595185,0.558369,-0.559903
1.9093,0.020081,0.000000,-0.047469,0.047469,0.0000,0.0000,0.0000,-0.002527,-0.078233,0.081301,0.9966,0.8278,-0.1502,0.001534,0.587515,-0.555301,0.556835,-0.595185,0.558369,-0.559903
1.9294,0.020074,0.000000,-0.036958,0.036958,0.0000,0.0000,0.0000,-0.002527,-0.065961,0.070563,0.9966,0.8278,-0.1502,0.001534,0.587515,-0.555301,0.556835,-0.595185,0.558369,-0.559903
1.9495,0.020076,0.000000,-0.026446,0.026446,0.0000,0.0000,0.0000,-0.002527,-0.056757,0.059825,0.9966,0.8278,-0.1502,0.001534,0.587515,-0.555301,0.556835,-0.595185,0.558369,-0.559903
1.9696,0.020078,0.000000,-0.015934,0.015934,0.0000,0.0000,0.0000,-0.002527,-0.047553,0.049087,0.9966,0.8278,-0.1502,0.001534,0.587515,-0.555301,0.556835,-0.595185,0.558369,-0.559903
1.9896,0.020075,0.000000,-0.005423,0.005423,0.0000,0.0000,0.0000,-0.002527,-0.033748,0.038350,0.9966,0.8278,-0.1502,0.001534,0.587515,-0.555301,0.556835,-0.595185,0.558369,-0.559903
2.0097,0.020083,0.000000,-0.005093,0.005093,0.0000,0.0000,0.0000,-0.002527,-0.026078,0.029146,0.9966,0.8278,-0.1502,0.001534,0.587515,-0.555301,0.556835,-0.595185,0.558369,-0.559903
2.0298,0.020071,0.000000,-0.015602,0.015602,0.0000,0.0000,0.0000,-0.002527,-0.015340,0.019942,0.9966,0.8278,-0.1502,0.001534,0.587515,-0.555301,0.556835,-0.595185,0.558369,-0.559903
2.0499,0.020078,0.000000,-0.026115,0.026115,0.0000,0.0000,0.0000,-0.002527,-0.006136,0.009204,0.9966,0.8278,-0.1502,0.001534,0.587515,-0.555301,0.556835,-0.595185,0.558369,-0.559903
2.0700,0.020082,0.000000,-0.036629,0.036629,0.0000,0.0000,0.0000,-0.002527,0.000000,0.001534,0.9966,0.8278,-0.1502,0.001534,0.587515,-0.555301,0.556835,-0.595185,0.558369,-0.559903
2.0900,0.020074,0.000000,-0.047140,0.047140,0.0000,0.0000,0.0000,-0.002527,-0.003068,0.007670,0.9966,0.8278,-0.1502,0.001534,0.587515,-0.555301,0.556835,-0.595185,0.558369,-0.559903
2.1101,0.020074,0.000000,-0.057651,0.057651,0.0000,0.0000,0.0000,-0.002527,-0.018408,0.023010,0.9966,0.8278,-0.1502,0.001534,0.587515,-0.555301,0.556835,-0.595185,0.558369,-0.559903
2.1302,0.020078,0.000000,-0.068164,0.068164,0.0000,0.0000,0.0000,-0.002527,-0.035282,0.038350,0.9966,0.8278,-0.1502,0.001534,0.587515,-0.555301,0.556835,-0.595185,0.558369,-0.559903
2.1503,0.020085,0.000000,-0.078680,0.078680,0.0000,0.0000,0.0000,-0.002527,-0.052155,0.049087,0.9966,0.8278,-0.1502,0.001534,0.587515,-0.555301,0.556835,-0.595185,0.558369,-0.559903
2.1704,0.020082,0.000000,-0.089195,0.089195,0.0000,0.0000,0.0000,-0.002527,-0.062893,0.055223,0.9966,0.8278,-0.1502,0.001534,0.587515,-0.555301,0.556835,-0.595185,0.558369,-0.559903
2.1904,0.020073,0.000000,-0.099705,0.099705,0.0000,0.0000,0.0000,-0.002527,-0.065961,0.062893,0.9966,0.8278,-0.1502,0.001534,0.587515,-0.555301,0.556835,-0.595185,0.558369,-0.559903
2.2117,0.021251,0.000000,-0.110832,0.110832,0.0000,0.0000,0.0000,-0.002527,-0.072097,0.076699,0.9966,0.8278,-0.1502,0.001534,0.587515,-0.555301,0.556835,-0.595185,0.558369,-0.559903
2.2318,0.020087,0.000000,-0.121350,0.121350,0.0000,0.0000,0.0000,-0.002527,-0.087437,0.090505,0.9966,0.8278,-0.1502,0.001534,0.587515,-0.555301,0.556835,-0.595185,0.558369,-0.559903
2.2518,0.020076,0.000000,-0.131861,0.131861,0.0000,0.0000,0.0000,-0.002527,-0.104311,0.099709,0.9966,0.8278,-0.1502,0.001534,0.587515,-0.555301,0.556835,-0.595185,0.558369,-0.559903
2.2719,0.020084,0.000000,-0.142378,0.142378,0.0000,0.0000,0.0000,-0.002527,-0.115049,0.105845,0.9966,0.8278,-0.1502,0.001534,0.587515,-0.555301,0.556835,-0.595185,0.558369,-0.559903
2.2920,0.020081,0.000000,-0.152892,0.152892,0.0000,0.0000,0.0000,-0.002527,-0.124252,0.111981,0.9966,0.8278,-0.1502,0.001534,0.587515,-0.555301,0.556835,-0.595185,0.558369,-0.559903
2.3121,0.020075,0.000000,-0.163403,0.163403,0.0000,0.0000,0.0000,-0.002527,-0.136524,0.131922,0.9966,0.8278,-0.1502,0.001534,0.587515,-0.555301,0.556835,-0.595185,0.558369,-0.559903
2.3322,0.020090,0.000000,-0.173922,0.173922,0.0000,0.0000,0.0000,-0.002527,-0.144194,0.145728,0.9966,0.8278,-0.1502,0.001534,0.587515,-0.555301,0.556835,-0.595185,0.558369,-0.559903
2.3522,0.020075,0.000000,-0.184433,0.184433,0.0000,0.0000,0.0000,-0.002527,-0.151864,0.153398,0.9966,0.8278,-0.1502,0.001534,0.587515,-0.555301,0.556835,-0.595185,0.558369,-0.559903
2.3723,0.020086,0.000000,-0.194950,0.194950,0.0000,0.0000,0.0000,-0.002527,-0.164136,0.158000,0.9966,0.8278,-0.1502,0.001534,0.587515,-0.555301,0.556835,-0.595185,0.558369,-0.559903
2.3924,0.020076,0.000000,-0.205462,0.205462,0.0000,0.0000,0.0000,-0.002527,-0.179476,0.165670,0.9966,0.8278,-0.1502,0.001534,0.587515,-0.555301,0.556835,-0.595185,0.558369,-0.559903
2.4125,0.020074,0.000000,-0.215972,0.215972,0.0000,0.0000,0.0000,-0.002527,-0.190214,0.184078,0.9966,0.8278,-0.1502,0.001534,0.587515,-0.555301,0.556835,-0.595185,0.558369,-0.559903
2.4326,0.020091,0.000000,-0.226492,0.226492,0.0000,0.0000,0.0000,-0.002527,-0.196350,0.197884,0.9966,0.8278,-0.1502,0.001534,0.587515,-0.555301,0.556835,-0.595185,0.558369,-0.559903
2.4526,0.020074,0.000000,-0.237003,0.237003,0.0000,0.0000,0.0000,-0.002527,-0.204019,0.207087,0.9966,0.8278,-0.1502,0.001534,0.587515,-0.555301,0.556835,-0.595185,0.558369,-0.559903
2.4727,0.020084,0.000000,-0.247518,0.247518,0.0000,0.0000,0.0000,-0.002527,-0.219359,0.211689,0.9966,0.8278,-0.1502,0.001534,0.587515,-0.555301,0.556835,-0.595185,0.558369,-0.559903
2.4928,0.020088,0.000000,-0.258036,0.258036,0.0000,0.0000,0.0000,-0.002527,-0.230097,0.219359,0.9966,0.8278,-0.1502,0.001534,0.587515,-0.555301,0.556835,-0.595185,0.558369,-0.559903
2.5129,0.020077,0.000000,-0.268549,0.268549,0.0000,0.0000,0.0000,-0.002527,-0.239301,0.236233,0.9966,0.8278,-0.1502,0.001534,0.587515,-0.555301,0.556835,-0.595185,0.558369,-0.559903
2.5330,0.020093,0.000000,-0.279069,0.279069,0.0000,0.0000,0.0000,-0.002527,-0.250039,0.250039,0.9966,0.8278,-0.1502,0.001534,0.587515,-0.555301,0.556835,-0.595185,0.558369,-0.559903
2.5531,0.020075,0.000000,-0.289580,0.289580,0.0000,0.0000,0.0000,-0.002527,-0.259243,0.259243,0.9966,0.8278,-0.1502,0.001534,0.587515,-0.555301,0.556835,-0.595185,0.558369,-0.559903
2.5733,0.020226,0.000000,-0.300171,0.300171,0.0000,0.0000,0.0000,-0.002527,-0.269981,0.266913,0.9966,0.8278,-0.1502,0.001534,0.587515,-0.555301,0.556835,-0.595185,0.558369,-0.559903
2.5934,0.020075,0.000000,-0.310682,0.310682,0.0000,0.0000,0.0000,-0.002527,-0.282252,0.277651,0.9966,0.8278,-0.1502,0.001534,0.587515,-0.555301,0.556835,-0.595185,0.558369,-0.559903
2.6134,0.020075,0.000000,-0.321193,0.321193,0.0000,0.0000,0.0000,-0.002527,-0.291456,0.291456,0.9966,0.8278,-0.1502,0.001534,0.587515,-0.555301,0.556835,-0.595185,0.558369,-0.559903
2.6336,0.020163,0.000000,-0.331750,0.331750,0.0000,0.0000,0.0000,-0.002527,-0.302194,0.300660,0.9966,0.8278,-0.1502,0.001534,0.587515,-0.555301,0.556835,-0.595185,0.558369,-0.559903
2.6537,0.020077,0.000000,-0.342263,0.342263,0.0000,0.0000,0.0000,-0.002527,-0.314466,0.309864,0.9966,0.8278,-0.1502,0.001534,0.587515,-0.555301,0.556835,-0.595185,0.558369,-0.559903
2.6738,0.020111,0.000000,-0.345339,0.345339,0.0000,0.0000,0.0000,-0.002527,-0.326738,0.323670,0.9966,0.8278,-0.1502,0.001534,0.587515,-0.555301,0.556835,-0.595185,0.558369,-0.559903
2.6939,0.020083,0.000000,-0.334823,0.334823,0.0000,0.0000,0.0000,-0.002527,-0.335942,0.332874,0.9966,0.8278,-0.1502,0.001534,0.587515,-0.555301,0.556835,-0.595185,0.558369,-0.559903
2.7139,0.020081,0.000000,-0.324308,0.324308,0.0000,0.0000,0.0000,-0.002527,-0.343612,0.342078,0.9966,0.8278,-0.1502,0.001534,0.587515,-0.555301,0.556835,-0.595185,0.558369,-0.559903
2.7340,0.020092,0.000000,-0.313788,0.313788,0.0000,0.0000,0.0000,-0.002527,-0.349748,0.345146,0.9966,0.8278,-0.1502,0.001534,0.587515,-0.555301,0.556835,-0.595185,0.558369,-0.559903
2.7541,0.020080,0.000000,-0.303274,0.303274,0.0000,0.0000,0.0000,-0.002527,-0.348214,0.342078,0.9966,0.8278,-0.1502,0.001534,0.587515,-0.555301,0.556835,-0.595185,0.558369,-0.559903
2.7751,0.021021,0.000000,-0.292268,0.292268,0.0000,0.0000,0.0000,-0.002527,-0.339010,0.334408,0.9966,0.8278,-0.1502,0.001534,0.587515,-0.555301,0.556835,-0.595185,0.558369,-0.559903
2.7952,0.020073,0.000000,-0.281757,0.281757,0.0000,0.0000,0.0000,-0.002527,-0.328272,0.328272,0.9966,0.8278,-0.1502,0.001534,0.587515,-0.555301,0.556835,-0.595185,0.558369,-0.559903
2.8153,0.020075,0.000000,-0.271246,0.271246,0.0000,0.0000,0.0000,-0.002527,-0.317534,0.319068,0.9966,0.8278,-0.1502,0.001534,0.587515,-0.555301,0.556835,-0.595185,0.558369,-0.559903
2.8354,0.020081,0.000000,-0.260732,0.260732,0.0000,0.0000,0.0000,-0.002527,-0.305262,0.308330,0.9966,0.8278,-0.1502,0.001534,0.587515,-0.555301,0.556835,-0.595185,0.558369,-0.559903
2.8554,0.020074,0.000000,-0.250221,0.250221,0.0000,0.0000,0.0000,-0.002527,-0.292990,0.299126,0.9966,0.8278,-0.1502,0.001534,0.587515,-0.555301,0.556835,-0.595185,0.558369,-0.559903
2.8758,0.020337,0.000000,-0.239573,0.239573,0.0000,0.0000,0.0000,-0.002527,-0.280718,0.286854,0.9966,0.8278,-0.1502,0.001534,0.587515,-0.555301,0.556835,-0.595185,0.558369,-0.559903
2.8959,0.020079,0.000000,-0.229059,0.229059,0.0000,0.0000,0.0000,-0.002527,-0.269981,0.276117,0.9966,0.8278,-0.1502,0.001534,0.587515,-0.555301,0.556835,-0.595185,0.558369,-0.559903
2.9159,0.020080,0.000000,-0.218545,0.218545,0.0000,0.0000,0.0000,-0.002527,-0.259243,0.265379,0.9966,0.8278,-0.1502,0.001534,0.587515,-0.555301,0.556835,-0.595185,0.558369,-0.559903
2.9360,0.020084,0.000000,-0.208029,0.208029,0.0000,0.0000,0.0000,-0.002527,-0.251573,0.253107,0.9966,0.8278,-0.1502,0.001534,0.587515,-0.555301,0.556835,-0.595185,0.558369,-0.559903
2.9561,0.020079,0.000000,-0.197516,0.197516,0.0000,0.0000,0.0000,-0.002540,-0.240835,0.243903,1.0076,0.7764,-0.2030,0.001534,0.587515,-0.555301,0.555301,-0.595185,0.558369,-0.559903
2.9762,0.020096,0.000000,-0.186994,0.186994,0.0000,0.0000,0.0000,-0.002525,-0.228563,0.233165,0.9953,0.8338,-0.2319,0.000000,0.587515,-0.555301,0.556835,-0.595185,0.558369,-0.559903
2.9963,0.020076,0.000000,-0.176482,0.176482,0.0000,0.0000,0.0000,-0.002527,-0.216291,0.223961,0.9966,0.8278,-0.1502,0.001534,0.587515,-0.555301,0.556835,-0.595185,0.558369,-0.559903
3.0164,0.020084,0.000000,-0.165967,0.165967,0.0000,0.0000,0.0000,-0.002527,-0.204019,0.213223,0.9966,0.8278,-0.1502,0.001534,0.587515,-0.555301,0.556835,-0.595185,0.558369,-0.559903
3.0365,0.020094,0.000000,-0.155445,0.155445,0.0000,0.0000,0.0000,-0.002527,-0.193282,0.204019,0.9966,0.8278,-0.1502,0.001534,0.587515,-0.555301,0.556835,-0.595185,0.558369,-0.559903
3.0565,0.020089,0.000000,-0.144927,0.144927,0.0000,0.0000,0.0000,-0.002527,-0.182544,0.190214,0.9966,0.8278,-0.1502,0.001534,0.587515,-0.555301,0.556835,-0.595185,0.558369,-0.559903
3.0766,0.020091,0.000000,-0.134407,0.134407,0.0000,0.0000,0.0000,-0.002527,-0.173340,0.179476,0.9966,0.8278,-0.1502,0.001534,0.587515,-0.555301,0.556835,-0.595185,0.558369,-0.559903
3.0967,0.020079,0.000000,-0.123893,0.123893,0.0000,0.0000,0.0000,-0.002527,-0.162602,0.167204,0.9966,0.8278,-0.1502,0.001534,0.587515,-0.555301,0.556835,-0.595185,0.558369,-0.559903
3.1170,0.020261,0.000000,-0.113285,0.113285,0.0000,0.0000,0.0000,-0.002527,-0.151864,0.154932,0.9966,0.8278,-0.1502,0.001534,0.587515,-0.555301,0.556835,-0.595185,0.558369,-0.559903
3.1370,0.020036,0.000000,-0.102794,0.102794,0.0000,0.0000,0.0000,-0.002527,-0.141126,0.142660,0.9966,0.8278,-0.1502,0.001534,0.587515,-0.555301,0.556835,-0.595185,0.558369,-0.559903
3.1571,0.020087,0.000000,-0.092276,0.092276,0.0000,0.0000,0.0000,-0.002527,-0.130388,0.131922,0.9966,0.8278,-0.1502,0.001534,0.587515,-0.555301,0.556835,-0.595185,0.558369,-0.559903
3.1772,0.020083,0.000000,-0.081761,0.081761,0.0000,0.0000,0.0000,-0.002527,-0.118117,0.119651,0.9966,0.8278,-0.1502,0.001534,0.587515,-0.555301,0.556835,-0.595185,0.558369,-0.559903
3.1973,0.020092,0.000000,-0.071241,0.071241,0.0000,0.0000,0.0000,-0.002527,-0.107379,0.108913,0.9966,0.8278,-0.1502,0.001534,0.587515,-0.555301,0.556835,-0.595185,0.558369,-0.559903
3.2174,0.020088,0.000000,-0.060723,0.060723,0.0000,0.0000,0.0000,-0.002527,-0.096641,0.101243,0.9966,0.8278,-0.1502,0.001534,0.587515,-0.555301,0.556835,-0.595185,0.558369,-0.559903
3.2376,0.020284,0.000000,-0.050102,0.050102,0.0000,0.0000,0.0000,-0.002527,-0.087437,0.088971,0.9966,0.8278,-0.1502,0.001534,0.587515,-0.555301,0.556835,-0.595185,0.558369,-0.559903
3.2577,0.020078,0.000000,-0.039589,0.039589,0.0000,0.0000,0.0000,-0.002527,-0.078233,0.079767,0.9966,0.8278,-0.1502,0.001534,0.587515,-0.555301,0.556835,-0.595185,0.558369,-0.559903
3.2780,0.020265,0.000000,-0.028979,0.028979,0.0000,0.0000,0.0000,-0.002527,-0.065961,0.069029,0.9966,0.8278,-0.1502,0.001534,0.587515,-0.555301,0.556835,-0.595185,0.558369,-0.559903
3.2981,0.020081,0.000000,-0.018464,0.018464,0.0000,0.0000,0.0000,-0.002527,-0.056757,0.058291,0.9966,0.8278,-0.1502,0.001534,0.587515,-0.555301,0.556835,-0.595185,0.558369,-0.559903
3.3181,0.020079,0.000000,-0.007951,0.007951,0.0000,0.0000,0.0000,-0.002527,-0.044485,0.049087,0.9966,0.8278,-0.1502,0.001534,0.587515,-0.555301,0.556835,-0.595185,0.558369,-0.559903
3.3383,0.020128,0.000000,-0.002588,0.002588,0.0000,0.0000,0.0000,-0.002527,-0.032214,0.038350,0.9966,0.8278,-0.1502,0.001534,0.587515,-0.555301,0.556835,-0.595185,0.558369,-0.559903
3.3584,0.020081,0.000000,-0.013102,0.013102,0.0000,0.0000,0.0000,-0.002527,-0.021476,0.027612,0.9966,0.8278,-0.1502,0.001534,0.587515,-0.555301,0.556835,-0.595185,0.558369,-0.559903
3.3785,0.020181,0.000000,-0.023669,0.023669,0.0000,0.0000,0.0000,-0.002527,-0.013806,0.016874,0.9966,0.8278,-0.1502,0.001534,0.587515,-0.555301,0.556835,-0.595185,0.558369,-0.559903
3.3986,0.020093,0.000000,-0.034190,0.034190,0.0000,0.0000,0.0000,-0.002527,-0.006136,0.006136,0.9966,0.8278,-0.1502,0.001534,0.587515,-0.555301,0.556835,-0.595185,0.558369,-0.559903
3.4187,0.020080,0.000000,-0.044704,0.044704,0.0000,0.0000,0.0000,-0.002527,0.000000,0.001534,0.9966,0.8278,-0.1502,0.001534,0.587515,-0.555301,0.556835,-0.595185,0.558369,-0.559903
3.4388,0.020118,0.000000,-0.055237,0.055237,0.0000,0.0000,0.0000,-0.002527,-0.001534,0.007670,0.9966,0.8278,-0.1502,0.001534,0.587515,-0.555301,0.556835,-0.595185,0.558369,-0.559903
3.4589,0.020081,0.000000,-0.065752,0.065752,0.0000,0.0000,0.0000,-0.002527,-0.015340,0.024544,0.9966,0.8278,-0.1502,0.001534,0.587515,-0.555301,0.556835,-0.595185,0.558369,-0.559903
3.4790,0.020089,0.000000,-0.076270,0.076270,0.0000,0.0000,0.0000,-0.002527,-0.033748,0.039884,0.9966,0.8278,-0.1502,0.001534,0.587515,-0.555301,0.556835,-0.595185,0.558369,-0.559903
3.4991,0.020085,0.000000,-0.086787,0.086787,0.0000,0.0000,0.0000,-0.002527,-0.067495,0.061359,0.9966,0.8278,-0.1502,0.001534,0.587515,-0.555301,0.556835,-0.595185,0.558369,-0.559903
3.5192,0.020080,0.000000,-0.097301,0.097301,0.0000,0.0000,0.0000,-0.002527,-0.067495,0.069029,0.9966,0.8278,-0.1502,0.001534,0.587515,-0.555301,0.556835,-0.595185,0.558369,-0.559903
3.5393,0.020105,0.000000,-0.107828,0.107828,0.0000,0.0000,0.0000,-0.002527,-0.067495,0.069029,0.9966,0.8278,-0.1502,0.001534,0.587515,-0.555301,0.556835,-0.595185,0.558369,-0.559903
3.5594,0.020086,0.000000,-0.118345,0.118345,0.0000,0.0000,0.0000,-0.002527,-0.087437,0.093573,0.9966,0.8278,-0.1502,0.001534,0.587515,-0.555301,0.556835,-0.595185,0.558369,-0.559903
3.5794,0.020079,0.000000,-0.128858,0.128858,0.0000,0.0000,0.0000,-0.002527,-0.105845,0.102777,0.9966,0.8278,-0.1502,0.001534,0.587515,-0.555301,0.556835,-0.595185,0.558369,-0.559903
3.5995,0.020101,0.000000,-0.139383,0.139383,0.0000,0.0000,0.0000,-0.002527,-0.119651,0.113515,0.9966,0.8278,-0.1502,0.001534,0.587515,-0.555301,0.556835,-0.595185,0.558369,-0.559903
3.6196,0.020103,0.000000,-0.149909,0.149909,0.0000,0.0000,0.0000,-0.002527,-0.130388,0.124252,0.9966,0.8278,-0.1502,0.001534,0.587515,-0.555301,0.556835,-0.595185,0.558369,-0.559903
3.6398,0.020158,0.000000,-0.160464,0.160464,0.0000,0.0000,0.0000,-0.002527,-0.138058,0.136524,0.9966,0.8278,-0.1502,0.001534,0.587515,-0.555301,0.556835,-0.595185,0.558369,-0.559903
3.6599,0.020089,0.000000,-0.170983,0.170983,0.0000,0.0000,0.0000,-0.002527,-0.144194,0.144194,0.9966,0.8278,-0.1502,0.001534,0.587515,-0.555301,0.556835,-0.595185,0.558369,-0.559903
3.6800,0.020080,0.000000,-0.181497,0.181497,0.0000,0.0000,0.0000,-0.002527,-0.154932,0.154932,0.9966,0.8278,-0.1502,0.001534,0.587515,-0.555301,0.556835,-0.595185,0.558369,-0.559903
3.7001,0.020091,0.000000,-0.192016,0.192016,0.0000,0.0000,0.0000,-0.002527,-0.170272,0.167204,0.9966,0.8278,-0.1502,0.001534,0.587515,-0.555301,0.556835,-0.595185,0.558369,-0.559903
3.7202,0.020143,0.000000,-0.202563,0.202563,0.0000,0.0000,0.0000,-0.002527,-0.184078,0.179476,0.9966,0.8278,-0.1502,0.001534,0.587515,-0.555301,0.556835,-0.595185,0.558369,-0.559903
3.7403,0.020099,0.000000,-0.213087,0.213087,0.0000,0.0000,0.0000,-0.002527,-0.193282,0.187146,0.9966,0.8278,-0.1502,0.001534,0.587515,-0.555301,0.556835,-0.595185,0.558369,-0.559903
3.7604,0.020092,0.000000,-0.223607,0.223607,0.0000,0.0000,0.0000,-0.002527,-0.197884,0.193282,0.9966,0.8278,-0.1502,0.001534,0.587515,-0.555301,0.556835,-0.595185,0.558369,-0.559903
3.7805,0.020080,0.000000,-0.234121,0.234121,0.0000,0.0000,0.0000,-0.002513,-0.205553,0.205553,1.0358,0.7928,-0.2027,0.001534,0.587515,-0.556835,0.556835,-0.595185,0.558369,-0.559903
3.8006,0.020089,0.000000,-0.244639,0.244639,0.0000,0.0000,0.0000,-0.002501,-0.219359,0.219359,1.0710,0.7609,-0.2504,0.001534,0.587515,-0.558369,0.556835,-0.595185,0.558369,-0.559903
3.8206,0.020086,0.000000,-0.255157,0.255157,0.0000,0.0000,0.0000,-0.002503,-0.231631,0.228563,1.0673,0.7642,-0.2454,0.001534,0.587515,-0.558369,0.556835,-0.595185,0.558369,-0.559903
3.8408,0.020122,0.000000,-0.265693,0.265693,0.0000,0.0000,0.0000,-0.002489,-0.240835,0.237767,1.1069,0.7283,-0.2992,0.001534,0.587515,-0.559903,0.556835,-0.595185,0.558369,-0.559903
3.8609,0.020092,0.000000,-0.276213,0.276213,0.0000,0.0000,0.0000,-0.002491,-0.248505,0.246971,1.1028,0.7321,-0.2936,0.001534,0.587515,-0.559903,0.556835,-0.595185,0.558369,-0.559903
3.8809,0.020082,0.000000,-0.286728,0.286728,0.0000,0.0000,0.0000,-0.002491,-0.260777,0.263845,1.1028,0.7321,-0.2936,0.001534,0.587515,-0.559903,0.556835,-0.595185,0.558369,-0.559903
3.9010,0.020085,0.000000,-0.297244,0.297244,0.0000,0.0000,0.0000,-0.002504,-0.273049,0.273049,1.0640,0.7672,-0.2409,0.001534,0.587515,-0.558369,0.556835,-0.595185,0.558369,-0.559903
3.9211,0.020085,0.000000,-0.307761,0.307761,0.0000,0.0000,0.0000,-0.002503,-0.283786,0.282252,1.1183,0.6759,-0.3532,0.001534,0.587515,-0.559903,0.555301,-0.595185,0.558369,-0.559903
3.9412,0.020085,0.000000,-0.318277,0.318277,0.0000,0.0000,0.0000,-0.002489,-0.289922,0.288388,1.1016,0.7375,-0.2880,0.001534,0.587515,-0.559903,0.556835,-0.595185,0.558369,-0.559903
3.9613,0.020079,0.000000,-0.328791,0.328791,0.0000,0.0000,0.0000,-0.002491,-0.303728,0.299126,1.1033,0.7311,-0.2948,0.001534,0.587515,-0.559903,0.556835,-0.595185,0.558369,-0.559903
3.9814,0.020081,0.000000,-0.339305,0.339305,0.0000,0.0000,0.0000,-0.002491,-0.317534,0.312932,1.1033,0.7311,-0.2948,0.001534,0.587515,-0.559903,0.556835,-0.595185,0.558369,-0.559903
4.0015,0.020120,0.000000,-0.348292,0.348292,0.0000,0.0000,0.0000,-0.002491,-0.328272,0.325204,1.1033,0.7311,-0.2948,0.001534,0.587515,-0.559903,0.556835,-0.595185,0.558369,-0.559903
4.0216,0.020124,0.000000,-0.337755,0.337755,0.0000,0.0000,0.0000,-0.002491,-0.334408,0.332874,1.1033,0.7311,-0.2948,0.001534,0.587515,-0.559903,0.556835,-0.595185,0.558369,-0.559903
4.0417,0.020134,0.000000,-0.327213,0.327213,0.0000,0.0000,0.0000,-0.002491,-0.345146,0.343612,1.1033,0.7311,-0.2948,0.001534,0.587515,-0.559903,0.556835,-0.595185,0.558369,-0.559903
4.0618,0.020086,0.000000,-0.316696,0.316696,0.0000,0.0000,0.0000,-0.002491,-0.355884,0.351282,1.1033,0.7311,-0.2948,0.001534,0.587515,-0.559903,0.556835,-0.595185,0.558369,-0.559903
4.0819,0.020083,0.000000,-0.306181,0.306181,0.0000,0.0000,0.0000,-0.002491,-0.354350,0.348214,1.1033,0.7311,-0.2948,0.001534,0.587515,-0.559903,0.556835,-0.595185,0.558369,-0.559903
4.1020,0.020087,0.000000,-0.295663,0.295663,0.0000,0.0000,0.0000,-0.002491,-0.343612,0.337476,1.1033,0.7311,-0.2948,0.001534,0.587515,-0.559903,0.556835,-0.595185,0.558369,-0.559903
4.1222,0.020222,0.000000,-0.285075,0.285075,0.0000,0.0000,0.0000,-0.002491,-0.329806,0.328272,1.1033,0.7311,-0.2948,0.001534,0.587515,-0.559903,0.556835,-0.595185,0.558369,-0.559903
4.1423,0.020082,0.000000,-0.274560,0.274560,0.0000,0.0000,0.0000,-0.002491,-0.314466,0.314466,1.1033,0.7311,-0.2948,0.001534,0.587515,-0.559903,0.556835,-0.595185,0.558369,-0.559903
4.1624,0.020081,0.000000,-0.264046,0.264046,0.0000,0.0000,0.0000,-0.002491,-0.300660,0.303728,1.1033,0.7311,-0.2948,0.001534,0.587515,-0.559903,0.556835,-0.595185,0.558369,-0.559903
4.1825,0.020082,0.000000,-0.253531,0.253531,0.0000,0.0000,0.0000,-0.002491,-0.285320,0.292990,1.1033,0.7311,-0.2948,0.001534,0.587515,-0.559903,0.556835,-0.595185,0.558369,-0.559903
4.2025,0.020090,0.000000,-0.243012,0.243012,0.0000,0.0000,0.0000,-0.002477,-0.276117,0.282252,1.1423,0.6962,-0.3474,0.001534,0.587515,-0.561437,0.556835,-0.595185,0.558369,-0.559903
4.2226,0.020087,0.000000,-0.232494,0.232494,0.0000,0.0000,0.0000,-0.002479,-0.265379,0.273049,1.1383,0.6998,-0.3419,0.001534,0.587515,-0.561437,0.556835,-0.595185,0.558369,-0.559903
4.2427,0.020086,0.000000,-0.221977,0.221977,0.0000,0.0000,0.0000,-0.002479,-0.257709,0.265379,1.1383,0.6998,-0.3419,0.001534,0.587515,-0.561437,0.556835,-0.595185,0.558369,-0.559903
4.2628,0.020104,0.000000,-0.211451,0.211451,0.0000,0.0000,0.0000,-0.002479,-0.250039,0.253107,1.1383,0.6998,-0.3419,0.001534,0.587515,-0.561437,0.556835,-0.595185,0.558369,-0.559903
4.2829,0.020082,0.000000,-0.200936,0.200936,0.0000,0.0000,0.0000,-0.002492,-0.239301,0.242369,1.1496,0.6473,-0.3960,0.001534,0.587515,-0.561437,0.555301,-0.595185,0.558369,-0.559903
4.3030,0.020088,0.000000,-0.190417,0.190417,0.0000,0.0000,0.0000,-0.002477,-0.228563,0.231631,1.1375,0.7050,-0.3368,0.001534,0.587515,-0.561437,0.556835,-0.595185,0.558369,-0.559903
4.3231,0.020086,0.000000,-0.179901,0.179901,0.0000,0.0000,0.0000,-0.002479,-0.214757,0.222427,1.1388,0.6989,-0.3430,0.001534,0.587515,-0.561437,0.556835,-0.595185,0.558369,-0.559903
4.3432,0.020076,0.000000,-0.169389,0.169389,0.0000,0.0000,0.0000,-0.002479,-0.202485,0.213223,1.1388,0.6989,-0.3430,0.001534,0.587515,-0.561437,0.556835,-0.595185,0.558369,-0.559903
4.3632,0.020082,0.000000,-0.158874,0.158874,0.0000,0.0000,0.0000,-0.002479,-0.191748,0.200951,1.1388,0.6989,-0.3430,0.001534,0.587515,-0.561437,0.556835,-0.595185,0.558369,-0.559903
4.3833,0.020079,0.000000,-0.148361,0.148361,0.0000,0.0000,0.0000,-0.002479,-0.181010,0.190214,1.1388,0.6989,-0.3430,0.001534,0.587515,-0.561437,0.556835,-0.595185,0.558369,-0.559903
4.4034,0.020091,0.000000,-0.137841,0.137841,0.0000,0.0000,0.0000,-0.002479,-0.171806,0.177942,1.1388,0.6989,-0.3430,0.001534,0.587515,-0.561437,0.556835,-0.595185,0.558369,-0.559903
4.4235,0.020079,0.000000,-0.127327,0.127327,0.0000,0.0000,0.0000,-0.002479,-0.161068,0.165670,1.1388,0.6989,-0.3430,0.001534,0.587515,-0.561437,0.556835,-0.595185,0.558369,-0.559903
4.4436,0.020080,0.000000,-0.116814,0.116814,0.0000,0.0000,0.0000,-0.002465,-0.150330,0.151864,1.1777,0.6640,-0.3957,0.001534,0.587515,-0.562971,0.556835,-0.595185,0.558369,-0.559903
4.4637,0.020092,0.000000,-0.106294,0.106294,0.0000,0.0000,0.0000,-0.002480,-0.139592,0.139592,1.1346,0.7032,-0.3368,0.001534,0.587515,-0.561437,0.556835,-0.595185,0.558369,-0.559903
4.4837,0.020082,0.000000,-0.095779,0.095779,0.0000,0.0000,0.0000,-0.002478,-0.128854,0.128854,1.1391,0.6991,-0.3430,0.001534,0.587515,-0.561437,0.556835,-0.595185,0.558369,-0.559903
4.5038,0.020090,0.000000,-0.085260,0.085260,0.0000,0.0000,0.0000,-0.002478,-0.118117,0.119651,1.1391,0.6991,-0.3430,0.001534,0.587515,-0.561437,0.556835,-0.595185,0.558369,-0.559903
4.5239,0.020081,0.000000,-0.074745,0.074745,0.0000,0.0000,0.0000,-0.002478,-0.107379,0.108913,1.1391,0.6991,-0.3430,0.001534,0.587515,-0.561437,0.556835,-0.595185,0.558369,-0.559903
4.5440,0.020077,0.000000,-0.064233,0.064233,0.0000,0.0000,0.0000,-0.002478,-0.095107,0.099709,1.1391,0.6991,-0.3430,0.001534,0.587515,-0.561437,0.556835,-0.595185,0.558369,-0.559903
4.5641,0.020087,0.000000,-0.053715,0.053715,0.0000,0.0000,0.0000,-0.002478,-0.085903,0.087437,1.1391,0.6991,-0.3430,0.001534,0.587515,-0.561437,0.556835,-0.595185,0.558369,-0.559903
4.5842,0.020079,0.000000,-0.043202,0.043202,0.0000,0.0000,0.0000,-0.002478,-0.073631,0.076699,1.1391,0.6991,-0.3430,0.001534,0.587515,-0.561437,0.556835,-0.595185,0.558369,-0.559903
4.6042,0.020087,0.000000,-0.032684,0.032684,0.0000,0.0000,0.0000,-0.002478,-0.062893,0.065961,1.1391,0.6991,-0.3430,0.001534,0.587515,-0.561437,0.556835,-0.595185,0.558369,-0.559903
4.6243,0.020081,0.000000,-0.022170,0.022170,0.0000,0.0000,0.0000,-0.002478,-0.052155,0.056757,1.1391,0.6991,-0.3430,0.001534,0.587515,-0.561437,0.556835,-0.595185,0.558369,-0.559903
4.6444,0.020081,0.000000,-0.011655,0.011655,0.0000,0.0000,0.0000,-0.002478,-0.041417,0.046019,1.1391,0.6991,-0.3430,0.001534,0.587515,-0.561437,0.556835,-0.595185,0.558369,-0.559903
4.6645,0.020087,0.000000,-0.001138,0.001138,0.0000,0.0000,0.0000,-0.002478,-0.030680,0.035282,1.1391,0.6991,-0.3430,0.001534,0.587515,-0.561437,0.556835,-0.595185,0.558369,-0.559903
4.6846,0.020077,0.000000,-0.009375,0.009375,0.0000,0.0000,0.0000,-0.002478,-0.021476,0.026078,1.1391,0.6991,-0.3430,0.001534,0.587515,-0.561437,0.556835,-0.595185,0.558369,-0.559903
4.7047,0.020156,0.000000,-0.019928,0.019928,0.0000,0.0000,0.0000,-0.002478,-0.012272,0.016874,1.1391,0.6991,-0.3430,0.001534,0.587515,-0.561437,0.556835,-0.595185,0.558369,-0.559903
4.7248,0.020080,0.000000,-0.030442,0.030442,0.0000,0.0000,0.0000,-0.002478,-0.001534,0.004602,1.1391,0.6991,-0.3430,0.001534,0.587515,-0.561437,0.556835,-0.595185,0.558369,-0.559903
4.7449,0.020079,0.000000,-0.040955,0.040955,0.0000,0.0000,0.0000,-0.002478,0.001534,0.004602,1.1391,0.6991,-0.3430,0.001534,0.587515,-0.561437,0.556835,-0.595185,0.558369,-0.559903
4.7650,0.020085,0.000000,-0.051472,0.051472,0.0000,0.0000,0.0000,-0.002478,-0.006136,0.015340,1.1391,0.6991,-0.3430,0.001534,0.587515,-0.561437,0.556835,-0.595185,0.558369,-0.559903
4.7850,0.020077,0.000000,-0.061984,0.061984,0.0000,0.0000,0.0000,-0.002478,-0.021476,0.029146,1.1391,0.6991,-0.3430,0.001534,0.587515,-0.561437,0.556835,-0.595185,0.558369,-0.559903
4.8052,0.020191,0.000000,-0.072556,0.072556,0.0000,0.0000,0.0000,-0.002478,-0.039884,0.042951,1.1391,0.6991,-0.3430,0.001534,0.587515,-0.561437,0.556835,-0.595185,0.558369,-0.559903
4.8253,0.020087,0.000000,-0.083074,0.083074,0.0000,0.0000,0.0000,-0.002478,-0.058291,0.053689,1.1391,0.6991,-0.3430,0.001534,0.587515,-0.561437,0.556835,-0.595185,0.558369,-0.559903
4.8454,0.020045,0.000000,-0.093569,0.093569,0.0000,0.0000,0.0000,-0.002478,-0.065961,0.059825,1.1391,0.6991,-0.3430,0.001534,0.587515,-0.561437,0.556835,-0.595185,0.558369,-0.559903
4.8655,0.020123,0.000000,-0.104106,0.104106,0.0000,0.0000,0.0000,-0.002478,-0.067495,0.069029,1.1391,0.6991,-0.3430,0.001534,0.587515,-0.561437,0.556835,-0.595185,0.558369,-0.559903
4.8856,0.020084,0.000000,-0.114622,0.114622,0.0000,0.0000,0.0000,-0.002478,-0.076699,0.084369,1.1391,0.6991,-0.3430,0.001534,0.587515,-0.561437,0.556835,-0.595185,0.558369,-0.559903
4.9057,0.020098,0.000000,-0.125145,0.125145,0.0000,0.0000,0.0000,-0.002478,-0.090505,0.095107,1.1391,0.6991,-0.3430,0.001534,0.587515,-0.561437,0.556835,-0.595185,0.558369,-0.559903
4.9258,0.020079,0.000000,-0.135659,0.135659,0.0000,0.0000,0.0000,-0.002478,-0.108913,0.102777,1.1391,0.6991,-0.3430,0.001534,0.587515,-0.561437,0.556835,-0.595185,0.558369,-0.559903
4.9458,0.020080,0.000000,-0.146173,0.146173,0.0000,0.0000,0.0000,-0.002478,-0.119651,0.110447,1.1391,0.6991,-0.3430,0.001534,0.587515,-0.561437,0.556835,-0.595185,0.558369,-0.559903
4.9661,0.020296,0.000000,-0.156800,0.156800,0.0000,0.0000,0.0000,-0.002465,-0.127320,0.121184,1.1777,0.6640,-0.3957,0.001534,0.587515,-0.562971,0.556835,-0.595185,0.558369,-0.559903
4.9862,0.020073,0.000000,-0.167310,0.167310,0.0000,0.0000,0.0000,-0.002480,-0.136524,0.134990,1.1346,0.7032,-0.3368,0.001534,0.587515,-0.561437,0.556835,-0.595185,0.558369,-0.559903
5.0064,0.020236,0.000000,-0.177906,0.177906,0.0000,0.0000,0.0000,-0.002478,-0.148796,0.148796,1.1391,0.6991,-0.3430,0.001534,0.587515,-0.561437,0.556835,-0.595185,0.558369,-0.559903
5.0265,0.020080,0.000000,-0.188420,0.188420,0.0000,0.0000,0.0000,-0.002478,-0.162602,0.156466,1.1391,0.6991,-0.3430,0.001534,0.587515,-0.561437,0.556835,-0.595185,0.558369,-0.559903
5.0466,0.020081,0.000000,-0.198934,0.198934,0.0000,0.0000,0.0000,-0.002478,-0.171806,0.164136,1.1391,0.6991,-0.3430,0.001534,0.587515,-0.561437,0.556835,-0.595185,0.558369,-0.559903
5.0669,0.020308,0.000000,-0.209567,0.209567,0.0000,0.0000,0.0000,-0.002478,-0.177942,0.176408,1.1391,0.6991,-0.3430,0.001534,0.587515,-0.561437,0.556835,-0.595185,0.558369,-0.559903
5.0870,0.020085,0.000000,-0.220084,0.220084,0.0000,0.0000,0.0000,-0.002478,-0.188680,0.188680,1.1391,0.6991,-0.3430,0.001534,0.587515,-0.561437,0.556835,-0.595185,0.558369,-0.559903
5.1072,0.020244,0.000000,-0.230683,0.230683,0.0000,0.0000,0.0000,-0.002478,-0.200951,0.200951,1.1391,0.6991,-0.3430,0.001534,0.587515,-0.561437,0.556835,-0.595185,0.558369,-0.559903
5.1275,0.020229,0.000000,-0.241275,0.241275,0.0000,0.0000,0.0000,-0.002478,-0.211689,0.210155,1.1391,0.6991,-0.3430,0.001534,0.587515,-0.561437,0.556835,-0.595185,0.558369,-0.559903
5.1476,0.020106,0.000000,-0.251803,0.251803,0.0000,0.0000,0.0000,-0.002478,-0.219359,0.217825,1.1391,0.6991,-0.3430,0.001534,0.587515,-0.561437,0.556835,-0.595185,0.558369,-0.559903
5.1677,0.020135,0.000000,-0.262345,0.262345,0.0000,0.0000,0.0000,-0.002478,-0.228563,0.227029,1.1391,0.6991,-0.3430,0.001534,0.587515,-0.561437,0.556835,-0.595185,0.558369,-0.559903
5.1880,0.020250,0.000000,-0.272948,0.272948,0.0000,0.0000,0.0000,-0.002478,-0.242369,0.242369,1.1391,0.6991,-0.3430,0.001534,0.587515,-0.561437,0.556835,-0.595185,0.558369,-0.559903
5.2082,0.020233,0.000000,-0.283542,0.283542,0.0000,0.0000,0.0000,-0.002478,-0.256175,0.256175,1.1391,0.6991,-0.3430,0.001534,0.587515,-0.561437,0.556835,-0.595185,0.558369,-0.559903
5.2283,0.020082,0.000000,-0.294056,0.294056,0.0000,0.0000,0.0000,-0.002478,-0.265379,0.263845,1.1391,0.6991,-0.3430,0.001534,0.587515,-0.561437,0.556835,-0.595185,0.558369,-0.559903
5.2489,0.020631,0.000000,-0.304859,0.304859,0.0000,0.0000,0.0000,-0.002478,-0.271515,0.268447,1.1391,0.6991,-0.3430,0.001534,0.587515,-0.561437,0.556835,-0.595185,0.558369,-0.559903
5.2690,0.020100,0.000000,-0.315383,0.315383,0.0000,0.0000,0.0000,-0.002478,-0.280718,0.279185,1.1391,0.6991,-0.3430,0.001534,0.587515,-0.561437,0.556835,-0.595185,0.558369,-0.559903
5.2891,0.020086,0.000000,-0.325900,0.325900,0.0000,0.0000,0.0000,-0.002478,-0.292990,0.294524,1.1391,0.6991,-0.3430,0.001534,0.587515,-0.561437,0.556835,-0.595185,0.558369,-0.559903
5.3092,0.020141,0.000000,-0.336446,0.336446,0.0000,0.0000,0.0000,-0.002478,-0.308330,0.305262,1.1391,0.6991,-0.3430,0.001534,0.587515,-0.561437,0.556835,-0.595185,0.558369,-0.559903
5.3293,0.020081,0.000000,-0.346961,0.346961,0.0000,0.0000,0.0000,-0.002478,-0.319068,0.314466,1.1391,0.6991,-0.3430,0.001534,0.587515,-0.561437,0.556835,-0.595185,0.558369,-0.559903
5.3495,0.020196,0.000000,-0.340597,0.340597,0.0000,0.0000,0.0000,-0.002478,-0.326738,0.323670,1.1391,0.6991,-0.3430,0.001534,0.587515,-0.561437,0.556835,-0.595185,0.558369,-0.559903
5.3701,0.020617,0.000000,-0.329801,0.329801,0.0000,0.0000,0.0000,-0.002478,-0.337476,0.334408,1.1391,0.6991,-0.3430,0.001534,0.587515,-0.561437,0.556835,-0.595185,0.558369,-0.559903
5.3902,0.020088,0.000000,-0.319284,0.319284,0.0000,0.0000,0.0000,-0.002478,-0.349748,0.348214,1.1391,0.6991,-0.3430,0.001534,0.587515,-0.561437,0.556835,-0.595185,0.558369,-0.559903
5.4104,0.020160,0.000000,-0.308728,0.308728,0.0000,0.0000,0.0000,-0.002478,-0.354350,0.349748,1.1391,0.6991,-0.3430,0.001534,0.587515,-0.561437,0.556835,-0.595185,0.558369,-0.559903
5.4304,0.020069,0.000000,-0.298220,0.298220,0.0000,0.0000,0.0000,-0.002478,-0.351282,0.343612,1.1391,0.6991,-0.3430,0.001534,0.587515,-0.561437,0.556835,-0.595185,0.558369,-0.559903
5.4505,0.020087,0.000000,-0.287702,0.287702,0.0000,0.0000,0.0000,-0.002478,-0.340544,0.334408,1.1391,0.6991,-0.3430,0.001534,0.587515,-0.561437,0.556835,-0.595185,0.558369,-0.559903
5.4708,0.020222,0.000000,-0.277114,0.277114,0.0000,0.0000,0.0000,-0.002478,-0.328272,0.325204,1.1391,0.6991,-0.3430,0.001534,0.587515,-0.561437,0.556835,-0.595185,0.558369,-0.559903
5.4909,0.020182,0.000000,-0.266547,0.266547,0.0000,0.0000,0.0000,-0.002478,-0.312932,0.312932,1.1391,0.6991,-0.3430,0.001534,0.587515,-0.561437,0.556835,-0.595185,0.558369,-0.559903
5.5112,0.020303,0.000000,-0.255916,0.255916,0.0000,0.0000,0.0000,-0.002478,-0.299126,0.303728,1.1391,0.6991,-0.3430,0.001534,0.587515,-0.561437,0.556835,-0.595185,0.558369,-0.559903
5.5317,0.020453,0.000000,-0.245207,0.245207,0.0000,0.0000,0.0000,-0.002478,-0.285320,0.292990,1.1391,0.6991,-0.3430,0.001534,0.587515,-0.561437,0.556835,-0.595185,0.558369,-0.559903
5.5518,0.020090,0.000000,-0.234688,0.234688,0.0000,0.0000,0.0000,-0.002478,-0.276117,0.282252,1.1391,0.6991,-0.3430,0.001534,0.587515,-0.561437,0.556835,-0.595185,0.558369,-0.559903
5.5722,0.020379,0.000000,-0.224018,0.224018,0.0000,0.0000,0.0000,-0.002478,-0.263845,0.271515,1.1391,0.6991,-0.3430,0.001534,0.587515,-0.561437,0.556835,-0.595185,0.558369,-0.559903
5.5922,0.020091,0.000000,-0.213498,0.213498,0.0000,0.0000,0.0000,-0.002478,-0.254641,0.259243,1.1391,0.6991,-0.3430,0.001534,0.587515,-0.561437,0.556835,-0.595185,0.558369,-0.559903
5.6125,0.020231,0.000000,-0.202905,0.202905,0.0000,0.0000,0.0000,-0.002478,-0.245437,0.248505,1.1391,0.6991,-0.3430,0.001534,0.587515,-0.561437,0.556835,-0.595185,0.558369,-0.559903
5.6326,0.020094,0.000000,-0.192384,0.192384,0.0000,0.0000,0.0000,-0.002478,-0.233165,0.237767,1.1391,0.6991,-0.3430,0.001534,0.587515,-0.561437,0.556835,-0.595185,0.558369,-0.559903
5.6527,0.020088,0.000000,-0.181866,0.181866,0.0000,0.0000,0.0000,-0.002478,-0.222427,0.228563,1.1391,0.6991,-0.3430,0.001534,0.587515,-0.561437,0.556835,-0.595185,0.558369,-0.559903
5.6730,0.020359,0.000000,-0.171206,0.171206,0.0000,0.0000,0.0000,-0.002478,-0.213223,0.220893,1.1391,0.6991,-0.3430,0.001534,0.587515,-0.561437,0.556835,-0.595185,0.558369,-0.559903
5.6931,0.020087,0.000000,-0.160689,0.160689,0.0000,0.0000,0.0000,-0.002478,-0.200951,0.211689,1.1391,0.6991,-0.3430,0.001534,0.587515,-0.561437,0.556835,-0.595185,0.558369,-0.559903
5.7132,0.020104,0.000000,-0.150162,0.150162,0.0000,0.0000,0.0000,-0.002478,-0.190214,0.199418,1.1391,0.6991,-0.3430,0.001534,0.587515,-0.561437,0.556835,-0.595185,0.558369,-0.559903
5.7334,0.020157,0.000000,-0.139608,0.139608,0.0000,0.0000,0.0000,-0.002478,-0.177942,0.187146,1.1391,0.6991,-0.3430,0.001534,0.587515,-0.561437,0.556835,-0.595185,0.558369,-0.559903
5.7534,0.020057,0.000000,-0.129106,0.129106,0.0000,0.0000,0.0000,-0.002478,-0.170272,0.176408,1.1391,0.6991,-0.3430,0.001534,0.587515,-0.561437,0.556835,-0.595185,0.558369,-0.559903
5.7735,0.020085,0.000000,-0.118589,0.118589,0.0000,0.0000,0.0000,-0.002478,-0.159534,0.164136,1.1391,0.6991,-0.3430,0.001534,0.587515,-0.561437,0.556835,-0.595185,0.558369,-0.559903
5.7936,0.020097,0.000000,-0.108066,0.108066,0.0000,0.0000,0.0000,-0.002478,-0.150330,0.151864,1.1391,0.6991,-0.3430,0.001534,0.587515,-0.561437,0.556835,-0.595185,0.558369,-0.559903
5.8137,0.020104,0.000000,-0.097540,0.097540,0.0000,0.0000,0.0000,-0.002478,-0.138058,0.139592,1.1391,0.6991,-0.3430,0.001534,0.587515,-0.561437,0.556835,-0.595185,0.558369,-0.559903
5.8338,0.020104,0.000000,-0.087013,0.087013,0.0000,0.0000,0.0000,-0.002478,-0.127320,0.127320,1.1391,0.6991,-0.3430,0.001534,0.587515,-0.561437,0.556835,-0.595185,0.558369,-0.559903
5.8539,0.020093,0.000000,-0.076493,0.076493,0.0000,0.0000,0.0000,-0.002478,-0.116583,0.118117,1.1391,0.6991,-0.3430,0.001534,0.587515,-0.561437,0.556835,-0.595185,0.558369,-0.559903
5.8740,0.020099,0.000000,-0.065969,0.065969,0.0000,0.0000,0.0000,-0.002478,-0.105845,0.107379,1.1391,0.6991,-0.3430,0.001534,0.587515,-0.561437,0.556835,-0.595185,0.558369,-0.559903
5.8941,0.020088,0.000000,-0.055451,0.055451,0.0000,0.0000,0.0000,-0.002478,-0.084369,0.085903,1.1391,0.6991,-0.3430,0.001534,0.587515,-0.561437,0.556835,-0.595185,0.558369,-0.559903
5.9142,0.020102,0.000000,-0.044925,0.044925,0.0000,0.0000,0.0000,-0.002478,-0.073631,0.075165,1.1391,0.6991,-0.3430,0.001534,0.587515,-0.561437,0.556835,-0.595185,0.558369,-0.559903
5.9343,0.020100,0.000000,-0.034401,0.034401,0.0000,0.0000,0.0000,-0.002478,-0.073631,0.075165,1.1391,0.6991,-0.3430,0.001534,0.587515,-0.561437,0.556835,-0.595185,0.558369,-0.559903
5.9544,0.020087,0.000000,-0.023883,0.023883,0.0000,0.0000,0.0000,-0.002478,-0.050621,0.053689,1.1391,0.6991,-0.3430,0.001534,0.587515,-0.561437,0.556835,-0.595185,0.558369,-0.559903
5.9747,0.020328,0.000000,-0.013240,0.013240,0.0000,0.0000,0.0000,-0.002465,-0.039884,0.044485,1.1777,0.6640,-0.3957,0.001534,0.587515,-0.562971,0.556835,-0.595185,0.558369,-0.559903
5.9948,0.020085,0.000000,-0.002723,0.002723,0.0000,0.0000,0.0000,-0.002480,-0.027612,0.032214,1.1346,0.7032,-0.3368,0.001534,0.587515,-0.561437,0.556835,-0.595185,0.558369,-0.559903
6.0151,0.020291,0.000000,-0.007901,0.007901,0.0000,0.0000,0.0000,-0.002478,-0.018408,0.023010,1.1391,0.6991,-0.3430,0.001534,0.587515,-0.561437,0.556835,-0.595185,0.558369,-0.559903
6.0352,0.020110,0.000000,-0.018431,0.018431,0.0000,0.0000,0.0000,-0.002478,-0.018408,0.023010,1.1391,0.6991,-0.3430,0.001534,0.587515,-0.561437,0.556835,-0.595185,0.558369,-0.559903
6.0558,0.020607,0.000000,-0.029221,0.029221,0.0000,0.0000,0.0000,-0.002478,0.001534,0.003068,1.1391,0.6991,-0.3430,0.001534,0.587515,-0.561437,0.556835,-0.595185,0.558369,-0.559903
6.0759,0.020091,0.000000,-0.039741,0.039741,0.0000,0.0000,0.0000,-0.002478,0.000000,0.006136,1.1391,0.6991,-0.3430,0.001534,0.587515,-0.561437,0.556835,-0.595185,0.558369,-0.559903
6.0960,0.020084,0.000000,-0.050257,0.050257,0.0000,0.0000,0.0000,-0.002478,-0.013806,0.019942,1.1391,0.6991,-0.3430,0.001534,0.587515,-0.561437,0.556835,-0.595185,0.558369,-0.559903
6.1163,0.020294,0.000000,-0.060883,0.060883,0.0000,0.0000,0.0000,-0.002478,-0.030680,0.035282,1.1391,0.6991,-0.3430,0.001534,0.587515,-0.562971,0.556835,-0.595185,0.558369,-0.559903
6.1364,0.020099,0.000000,-0.071407,0.071407,0.0000,0.0000,0.0000,-0.002480,-0.049087,0.047553,1.1346,0.7032,-0.3368,0.001534,0.587515,-0.561437,0.556835,-0.595185,0.558369,-0.559903
6.1567,0.020273,0.000000,-0.082022,0.082022,0.0000,0.0000,0.0000,-0.002478,-0.062893,0.053689,1.1391,0.6991,-0.3430,0.001534,0.587515,-0.561437,0.556835,-0.595185,0.558369,-0.559903
6.1771,0.020438,0.000000,-0.092723,0.092723,0.0000,0.0000,0.0000,-0.002478,-0.064427,0.061359,1.1391,0.6991,-0.3430,0.001534,0.587515,-0.561437,0.556835,-0.595185,0.558369,-0.559903
6.1972,0.020082,0.000000,-0.103238,0.103238,0.0000,0.0000,0.0000,-0.002478,-0.064427,0.072097,1.1391,0.6991,-0.3430,0.001534,0.587515,-0.561437,0.556835,-0.595185,0.558369,-0.559903
6.2173,0.020083,0.000000,-0.113753,0.113753,0.0000,0.0000,0.0000,-0.002478,-0.078233,0.087437,1.1391,0.6991,-0.3430,0.001534,0.587515,-0.561437,0.556835,-0.595185,0.558369,-0.559903
6.2373,0.020093,0.000000,-0.124274,0.124274,0.0000,0.0000,0.0000,-0.002478,-0.096641,0.099709,1.1391,0.6991,-0.3430,0.001534,0.587515,-0.561437,0.556835,-0.595185,0.558369,-0.559903
6.2574,0.020092,0.000000,-0.134794,0.134794,0.0000,0.0000,0.0000,-0.002478,-0.113515,0.105845,1.1391,0.6991,-0.3430,0.001534,0.587515,-0.561437,0.556835,-0.595185,0.558369,-0.559903
6.2778,0.020395,0.000000,-0.145473,0.145473,0.0000,0.0000,0.0000,-0.002478,-0.124252,0.113515,1.1391,0.6991,-0.3430,0.001534,0.587515,-0.561437,0.556835,-0.595185,0.558369,-0.559903
6.2987,0.020910,0.000000,-0.156421,0.156421,0.0000,0.0000,0.0000,-0.002478,-0.131922,0.128854,1.1391,0.6991,-0.3430,0.001534,0.587515,-0.561437,0.556835,-0.595185,0.558369,-0.559903
6.3188,0.020097,0.000000,-0.166944,0.166944,0.0000,0.0000,0.0000,-0.002478,-0.139592,0.139592,1.1391,0.6991,-0.3430,0.001534,0.587515,-0.561437,0.556835,-0.595185,0.558369,-0.559903
6.3389,0.020090,0.000000,-0.177463,0.177463,0.0000,0.0000,0.0000,-0.002478,-0.150330,0.148796,1.1391,0.6991,-0.3430,0.001534,0.587515,-0.561437,0.556835,-0.595185,0.558369,-0.559903
6.3590,0.020085,0.000000,-0.187980,0.187980,0.0000,0.0000,0.0000,-0.002478,-0.164136,0.158000,1.1391,0.6991,-0.3430,0.001534,0.587515,-0.561437,0.556835,-0.595185,0.558369,-0.559903
6.3791,0.020108,0.000000,-0.198508,0.198508,0.0000,0.0000,0.0000,-0.002478,-0.176408,0.168738,1.1391,0.6991,-0.3430,0.001534,0.587515,-0.561437,0.556835,-0.595185,0.558369,-0.559903
6.3992,0.020096,0.000000,-0.209030,0.209030,0.0000,0.0000,0.0000,-0.002478,-0.185612,0.181010,1.1391,0.6991,-0.3430,0.001534,0.587515,-0.561437,0.556835,-0.595185,0.558369,-0.559903
6.4193,0.020082,0.000000,-0.219545,0.219545,0.0000,0.0000,0.0000,-0.002478,-0.194816,0.193282,1.1391,0.6991,-0.3430,0.001534,0.587515,-0.561437,0.556835,-0.595185,0.558369,-0.559903
6.4394,0.020090,0.000000,-0.230064,0.230064,0.0000,0.0000,0.0000,-0.002478,-0.202485,0.202485,1.1391,0.6991,-0.3430,0.001534,0.587515,-0.561437,0.556835,-0.595185,0.558369,-0.559903
6.4595,0.020081,0.000000,-0.240579,0.240579,0.0000,0.0000,0.0000,-0.002478,-0.211689,0.211689,1.1391,0.6991,-0.3430,0.001534,0.587515,-0.561437,0.556835,-0.595185,0.558369,-0.559903
6.4798,0.020290,0.000000,-0.251203,0.251203,0.0000,0.0000,0.0000,-0.002478,-0.225495,0.222427,1.1391,0.6991,-0.3430,0.001534,0.587515,-0.561437,0.556835,-0.595185,0.558369,-0.559903
6.5008,0.021073,0.000000,-0.262236,0.262236,0.0000,0.0000,0.0000,-0.002478,-0.236233,0.236233,1.1391,0.6991,-0.3430,0.001534,0.587515,-0.561437,0.556835,-0.595185,0.558369,-0.559903
6.5209,0.020089,0.000000,-0.272755,0.272755,0.0000,0.0000,0.0000,-0.002478,-0.246971,0.245437,1.1391,0.6991,-0.3430,0.001534,0.587515,-0.561437,0.556835,-0.595185,0.558369,-0.559903
6.5411,0.020142,0.000000,-0.283301,0.283301,0.0000,0.0000,0.0000,-0.002478,-0.253107,0.254641,1.1391,0.6991,-0.3430,0.001534,0.587515,-0.561437,0.556835,-0.595185,0.558369,-0.559903
