t,loop_dt,cmd_z,cmd_ant_l,cmd_ant_r,cmd_roll,cmd_pitch,cmd_yaw,pres_z,pres_ant_l,pres_ant_r,pres_roll,pres_pitch,pres_yaw,pres_j0,pres_j1,pres_j2,pres_j3,pres_j4,pres_j5,pres_j6
0.0000,0.000001,0.000000,-0.349066,0.349066,0.0000,0.0000,0.0000,-0.002638,-0.167204,0.165670,1.1692,0.9815,0.0487,0.001534,0.582913,-0.555301,0.556835,-0.595185,0.558369,-0.549165
0.0201,0.020087,0.000000,-0.348365,0.348365,0.0000,0.0000,0.0000,-0.002639,-0.173340,0.170272,1.1738,0.9854,0.0426,0.001534,0.582913,-0.555301,0.556835,-0.595185,0.558369,-0.549165
0.0402,0.020094,0.000000,-0.347663,0.347663,0.0000,0.0000,0.0000,-0.002639,-0.174874,0.171806,1.1738,0.9854,0.0426,0.001534,0.582913,-0.555301,0.556835,-0.595185,0.558369,-0.549165
0.0603,0.020094,0.000000,-0.346962,0.346962,0.0000,0.0000,0.0000,-0.002639,-0.173340,0.171806,1.1738,0.9854,0.0426,0.001534,0.582913,-0.555301,0.556835,-0.595185,0.558369,-0.549165
0.0804,0.020096,0.000000,-0.346260,0.346260,0.0000,0.0000,0.0000,-0.002639,-0.193282,0.191748,1.1738,0.9854,0.0426,0.001534,0.582913,-0.555301,0.556835,-0.595185,0.558369,-0.549165
0.1005,0.020088,0.000000,-0.345559,0.345559,0.0000,0.0000,0.0000,-0.002639,-0.257709,0.257709,1.1738,0.9854,0.0426,0.001534,0.582913,-0.555301,0.556835,-0.595185,0.558369,-0.549165
0.1206,0.020092,0.000000,-0.344858,0.344858,0.0000,0.0000,0.0000,-0.002626,-0.328272,0.323670,1.1240,0.9668,-0.0102,0.001534,0.582913,-0.555301,0.556835,-0.595185,0.558369,-0.550699
0.1406,0.020083,0.000000,-0.344157,0.344157,0.0000,0.0000,0.0000,-0.002627,-0.380427,0.375825,1.1292,0.9687,-0.0047,0.001534,0.582913,-0.555301,0.556835,-0.595185,0.558369,-0.550699
0.1608,0.020129,0.000000,-0.343454,0.343454,0.0000,0.0000,0.0000,-0.002614,-0.385029,0.377359,1.0794,0.9503,-0.0588,0.001534,0.582913,-0.555301,0.556835,-0.595185,0.558369,-0.552233
0.1809,0.020089,0.000000,-0.342753,0.342753,0.0000,0.0000,0.0000,-0.002616,-0.366621,0.365087,1.0846,0.9523,-0.0532,0.001534,0.582913,-0.555301,0.556835,-0.595185,0.558369,-0.552233
0.2009,0.020096,0.000000,-0.342051,0.342051,0.0000,0.0000,0.0000,-0.002616,-0.354350,0.357418,1.0846,0.9523,-0.0532,0.001534,0.582913,-0.555301,0.556835,-0.595185,0.558369,-0.552233
0.2215,0.020534,0.000000,-0.341335,0.341335,0.0000,0.0000,0.0000,-0.002591,-0.343612,0.343612,1.0845,0.9186,-0.0533,0.001534,0.584447,-0.555301,0.556835,-0.595185,0.558369,-0.553767
0.2416,0.020091,0.000000,-0.340633,0.340633,0.0000,0.0000,0.0000,-0.002557,-0.351282,0.342078,1.0358,0.8705,-0.1065,0.001534,0.585981,-0.555301,0.556835,-0.595185,0.558369,-0.556835
0.2617,0.020093,0.000000,-0.339932,0.339932,0.0000,0.0000,0.0000,-0.002560,-0.349748,0.343612,1.0409,0.8755,-0.1009,0.001534,0.585981,-0.555301,0.556835,-0.595185,0.558369,-0.556835
0.2818,0.020089,0.000000,-0.339231,0.339231,0.0000,0.0000,0.0000,-0.002549,-0.345146,0.342078,1.0901,0.8596,-0.0474,0.001534,0.587515,-0.555301,0.556835,-0.595185,0.558369,-0.556835
0.3019,0.020094,0.000000,-0.338529,0.338529,0.0000,0.0000,0.0000,-0.002537,-0.343612,0.342078,1.0358,0.8432,-0.1066,0.001534,0.587515,-0.555301,0.556835,-0.595185,0.558369,-0.558369
0.3220,0.020155,0.000000,-0.337826,0.337826,0.0000,0.0000,0.0000,-0.002526,-0.343612,0.342078,0.9924,0.8268,-0.1541,0.001534,0.587515,-0.555301,0.556835,-0.595185,0.558369,-0.559903
0.3421,0.020090,0.000000,-0.337124,0.337124,0.0000,0.0000,0.0000,-0.002527,-0.343612,0.342078,0.9969,0.8285,-0.1491,0.001534,0.587515,-0.555301,0.556835,-0.595185,0.558369,-0.559903
0.3622,0.020125,0.000000,-0.336422,0.336422,0.0000,0.0000,0.0000,-0.002527,-0.343612,0.342078,0.9969,0.8285,-0.1491,0.001534,0.587515,-0.555301,0.556835,-0.595185,0.558369,-0.559903
0.3823,0.020061,0.000000,-0.335722,0.335722,0.0000,0.0000,0.0000,-0.002527,-0.343612,0.342078,0.9969,0.8285,-0.1491,0.001534,0.587515,-0.555301,0.556835,-0.595185,0.558369,-0.559903
0.4024,0.020080,0.000000,-0.335021,0.335021,0.0000,0.0000,0.0000,-0.002527,-0.343612,0.340544,0.9969,0.8285,-0.1491,0.001534,0.587515,-0.555301,0.556835,-0.595185,0.558369,-0.559903
0.4224,0.020086,0.000000,-0.334320,0.334320,0.0000,0.0000,0.0000,-0.002527,-0.343612,0.340544,0.9969,0.8285,-0.1491,0.001534,0.587515,-0.555301,0.556835,-0.595185,0.558369,-0.559903
0.4425,0.020081,0.000000,-0.333619,0.333619,0.0000,0.0000,0.0000,-0.002527,-0.343612,0.340544,0.9969,0.8285,-0.1491,0.001534,0.587515,-0.555301,0.556835,-0.595185,0.558369,-0.559903
0.4626,0.020103,0.000000,-0.332917,0.332917,0.0000,0.0000,0.0000,-0.002527,-0.343612,0.340544,0.9969,0.8285,-0.1491,0.001534,0.587515,-0.555301,0.556835,-0.595185,0.558369,-0.559903
0.4827,0.020081,0.000000,-0.332216,0.332216,0.0000,0.0000,0.0000,-0.002527,-0.343612,0.340544,0.9969,0.8285,-0.1491,0.001534,0.587515,-0.555301,0.556835,-0.595185,0.558369,-0.559903
0.5028,0.020081,0.000000,-0.331515,0.331515,0.0000,0.0000,0.0000,-0.002527,-0.342078,0.340544,0.9969,0.8285,-0.1491,0.001534,0.587515,-0.555301,0.556835,-0.595185,0.558369,-0.559903
0.5229,0.020114,0.000000,-0.330813,0.330813,0.0000,0.0000,0.0000,-0.002527,-0.342078,0.340544,0.9969,0.8285,-0.1491,0.001534,0.587515,-0.555301,0.556835,-0.595185,0.558369,-0.559903
0.5430,0.020087,0.000000,-0.330112,0.330112,0.0000,0.0000,0.0000,-0.002527,-0.340544,0.339010,0.9969,0.8285,-0.1491,0.001534,0.587515,-0.555301,0.556835,-0.595185,0.558369,-0.559903
0.5631,0.020082,0.000000,-0.329411,0.329411,0.0000,0.0000,0.0000,-0.002527,-0.342078,0.339010,0.9969,0.8285,-0.1491,0.001534,0.587515,-0.555301,0.556835,-0.595185,0.558369,-0.559903
0.5832,0.020075,0.000000,-0.328710,0.328710,0.0000,0.0000,0.0000,-0.002527,-0.342078,0.337476,0.9969,0.8285,-0.1491,0.001534,0.587515,-0.555301,0.556835,-0.595185,0.558369,-0.559903
0.6032,0.020077,0.000000,-0.328009,0.328009,0.0000,0.0000,0.0000,-0.002527,-0.342078,0.335942,0.9969,0.8285,-0.1491,0.001534,0.587515,-0.555301,0.556835,-0.595185,0.558369,-0.559903
0.6233,0.020083,0.000000,-0.327308,0.327308,0.0000,0.0000,0.0000,-0.002527,-0.342078,0.337476,0.9969,0.8285,-0.1491,0.001534,0.587515,-0.555301,0.556835,-0.595185,0.558369,-0.559903
0.6434,0.020076,0.000000,-0.326607,0.326607,0.0000,0.0000,0.0000,-0.002527,-0.340544,0.335942,0.9969,0.8285,-0.1491,0.001534,0.587515,-0.555301,0.556835,-0.595185,0.558369,-0.559903
0.6635,0.020081,0.000000,-0.325906,0.325906,0.0000,0.0000,0.0000,-0.002527,-0.342078,0.335942,0.9969,0.8285,-0.1491,0.001534,0.587515,-0.555301,0.556835,-0.595185,0.558369,-0.559903
0.6835,0.020077,0.000000,-0.325206,0.325206,0.0000,0.0000,0.0000,-0.002527,-0.342078,0.335942,0.9969,0.8285,-0.1491,0.001534,0.587515,-0.555301,0.556835,-0.595185,0.558369,-0.559903
0.7036,0.020081,0.000000,-0.324505,0.324505,0.0000,0.0000,0.0000,-0.002527,-0.342078,0.335942,0.9969,0.8285,-0.1491,0.001534,0.587515,-0.555301,0.556835,-0.595185,0.558369,-0.559903
0.7237,0.020084,0.000000,-0.323804,0.323804,0.0000,0.0000,0.0000,-0.002527,-0.340544,0.337476,0.9969,0.8285,-0.1491,0.001534,0.587515,-0.555301,0.556835,-0.595185,0.558369,-0.559903
0.7439,0.020233,0.000000,-0.323097,0.323097,0.0000,0.0000,0.0000,-0.002527,-0.340544,0.335942,0.9969,0.8285,-0.1491,0.001534,0.587515,-0.555301,0.556835,-0.595185,0.558369,-0.559903
0.7640,0.020081,0.000000,-0.322396,0.322396,0.0000,0.0000,0.0000,-0.002527,-0.340544,0.335942,0.9969,0.8285,-0.1491,0.001534,0.587515,-0.555301,0.556835,-0.595185,0.558369,-0.559903
0.7841,0.020076,0.000000,-0.321696,0.321696,0.0000,0.0000,0.0000,-0.002527,-0.340544,0.335942,0.9969,0.8285,-0.1491,0.001534,0.587515,-0.555301,0.556835,-0.595185,0.558369,-0.559903
0.8042,0.020078,0.000000,-0.320995,0.320995,0.0000,0.0000,0.0000,-0.002527,-0.340544,0.335942,0.9969,0.8285,-0.1491,0.001534,0.587515,-0.555301,0.556835,-0.595185,0.558369,-0.559903
0.8243,0.020085,0.000000,-0.320294,0.320294,0.0000,0.0000,0.0000,-0.002527,-0.340544,0.335942,0.9969,0.8285,-0.1491,0.001534,0.587515,-0.555301,0.556835,-0.595185,0.558369,-0.559903
0.8443,0.020083,0.000000,-0.319593,0.319593,0.0000,0.0000,0.0000,-0.002527,-0.340544,0.335942,0.9969,0.8285,-0.1491,0.001534,0.587515,-0.555301,0.556835,-0.595185,0.558369,-0.559903
0.8644,0.020080,0.000000,-0.318892,0.318892,0.0000,0.0000,0.0000,-0.002527,-0.340544,0.335942,0.9969,0.8285,-0.1491,0.001534,0.587515,-0.555301,0.556835,-0.595185,0.558369,-0.559903
0.8845,0.020075,0.000000,-0.318191,0.318191,0.0000,0.0000,0.0000,-0.002527,-0.339010,0.335942,0.9969,0.8285,-0.1491,0.001534,0.587515,-0.555301,0.556835,-0.595185,0.558369,-0.559903
0.9046,0.020077,0.000000,-0.317490,0.317490,0.0000,0.0000,0.0000,-0.002527,-0.334408,0.335942,0.9969,0.8285,-0.1491,0.001534,0.587515,-0.555301,0.556835,-0.595185,0.558369,-0.559903
0.9247,0.020078,0.000000,-0.316789,0.316789,0.0000,0.0000,0.0000,-0.002527,-0.326738,0.335942,0.9969,0.8285,-0.1491,0.001534,0.587515,-0.555301,0.556835,-0.595185,0.558369,-0.559903
0.9447,0.020089,0.000000,-0.316088,0.316088,0.0000,0.0000,0.0000,-0.002527,-0.320602,0.334408,0.9969,0.8285,-0.1491,0.001534,0.587515,-0.555301,0.556835,-0.595185,0.558369,-0.559903
0.9648,0.020079,0.000000,-0.315387,0.315387,0.0000,0.0000,0.0000,-0.002527,-0.319068,0.332874,0.9969,0.8285,-0.1491,0.001534,0.587515,-0.555301,0.556835,-0.595185,0.558369,-0.559903
0.9851,0.020261,0.000000,-0.314680,0.314680,0.0000,0.0000,0.0000,-0.002527,-0.319068,0.331340,0.9969,0.8285,-0.1491,0.001534,0.587515,-0.555301,0.556835,-0.595185,0.558369,-0.559903
1.0052,0.020080,0.000000,-0.313979,0.313979,0.0000,0.0000,0.0000,-0.002527,-0.319068,0.328272,0.9969,0.8285,-0.1491,0.001534,0.587515,-0.555301,0.556835,-0.595185,0.558369,-0.559903
1.0252,0.020077,0.000000,-0.313278,0.313278,0.0000,0.0000,0.0000,-0.002527,-0.317534,0.322136,0.9969,0.8285,-0.1491,0.001534,0.587515,-0.555301,0.556835,-0.595185,0.558369,-0.559903
1.0453,0.020085,0.000000,-0.312577,0.312577,0.0000,0.0000,0.0000,-0.002527,-0.319068,0.317534,0.9969,0.8285,-0.1491,0.001534,0.587515,-0.555301,0.556835,-0.595185,0.558369,-0.559903
1.0654,0.020076,0.000000,-0.311876,0.311876,0.0000,0.0000,0.0000,-0.002527,-0.317534,0.314466,0.9969,0.8285,-0.1491,0.001534,0.587515,-0.555301,0.556835,-0.595185,0.558369,-0.559903
1.0855,0.020088,0.000000,-0.311175,0.311175,0.0000,0.0000,0.0000,-0.002527,-0.317534,0.314466,0.9969,0.8285,-0.1491,0.001534,0.587515,-0.555301,0.556835,-0.595185,0.558369,-0.559903
1.1056,0.020079,0.000000,-0.310474,0.310474,0.0000,0.0000,0.0000,-0.002527,-0.317534,0.314466,0.9969,0.8285,-0.1491,0.001534,0.587515,-0.555301,0.556835,-0.595185,0.558369,-0.559903
1.1256,0.020081,0.000000,-0.309773,0.309773,0.0000,0.0000,0.0000,-0.002527,-0.317534,0.314466,0.9969,0.8285,-0.1491,0.001534,0.587515,-0.555301,0.556835,-0.595185,0.558369,-0.559903
1.1457,0.020081,0.000000,-0.309072,0.309072,0.0000,0.0000,0.0000,-0.002527,-0.317534,0.314466,0.9969,0.8285,-0.1491,0.001534,0.587515,-0.555301,0.556835,-0.595185,0.558369,-0.559903
1.1658,0.020076,0.000000,-0.308372,0.308372,0.0000,0.0000,0.0000,-0.002527,-0.317534,0.314466,0.9969,0.8285,-0.1491,0.001534,0.587515,-0.555301,0.556835,-0.595185,0.558369,-0.559903
1.1859,0.020088,0.000000,-0.307670,0.307670,0.0000,0.0000,0.0000,-0.002513,-0.317534,0.314466,1.0358,0.7928,-0.2028,0.001534,0.587515,-0.556835,0.556835,-0.595185,0.558369,-0.559903
1.2060,0.020072,0.000000,-0.306970,0.306970,0.0000,0.0000,0.0000,-0.002515,-0.317534,0.314466,1.0317,0.7965,-0.1972,0.001534,0.587515,-0.556835,0.556835,-0.595185,0.558369,-0.559903
1.2260,0.020077,0.000000,-0.306269,0.306269,0.0000,0.0000,0.0000,-0.002501,-0.317534,0.312932,1.0714,0.7605,-0.2510,0.001534,0.587515,-0.558369,0.556835,-0.595185,0.558369,-0.559903
1.2461,0.020083,0.000000,-0.305568,0.305568,0.0000,0.0000,0.0000,-0.002489,-0.317534,0.312932,1.1065,0.7287,-0.2986,0.001534,0.587515,-0.559903,0.556835,-0.595185,0.558369,-0.559903
1.2662,0.020076,0.000000,-0.304867,0.304867,0.0000,0.0000,0.0000,-0.002491,-0.317534,0.312932,1.1028,0.7320,-0.2936,0.001534,0.587515,-0.559903,0.556835,-0.595185,0.558369,-0.559903
1.2863,0.020092,0.000000,-0.304166,0.304166,0.0000,0.0000,0.0000,-0.002477,-0.316000,0.312932,1.1424,0.6961,-0.3475,0.001534,0.587515,-0.561437,0.556835,-0.595185,0.558369,-0.559903
1.3064,0.020076,0.000000,-0.303465,0.303465,0.0000,0.0000,0.0000,-0.002479,-0.314466,0.312932,1.1383,0.6998,-0.3419,0.001534,0.587515,-0.561437,0.556835,-0.595185,0.558369,-0.559903
1.3265,0.020081,0.000000,-0.302764,0.302764,0.0000,0.0000,0.0000,-0.002479,-0.312932,0.312932,1.1383,0.6998,-0.3419,0.001534,0.587515,-0.561437,0.556835,-0.595185,0.558369,-0.559903
1.3465,0.020083,0.000000,-0.302063,0.302063,0.0000,0.0000,0.0000,-0.002479,-0.312932,0.312932,1.1383,0.6998,-0.3419,0.001534,0.587515,-0.561437,0.556835,-0.595185,0.558369,-0.559903
1.3666,0.020073,0.000000,-0.301362,0.301362,0.0000,0.0000,0.0000,-0.002479,-0.312932,0.311398,1.1383,0.6998,-0.3419,0.001534,0.587515,-0.561437,0.556835,-0.595185,0.558369,-0.559903
1.3888,0.022171,0.000000,-0.300588,0.300588,0.0000,0.0000,0.0000,-0.002479,-0.312932,0.311398,1.1383,0.6998,-0.3419,0.001534,0.587515,-0.561437,0.556835,-0.595185,0.558369,-0.559903
1.4089,0.020082,0.000000,-0.299887,0.299887,0.0000,0.0000,0.0000,-0.002479,-0.312932,0.311398,1.1383,0.6998,-0.3419,0.001534,0.587515,-0.561437,0.556835,-0.595185,0.558369,-0.559903
1.4290,0.020092,0.000000,-0.299186,0.299186,0.0000,0.0000,0.0000,-0.002479,-0.312932,0.309864,1.1383,0.6998,-0.3419,0.001534,0.587515,-0.561437,0.556835,-0.595185,0.558369,-0.559903
1.4490,0.020083,0.000000,-0.298485,0.298485,0.0000,0.0000,0.0000,-0.002479,-0.312932,0.309864,1.1383,0.6998,-0.3419,0.001534,0.587515,-0.561437,0.556835,-0.595185,0.558369,-0.559903
1.4691,0.020081,0.000000,-0.297784,0.297784,0.0000,0.0000,0.0000,-0.002479,-0.312932,0.309864,1.1383,0.6998,-0.3419,0.001534,0.587515,-0.561437,0.556835,-0.595185,0.558369,-0.559903
1.4892,0.020083,0.000000,-0.297083,0.297083,0.0000,0.0000,0.0000,-0.002479,-0.312932,0.309864,1.1383,0.6998,-0.3419,0.001534,0.587515,-0.561437,0.556835,-0.595185,0.558369,-0.559903
1.5093,0.020082,0.000000,-0.296382,0.296382,0.0000,0.0000,0.0000,-0.002479,-0.312932,0.309864,1.1383,0.6998,-0.3419,0.001534,0.587515,-0.561437,0.556835,-0.595185,0.558369,-0.559903
1.5294,0.020092,0.000000,-0.295681,0.295681,0.0000,0.0000,0.0000,-0.002479,-0.312932,0.309864,1.1383,0.6998,-0.3419,0.001534,0.587515,-0.561437,0.556835,-0.595185,0.558369,-0.559903
1.5495,0.020076,0.000000,-0.294980,0.294980,0.0000,0.0000,0.0000,-0.002479,-0.312932,0.308330,1.1383,0.6998,-0.3419,0.001534,0.587515,-0.561437,0.556835,-0.595185,0.558369,-0.559903
1.5695,0.020080,0.000000,-0.294279,0.294279,0.0000,0.0000,0.0000,-0.002479,-0.312932,0.309864,1.1383,0.6998,-0.3419,0.001534,0.587515,-0.561437,0.556835,-0.595185,0.558369,-0.559903
1.5896,0.020083,0.000000,-0.293578,0.293578,0.0000,0.0000,0.0000,-0.002479,-0.312932,0.309864,1.1383,0.6998,-0.3419,0.001534,0.587515,-0.561437,0.556835,-0.595185,0.558369,-0.559903
1.6097,0.020087,0.000000,-0.292877,0.292877,0.0000,0.0000,0.0000,-0.002479,-0.312932,0.309864,1.1383,0.6998,-0.3419,0.001534,0.587515,-0.561437,0.556835,-0.595185,0.558369,-0.559903
1.6300,0.020335,0.000000,-0.292167,0.292167,0.0000,0.0000,0.0000,-0.002479,-0.312932,0.308330,1.1383,0.6998,-0.3419,0.001534,0.587515,-0.561437,0.556835,-0.595185,0.558369,-0.559903
1.6501,0.020077,0.000000,-0.291466,0.291466,0.0000,0.0000,0.0000,-0.002479,-0.311398,0.308330,1.1383,0.6998,-0.3419,0.001534,0.587515,-0.561437,0.556835,-0.595185,0.558369,-0.559903
1.6702,0.020083,0.000000,-0.290765,0.290765,0.0000,0.0000,0.0000,-0.002479,-0.311398,0.308330,1.1383,0.6998,-0.3419,0.001534,0.587515,-0.561437,0.556835,-0.595185,0.558369,-0.559903
1.6903,0.020124,0.000000,-0.290062,0.290062,0.0000,0.0000,0.0000,-0.002479,-0.309864,0.308330,1.1383,0.6998,-0.3419,0.001534,0.587515,-0.561437,0.556835,-0.595185,0.558369,-0.559903
1.7104,0.020079,0.000000,-0.289362,0.289362,0.0000,0.0000,0.0000,-0.002479,-0.305262,0.308330,1.1383,0.6998,-0.3419,0.001534,0.587515,-0.561437,0.556835,-0.595185,0.558369,-0.559903
1.7305,0.020088,0.000000,-0.288660,0.288660,0.0000,0.0000,0.0000,-0.002479,-0.297592,0.308330,1.1383,0.6998,-0.3419,0.001534,0.587515,-0.561437,0.556835,-0.595185,0.558369,-0.559903
1.7506,0.020077,0.000000,-0.287960,0.287960,0.0000,0.0000,0.0000,-0.002479,-0.291456,0.306796,1.1383,0.6998,-0.3419,0.001534,0.587515,-0.561437,0.556835,-0.595185,0.558369,-0.559903
1.7708,0.020201,0.000000,-0.287254,0.287254,0.0000,0.0000,0.0000,-0.002479,-0.289922,0.305262,1.1383,0.6998,-0.3419,0.001534,0.587515,-0.561437,0.556835,-0.595185,0.558369,-0.559903
1.7909,0.020087,0.000000,-0.286553,0.286553,0.0000,0.0000,0.0000,-0.002490,-0.289922,0.302194,1.0889,0.7150,-0.3965,0.001534,0.585981,-0.561437,0.556835,-0.595185,0.558369,-0.559903
1.8109,0.020080,0.000000,-0.285852,0.285852,0.0000,0.0000,0.0000,-0.002477,-0.289922,0.297592,1.1438,0.6979,-0.3368,0.001534,0.587515,-0.561437,0.556835,-0.595185,0.558369,-0.559903
1.8311,0.020135,0.000000,-0.285149,0.285149,0.0000,0.0000,0.0000,-0.002479,-0.289922,0.292990,1.1381,0.6997,-0.3430,0.001534,0.587515,-0.561437,0.556835,-0.595185,0.558369,-0.559903
1.8512,0.020081,0.000000,-0.284449,0.284449,0.0000,0.0000,0.0000,-0.002479,-0.289922,0.291456,1.1381,0.6997,-0.3430,0.001534,0.587515,-0.561437,0.556835,-0.595185,0.558369,-0.559903
1.8712,0.020082,0.000000,-0.283748,0.283748,0.0000,0.0000,0.0000,-0.002479,-0.288388,0.288388,1.1381,0.6997,-0.3430,0.001534,0.587515,-0.561437,0.556835,-0.595185,0.558369,-0.559903
1.8915,0.020241,0.000000,-0.283041,0.283041,0.0000,0.0000,0.0000,-0.002479,-0.288388,0.286854,1.1381,0.6997,-0.3430,0.001534,0.587515,-0.561437,0.556835,-0.595185,0.558369,-0.559903
1.9116,0.020081,0.000000,-0.282340,0.282340,0.0000,0.0000,0.0000,-0.002479,-0.288388,0.286854,1.1381,0.6997,-0.3430,0.001534,0.587515,-0.561437,0.556835,-0.595185,0.558369,-0.559903
1.9317,0.020129,0.000000,-0.281637,0.281637,0.0000,0.0000,0.0000,-0.002479,-0.288388,0.286854,1.1381,0.6997,-0.3430,0.001534,0.587515,-0.561437,0.556835,-0.595185,0.558369,-0.559903
1.9518,0.020080,0.000000,-0.280936,0.280936,0.0000,0.0000,0.0000,-0.002479,-0.288388,0.285320,1.1381,0.6997,-0.3430,0.001534,0.587515,-0.561437,0.556835,-0.595185,0.558369,-0.559903
1.9718,0.020077,0.000000,-0.280236,0.280236,0.0000,0.0000,0.0000,-0.002479,-0.286854,0.285320,1.1381,0.6997,-0.3430,0.001534,0.587515,-0.561437,0.556835,-0.595185,0.558369,-0.559903
1.9920,0.020118,0.000000,-0.279533,0.279533,0.0000,0.0000,0.0000,-0.002479,-0.286854,0.285320,1.1381,0.6997,-0.3430,0.001534,0.587515,-0.561437,0.556835,-0.595185,0.558369,-0.559903
2.0120,0.020082,0.000000,-0.278832,0.278832,0.0000,0.0000,0.0000,-0.002479,-0.286854,0.285320,1.1381,0.6997,-0.3430,0.001534,0.587515,-0.561437,0.556835,-0.595185,0.558369,-0.559903
2.0322,0.020194,0.000000,-0.278128,0.278128,0.0000,0.0000,0.0000,-0.002479,-0.285320,0.285320,1.1381,0.6997,-0.3430,0.001534,0.587515,-0.561437,0.556835,-0.595185,0.558369,-0.559903
2.0523,0.020080,0.000000,-0.277427,0.277427,0.0000,0.0000,0.0000,-0.002479,-0.285320,0.285320,1.1381,0.6997,-0.3430,0.001534,0.587515,-0.561437,0.556835,-0.595185,0.558369,-0.559903
2.0724,0.020081,0.000000,-0.276726,0.276726,0.0000,0.0000,0.0000,-0.002479,-0.283786,0.285320,1.1381,0.6997,-0.3430,0.001534,0.587515,-0.561437,0.556835,-0.595185,0.558369,-0.559903
2.0925,0.020112,0.000000,-0.276024,0.276024,0.0000,0.0000,0.0000,-0.002479,-0.283786,0.283786,1.1381,0.6997,-0.3430,0.001534,0.587515,-0.561437,0.556835,-0.595185,0.558369,-0.559903
2.1126,0.020083,0.000000,-0.275323,0.275323,0.0000,0.0000,0.0000,-0.002479,-0.283786,0.283786,1.1381,0.6997,-0.3430,0.001534,0.587515,-0.561437,0.556835,-0.595185,0.558369,-0.559903
2.1327,0.020092,0.000000,-0.274621,0.274621,0.0000,0.0000,0.0000,-0.002479,-0.283786,0.283786,1.1381,0.6997,-0.3430,0.001534,0.587515,-0.561437,0.556835,-0.595185,0.558369,-0.559903
2.1528,0.020136,0.000000,-0.273918,0.273918,0.0000,0.0000,0.0000,-0.002479,-0.283786,0.282252,1.1381,0.6997,-0.3430,0.001534,0.587515,-0.561437,0.556835,-0.595185,0.558369,-0.559903
2.1729,0.020083,0.000000,-0.273217,0.273217,0.0000,0.0000,0.0000,-0.002479,-0.283786,0.282252,1.1381,0.6997,-0.3430,0.001534,0.587515,-0.561437,0.556835,-0.595185,0.558369,-0.559903
2.1930,0.020105,0.000000,-0.272516,0.272516,0.0000,0.0000,0.0000,-0.002479,-0.283786,0.282252,1.1381,0.6997,-0.3430,0.001534,0.587515,-0.561437,0.556835,-0.595185,0.558369,-0.559903
2.2131,0.020110,0.000000,-0.271814,0.271814,0.0000,0.0000,0.0000,-0.002479,-0.283786,0.282252,1.1381,0.6997,-0.3430,0.001534,0.587515,-0.561437,0.556835,-0.595185,0.558369,-0.559903
2.2332,0.020130,0.000000,-0.271111,0.271111,0.0000,0.0000,0.0000,-0.002479,-0.283786,0.282252,1.1381,0.6997,-0.3430,0.001534,0.587515,-0.561437,0.556835,-0.595185,0.558369,-0.559903
2.2534,0.020177,0.000000,-0.270407,0.270407,0.0000,0.0000,0.0000,-0.002479,-0.283786,0.282252,1.1381,0.6997,-0.3430,0.001534,0.587515,-0.561437,0.556835,-0.595185,0.558369,-0.559903
2.2735,0.020096,0.000000,-0.269705,0.269705,0.0000,0.0000,0.0000,-0.002479,-0.283786,0.282252,1.1381,0.6997,-0.3430,0.001534,0.587515,-0.561437,0.556835,-0.595185,0.558369,-0.559903
2.2936,0.020080,0.000000,-0.269004,0.269004,0.0000,0.0000,0.0000,-0.002479,-0.283786,0.282252,1.1381,0.6997,-0.3430,0.001534,0.587515,-0.561437,0.556835,-0.595185,0.558369,-0.559903
2.3139,0.020294,0.000000,-0.268296,0.268296,0.0000,0.0000,0.0000,-0.002479,-0.283786,0.282252,1.1381,0.6997,-0.3430,0.001534,0.587515,-0.561437,0.556835,-0.595185,0.558369,-0.559903
2.3340,0.020090,0.000000,-0.267594,0.267594,0.0000,0.0000,0.0000,-0.002479,-0.283786,0.282252,1.1381,0.6997,-0.3430,0.001534,0.587515,-0.561437,0.556835,-0.595185,0.558369,-0.559903
2.3541,0.020099,0.000000,-0.266893,0.266893,0.0000,0.0000,0.0000,-0.002479,-0.283786,0.282252,1.1381,0.6997,-0.3430,0.001534,0.587515,-0.561437,0.556835,-0.595185,0.558369,-0.559903
2.3742,0.020086,0.000000,-0.266192,0.266192,0.0000,0.0000,0.0000,-0.002479,-0.283786,0.282252,1.1381,0.6997,-0.3430,0.001534,0.587515,-0.561437,0.556835,-0.595185,0.558369,-0.559903
2.3943,0.020107,0.000000,-0.265490,0.265490,0.0000,0.0000,0.0000,-0.002479,-0.282252,0.282252,1.1381,0.6997,-0.3430,0.001534,0.587515,-0.561437,0.556835,-0.595185,0.558369,-0.559903
2.4145,0.020195,0.000000,-0.264785,0.264785,0.0000,0.0000,0.0000,-0.002479,-0.282252,0.282252,1.1381,0.6997,-0.3430,0.001534,0.587515,-0.561437,0.556835,-0.595185,0.558369,-0.559903
2.4346,0.020081,0.000000,-0.264084,0.264084,0.0000,0.0000,0.0000,-0.002479,-0.282252,0.282252,1.1381,0.6997,-0.3430,0.001534,0.587515,-0.561437,0.556835,-0.595185,0.558369,-0.559903
2.4546,0.020090,0.000000,-0.263383,0.263383,0.0000,0.0000,0.0000,-0.002479,-0.282252,0.282252,1.1381,0.6997,-0.3430,0.001534,0.587515,-0.561437,0.556835,-0.595185,0.558369,-0.559903
2.4747,0.020078,0.000000,-0.262682,0.262682,0.0000,0.0000,0.0000,-0.002479,-0.277651,0.280718,1.1381,0.6997,-0.3430,0.001534,0.587515,-0.561437,0.556835,-0.595185,0.558369,-0.559903
2.4948,0.020102,0.000000,-0.261980,0.261980,0.0000,0.0000,0.0000,-0.002479,-0.269981,0.279185,1.1381,0.6997,-0.3430,0.001534,0.587515,-0.561437,0.556835,-0.595185,0.558369,-0.559903
2.5149,0.020088,0.000000,-0.261279,0.261279,0.0000,0.0000,0.0000,-0.002479,-0.265379,0.279185,1.1381,0.6997,-0.3430,0.001534,0.587515,-0.561437,0.556835,-0.595185,0.558369,-0.559903
2.5350,0.020080,0.000000,-0.260578,0.260578,0.0000,0.0000,0.0000,-0.002479,-0.263845,0.276117,1.1381,0.6997,-0.3430,0.001534,0.587515,-0.561437,0.556835,-0.595185,0.558369,-0.559903
2.5551,0.020084,0.000000,-0.259877,0.259877,0.0000,0.0000,0.0000,-0.002479,-0.262311,0.273049,1.1381,0.6997,-0.3430,0.001534,0.587515,-0.561437,0.556835,-0.595185,0.558369,-0.559903
2.5752,0.020089,0.000000,-0.259176,0.259176,0.0000,0.0000,0.0000,-0.002479,-0.262311,0.266913,1.1381,0.6997,-0.3430,0.001534,0.587515,-0.561437,0.556835,-0.595185,0.558369,-0.559903
2.5953,0.020096,0.000000,-0.258474,0.258474,0.0000,0.0000,0.0000,-0.002479,-0.262311,0.262311,1.1381,0.6997,-0.3430,0.001534,0.587515,-0.561437,0.556835,-0.595185,0.558369,-0.559903
2.6153,0.020082,0.000000,-0.257773,0.257773,0.0000,0.0000,0.0000,-0.002479,-0.262311,0.259243,1.1381,0.6997,-0.3430,0.001534,0.587515,-0.561437,0.556835,-0.595185,0.558369,-0.559903
2.6354,0.020083,0.000000,-0.257072,0.257072,0.0000,0.0000,0.0000,-0.002479,-0.262311,0.259243,1.1381,0.6997,-0.3430,0.001534,0.587515,-0.561437,0.556835,-0.595185,0.558369,-0.559903
2.6556,0.020133,0.000000,-0.256369,0.256369,0.0000,0.0000,0.0000,-0.002479,-0.262311,0.257709,1.1381,0.6997,-0.3430,0.001534,0.587515,-0.561437,0.556835,-0.595185,0.558369,-0.559903
2.6756,0.020077,0.000000,-0.255669,0.255669,0.0000,0.0000,0.0000,-0.002479,-0.262311,0.259243,1.1381,0.6997,-0.3430,0.001534,0.587515,-0.561437,0.556835,-0.595185,0.558369,-0.559903
2.6958,0.020207,0.000000,-0.254963,0.254963,0.0000,0.0000,0.0000,-0.002479,-0.262311,0.257709,1.1381,0.6997,-0.3430,0.001534,0.587515,-0.561437,0.556835,-0.595185,0.558369,-0.559903
2.7159,0.020076,0.000000,-0.254262,0.254262,0.0000,0.0000,0.0000,-0.002479,-0.262311,0.257709,1.1381,0.6997,-0.3430,0.001534,0.587515,-0.561437,0.556835,-0.595185,0.558369,-0.559903
2.7360,0.020077,0.000000,-0.253562,0.253562,0.0000,0.0000,0.0000,-0.002479,-0.260777,0.257709,1.1381,0.6997,-0.3430,0.001534,0.587515,-0.561437,0.556835,-0.595185,0.558369,-0.559903
2.7561,0.020080,0.000000,-0.252861,0.252861,0.0000,0.0000,0.0000,-0.002479,-0.262311,0.257709,1.1381,0.6997,-0.3430,0.001534,0.587515,-0.561437,0.556835,-0.595185,0.558369,-0.559903
2.7762,0.020083,0.000000,-0.252160,0.252160,0.0000,0.0000,0.0000,-0.002479,-0.260777,0.256175,1.1381,0.6997,-0.3430,0.001534,0.587515,-0.561437,0.556835,-0.595185,0.558369,-0.559903
2.7966,0.020462,0.000000,-0.251445,0.251445,0.0000,0.0000,0.0000,-0.002479,-0.260777,0.256175,1.1381,0.6997,-0.3430,0.001534,0.587515,-0.561437,0.556835,-0.595185,0.558369,-0.559903
2.8167,0.020088,0.000000,-0.250744,0.250744,0.0000,0.0000,0.0000,-0.002479,-0.260777,0.256175,1.1381,0.6997,-0.3430,0.001534,0.587515,-0.561437,0.556835,-0.595185,0.558369,-0.559903
2.8368,0.020073,0.000000,-0.250044,0.250044,0.0000,0.0000,0.0000,-0.002479,-0.260777,0.256175,1.1381,0.6997,-0.3430,0.001534,0.587515,-0.561437,0.556835,-0.595185,0.558369,-0.559903
2.8569,0.020077,0.000000,-0.249343,0.249343,0.0000,0.0000,0.0000,-0.002479,-0.259243,0.254641,1.1381,0.6997,-0.3430,0.001534,0.587515,-0.561437,0.556835,-0.595185,0.558369,-0.559903
2.8769,0.020078,0.000000,-0.248642,0.248642,0.0000,0.0000,0.0000,-0.002479,-0.257709,0.254641,1.1381,0.6997,-0.4309,0.000000,0.587515,-0.561437,0.556835,-0.595185,0.558369,-0.559903
2.8975,0.020546,0.000000,-0.247925,0.247925,0.0000,0.0000,0.0000,-0.002479,-0.256175,0.254641,1.1381,0.6997,-0.3430,0.001534,0.587515,-0.561437,0.556835,-0.595185,0.558369,-0.559903
2.9176,0.020081,0.000000,-0.247224,0.247224,0.0000,0.0000,0.0000,-0.002479,-0.256175,0.254641,1.1381,0.6997,-0.3430,0.001534,0.587515,-0.561437,0.556835,-0.595185,0.558369,-0.559903
2.9376,0.020081,0.000000,-0.246523,0.246523,0.0000,0.0000,0.0000,-0.002479,-0.256175,0.254641,1.1381,0.6997,-0.3430,0.001534,0.587515,-0.561437,0.556835,-0.595185,0.558369,-0.559903
2.9577,0.020082,0.000000,-0.245822,0.245822,0.0000,0.0000,0.0000,-0.002479,-0.256175,0.254641,1.1381,0.6997,-0.3430,0.001534,0.587515,-0.561437,0.556835,-0.595185,0.558369,-0.559903
2.9778,0.020082,0.000000,-0.245121,0.245121,0.0000,0.0000,0.0000,-0.002479,-0.256175,0.254641,1.1381,0.6997,-0.3430,0.001534,0.587515,-0.561437,0.556835,-0.595185,0.558369,-0.559903
2.9979,0.020079,0.000000,-0.244420,0.244420,0.0000,0.0000,0.0000,-0.002479,-0.256175,0.254641,1.1381,0.6997,-0.3430,0.001534,0.587515,-0.561437,0.556835,-0.595185,0.558369,-0.559903
3.0180,0.020082,0.000000,-0.243719,0.243719,0.0000,0.0000,0.0000,-0.002479,-0.256175,0.254641,1.1381,0.6997,-0.3430,0.001534,0.587515,-0.561437,0.556835,-0.595185,0.558369,-0.559903
3.0380,0.020080,0.000000,-0.243018,0.243018,0.0000,0.0000,0.0000,-0.002479,-0.256175,0.254641,1.1381,0.6997,-0.3430,0.001534,0.587515,-0.561437,0.556835,-0.595185,0.558369,-0.559903
3.0581,0.020089,0.000000,-0.242317,0.242317,0.0000,0.0000,0.0000,-0.002479,-0.256175,0.254641,1.1381,0.6997,-0.3430,0.001534,0.587515,-0.561437,0.556835,-0.595185,0.558369,-0.559903
3.0782,0.020087,0.000000,-0.241616,0.241616,0.0000,0.0000,0.0000,-0.002479,-0.256175,0.254641,1.1381,0.6997,-0.3430,0.001534,0.587515,-0.561437,0.556835,-0.595185,0.558369,-0.559903
3.0983,0.020121,0.000000,-0.240913,0.240913,0.0000,0.0000,0.0000,-0.002479,-0.256175,0.254641,1.1381,0.6997,-0.3430,0.001534,0.587515,-0.561437,0.556835,-0.595185,0.558369,-0.559903
3.1189,0.020514,0.000000,-0.240197,0.240197,0.0000,0.0000,0.0000,-0.002479,-0.256175,0.254641,1.1381,0.6997,-0.3430,0.001534,0.587515,-0.561437,0.556835,-0.595185,0.558369,-0.559903
3.1389,0.020075,0.000000,-0.239496,0.239496,0.0000,0.0000,0.0000,-0.002479,-0.256175,0.254641,1.1381,0.6997,-0.3430,0.001534,0.587515,-0.561437,0.556835,-0.595185,0.558369,-0.559903
3.1590,0.020102,0.000000,-0.238795,0.238795,0.0000,0.0000,0.0000,-0.002479,-0.256175,0.254641,1.1381,0.6997,-0.3430,0.001534,0.587515,-0.561437,0.556835,-0.595185,0.558369,-0.559903
3.1791,0.020079,0.000000,-0.238094,0.238094,0.0000,0.0000,0.0000,-0.002479,-0.256175,0.254641,1.1381,0.6997,-0.3430,0.001534,0.587515,-0.561437,0.556835,-0.595185,0.558369,-0.559903
3.1992,0.020081,0.000000,-0.237393,0.237393,0.0000,0.0000,0.0000,-0.002479,-0.254641,0.253107,1.1381,0.6997,-0.3430,0.001534,0.587515,-0.561437,0.556835,-0.595185,0.558369,-0.559903
3.2194,0.020198,0.000000,-0.236688,0.236688,0.0000,0.0000,0.0000,-0.002479,-0.253107,0.253107,1.1381,0.6997,-0.3430,0.001534,0.587515,-0.561437,0.556835,-0.595185,0.558369,-0.559903
3.2395,0.020084,0.000000,-0.235987,0.235987,0.0000,0.0000,0.0000,-0.002479,-0.246971,0.254641,1.1381,0.6997,-0.3430,0.001534,0.587515,-0.561437,0.556835,-0.595185,0.558369,-0.559903
3.2596,0.020102,0.000000,-0.235285,0.235285,0.0000,0.0000,0.0000,-0.002479,-0.239301,0.253107,1.1381,0.6997,-0.3430,0.001534,0.587515,-0.561437,0.556835,-0.595185,0.558369,-0.559903
3.2797,0.020079,0.000000,-0.234584,0.234584,0.0000,0.0000,0.0000,-0.002479,-0.236233,0.253107,1.1381,0.6997,-0.3430,0.001534,0.587515,-0.561437,0.556835,-0.595185,0.558369,-0.559903
3.2997,0.020081,0.000000,-0.233883,0.233883,0.0000,0.0000,0.0000,-0.002479,-0.237767,0.251573,1.1381,0.6997,-0.3430,0.001534,0.587515,-0.561437,0.556835,-0.595185,0.558369,-0.559903
3.3199,0.020154,0.000000,-0.233180,0.233180,0.0000,0.0000,0.0000,-0.002479,-0.236233,0.248505,1.1381,0.6997,-0.3430,0.001534,0.587515,-0.561437,0.556835,-0.595185,0.558369,-0.559903
3.3400,0.020078,0.000000,-0.232479,0.232479,0.0000,0.0000,0.0000,-0.002479,-0.234699,0.243903,1.1381,0.6997,-0.3430,0.001534,0.587515,-0.561437,0.556835,-0.595185,0.558369,-0.559903
3.3605,0.020561,0.000000,-0.231761,0.231761,0.0000,0.0000,0.0000,-0.002479,-0.234699,0.240835,1.1381,0.6997,-0.3430,0.001534,0.587515,-0.561437,0.556835,-0.595185,0.558369,-0.559903
3.3806,0.020084,0.000000,-0.231060,0.231060,0.0000,0.0000,0.0000,-0.002479,-0.236233,0.236233,1.1381,0.6997,-0.3430,0.001534,0.587515,-0.561437,0.556835,-0.595185,0.558369,-0.559903
3.4007,0.020083,0.000000,-0.230359,0.230359,0.0000,0.0000,0.0000,-0.002479,-0.234699,0.234699,1.1381,0.6997,-0.3430,0.001534,0.587515,-0.561437,0.556835,-0.595185,0.558369,-0.559903
3.4208,0.020099,0.000000,-0.229658,0.229658,0.0000,0.0000,0.0000,-0.002490,-0.233165,0.233165,1.0889,0.7150,-0.3963,0.001534,0.585981,-0.561437,0.556835,-0.595185,0.558369,-0.559903
3.4409,0.020075,0.000000,-0.228957,0.228957,0.0000,0.0000,0.0000,-0.002477,-0.233165,0.233165,1.1438,0.6979,-0.3368,0.001534,0.587515,-0.561437,0.556835,-0.595185,0.558369,-0.559903
3.4610,0.020115,0.000000,-0.228255,0.228255,0.0000,0.0000,0.0000,-0.002479,-0.233165,0.233165,1.1381,0.6997,-0.3430,0.001534,0.587515,-0.561437,0.556835,-0.595185,0.558369,-0.559903
3.4811,0.020081,0.000000,-0.227554,0.227554,0.0000,0.0000,0.0000,-0.002479,-0.233165,0.233165,1.1381,0.6997,-0.3430,0.001534,0.587515,-0.561437,0.556835,-0.595185,0.558369,-0.559903
3.5012,0.020084,0.000000,-0.226853,0.226853,0.0000,0.0000,0.0000,-0.002479,-0.231631,0.231631,1.1381,0.6997,-0.3430,0.001534,0.587515,-0.561437,0.556835,-0.595185,0.558369,-0.559903
3.5216,0.020406,0.000000,-0.226140,0.226140,0.0000,0.0000,0.0000,-0.002479,-0.231631,0.231631,1.1381,0.6997,-0.3430,0.001534,0.587515,-0.561437,0.556835,-0.595185,0.558369,-0.559903
3.5417,0.020139,0.000000,-0.225437,0.225437,0.0000,0.0000,0.0000,-0.002479,-0.230097,0.231631,1.1381,0.6997,-0.3430,0.001534,0.587515,-0.561437,0.556835,-0.595185,0.558369,-0.559903
3.5620,0.020270,0.000000,-0.224730,0.224730,0.0000,0.0000,0.0000,-0.002479,-0.230097,0.231631,1.1381,0.6997,-0.3430,0.001534,0.587515,-0.561437,0.556835,-0.595185,0.558369,-0.559903
3.5820,0.020078,0.000000,-0.224029,0.224029,0.0000,0.0000,0.0000,-0.002479,-0.230097,0.230097,1.1381,0.6997,-0.3430,0.001534,0.587515,-0.561437,0.556835,-0.595185,0.558369,-0.559903
3.6021,0.020076,0.000000,-0.223328,0.223328,0.0000,0.0000,0.0000,-0.002479,-0.230097,0.230097,1.1381,0.6997,-0.3430,0.001534,0.587515,-0.561437,0.556835,-0.595185,0.558369,-0.559903
3.6223,0.020131,0.000000,-0.222625,0.222625,0.0000,0.0000,0.0000,-0.002479,-0.230097,0.230097,1.1381,0.6997,-0.3430,0.001534,0.587515,-0.561437,0.556835,-0.595185,0.558369,-0.559903
3.6424,0.020168,0.000000,-0.221921,0.221921,0.0000,0.0000,0.0000,-0.002479,-0.230097,0.230097,1.1381,0.6997,-0.3430,0.001534,0.587515,-0.561437,0.556835,-0.595185,0.558369,-0.559903
3.6625,0.020097,0.000000,-0.221220,0.221220,0.0000,0.0000,0.0000,-0.002479,-0.230097,0.228563,1.1381,0.6997,-0.3430,0.001534,0.587515,-0.561437,0.556835,-0.595185,0.558369,-0.559903
3.6826,0.020076,0.000000,-0.220519,0.220519,0.0000,0.0000,0.0000,-0.002479,-0.230097,0.228563,1.1381,0.6997,-0.3430,0.001534,0.587515,-0.561437,0.556835,-0.595185,0.558369,-0.559903
3.7027,0.020087,0.000000,-0.219818,0.219818,0.0000,0.0000,0.0000,-0.002479,-0.230097,0.228563,1.1381,0.6997,-0.3430,0.001534,0.587515,-0.561437,0.556835,-0.595185,0.558369,-0.559903
3.7228,0.020087,0.000000,-0.219117,0.219117,0.0000,0.0000,0.0000,-0.002479,-0.230097,0.228563,1.1381,0.6997,-0.3430,0.001534,0.587515,-0.561437,0.556835,-0.595185,0.558369,-0.559903
3.7429,0.020086,0.000000,-0.218416,0.218416,0.0000,0.0000,0.0000,-0.002479,-0.230097,0.228563,1.1381,0.6997,-0.3430,0.001534,0.587515,-0.561437,0.556835,-0.595185,0.558369,-0.559903
3.7629,0.020072,0.000000,-0.217715,0.217715,0.0000,0.0000,0.0000,-0.002479,-0.230097,0.228563,1.1381,0.6997,-0.3430,0.001534,0.587515,-0.561437,0.556835,-0.595185,0.558369,-0.559903
3.7830,0.020078,0.000000,-0.217014,0.217014,0.0000,0.0000,0.0000,-0.002479,-0.230097,0.227029,1.1381,0.6997,-0.3430,0.001534,0.587515,-0.561437,0.556835,-0.595185,0.558369,-0.559903
3.8031,0.020081,0.000000,-0.216313,0.216313,0.0000,0.0000,0.0000,-0.002479,-0.230097,0.227029,1.1381,0.6997,-0.3430,0.001534,0.587515,-0.561437,0.556835,-0.595185,0.558369,-0.559903
3.8232,0.020085,0.000000,-0.215612,0.215612,0.0000,0.0000,0.0000,-0.002479,-0.230097,0.227029,1.1381,0.6997,-0.3430,0.001534,0.587515,-0.561437,0.556835,-0.595185,0.558369,-0.559903
3.8433,0.020086,0.000000,-0.214911,0.214911,0.0000,0.0000,0.0000,-0.002479,-0.228563,0.227029,1.1381,0.6997,-0.3430,0.001534,0.587515,-0.561437,0.556835,-0.595185,0.558369,-0.559903
3.8633,0.020073,0.000000,-0.214210,0.214210,0.0000,0.0000,0.0000,-0.002479,-0.228563,0.227029,1.1381,0.6997,-0.3430,0.001534,0.587515,-0.561437,0.556835,-0.595185,0.558369,-0.559903
3.8834,0.020114,0.000000,-0.213508,0.213508,0.0000,0.0000,0.0000,-0.002479,-0.228563,0.227029,1.1381,0.6997,-0.3430,0.001534,0.587515,-0.561437,0.556835,-0.595185,0.558369,-0.559903
3.9035,0.020077,0.000000,-0.212807,0.212807,0.0000,0.0000,0.0000,-0.002479,-0.225495,0.227029,1.1381,0.6997,-0.3430,0.001534,0.587515,-0.561437,0.556835,-0.595185,0.558369,-0.559903
3.9236,0.020117,0.000000,-0.212105,0.212105,0.0000,0.0000,0.0000,-0.002479,-0.220893,0.227029,1.1381,0.6997,-0.3430,0.001534,0.587515,-0.561437,0.556835,-0.595185,0.558369,-0.559903
3.9437,0.020086,0.000000,-0.211404,0.211404,0.0000,0.0000,0.0000,-0.002479,-0.213223,0.227029,1.1381,0.6997,-0.3430,0.001534,0.587515,-0.561437,0.556835,-0.595185,0.558369,-0.559903
3.9638,0.020076,0.000000,-0.210703,0.210703,0.0000,0.0000,0.0000,-0.002479,-0.213223,0.227029,1.1381,0.6997,-0.3430,0.001534,0.587515,-0.561437,0.556835,-0.595185,0.558369,-0.559903
3.9839,0.020090,0.000000,-0.210002,0.210002,0.0000,0.0000,0.0000,-0.002479,-0.214757,0.227029,1.1381,0.6997,-0.3430,0.001534,0.587515,-0.561437,0.556835,-0.595185,0.558369,-0.559903
4.0040,0.020077,0.000000,-0.209301,0.209301,0.0000,0.0000,0.0000,-0.002479,-0.213223,0.227029,1.1381,0.6997,-0.3430,0.001534,0.587515,-0.561437,0.556835,-0.595185,0.558369,-0.559903
4.0241,0.020093,0.000000,-0.208600,0.208600,0.0000,0.0000,0.0000,-0.002479,-0.211689,0.225495,1.1381,0.6997,-0.3430,0.001534,0.587515,-0.561437,0.556835,-0.595185,0.558369,-0.559903
4.0441,0.020085,0.000000,-0.207899,0.207899,0.0000,0.0000,0.0000,-0.002479,-0.210155,0.223961,1.1381,0.6997,-0.3430,0.001534,0.587515,-0.561437,0.556835,-0.595185,0.558369,-0.559903
4.0642,0.020079,0.000000,-0.207198,0.207198,0.0000,0.0000,0.0000,-0.002479,-0.208621,0.220893,1.1381,0.6997,-0.3430,0.001534,0.587515,-0.561437,0.556835,-0.595185,0.558369,-0.559903
4.0843,0.020090,0.000000,-0.206496,0.206496,0.0000,0.0000,0.0000,-0.002479,-0.210155,0.217825,1.1381,0.6997,-0.3430,0.001534,0.587515,-0.561437,0.556835,-0.595185,0.558369,-0.559903
4.1044,0.020077,0.000000,-0.205796,0.205796,0.0000,0.0000,0.0000,-0.002479,-0.208621,0.213223,1.1381,0.6997,-0.3430,0.001534,0.587515,-0.561437,0.556835,-0.595185,0.558369,-0.559903
4.1245,0.020094,0.000000,-0.205094,0.205094,0.0000,0.0000,0.0000,-0.002479,-0.208621,0.210155,1.1381,0.6997,-0.3430,0.001534,0.587515,-0.561437,0.556835,-0.595185,0.558369,-0.559903
4.1446,0.020082,0.000000,-0.204393,0.204393,0.0000,0.0000,0.0000,-0.002479,-0.208621,0.208621,1.1381,0.6997,-0.4309,0.000000,0.587515,-0.561437,0.556835,-0.595185,0.558369,-0.559903
4.1646,0.020077,0.000000,-0.203692,0.203692,0.0000,0.0000,0.0000,-0.002479,-0.207087,0.207087,1.1381,0.6997,-0.3430,0.001534,0.587515,-0.561437,0.556835,-0.595185,0.558369,-0.559903
4.1848,0.020108,0.000000,-0.202990,0.202990,0.0000,0.0000,0.0000,-0.002479,-0.207087,0.205553,1.1381,0.6997,-0.3430,0.001534,0.587515,-0.561437,0.556835,-0.595185,0.558369,-0.559903
4.2048,0.020075,0.000000,-0.202290,0.202290,0.0000,0.0000,0.0000,-0.002479,-0.205553,0.205553,1.1381,0.6997,-0.3430,0.001534,0.587515,-0.561437,0.556835,-0.595185,0.558369,-0.559903
4.2249,0.020090,0.000000,-0.201588,0.201588,0.0000,0.0000,0.0000,-0.002479,-0.205553,0.205553,1.1381,0.6997,-0.3430,0.001534,0.587515,-0.561437,0.556835,-0.595185,0.558369,-0.559903
4.2450,0.020083,0.000000,-0.200887,0.200887,0.0000,0.0000,0.0000,-0.002479,-0.204019,0.205553,1.1381,0.6997,-0.3430,0.001534,0.587515,-0.561437,0.556835,-0.595185,0.558369,-0.559903
4.2651,0.020077,0.000000,-0.200187,0.200187,0.0000,0.0000,0.0000,-0.002479,-0.204019,0.205553,1.1381,0.6997,-0.3430,0.001534,0.587515,-0.561437,0.556835,-0.595185,0.558369,-0.559903
4.2852,0.020093,0.000000,-0.199485,0.199485,0.0000,0.0000,0.0000,-0.002479,-0.202485,0.205553,1.1381,0.6997,-0.3430,0.001534,0.587515,-0.561437,0.556835,-0.595185,0.558369,-0.559903
4.3052,0.020078,0.000000,-0.198784,0.198784,0.0000,0.0000,0.0000,-0.002479,-0.202485,0.204019,1.1381,0.6997,-0.3430,0.001534,0.587515,-0.561437,0.556835,-0.595185,0.558369,-0.559903
4.3253,0.020084,0.000000,-0.198083,0.198083,0.0000,0.0000,0.0000,-0.002479,-0.202485,0.204019,1.1381,0.6997,-0.3430,0.001534,0.587515,-0.561437,0.556835,-0.595185,0.558369,-0.559903
4.3454,0.020085,0.000000,-0.197382,0.197382,0.0000,0.0000,0.0000,-0.002479,-0.202485,0.204019,1.1381,0.6997,-0.3430,0.001534,0.587515,-0.561437,0.556835,-0.595185,0.558369,-0.559903
4.3655,0.020077,0.000000,-0.196681,0.196681,0.0000,0.0000,0.0000,-0.002479,-0.202485,0.204019,1.1381,0.6997,-0.3430,0.001534,0.587515,-0.561437,0.556835,-0.595185,0.558369,-0.559903
4.3856,0.020121,0.000000,-0.195979,0.195979,0.0000,0.0000,0.0000,-0.002479,-0.202485,0.202485,1.1381,0.6997,-0.3430,0.001534,0.587515,-0.561437,0.556835,-0.595185,0.558369,-0.559903
4.4057,0.020080,0.000000,-0.195278,0.195278,0.0000,0.0000,0.0000,-0.002479,-0.202485,0.202485,1.1381,0.6997,-0.3430,0.001534,0.587515,-0.561437,0.556835,-0.595185,0.558369,-0.559903
4.4258,0.020089,0.000000,-0.194577,0.194577,0.0000,0.0000,0.0000,-0.002479,-0.202485,0.202485,1.1381,0.6997,-0.3430,0.001534,0.587515,-0.561437,0.556835,-0.595185,0.558369,-0.559903
4.4459,0.020083,0.000000,-0.193876,0.193876,0.0000,0.0000,0.0000,-0.002479,-0.202485,0.202485,1.1381,0.6997,-0.3430,0.001534,0.587515,-0.561437,0.556835,-0.595185,0.558369,-0.559903
4.4659,0.020078,0.000000,-0.193175,0.193175,0.0000,0.0000,0.0000,-0.002479,-0.202485,0.199418,1.1381,0.6997,-0.3430,0.001534,0.587515,-0.561437,0.556835,-0.595185,0.558369,-0.559903
4.4860,0.020092,0.000000,-0.192474,0.192474,0.0000,0.0000,0.0000,-0.002479,-0.202485,0.199418,1.1381,0.6997,-0.3430,0.001534,0.587515,-0.561437,0.556835,-0.595185,0.558369,-0.559903
4.5061,0.020078,0.000000,-0.191773,0.191773,0.0000,0.0000,0.0000,-0.002479,-0.202485,0.199418,1.1381,0.6997,-0.3430,0.001534,0.587515,-0.561437,0.556835,-0.595185,0.558369,-0.559903
4.5262,0.020084,0.000000,-0.191072,0.191072,0.0000,0.0000,0.0000,-0.002479,-0.202485,0.199418,1.1381,0.6997,-0.3430,0.001534,0.587515,-0.561437,0.556835,-0.595185,0.558369,-0.559903
4.5463,0.020080,0.000000,-0.190371,0.190371,0.0000,0.0000,0.0000,-0.002479,-0.202485,0.199418,1.1381,0.6997,-0.3430,0.001534,0.587515,-0.561437,0.556835,-0.595185,0.558369,-0.559903
4.5664,0.020077,0.000000,-0.189670,0.189670,0.0000,0.0000,0.0000,-0.002479,-0.202485,0.199418,1.1381,0.6997,-0.3430,0.001534,0.587515,-0.561437,0.556835,-0.595185,0.558369,-0.559903
4.5864,0.020090,0.000000,-0.188969,0.188969,0.0000,0.0000,0.0000,-0.002479,-0.202485,0.199418,1.1381,0.6997,-0.3430,0.001534,0.587515,-0.561437,0.556835,-0.595185,0.558369,-0.559903
4.6065,0.020078,0.000000,-0.188268,0.188268,0.0000,0.0000,0.0000,-0.002479,-0.200951,0.199418,1.1381,0.6997,-0.3430,0.001534,0.587515,-0.561437,0.556835,-0.595185,0.558369,-0.559903
4.6266,0.020082,0.000000,-0.187567,0.187567,0.0000,0.0000,0.0000,-0.002479,-0.200951,0.199418,1.1381,0.6997,-0.3430,0.001534,0.587515,-0.561437,0.556835,-0.595185,0.558369,-0.559903
4.6467,0.020085,0.000000,-0.186866,0.186866,0.0000,0.0000,0.0000,-0.002479,-0.200951,0.199418,1.1381,0.6997,-0.3430,0.001534,0.587515,-0.561437,0.556835,-0.595185,0.558369,-0.559903
4.6668,0.020079,0.000000,-0.186165,0.186165,0.0000,0.0000,0.0000,-0.002479,-0.200951,0.199418,1.1381,0.6997,-0.3430,0.001534,0.587515,-0.561437,0.556835,-0.595185,0.558369,-0.559903
4.6869,0.020090,0.000000,-0.185464,0.185464,0.0000,0.0000,0.0000,-0.002479,-0.199418,0.199418,1.1381,0.6997,-0.3430,0.001534,0.587515,-0.561437,0.556835,-0.595185,0.558369,-0.559903
4.7070,0.020127,0.000000,-0.184761,0.184761,0.0000,0.0000,0.0000,-0.002479,-0.194816,0.199418,1.1381,0.6997,-0.3430,0.001534,0.587515,-0.561437,0.556835,-0.595185,0.558369,-0.559903
4.7280,0.021028,0.000000,-0.184027,0.184027,0.0000,0.0000,0.0000,-0.002479,-0.188680,0.199418,1.1381,0.6997,-0.3430,0.001534,0.587515,-0.561437,0.556835,-0.595185,0.558369,-0.559903
4.7481,0.020078,0.000000,-0.183326,0.183326,0.0000,0.0000,0.0000,-0.002479,-0.187146,0.199418,1.1381,0.6997,-0.3430,0.001534,0.587515,-0.561437,0.556835,-0.595185,0.558369,-0.559903
4.7682,0.020154,0.000000,-0.182623,0.182623,0.0000,0.0000,0.0000,-0.002479,-0.188680,0.199418,1.1381,0.6997,-0.3430,0.001534,0.587515,-0.561437,0.556835,-0.595185,0.558369,-0.559903
4.7883,0.020082,0.000000,-0.181922,0.181922,0.0000,0.0000,0.0000,-0.002479,-0.187146,0.199418,1.1381,0.6997,-0.3430,0.001534,0.587515,-0.561437,0.556835,-0.595185,0.558369,-0.559903
4.8084,0.020078,0.000000,-0.181221,0.181221,0.0000,0.0000,0.0000,-0.002479,-0.185612,0.197884,1.1381,0.6997,-0.3430,0.001534,0.587515,-0.561437,0.556835,-0.595185,0.558369,-0.559903
4.8286,0.020237,0.000000,-0.180515,0.180515,0.0000,0.0000,0.0000,-0.002479,-0.187146,0.197884,1.1381,0.6997,-0.3430,0.001534,0.587515,-0.561437,0.556835,-0.595185,0.558369,-0.559903
4.8487,0.020096,0.000000,-0.179813,0.179813,0.0000,0.0000,0.0000,-0.002479,-0.185612,0.196350,1.1381,0.6997,-0.3430,0.001534,0.587515,-0.561437,0.556835,-0.595185,0.558369,-0.559903
4.8689,0.020147,0.000000,-0.179110,0.179110,0.0000,0.0000,0.0000,-0.002479,-0.184078,0.194816,1.1381,0.6997,-0.3430,0.001534,0.587515,-0.561437,0.556835,-0.595185,0.558369,-0.559903
4.8892,0.020284,0.000000,-0.178402,0.178402,0.0000,0.0000,0.0000,-0.002479,-0.182544,0.193282,1.1381,0.6997,-0.3430,0.001534,0.587515,-0.561437,0.556835,-0.595185,0.558369,-0.559903
4.9092,0.020079,0.000000,-0.177701,0.177701,0.0000,0.0000,0.0000,-0.002479,-0.182544,0.188680,1.1381,0.6997,-0.3430,0.001534,0.587515,-0.561437,0.556835,-0.595185,0.558369,-0.559903
4.9293,0.020077,0.000000,-0.177000,0.177000,0.0000,0.0000,0.0000,-0.002479,-0.182544,0.182544,1.1381,0.6997,-0.3430,0.001534,0.587515,-0.561437,0.556835,-0.595185,0.558369,-0.559903
4.9494,0.020064,0.000000,-0.176300,0.176300,0.0000,0.0000,0.0000,-0.002479,-0.181010,0.177942,1.1381,0.6997,-0.3430,0.001534,0.587515,-0.561437,0.556835,-0.595185,0.558369,-0.559903
4.9695,0.020119,0.000000,-0.175597,0.175597,0.0000,0.0000,0.0000,-0.002479,-0.181010,0.176408,1.1381,0.6997,-0.3430,0.001534,0.587515,-0.561437,0.556835,-0.595185,0.558369,-0.559903
4.9896,0.020078,0.000000,-0.174897,0.174897,0.0000,0.0000,0.0000,-0.002479,-0.179476,0.177942,1.1381,0.6997,-0.3430,0.001534,0.587515,-0.561437,0.556835,-0.595185,0.558369,-0.559903
5.0097,0.020142,0.000000,-0.174193,0.174193,0.0000,0.0000,0.0000,-0.002479,-0.179476,0.176408,1.1381,0.6997,-0.3430,0.001534,0.587515,-0.561437,0.556835,-0.595185,0.558369,-0.559903
5.0299,0.020141,0.000000,-0.173490,0.173490,0.0000,0.0000,0.0000,-0.002479,-0.179476,0.176408,1.1381,0.6997,-0.3430,0.001534,0.587515,-0.561437,0.556835,-0.595185,0.558369,-0.559903
5.0499,0.020077,0.000000,-0.172790,0.172790,0.0000,0.0000,0.0000,-0.002479,-0.179476,0.176408,1.1381,0.6997,-0.3430,0.001534,0.587515,-0.561437,0.556835,-0.595185,0.558369,-0.559903
5.0701,0.020189,0.000000,-0.172085,0.172085,0.0000,0.0000,0.0000,-0.002479,-0.179476,0.174874,1.1381,0.6997,-0.3430,0.001534,0.587515,-0.561437,0.556835,-0.595185,0.558369,-0.559903
5.0903,0.020124,0.000000,-0.171382,0.171382,0.0000,0.0000,0.0000,-0.002479,-0.177942,0.174874,1.1381,0.6997,-0.3430,0.001534,0.587515,-0.561437,0.556835,-0.595185,0.558369,-0.559903
5.1103,0.020082,0.000000,-0.170681,0.170681,0.0000,0.0000,0.0000,-0.002479,-0.177942,0.174874,1.1381,0.6997,-0.3430,0.001534,0.587515,-0.561437,0.556835,-0.595185,0.558369,-0.559903
5.1304,0.020093,0.000000,-0.169980,0.169980,0.0000,0.0000,0.0000,-0.002479,-0.176408,0.174874,1.1381,0.6997,-0.3430,0.001534,0.587515,-0.561437,0.556835,-0.595185,0.558369,-0.559903
5.1507,0.020284,0.000000,-0.169272,0.169272,0.0000,0.0000,0.0000,-0.002479,-0.174874,0.173340,1.1381,0.6997,-0.3430,0.001534,0.587515,-0.561437,0.556835,-0.595185,0.558369,-0.559903
5.1708,0.020081,0.000000,-0.168571,0.168571,0.0000,0.0000,0.0000,-0.002479,-0.176408,0.171806,1.1381,0.6997,-0.3430,0.001534,0.587515,-0.561437,0.556835,-0.595185,0.558369,-0.559903
5.1909,0.020106,0.000000,-0.167869,0.167869,0.0000,0.0000,0.0000,-0.002479,-0.174874,0.171806,1.1381,0.6997,-0.3430,0.001534,0.587515,-0.561437,0.556835,-0.595185,0.558369,-0.559903
5.2110,0.020083,0.000000,-0.167168,0.167168,0.0000,0.0000,0.0000,-0.002479,-0.174874,0.173340,1.1381,0.6997,-0.3430,0.001534,0.587515,-0.561437,0.556835,-0.595185,0.558369,-0.559903
5.2311,0.020093,0.000000,-0.166467,0.166467,0.0000,0.0000,0.0000,-0.002479,-0.174874,0.173340,1.1381,0.6997,-0.3430,0.001534,0.587515,-0.561437,0.556835,-0.595185,0.558369,-0.559903
5.2513,0.020225,0.000000,-0.165761,0.165761,0.0000,0.0000,0.0000,-0.002479,-0.174874,0.173340,1.1381,0.6997,-0.3430,0.001534,0.587515,-0.561437,0.556835,-0.595185,0.558369,-0.559903
5.2714,0.020083,0.000000,-0.165060,0.165060,0.0000,0.0000,0.0000,-0.002479,-0.174874,0.171806,1.1381,0.6997,-0.3430,0.001534,0.587515,-0.561437,0.556835,-0.595185,0.558369,-0.559903
5.2915,0.020105,0.000000,-0.164358,0.164358,0.0000,0.0000,0.0000,-0.002479,-0.174874,0.173340,1.1381,0.6997,-0.3430,0.001534,0.587515,-0.561437,0.556835,-0.595185,0.558369,-0.559903
5.3116,0.020083,0.000000,-0.163657,0.163657,0.0000,0.0000,0.0000,-0.002479,-0.174874,0.173340,1.1381,0.6997,-0.3430,0.001534,0.587515,-0.561437,0.556835,-0.595185,0.558369,-0.559903
5.3317,0.020085,0.000000,-0.162956,0.162956,0.0000,0.0000,0.0000,-0.002479,-0.174874,0.171806,1.1381,0.6997,-0.3430,0.001534,0.587515,-0.561437,0.556835,-0.595185,0.558369,-0.559903
5.3518,0.020091,0.000000,-0.162254,0.162254,0.0000,0.0000,0.0000,-0.002479,-0.174874,0.171806,1.1381,0.6997,-0.3430,0.001534,0.587515,-0.561437,0.556835,-0.595185,0.558369,-0.559903
5.3718,0.020088,0.000000,-0.161553,0.161553,0.0000,0.0000,0.0000,-0.002479,-0.173340,0.171806,1.1381,0.6997,-0.3430,0.001534,0.587515,-0.561437,0.556835,-0.595185,0.558369,-0.559903
5.3919,0.020090,0.000000,-0.160852,0.160852,0.0000,0.0000,0.0000,-0.002479,-0.171806,0.171806,1.1381,0.6997,-0.3430,0.001534,0.587515,-0.561437,0.556835,-0.595185,0.558369,-0.559903
5.4120,0.020093,0.000000,-0.160151,0.160151,0.0000,0.0000,0.0000,-0.002479,-0.167204,0.171806,1.1381,0.6997,-0.3430,0.001534,0.587515,-0.561437,0.556835,-0.595185,0.558369,-0.559903
5.4321,0.020091,0.000000,-0.159449,0.159449,0.0000,0.0000,0.0000,-0.002479,-0.161068,0.171806,1.1381,0.6997,-0.3430,0.001534,0.587515,-0.561437,0.556835,-0.595185,0.558369,-0.559903
5.4523,0.020185,0.000000,-0.158745,0.158745,0.0000,0.0000,0.0000,-0.002479,-0.161068,0.171806,1.1381,0.6997,-0.3430,0.001534,0.587515,-0.561437,0.556835,-0.595185,0.558369,-0.559903
5.4724,0.020090,0.000000,-0.158043,0.158043,0.0000,0.0000,0.0000,-0.002479,-0.162602,0.170272,1.1381,0.6997,-0.3430,0.001534,0.587515,-0.561437,0.556835,-0.595185,0.558369,-0.559903
5.4925,0.020093,0.000000,-0.157342,0.157342,0.0000,0.0000,0.0000,-0.002479,-0.161068,0.168738,1.1381,0.6997,-0.3430,0.001534,0.587515,-0.561437,0.556835,-0.595185,0.558369,-0.559903
5.5126,0.020094,0.000000,-0.156641,0.156641,0.0000,0.0000,0.0000,-0.002479,-0.161068,0.168738,1.1381,0.6997,-0.3430,0.001534,0.587515,-0.561437,0.556835,-0.595185,0.558369,-0.559903
5.5327,0.020100,0.000000,-0.155939,0.155939,0.0000,0.0000,0.0000,-0.002479,-0.161068,0.167204,1.1381,0.6997,-0.3430,0.001534,0.587515,-0.561437,0.556835,-0.595185,0.558369,-0.559903
5.5528,0.020108,0.000000,-0.155237,0.155237,0.0000,0.0000,0.0000,-0.002479,-0.159534,0.165670,1.1381,0.6997,-0.3430,0.001534,0.587515,-0.561437,0.556835,-0.595185,0.558369,-0.559903
5.5729,0.020091,0.000000,-0.154536,0.154536,0.0000,0.0000,0.0000,-0.002479,-0.159534,0.161068,1.1381,0.6997,-0.3430,0.001534,0.587515,-0.561437,0.556835,-0.595185,0.558369,-0.559903
5.5930,0.020096,0.000000,-0.153834,0.153834,0.0000,0.0000,0.0000,-0.002479,-0.159534,0.156466,1.1381,0.6997,-0.3430,0.001534,0.587515,-0.561437,0.556835,-0.595185,0.558369,-0.559903
5.6131,0.020089,0.000000,-0.153133,0.153133,0.0000,0.0000,0.0000,-0.002479,-0.158000,0.154932,1.1381,0.6997,-0.3430,0.001534,0.587515,-0.561437,0.556835,-0.595185,0.558369,-0.559903
5.6332,0.020096,0.000000,-0.152432,0.152432,0.0000,0.0000,0.0000,-0.002479,-0.156466,0.153398,1.1381,0.6997,-0.3430,0.001534,0.587515,-0.561437,0.556835,-0.595185,0.558369,-0.559903
5.6543,0.021184,0.000000,-0.151692,0.151692,0.0000,0.0000,0.0000,-0.002479,-0.154932,0.153398,1.1381,0.6997,-0.3430,0.001534,0.587515,-0.561437,0.556835,-0.595185,0.558369,-0.559903
5.6744,0.020110,0.000000,-0.150990,0.150990,0.0000,0.0000,0.0000,-0.002479,-0.154932,0.153398,1.1381,0.6997,-0.3430,0.001534,0.587515,-0.561437,0.556835,-0.595185,0.558369,-0.559903
5.6946,0.020108,0.000000,-0.150288,0.150288,0.0000,0.0000,0.0000,-0.002479,-0.154932,0.151864,1.1381,0.6997,-0.3430,0.001534,0.587515,-0.561437,0.556835,-0.595185,0.558369,-0.559903
5.7147,0.020109,0.000000,-0.149586,0.149586,0.0000,0.0000,0.0000,-0.002479,-0.153398,0.151864,1.1381,0.6997,-0.3430,0.001534,0.587515,-0.561437,0.556835,-0.595185,0.558369,-0.559903
5.7348,0.020110,0.000000,-0.148884,0.148884,0.0000,0.0000,0.0000,-0.002479,-0.153398,0.151864,1.1381,0.6997,-0.3430,0.001534,0.587515,-0.561437,0.556835,-0.595185,0.558369,-0.559903
5.7549,0.020101,0.000000,-0.148183,0.148183,0.0000,0.0000,0.0000,-0.002479,-0.153398,0.150330,1.1381,0.6997,-0.3430,0.001534,0.587515,-0.561437,0.556835,-0.595185,0.558369,-0.559903
5.7750,0.020104,0.000000,-0.147481,0.147481,0.0000,0.0000,0.0000,-0.002479,-0.153398,0.150330,1.1381,0.6997,-0.3430,0.001534,0.587515,-0.561437,0.556835,-0.595185,0.558369,-0.559903
5.7951,0.020106,0.000000,-0.146779,0.146779,0.0000,0.0000,0.0000,-0.002479,-0.151864,0.150330,1.1381,0.6997,-0.3430,0.001534,0.587515,-0.561437,0.556835,-0.595185,0.558369,-0.559903
5.8152,0.020104,0.000000,-0.146077,0.146077,0.0000,0.0000,0.0000,-0.002479,-0.151864,0.150330,1.1381,0.6997,-0.3430,0.001534,0.587515,-0.561437,0.556835,-0.595185,0.558369,-0.559903
5.8353,0.020099,0.000000,-0.145376,0.145376,0.0000,0.0000,0.0000,-0.002479,-0.151864,0.150330,1.1381,0.6997,-0.3430,0.001534,0.587515,-0.561437,0.556835,-0.595185,0.558369,-0.559903
5.8554,0.020121,0.000000,-0.144673,0.144673,0.0000,0.0000,0.0000,-0.002479,-0.150330,0.148796,1.1381,0.6997,-0.3430,0.001534,0.587515,-0.561437,0.556835,-0.595185,0.558369,-0.559903
5.8757,0.020314,0.000000,-0.143964,0.143964,0.0000,0.0000,0.0000,-0.002479,-0.150330,0.148796,1.1381,0.6997,-0.3430,0.001534,0.587515,-0.561437,0.556835,-0.595185,0.558369,-0.559903
5.8958,0.020111,0.000000,-0.143262,0.143262,0.0000,0.0000,0.0000,-0.002479,-0.148796,0.148796,1.1381,0.6997,-0.3430,0.001534,0.587515,-0.561437,0.556835,-0.595185,0.558369,-0.559903
5.9159,0.020099,0.000000,-0.142561,0.142561,0.0000,0.0000,0.0000,-0.002479,-0.148796,0.147262,1.1381,0.6997,-0.3430,0.001534,0.587515,-0.561437,0.556835,-0.595185,0.558369,-0.559903
5.9360,0.020105,0.000000,-0.141859,0.141859,0.0000,0.0000,0.0000,-0.002479,-0.148796,0.147262,1.1381,0.6997,-0.3430,0.001534,0.587515,-0.561437,0.556835,-0.595185,0.558369,-0.559903
5.9561,0.020107,0.000000,-0.141157,0.141157,0.0000,0.0000,0.0000,-0.002479,-0.148796,0.147262,1.1381,0.6997,-0.3430,0.001534,0.587515,-0.561437,0.556835,-0.595185,0.558369,-0.559903
5.9762,0.020097,0.000000,-0.140456,0.140456,0.0000,0.0000,0.0000,-0.002479,-0.148796,0.147262,1.1381,0.6997,-0.3430,0.001534,0.587515,-0.561437,0.556835,-0.595185,0.558369,-0.559903
5.9963,0.020097,0.000000,-0.139754,0.139754,0.0000,0.0000,0.0000,-0.002479,-0.148796,0.145728,1.1381,0.6997,-0.3430,0.001534,0.587515,-0.561437,0.556835,-0.595185,0.558369,-0.559903
6.0164,0.020097,0.000000,-0.139053,0.139053,0.0000,0.0000,0.0000,-0.002479,-0.148796,0.145728,1.1381,0.6997,-0.3430,0.001534,0.587515,-0.561437,0.556835,-0.595185,0.558369,-0.559903
6.0368,0.020332,0.000000,-0.138343,0.138343,0.0000,0.0000,0.0000,-0.002479,-0.148796,0.145728,1.1381,0.6997,-0.3430,0.001534,0.587515,-0.561437,0.556835,-0.595185,0.558369,-0.559903
6.0569,0.020103,0.000000,-0.137641,0.137641,0.0000,0.0000,0.0000,-0.002479,-0.148796,0.145728,1.1381,0.6997,-0.3430,0.001534,0.587515,-0.561437,0.556835,-0.595185,0.558369,-0.559903
6.0770,0.020097,0.000000,-0.136940,0.136940,0.0000,0.0000,0.0000,-0.002479,-0.148796,0.145728,1.1381,0.6997,-0.3430,0.001534,0.587515,-0.561437,0.556835,-0.595185,0.558369,-0.559903
6.0971,0.020102,0.000000,-0.136238,0.136238,0.0000,0.0000,0.0000,-0.002479,-0.148796,0.145728,1.1381,0.6997,-0.3430,0.001534,0.587515,-0.561437,0.556835,-0.595185,0.558369,-0.559903
6.1172,0.020089,0.000000,-0.135537,0.135537,0.0000,0.0000,0.0000,-0.002479,-0.147262,0.145728,1.1381,0.6997,-0.3430,0.001534,0.587515,-0.561437,0.556835,-0.595185,0.558369,-0.559903
6.1375,0.020301,0.000000,-0.134828,0.134828,0.0000,0.0000,0.0000,-0.002479,-0.147262,0.145728,1.1381,0.6997,-0.3430,0.001534,0.587515,-0.561437,0.556835,-0.595185,0.558369,-0.559903
6.1576,0.020100,0.000000,-0.134126,0.134126,0.0000,0.0000,0.0000,-0.002479,-0.147262,0.145728,1.1381,0.6997,-0.3430,0.001534,0.587515,-0.561437,0.556835,-0.595185,0.558369,-0.559903
6.1777,0.020092,0.000000,-0.133425,0.133425,0.0000,0.0000,0.0000,-0.002479,-0.147262,0.144194,1.1381,0.6997,-0.3430,0.001534,0.587515,-0.561437,0.556835,-0.595185,0.558369,-0.559903
6.1977,0.020090,0.000000,-0.132724,0.132724,0.0000,0.0000,0.0000,-0.002479,-0.147262,0.145728,1.1381,0.6997,-0.3430,0.001534,0.587515,-0.561437,0.556835,-0.595185,0.558369,-0.559903
6.2180,0.020225,0.000000,-0.132018,0.132018,0.0000,0.0000,0.0000,-0.002479,-0.144194,0.144194,1.1381,0.6997,-0.3430,0.001534,0.587515,-0.561437,0.556835,-0.595185,0.558369,-0.559903
6.2381,0.020088,0.000000,-0.131317,0.131317,0.0000,0.0000,0.0000,-0.002479,-0.139592,0.144194,1.1381,0.6997,-0.3430,0.001534,0.587515,-0.561437,0.556835,-0.595185,0.558369,-0.559903
6.2581,0.020089,0.000000,-0.130615,0.130615,0.0000,0.0000,0.0000,-0.002479,-0.133456,0.144194,1.1381,0.6997,-0.3430,0.001534,0.587515,-0.561437,0.556835,-0.595185,0.558369,-0.559903
6.2782,0.020093,0.000000,-0.129914,0.129914,0.0000,0.0000,0.0000,-0.002479,-0.133456,0.142660,1.1381,0.6997,-0.3430,0.001534,0.587515,-0.561437,0.556835,-0.595185,0.558369,-0.559903
6.2983,0.020089,0.000000,-0.129213,0.129213,0.0000,0.0000,0.0000,-0.002479,-0.134990,0.142660,1.1381,0.6997,-0.3430,0.001534,0.587515,-0.561437,0.556835,-0.595185,0.558369,-0.559903
6.3185,0.020133,0.000000,-0.128510,0.128510,0.0000,0.0000,0.0000,-0.002479,-0.133456,0.138058,1.1381,0.6997,-0.3430,0.001534,0.587515,-0.561437,0.556835,-0.595185,0.558369,-0.559903
6.3385,0.020091,0.000000,-0.127809,0.127809,0.0000,0.0000,0.0000,-0.002479,-0.133456,0.134990,1.1381,0.6997,-0.3430,0.001534,0.587515,-0.561437,0.556835,-0.595185,0.558369,-0.559903
6.3586,0.020086,0.000000,-0.127108,0.127108,0.0000,0.0000,0.0000,-0.002479,-0.133456,0.130388,1.1381,0.6997,-0.3430,0.001534,0.587515,-0.561437,0.556835,-0.595185,0.558369,-0.559903
6.3787,0.020087,0.000000,-0.126406,0.126406,0.0000,0.0000,0.0000,-0.002479,-0.130388,0.127320,1.1381,0.6997,-0.3430,0.001534,0.587515,-0.561437,0.556835,-0.595185,0.558369,-0.559903
6.3988,0.020092,0.000000,-0.125705,0.125705,0.0000,0.0000,0.0000,-0.002492,-0.128854,0.125786,1.1496,0.6473,-0.3959,0.001534,0.587515,-0.561437,0.555301,-0.595185,0.558369,-0.559903
6.4208,0.021990,0.000000,-0.124938,0.124938,0.0000,0.0000,0.0000,-0.002477,-0.128854,0.125786,1.1375,0.7050,-0.3368,0.001534,0.587515,-0.561437,0.556835,-0.595185,0.558369,-0.559903
6.4409,0.020087,0.000000,-0.124236,0.124236,0.0000,0.0000,0.0000,-0.002479,-0.127320,0.125786,1.1388,0.6989,-0.3430,0.001534,0.587515,-0.561437,0.556835,-0.595185,0.558369,-0.559903
6.4610,0.020088,0.000000,-0.123535,0.123535,0.0000,0.0000,0.0000,-0.002479,-0.127320,0.124252,1.1388,0.6989,-0.3430,0.001534,0.587515,-0.561437,0.556835,-0.595185,0.558369,-0.559903
6.4811,0.020085,0.000000,-0.122834,0.122834,0.0000,0.0000,0.0000,-0.002479,-0.127320,0.124252,1.1388,0.6989,-0.3430,0.001534,0.587515,-0.561437,0.556835,-0.595185,0.558369,-0.559903
6.5012,0.020092,0.000000,-0.122133,0.122133,0.0000,0.0000,0.0000,-0.002479,-0.125786,0.124252,1.1388,0.6989,-0.3430,0.001534,0.587515,-0.561437,0.556835,-0.595185,0.558369,-0.559903
6.5212,0.020092,0.000000,-0.121431,0.121431,0.0000,0.0000,0.0000,-0.002479,-0.125786,0.122718,1.1388,0.6989,-0.3430,0.001534,0.587515,-0.561437,0.556835,-0.595185,0.558369,-0.559903
6.5413,0.020088,0.000000,-0.120730,0.120730,0.0000,0.0000,0.0000,-0.002479,-0.125786,0.122718,1.1388,0.6989,-0.3430,0.001534,0.587515,-0.561437,0.556835,-0.595185,0.558369,-0.559903
