t,loop_dt,cmd_z,cmd_ant_l,cmd_ant_r,cmd_roll,cmd_pitch,cmd_yaw,pres_z,pres_ant_l,pres_ant_r,pres_roll,pres_pitch,pres_yaw,pres_j0,pres_j1,pres_j2,pres_j3,pres_j4,pres_j5,pres_j6
0.0000,0.000001,0.000000,-1.745329,1.745329,0.0000,0.0000,0.0000,-0.002694,-1.612214,1.609146,0.9672,1.0917,-0.0080,0.001534,0.578311,-0.552233,0.556835,-0.595185,0.558369,-0.549165
0.0204,0.020442,0.000000,-1.741048,1.741048,0.0000,0.0000,0.0000,-0.002706,-1.612214,1.606078,1.0071,1.1249,-0.0599,0.001534,0.578311,-0.552233,0.556835,-0.595185,0.556835,-0.549165
0.0405,0.020085,0.000000,-1.736841,1.736841,0.0000,0.0000,0.0000,-0.002692,-1.612214,1.606078,0.9626,1.0879,-0.0020,0.001534,0.578311,-0.552233,0.556835,-0.595185,0.558369,-0.549165
0.0606,0.020090,0.000000,-1.732633,1.732633,0.0000,0.0000,0.0000,-0.002694,-1.644427,1.642893,0.9673,1.0917,-0.0081,0.001534,0.578311,-0.552233,0.556835,-0.595185,0.558369,-0.549165
0.0807,0.020084,0.000000,-1.728427,1.728427,0.0000,0.0000,0.0000,-0.002694,-1.714991,1.707321,0.9673,1.0917,-0.0081,0.001534,0.578311,-0.552233,0.556835,-0.595185,0.558369,-0.549165
0.1008,0.020086,0.000000,-1.724220,1.724220,0.0000,0.0000,0.0000,-0.002694,-1.768680,1.761010,0.9673,1.0917,-0.0081,0.001534,0.578311,-0.552233,0.556835,-0.595185,0.558369,-0.549165
0.1209,0.020120,0.000000,-1.720006,1.720006,0.0000,0.0000,0.0000,-0.002656,-1.776350,1.770214,1.0066,1.0221,-0.0599,0.001534,0.579845,-0.553767,0.556835,-0.595185,0.558369,-0.550699
0.1410,0.020085,0.000000,-1.715800,1.715800,0.0000,0.0000,0.0000,-0.002647,-1.767146,1.765612,1.0418,0.9936,-0.1075,0.001534,0.579845,-0.555301,0.556835,-0.595185,0.558369,-0.550699
0.1611,0.020089,0.000000,-1.711592,1.711592,0.0000,0.0000,0.0000,-0.002621,-1.754874,1.757942,0.9396,0.9605,-0.2097,0.001534,0.579845,-0.555301,0.556835,-0.595185,0.558369,-0.553767
0.1812,0.020088,0.000000,-1.707385,1.707385,0.0000,0.0000,0.0000,-0.002611,-1.745670,1.753340,0.8924,0.9618,-0.3587,0.001534,0.579845,-0.555301,0.556835,-0.595185,0.556835,-0.556835
0.2013,0.020094,0.000000,-1.703177,1.703177,0.0000,0.0000,0.0000,-0.002586,-1.738000,1.745670,0.8077,0.9102,-0.3443,0.001534,0.579845,-0.555301,0.556835,-0.595185,0.558369,-0.558369
0.2214,0.020094,0.000000,-1.698968,1.698968,0.0000,0.0000,0.0000,-0.002589,-1.733398,1.745670,0.8165,0.9156,-0.3458,0.001534,0.579845,-0.555301,0.556835,-0.595185,0.558369,-0.558369
0.2415,0.020108,0.000000,-1.694757,1.694757,0.0000,0.0000,0.0000,-0.002576,-1.730330,1.742602,0.7665,0.8972,-0.3993,0.001534,0.579845,-0.555301,0.556835,-0.595185,0.558369,-0.559903
0.2615,0.020083,0.000000,-1.690551,1.690551,0.0000,0.0000,0.0000,-0.002577,-1.728796,1.741068,0.7718,0.8991,-0.3937,0.001534,0.579845,-0.555301,0.556835,-0.595185,0.558369,-0.559903
0.2816,0.020085,0.000000,-1.686344,1.686344,0.0000,0.0000,0.0000,-0.002577,-1.725728,1.739534,0.7718,0.8991,-0.3937,0.001534,0.579845,-0.555301,0.556835,-0.595185,0.558369,-0.559903
0.3017,0.020089,0.000000,-1.682137,1.682137,0.0000,0.0000,0.0000,-0.002577,-1.724194,1.739534,0.7718,0.8991,-0.3937,0.001534,0.579845,-0.555301,0.556835,-0.595185,0.558369,-0.559903
0.3218,0.020089,0.000000,-1.677929,1.677929,0.0000,0.0000,0.0000,-0.002577,-1.722660,1.736466,0.7718,0.8991,-0.3937,0.001534,0.579845,-0.555301,0.556835,-0.595185,0.558369,-0.559903
0.3419,0.020109,0.000000,-1.673718,1.673718,0.0000,0.0000,0.0000,-0.002577,-1.722660,1.730330,0.7718,0.8991,-0.3937,0.001534,0.579845,-0.555301,0.556835,-0.595185,0.558369,-0.559903
0.3620,0.020089,0.000000,-1.669510,1.669510,0.0000,0.0000,0.0000,-0.002577,-1.722660,1.721126,0.7718,0.8991,-0.3937,0.001534,0.579845,-0.555301,0.556835,-0.595185,0.558369,-0.559903
0.3821,0.020089,0.000000,-1.665303,1.665303,0.0000,0.0000,0.0000,-0.002555,-1.721126,1.710389,0.8708,0.8675,-0.2863,0.001534,0.582913,-0.555301,0.556835,-0.595185,0.558369,-0.559903
0.4022,0.020094,0.000000,-1.661094,1.661094,0.0000,0.0000,0.0000,-0.002557,-1.719592,1.701185,0.8605,0.8709,-0.2975,0.001534,0.582913,-0.555301,0.556835,-0.595185,0.558369,-0.559903
0.4223,0.020091,0.000000,-1.656886,1.656886,0.0000,0.0000,0.0000,-0.002557,-1.714991,1.696583,0.8619,0.8704,-0.2960,0.001534,0.582913,-0.555301,0.556835,-0.595185,0.558369,-0.559903
0.4427,0.020457,0.000000,-1.652602,1.652602,0.0000,0.0000,0.0000,-0.002557,-1.704253,1.690447,0.8619,0.8704,-0.2960,0.001534,0.582913,-0.555301,0.556835,-0.595185,0.558369,-0.559903
0.4628,0.020089,0.000000,-1.648395,1.648395,0.0000,0.0000,0.0000,-0.002557,-1.690447,1.687379,0.8619,0.8704,-0.2960,0.001534,0.582913,-0.555301,0.556835,-0.595185,0.558369,-0.559903
0.4829,0.020088,0.000000,-1.644187,1.644187,0.0000,0.0000,0.0000,-0.002557,-1.681243,1.687379,0.8619,0.8704,-0.2960,0.001534,0.582913,-0.555301,0.556835,-0.595185,0.558369,-0.559903
0.5030,0.020087,0.000000,-1.639980,1.639980,0.0000,0.0000,0.0000,-0.002557,-1.675107,1.687379,0.8619,0.8704,-0.2960,0.001534,0.582913,-0.555301,0.556835,-0.595185,0.558369,-0.559903
0.5231,0.020092,0.000000,-1.635772,1.635772,0.0000,0.0000,0.0000,-0.002557,-1.672039,1.687379,0.8619,0.8704,-0.2960,0.001534,0.582913,-0.555301,0.556835,-0.595185,0.558369,-0.559903
0.5432,0.020086,0.000000,-1.631565,1.631565,0.0000,0.0000,0.0000,-0.002557,-1.670505,1.687379,0.8619,0.8704,-0.2960,0.001534,0.582913,-0.555301,0.556835,-0.595185,0.558369,-0.559903
0.5635,0.020353,0.000000,-1.627303,1.627303,0.0000,0.0000,0.0000,-0.002557,-1.667437,1.685845,0.8619,0.8704,-0.2960,0.001534,0.582913,-0.555301,0.556835,-0.595185,0.558369,-0.559903
0.5836,0.020086,0.000000,-1.623096,1.623096,0.0000,0.0000,0.0000,-0.002557,-1.667437,1.681243,0.8619,0.8704,-0.2960,0.001534,0.582913,-0.555301,0.556835,-0.595185,0.558369,-0.559903
0.6037,0.020085,0.000000,-1.618889,1.618889,0.0000,0.0000,0.0000,-0.002557,-1.667437,1.672039,0.8619,0.8704,-0.2960,0.001534,0.582913,-0.555301,0.556835,-0.595185,0.558369,-0.559903
0.6238,0.020083,0.000000,-1.614683,1.614683,0.0000,0.0000,0.0000,-0.002557,-1.665903,1.661301,0.8619,0.8704,-0.2960,0.001534,0.582913,-0.555301,0.556835,-0.595185,0.558369,-0.559903
0.6439,0.020083,0.000000,-1.610477,1.610477,0.0000,0.0000,0.0000,-0.002557,-1.664369,1.653631,0.8619,0.8704,-0.2960,0.001534,0.582913,-0.555301,0.556835,-0.595185,0.558369,-0.559903
0.6640,0.020096,0.000000,-1.606268,1.606268,0.0000,0.0000,0.0000,-0.002557,-1.659767,1.649029,0.8619,0.8704,-0.2960,0.001534,0.582913,-0.555301,0.556835,-0.595185,0.558369,-0.559903
0.6841,0.020087,0.000000,-1.602061,1.602061,0.0000,0.0000,0.0000,-0.002557,-1.650563,1.645961,0.8619,0.8704,-0.2960,0.001534,0.582913,-0.555301,0.556835,-0.595185,0.558369,-0.559903
0.7041,0.020081,0.000000,-1.597855,1.597855,0.0000,0.0000,0.0000,-0.002570,-1.639825,1.642893,0.9019,0.9042,-0.3490,0.001534,0.582913,-0.555301,0.556835,-0.595185,0.556835,-0.559903
0.7242,0.020079,0.000000,-1.593650,1.593650,0.0000,0.0000,0.0000,-0.002556,-1.633690,1.639825,0.8572,0.8671,-0.2910,0.001534,0.582913,-0.555301,0.556835,-0.595185,0.558369,-0.559903
0.7443,0.020075,0.000000,-1.589445,1.589445,0.0000,0.0000,0.0000,-0.002557,-1.629088,1.633690,0.8619,0.8709,-0.2970,0.001534,0.582913,-0.555301,0.556835,-0.595185,0.558369,-0.559903
0.7644,0.020073,0.000000,-1.585241,1.585241,0.0000,0.0000,0.0000,-0.002546,-1.624486,1.632156,0.9111,0.8549,-0.2424,0.001534,0.584447,-0.555301,0.556835,-0.595185,0.558369,-0.559903
0.7844,0.020080,0.000000,-1.581036,1.581036,0.0000,0.0000,0.0000,-0.002558,-1.622952,1.632156,0.8563,0.8722,-0.3021,0.001534,0.582913,-0.555301,0.556835,-0.595185,0.558369,-0.559903
0.8045,0.020076,0.000000,-1.576831,1.576831,0.0000,0.0000,0.0000,-0.002570,-1.622952,1.629088,0.9025,0.9041,-0.3484,0.001534,0.582913,-0.555301,0.556835,-0.595185,0.556835,-0.559903
0.8246,0.020085,0.000000,-1.572624,1.572624,0.0000,0.0000,0.0000,-0.002556,-1.618350,1.622952,0.8571,0.8671,-0.3789,0.000000,0.582913,-0.555301,0.556835,-0.595185,0.558369,-0.559903
0.8448,0.020174,0.000000,-1.568399,1.568399,0.0000,0.0000,0.0000,-0.002557,-1.615282,1.618350,0.8619,0.8709,-0.2970,0.001534,0.582913,-0.555301,0.556835,-0.595185,0.558369,-0.559903
0.8649,0.020075,0.000000,-1.564195,1.564195,0.0000,0.0000,0.0000,-0.002557,-1.610680,1.609146,0.8619,0.8709,-0.2970,0.001534,0.582913,-0.555301,0.556835,-0.595185,0.558369,-0.559903
0.8849,0.020090,0.000000,-1.559987,1.559987,0.0000,0.0000,0.0000,-0.002546,-1.609146,1.604544,0.9111,0.8549,-0.2424,0.001534,0.584447,-0.555301,0.556835,-0.595185,0.558369,-0.559903
0.9050,0.020083,0.000000,-1.555781,1.555781,0.0000,0.0000,0.0000,-0.002547,-1.604544,1.604544,0.9060,0.8566,-0.2481,0.001534,0.584447,-0.555301,0.556835,-0.595185,0.558369,-0.559903
0.9251,0.020093,0.000000,-1.551573,1.551573,0.0000,0.0000,0.0000,-0.002536,-1.598408,1.603010,0.9562,0.8409,-0.1934,0.001534,0.585981,-0.555301,0.556835,-0.595185,0.558369,-0.559903
0.9452,0.020091,0.000000,-1.547365,1.547365,0.0000,0.0000,0.0000,-0.002537,-1.589204,1.601476,0.9510,0.8425,-0.1991,0.001534,0.585981,-0.555301,0.556835,-0.595185,0.558369,-0.559903
0.9653,0.020080,0.000000,-1.543159,1.543159,0.0000,0.0000,0.0000,-0.002537,-1.586136,1.596874,0.9510,0.8425,-0.1991,0.001534,0.585981,-0.555301,0.556835,-0.595185,0.558369,-0.559903
0.9854,0.020086,0.000000,-1.538952,1.538952,0.0000,0.0000,0.0000,-0.002537,-1.584602,1.590738,0.9510,0.8425,-0.1991,0.001534,0.585981,-0.555301,0.556835,-0.595185,0.558369,-0.559903
1.0055,0.020081,0.000000,-1.534747,1.534747,0.0000,0.0000,0.0000,-0.002537,-1.584602,1.583068,0.9510,0.8425,-0.1991,0.001534,0.585981,-0.555301,0.556835,-0.595185,0.558369,-0.559903
1.0256,0.020096,0.000000,-1.530538,1.530538,0.0000,0.0000,0.0000,-0.002537,-1.581534,1.580000,0.9510,0.8425,-0.1991,0.001534,0.585981,-0.555301,0.556835,-0.595185,0.558369,-0.559903
1.0456,0.020088,0.000000,-1.526331,1.526331,0.0000,0.0000,0.0000,-0.002537,-1.573864,1.578466,0.9510,0.8425,-0.1991,0.001534,0.585981,-0.555301,0.556835,-0.595185,0.558369,-0.559903
1.0657,0.020078,0.000000,-1.522125,1.522125,0.0000,0.0000,0.0000,-0.002537,-1.566194,1.578466,0.9510,0.8425,-0.1991,0.001534,0.585981,-0.555301,0.556835,-0.595185,0.558369,-0.559903
1.0858,0.020081,0.000000,-1.517920,1.517920,0.0000,0.0000,0.0000,-0.002537,-1.560058,1.576932,0.9510,0.8425,-0.1991,0.001534,0.585981,-0.555301,0.556835,-0.595185,0.558369,-0.559903
1.1059,0.020080,0.000000,-1.513714,1.513714,0.0000,0.0000,0.0000,-0.002537,-1.558524,1.573864,0.9510,0.8425,-0.1991,0.001534,0.585981,-0.555301,0.556835,-0.595185,0.558369,-0.559903
1.1260,0.020085,0.000000,-1.509507,1.509507,0.0000,0.0000,0.0000,-0.002537,-1.558524,1.556990,0.9510,0.8425,-0.1991,0.001534,0.585981,-0.555301,0.556835,-0.595185,0.558369,-0.559903
1.1460,0.020079,0.000000,-1.505302,1.505302,0.0000,0.0000,0.0000,-0.002537,-1.558524,1.556990,0.9510,0.8425,-0.1991,0.001534,0.585981,-0.555301,0.556835,-0.595185,0.558369,-0.559903
1.1661,0.020081,0.000000,-1.501096,1.501096,0.0000,0.0000,0.0000,-0.002537,-1.546253,1.540117,0.9510,0.8425,-0.1991,0.001534,0.585981,-0.555301,0.556835,-0.595185,0.558369,-0.559903
1.1862,0.020075,0.000000,-1.496892,1.496892,0.0000,0.0000,0.0000,-0.002537,-1.535515,1.535515,0.9510,0.8425,-0.1991,0.001534,0.585981,-0.555301,0.556835,-0.595185,0.558369,-0.559903
1.2063,0.020071,0.000000,-1.492688,1.492688,0.0000,0.0000,0.0000,-0.002537,-1.530913,1.529379,0.9510,0.8425,-0.1991,0.001534,0.585981,-0.555301,0.556835,-0.595185,0.558369,-0.559903
1.2264,0.020148,0.000000,-1.488468,1.488468,0.0000,0.0000,0.0000,-0.002537,-1.526311,1.526311,0.9510,0.8425,-0.1991,0.001534,0.585981,-0.555301,0.556835,-0.595185,0.558369,-0.559903
1.2465,0.020082,0.000000,-1.484262,1.484262,0.0000,0.0000,0.0000,-0.002537,-1.520175,1.526311,0.9510,0.8425,-0.1991,0.001534,0.585981,-0.555301,0.556835,-0.595185,0.558369,-0.559903
1.2666,0.020092,0.000000,-1.480054,1.480054,0.0000,0.0000,0.0000,-0.002537,-1.515573,1.524777,0.9510,0.8425,-0.1991,0.001534,0.585981,-0.555301,0.556835,-0.595185,0.558369,-0.559903
1.2867,0.020082,0.000000,-1.475848,1.475848,0.0000,0.0000,0.0000,-0.002537,-1.510971,1.526311,0.9510,0.8425,-0.1991,0.001534,0.585981,-0.555301,0.556835,-0.595185,0.558369,-0.559903
1.3068,0.020077,0.000000,-1.471643,1.471643,0.0000,0.0000,0.0000,-0.002537,-1.507903,1.524777,0.9510,0.8425,-0.1991,0.001534,0.585981,-0.555301,0.556835,-0.595185,0.558369,-0.559903
1.3270,0.020248,0.000000,-1.467403,1.467403,0.0000,0.0000,0.0000,-0.002537,-1.506369,1.523243,0.9510,0.8425,-0.1991,0.001534,0.585981,-0.555301,0.556835,-0.595185,0.558369,-0.559903
1.3471,0.020073,0.000000,-1.463199,1.463199,0.0000,0.0000,0.0000,-0.002537,-1.504835,1.520175,0.9510,0.8425,-0.1991,0.001534,0.585981,-0.555301,0.556835,-0.595185,0.558369,-0.559903
1.3673,0.020181,0.000000,-1.458972,1.458972,0.0000,0.0000,0.0000,-0.002537,-1.506369,1.514039,0.9510,0.8425,-0.1991,0.001534,0.585981,-0.555301,0.556835,-0.595185,0.558369,-0.559903
1.3873,0.020089,0.000000,-1.454764,1.454764,0.0000,0.0000,0.0000,-0.002537,-1.504835,1.504835,0.9510,0.8425,-0.1991,0.001534,0.585981,-0.555301,0.556835,-0.595185,0.558369,-0.559903
1.4074,0.020083,0.000000,-1.450558,1.450558,0.0000,0.0000,0.0000,-0.002537,-1.501767,1.494097,0.9510,0.8425,-0.1991,0.001534,0.585981,-0.555301,0.556835,-0.595185,0.558369,-0.559903
1.4275,0.020100,0.000000,-1.446348,1.446348,0.0000,0.0000,0.0000,-0.002537,-1.492563,1.484893,0.9510,0.8425,-0.1991,0.001534,0.585981,-0.555301,0.556835,-0.595185,0.558369,-0.559903
1.4476,0.020082,0.000000,-1.442142,1.442142,0.0000,0.0000,0.0000,-0.002537,-1.481825,1.475690,0.9510,0.8425,-0.1991,0.001534,0.585981,-0.555301,0.556835,-0.595185,0.558369,-0.559903
1.4677,0.020085,0.000000,-1.437936,1.437936,0.0000,0.0000,0.0000,-0.002537,-1.475690,1.471088,0.9510,0.8425,-0.1991,0.001534,0.585981,-0.555301,0.556835,-0.595185,0.558369,-0.559903
1.4881,0.020372,0.000000,-1.433669,1.433669,0.0000,0.0000,0.0000,-0.002537,-1.468020,1.469554,0.9510,0.8425,-0.1991,0.001534,0.585981,-0.555301,0.556835,-0.595185,0.558369,-0.559903
1.5081,0.020080,0.000000,-1.429463,1.429463,0.0000,0.0000,0.0000,-0.002537,-1.463418,1.469554,0.9510,0.8425,-0.1991,0.001534,0.585981,-0.555301,0.556835,-0.595185,0.558369,-0.559903
1.5282,0.020077,0.000000,-1.425259,1.425259,0.0000,0.0000,0.0000,-0.002537,-1.460350,1.468020,0.9510,0.8425,-0.1991,0.001534,0.585981,-0.555301,0.556835,-0.595185,0.558369,-0.559903
1.5483,0.020087,0.000000,-1.421052,1.421052,0.0000,0.0000,0.0000,-0.002537,-1.457282,1.463418,0.9510,0.8425,-0.1991,0.001534,0.585981,-0.555301,0.556835,-0.595185,0.558369,-0.559903
1.5684,0.020090,0.000000,-1.416844,1.416844,0.0000,0.0000,0.0000,-0.002537,-1.454214,1.457282,0.9510,0.8425,-0.1991,0.001534,0.585981,-0.555301,0.556835,-0.595185,0.558369,-0.559903
1.5885,0.020090,0.000000,-1.412636,1.412636,0.0000,0.0000,0.0000,-0.002537,-1.452680,1.451146,0.9510,0.8425,-0.1991,0.001534,0.585981,-0.555301,0.556835,-0.595185,0.558369,-0.559903
1.6086,0.020083,0.000000,-1.408430,1.408430,0.0000,0.0000,0.0000,-0.002537,-1.452680,1.446544,0.9510,0.8425,-0.1991,0.001534,0.585981,-0.555301,0.556835,-0.595185,0.558369,-0.559903
1.6287,0.020085,0.000000,-1.404223,1.404223,0.0000,0.0000,0.0000,-0.002537,-1.451146,1.445010,0.9510,0.8425,-0.1991,0.001534,0.585981,-0.555301,0.556835,-0.595185,0.558369,-0.559903
1.6488,0.020090,0.000000,-1.400016,1.400016,0.0000,0.0000,0.0000,-0.002537,-1.451146,1.445010,0.9510,0.8425,-0.1991,0.001534,0.585981,-0.555301,0.556835,-0.595185,0.558369,-0.559903
1.6688,0.020082,0.000000,-1.396717,1.396717,0.0000,0.0000,0.0000,-0.002537,-1.451146,1.443476,0.9510,0.8425,-0.1991,0.001534,0.585981,-0.555301,0.556835,-0.595185,0.558369,-0.559903
1.6889,0.020086,0.000000,-1.400924,1.400924,0.0000,0.0000,0.0000,-0.002537,-1.448078,1.443476,0.9510,0.8425,-0.1991,0.001534,0.585981,-0.555301,0.556835,-0.595185,0.558369,-0.559903
1.7090,0.020086,0.000000,-1.405131,1.405131,0.0000,0.0000,0.0000,-0.002537,-1.438874,1.441942,0.9510,0.8425,-0.1991,0.001534,0.585981,-0.555301,0.556835,-0.595185,0.558369,-0.559903
1.7291,0.020078,0.000000,-1.409336,1.409336,0.0000,0.0000,0.0000,-0.002526,-1.428136,1.435806,1.0012,0.8269,-0.1444,0.001534,0.587515,-0.555301,0.556835,-0.595185,0.558369,-0.559903
1.7492,0.020088,0.000000,-1.413543,1.413543,0.0000,0.0000,0.0000,-0.002538,-1.422000,1.431204,0.9463,0.8440,-0.2042,0.001534,0.585981,-0.555301,0.556835,-0.595185,0.558369,-0.559903
1.7693,0.020082,0.000000,-1.417749,1.417749,0.0000,0.0000,0.0000,-0.002537,-1.423534,1.428136,0.9520,0.8422,-0.1980,0.001534,0.585981,-0.555301,0.556835,-0.595185,0.558369,-0.559903
1.7893,0.020091,0.000000,-1.421957,1.421957,0.0000,0.0000,0.0000,-0.002537,-1.422000,1.428136,0.9520,0.8422,-0.1980,0.001534,0.585981,-0.555301,0.556835,-0.595185,0.558369,-0.559903
1.8094,0.020081,0.000000,-1.426162,1.426162,0.0000,0.0000,0.0000,-0.002537,-1.423534,1.428136,0.9520,0.8422,-0.1980,0.001534,0.585981,-0.555301,0.556835,-0.595185,0.558369,-0.559903
1.8295,0.020081,0.000000,-1.430368,1.430368,0.0000,0.0000,0.0000,-0.002537,-1.423534,1.428136,0.9520,0.8422,-0.1980,0.001534,0.585981,-0.555301,0.556835,-0.595185,0.558369,-0.559903
1.8497,0.020158,0.000000,-1.434590,1.434590,0.0000,0.0000,0.0000,-0.002537,-1.425068,1.428136,0.9520,0.8422,-0.1980,0.001534,0.585981,-0.555301,0.556835,-0.595185,0.558369,-0.559903
1.8697,0.020076,0.000000,-1.438795,1.438795,0.0000,0.0000,0.0000,-0.002537,-1.431204,1.428136,0.9520,0.8422,-0.1980,0.001534,0.585981,-0.555301,0.556835,-0.595185,0.558369,-0.559903
1.8898,0.020086,0.000000,-1.443001,1.443001,0.0000,0.0000,0.0000,-0.002537,-1.434272,1.428136,0.9520,0.8422,-0.1980,0.001534,0.585981,-0.555301,0.556835,-0.595185,0.558369,-0.559903
1.9099,0.020074,0.000000,-1.447206,1.447206,0.0000,0.0000,0.0000,-0.002537,-1.438874,1.434272,0.9520,0.8422,-0.1980,0.001534,0.585981,-0.555301,0.556835,-0.595185,0.558369,-0.559903
1.9300,0.020073,0.000000,-1.451410,1.451410,0.0000,0.0000,0.0000,-0.002537,-1.440408,1.440408,0.9520,0.8422,-0.1980,0.001534,0.585981,-0.555301,0.556835,-0.595185,0.558369,-0.559903
1.9501,0.020085,0.000000,-1.455616,1.455616,0.0000,0.0000,0.0000,-0.002537,-1.445010,1.441942,0.9520,0.8422,-0.1980,0.001534,0.585981,-0.555301,0.556835,-0.595185,0.558369,-0.559903
1.9701,0.020077,0.000000,-1.459821,1.459821,0.0000,0.0000,0.0000,-0.002537,-1.452680,1.448078,0.9520,0.8422,-0.1980,0.001534,0.585981,-0.555301,0.556835,-0.595185,0.558369,-0.559903
1.9904,0.020296,0.000000,-1.464072,1.464072,0.0000,0.0000,0.0000,-0.002537,-1.457282,1.454214,0.9520,0.8422,-0.1980,0.001534,0.585981,-0.555301,0.556835,-0.595185,0.558369,-0.559903
2.0105,0.020081,0.000000,-1.468278,1.468278,0.0000,0.0000,0.0000,-0.002537,-1.458816,1.452680,0.9520,0.8422,-0.1980,0.001534,0.585981,-0.555301,0.556835,-0.595185,0.558369,-0.559903
2.0306,0.020076,0.000000,-1.472483,1.472483,0.0000,0.0000,0.0000,-0.002537,-1.464952,1.460350,0.9520,0.8422,-0.1980,0.001534,0.585981,-0.555301,0.556835,-0.595185,0.558369,-0.559903
2.0507,0.020090,0.000000,-1.476690,1.476690,0.0000,0.0000,0.0000,-0.002537,-1.469554,1.466486,0.9520,0.8422,-0.1980,0.001534,0.585981,-0.555301,0.556835,-0.595185,0.558369,-0.559903
2.0708,0.020079,0.000000,-1.480896,1.480896,0.0000,0.0000,0.0000,-0.002537,-1.469554,1.469554,0.9520,0.8422,-0.1980,0.001534,0.585981,-0.555301,0.556835,-0.595185,0.558369,-0.559903
2.0910,0.020213,0.000000,-1.485129,1.485129,0.0000,0.0000,0.0000,-0.002537,-1.474156,1.471088,0.9520,0.8422,-0.1980,0.001534,0.585981,-0.555301,0.556835,-0.595185,0.558369,-0.559903
2.1110,0.020075,0.000000,-1.489334,1.489334,0.0000,0.0000,0.0000,-0.002526,-1.483359,1.478757,1.0011,0.8269,-0.1446,0.001534,0.587515,-0.555301,0.556835,-0.595185,0.558369,-0.559903
2.1311,0.020077,0.000000,-1.493538,1.493538,0.0000,0.0000,0.0000,-0.002538,-1.484893,1.481825,0.9463,0.8440,-0.2042,0.001534,0.585981,-0.555301,0.556835,-0.595185,0.558369,-0.559903
2.1514,0.020327,0.000000,-1.497796,1.497796,0.0000,0.0000,0.0000,-0.002537,-1.487961,1.484893,0.9520,0.8422,-0.1980,0.001534,0.585981,-0.555301,0.556835,-0.595185,0.558369,-0.559903
2.1715,0.020076,0.000000,-1.502000,1.502000,0.0000,0.0000,0.0000,-0.002537,-1.492563,1.487961,0.9520,0.8422,-0.1980,0.001534,0.585981,-0.555301,0.556835,-0.595185,0.558369,-0.559903
2.1916,0.020112,0.000000,-1.506213,1.506213,0.0000,0.0000,0.0000,-0.002550,-1.497165,1.492563,0.9920,0.8760,-0.2512,0.001534,0.585981,-0.555301,0.556835,-0.595185,0.556835,-0.559903
2.2124,0.020730,0.000000,-1.510554,1.510554,0.0000,0.0000,0.0000,-0.002535,-1.500233,1.498699,0.9473,0.8389,-0.1931,0.001534,0.585981,-0.555301,0.556835,-0.595185,0.558369,-0.559903
2.2324,0.020080,0.000000,-1.514760,1.514760,0.0000,0.0000,0.0000,-0.002537,-1.506369,1.503301,0.9519,0.8428,-0.1992,0.001534,0.585981,-0.555301,0.556835,-0.595185,0.558369,-0.559903
2.2527,0.020261,0.000000,-1.519003,1.519003,0.0000,0.0000,0.0000,-0.002537,-1.509437,1.503301,0.9519,0.8428,-0.1992,0.001534,0.585981,-0.555301,0.556835,-0.595185,0.558369,-0.559903
2.2728,0.020078,0.000000,-1.523209,1.523209,0.0000,0.0000,0.0000,-0.002537,-1.514039,1.507903,0.9519,0.8428,-0.1992,0.001534,0.585981,-0.555301,0.556835,-0.595185,0.558369,-0.559903
2.2929,0.020107,0.000000,-1.527420,1.527420,0.0000,0.0000,0.0000,-0.002537,-1.518641,1.515573,0.9519,0.8428,-0.1992,0.001534,0.585981,-0.555301,0.556835,-0.595185,0.558369,-0.559903
2.3129,0.020054,0.000000,-1.531620,1.531620,0.0000,0.0000,0.0000,-0.002537,-1.524777,1.520175,0.9519,0.8428,-0.1992,0.001534,0.585981,-0.555301,0.556835,-0.595185,0.558369,-0.559903
2.3330,0.020078,0.000000,-1.535825,1.535825,0.0000,0.0000,0.0000,-0.002537,-1.524777,1.520175,0.9519,0.8428,-0.1992,0.001534,0.585981,-0.555301,0.556835,-0.595185,0.558369,-0.559903
2.3531,0.020083,0.000000,-1.540031,1.540031,0.0000,0.0000,0.0000,-0.002537,-1.527845,1.527845,0.9519,0.8428,-0.1992,0.001534,0.585981,-0.555301,0.556835,-0.595185,0.558369,-0.559903
2.3733,0.020171,0.000000,-1.544256,1.544256,0.0000,0.0000,0.0000,-0.002537,-1.535515,1.532447,0.9519,0.8428,-0.1992,0.001534,0.585981,-0.555301,0.556835,-0.595185,0.558369,-0.559903
2.3934,0.020091,0.000000,-1.548464,1.548464,0.0000,0.0000,0.0000,-0.002537,-1.540117,1.535515,0.9519,0.8428,-0.1992,0.001534,0.585981,-0.555301,0.556835,-0.595185,0.558369,-0.559903
2.4135,0.020092,0.000000,-1.552672,1.552672,0.0000,0.0000,0.0000,-0.002537,-1.540117,1.537049,0.9519,0.8428,-0.1992,0.001534,0.585981,-0.555301,0.556835,-0.595185,0.558369,-0.559903
2.4335,0.020076,0.000000,-1.556876,1.556876,0.0000,0.0000,0.0000,-0.002537,-1.546253,1.544719,0.9519,0.8428,-0.1992,0.001534,0.585981,-0.555301,0.556835,-0.595185,0.558369,-0.559903
2.4543,0.020740,0.000000,-1.561220,1.561220,0.0000,0.0000,0.0000,-0.002537,-1.552389,1.547787,0.9519,0.8428,-0.1992,0.001534,0.585981,-0.555301,0.556835,-0.595185,0.558369,-0.559903
2.4744,0.020077,0.000000,-1.565425,1.565425,0.0000,0.0000,0.0000,-0.002537,-1.553923,1.553923,0.9519,0.8428,-0.1992,0.001534,0.585981,-0.555301,0.556835,-0.595185,0.558369,-0.559903
2.4944,0.020084,0.000000,-1.569632,1.569632,0.0000,0.0000,0.0000,-0.002537,-1.556990,1.555457,0.9519,0.8428,-0.1992,0.001534,0.585981,-0.555301,0.556835,-0.595185,0.558369,-0.559903
2.5145,0.020097,0.000000,-1.573841,1.573841,0.0000,0.0000,0.0000,-0.002537,-1.564660,1.558524,0.9519,0.8428,-0.1992,0.001534,0.585981,-0.555301,0.556835,-0.595185,0.558369,-0.559903
2.5346,0.020076,0.000000,-1.578046,1.578046,0.0000,0.0000,0.0000,-0.002537,-1.567728,1.566194,0.9519,0.8428,-0.1992,0.001534,0.585981,-0.555301,0.556835,-0.595185,0.558369,-0.559903
2.5548,0.020178,0.000000,-1.582272,1.582272,0.0000,0.0000,0.0000,-0.002537,-1.572330,1.570796,0.9519,0.8428,-0.1992,0.001534,0.585981,-0.555301,0.556835,-0.595185,0.558369,-0.559903
2.5749,0.020077,0.000000,-1.586476,1.586476,0.0000,0.0000,0.0000,-0.002537,-1.575398,1.570796,0.9519,0.8428,-0.1992,0.001534,0.585981,-0.555301,0.556835,-0.595185,0.558369,-0.559903
2.5950,0.020132,0.000000,-1.590693,1.590693,0.0000,0.0000,0.0000,-0.002537,-1.578466,1.575398,0.9519,0.8428,-0.1992,0.001534,0.585981,-0.555301,0.556835,-0.595185,0.558369,-0.559903
2.6151,0.020081,0.000000,-1.594899,1.594899,0.0000,0.0000,0.0000,-0.002537,-1.583068,1.584602,0.9519,0.8428,-0.1992,0.001534,0.585981,-0.555301,0.556835,-0.595185,0.558369,-0.559903
2.6352,0.020075,0.000000,-1.599103,1.599103,0.0000,0.0000,0.0000,-0.002537,-1.590738,1.586136,0.9519,0.8428,-0.1992,0.001534,0.585981,-0.555301,0.556835,-0.595185,0.558369,-0.559903
2.6558,0.020632,0.000000,-1.603424,1.603424,0.0000,0.0000,0.0000,-0.002537,-1.590738,1.587670,0.9519,0.8428,-0.1992,0.001534,0.585981,-0.555301,0.556835,-0.595185,0.558369,-0.559903
2.6760,0.020239,0.000000,-1.607663,1.607663,0.0000,0.0000,0.0000,-0.002537,-1.593806,1.592272,0.9519,0.8428,-0.1992,0.001534,0.585981,-0.555301,0.556835,-0.595185,0.558369,-0.559903
2.6961,0.020088,0.000000,-1.611870,1.611870,0.0000,0.0000,0.0000,-0.002537,-1.599942,1.598408,0.9519,0.8428,-0.1992,0.001534,0.585981,-0.555301,0.556835,-0.595185,0.558369,-0.559903
2.7162,0.020104,0.000000,-1.616081,1.616081,0.0000,0.0000,0.0000,-0.002537,-1.606078,1.606078,0.9519,0.8428,-0.1992,0.001534,0.585981,-0.555301,0.556835,-0.595185,0.558369,-0.559903
2.7363,0.020081,0.000000,-1.620286,1.620286,0.0000,0.0000,0.0000,-0.002537,-1.609146,1.609146,0.9519,0.8428,-0.1992,0.001534,0.585981,-0.555301,0.556835,-0.595185,0.558369,-0.559903
2.7564,0.020080,0.000000,-1.624492,1.624492,0.0000,0.0000,0.0000,-0.002537,-1.612214,1.609146,0.9519,0.8428,-0.1992,0.001534,0.585981,-0.555301,0.556835,-0.595185,0.558369,-0.559903
2.7765,0.020082,0.000000,-1.628698,1.628698,0.0000,0.0000,0.0000,-0.002537,-1.619884,1.612214,0.9519,0.8428,-0.1992,0.001534,0.585981,-0.555301,0.556835,-0.595185,0.558369,-0.559903
2.7966,0.020186,0.000000,-1.632926,1.632926,0.0000,0.0000,0.0000,-0.002537,-1.619884,1.622952,0.9519,0.8428,-0.1992,0.001534,0.585981,-0.555301,0.556835,-0.595185,0.558369,-0.559903
2.8177,0.021037,0.000000,-1.637332,1.637332,0.0000,0.0000,0.0000,-0.002537,-1.622952,1.624486,0.9519,0.8428,-0.1992,0.001534,0.585981,-0.555301,0.556835,-0.595185,0.558369,-0.559903
2.8378,0.020076,0.000000,-1.641536,1.641536,0.0000,0.0000,0.0000,-0.002526,-1.632156,1.626020,1.0011,0.8268,-0.1444,0.001534,0.587515,-0.555301,0.556835,-0.595185,0.558369,-0.559903
2.8579,0.020100,0.000000,-1.645746,1.645746,0.0000,0.0000,0.0000,-0.002527,-1.630622,1.636758,0.9960,0.8285,-0.1501,0.001534,0.587515,-0.555301,0.556835,-0.595185,0.558369,-0.559903
2.8779,0.020077,0.000000,-1.649951,1.649951,0.0000,0.0000,0.0000,-0.002538,-1.633690,1.638291,0.9469,0.8438,-0.2036,0.001534,0.585981,-0.555301,0.556835,-0.595185,0.558369,-0.559903
2.8981,0.020149,0.000000,-1.654171,1.654171,0.0000,0.0000,0.0000,-0.002526,-1.644427,1.641359,1.0017,0.8267,-0.1440,0.001534,0.587515,-0.555301,0.556835,-0.595185,0.558369,-0.559903
2.9182,0.020088,0.000000,-1.658378,1.658378,0.0000,0.0000,0.0000,-0.002538,-1.649029,1.644427,0.9463,0.8440,-0.2043,0.001534,0.585981,-0.555301,0.556835,-0.595185,0.558369,-0.559903
2.9383,0.020084,0.000000,-1.662585,1.662585,0.0000,0.0000,0.0000,-0.002537,-1.647495,1.645961,0.9520,0.8422,-0.1980,0.001534,0.585981,-0.555301,0.556835,-0.595185,0.558369,-0.559903
2.9583,0.020090,0.000000,-1.666792,1.666792,0.0000,0.0000,0.0000,-0.002537,-1.655165,1.655165,0.9520,0.8422,-0.2859,0.000000,0.585981,-0.555301,0.556835,-0.595185,0.558369,-0.559903
2.9784,0.020082,0.000000,-1.670998,1.670998,0.0000,0.0000,0.0000,-0.002537,-1.662835,1.661301,0.9520,0.8422,-0.1980,0.001534,0.585981,-0.555301,0.556835,-0.595185,0.558369,-0.559903
2.9985,0.020083,0.000000,-1.675205,1.675205,0.0000,0.0000,0.0000,-0.002537,-1.662835,1.662835,0.9520,0.8422,-0.1980,0.001534,0.585981,-0.555301,0.556835,-0.595185,0.558369,-0.559903
3.0187,0.020155,0.000000,-1.679426,1.679426,0.0000,0.0000,0.0000,-0.002526,-1.664369,1.664369,1.0011,0.8269,-0.1446,0.001534,0.587515,-0.555301,0.556835,-0.595185,0.558369,-0.559903
3.0387,0.020082,0.000000,-1.683632,1.683632,0.0000,0.0000,0.0000,-0.002538,-1.676641,1.670505,0.9463,0.8440,-0.2042,0.001534,0.585981,-0.555301,0.556835,-0.595185,0.558369,-0.559903
3.0588,0.020096,0.000000,-1.687840,1.687840,0.0000,0.0000,0.0000,-0.002537,-1.676641,1.673573,0.9520,0.8422,-0.1980,0.001534,0.585981,-0.555301,0.556835,-0.595185,0.558369,-0.559903
3.0789,0.020077,0.000000,-1.692045,1.692045,0.0000,0.0000,0.0000,-0.002526,-1.678175,1.676641,1.0011,0.8269,-0.1446,0.001534,0.587515,-0.555301,0.556835,-0.595185,0.558369,-0.559903
3.0990,0.020074,0.000000,-1.696250,1.696250,0.0000,0.0000,0.0000,-0.002538,-1.687379,1.678175,0.9463,0.8440,-0.2042,0.001534,0.585981,-0.555301,0.556835,-0.595185,0.558369,-0.559903
3.1193,0.020287,0.000000,-1.700499,1.700499,0.0000,0.0000,0.0000,-0.002526,-1.688913,1.687379,1.0017,0.8267,-0.1439,0.001534,0.587515,-0.555301,0.556835,-0.595185,0.558369,-0.559903
3.1394,0.020080,0.000000,-1.704704,1.704704,0.0000,0.0000,0.0000,-0.002538,-1.690447,1.693515,0.9463,0.8440,-0.2043,0.001534,0.585981,-0.555301,0.556835,-0.595185,0.558369,-0.559903
3.1595,0.020098,0.000000,-1.708913,1.708913,0.0000,0.0000,0.0000,-0.002526,-1.701185,1.693515,1.0017,0.8267,-0.1439,0.001534,0.587515,-0.555301,0.556835,-0.595185,0.558369,-0.559903
3.1795,0.020083,0.000000,-1.713120,1.713120,0.0000,0.0000,0.0000,-0.002527,-1.705787,1.704253,0.9959,0.8285,-0.1502,0.001534,0.587515,-0.555301,0.556835,-0.595185,0.558369,-0.559903
3.1996,0.020081,0.000000,-1.717326,1.717326,0.0000,0.0000,0.0000,-0.002538,-1.713457,1.708855,0.9469,0.8438,-0.2036,0.001534,0.585981,-0.555301,0.556835,-0.595185,0.558369,-0.559903
3.2198,0.020154,0.000000,-1.721547,1.721547,0.0000,0.0000,0.0000,-0.002537,-1.714991,1.711923,0.9520,0.8422,-0.1981,0.001534,0.585981,-0.555301,0.556835,-0.595185,0.558369,-0.559903
3.2399,0.020086,0.000000,-1.725753,1.725753,0.0000,0.0000,0.0000,-0.002537,-1.714991,1.714991,0.9520,0.8422,-0.1981,0.001534,0.585981,-0.555301,0.556835,-0.595185,0.558369,-0.559903
3.2603,0.020427,0.000000,-1.730031,1.730031,0.0000,0.0000,0.0000,-0.002537,-1.724194,1.721126,0.9520,0.8422,-0.1981,0.001534,0.585981,-0.555301,0.556835,-0.595185,0.558369,-0.559903
3.2804,0.020080,0.000000,-1.734237,1.734237,0.0000,0.0000,0.0000,-0.002526,-1.730330,1.722660,1.0011,0.8269,-0.1446,0.001534,0.587515,-0.555301,0.556835,-0.595185,0.558369,-0.559903
3.3004,0.020078,0.000000,-1.738442,1.738442,0.0000,0.0000,0.0000,-0.002527,-1.730330,1.725728,0.9960,0.8285,-0.1501,0.001534,0.587515,-0.555301,0.556835,-0.595185,0.558369,-0.559903
3.3205,0.020078,0.000000,-1.742647,1.742647,0.0000,0.0000,0.0000,-0.002527,-1.731864,1.733398,0.9960,0.8285,-0.1501,0.001534,0.587515,-0.555301,0.556835,-0.595185,0.558369,-0.559903
3.3406,0.020083,0.000000,-1.743805,1.743805,0.0000,0.0000,0.0000,-0.002527,-1.742602,1.738000,0.9960,0.8285,-0.1501,0.001534,0.587515,-0.555301,0.556835,-0.595185,0.558369,-0.559903
3.3607,0.020101,0.000000,-1.739595,1.739595,0.0000,0.0000,0.0000,-0.002527,-1.744136,1.742602,0.9960,0.8285,-0.1501,0.001534,0.587515,-0.555301,0.556835,-0.595185,0.558369,-0.559903
3.3809,0.020190,0.000000,-1.735367,1.735367,0.0000,0.0000,0.0000,-0.002538,-1.744136,1.744136,0.9469,0.8438,-0.2036,0.001534,0.585981,-0.555301,0.556835,-0.595185,0.558369,-0.559903
3.4010,0.020075,0.000000,-1.731162,1.731162,0.0000,0.0000,0.0000,-0.002537,-1.744136,1.744136,0.9520,0.8422,-0.1981,0.001534,0.585981,-0.555301,0.556835,-0.595185,0.558369,-0.559903
3.4211,0.020092,0.000000,-1.726954,1.726954,0.0000,0.0000,0.0000,-0.002537,-1.742602,1.744136,0.9520,0.8422,-0.1981,0.001534,0.585981,-0.555301,0.556835,-0.595185,0.558369,-0.559903
3.4411,0.020081,0.000000,-1.722748,1.722748,0.0000,0.0000,0.0000,-0.002537,-1.741068,1.744136,0.9520,0.8422,-0.1981,0.001534,0.587515,-0.555301,0.556835,-0.595185,0.558369,-0.559903
3.4613,0.020110,0.000000,-1.718536,1.718536,0.0000,0.0000,0.0000,-0.002538,-1.741068,1.744136,0.9463,0.8440,-0.2042,0.001534,0.585981,-0.555301,0.556835,-0.595185,0.558369,-0.559903
3.4817,0.020393,0.000000,-1.714265,1.714265,0.0000,0.0000,0.0000,-0.002539,-1.739534,1.744136,1.0422,0.8603,-0.1964,0.001534,0.587515,-0.555301,0.556835,-0.595185,0.556835,-0.559903
3.5017,0.020074,0.000000,-1.710061,1.710061,0.0000,0.0000,0.0000,-0.002526,-1.739534,1.744136,0.9917,0.8250,-0.1447,0.001534,0.587515,-0.555301,0.556835,-0.595185,0.558369,-0.559903
3.5219,0.020173,0.000000,-1.705836,1.705836,0.0000,0.0000,0.0000,-0.002538,-1.738000,1.742602,0.9473,0.8442,-0.2042,0.001534,0.585981,-0.555301,0.556835,-0.595185,0.558369,-0.559903
3.5420,0.020075,0.000000,-1.701632,1.701632,0.0000,0.0000,0.0000,-0.002537,-1.736466,1.742602,0.9519,0.8422,-0.1980,0.001534,0.585981,-0.555301,0.556835,-0.595185,0.558369,-0.559903
3.5620,0.020075,0.000000,-1.697427,1.697427,0.0000,0.0000,0.0000,-0.002526,-1.736466,1.741068,1.0011,0.8269,-0.1446,0.001534,0.587515,-0.555301,0.556835,-0.595185,0.558369,-0.559903
3.5821,0.020093,0.000000,-1.693219,1.693219,0.0000,0.0000,0.0000,-0.002526,-1.736466,1.741068,1.0011,0.8269,-0.1446,0.001534,0.587515,-0.555301,0.556835,-0.595185,0.558369,-0.559903
3.6022,0.020079,0.000000,-1.689014,1.689014,0.0000,0.0000,0.0000,-0.002538,-1.736466,1.741068,0.9469,0.8438,-0.2036,0.001534,0.585981,-0.555301,0.556835,-0.595185,0.558369,-0.559903
3.6225,0.020305,0.000000,-1.684761,1.684761,0.0000,0.0000,0.0000,-0.002526,-1.733398,1.741068,1.0017,0.8267,-0.1440,0.001534,0.587515,-0.555301,0.556835,-0.595185,0.558369,-0.559903
3.6426,0.020075,0.000000,-1.680556,1.680556,0.0000,0.0000,0.0000,-0.002538,-1.728796,1.739534,0.9463,0.8440,-0.2043,0.001534,0.585981,-0.555301,0.556835,-0.595185,0.558369,-0.559903
3.6629,0.020290,0.000000,-1.676307,1.676307,0.0000,0.0000,0.0000,-0.002526,-1.721126,1.736466,1.0017,0.8267,-0.1439,0.001534,0.587515,-0.555301,0.556835,-0.595185,0.558369,-0.559903
3.6831,0.020200,0.000000,-1.672076,1.672076,0.0000,0.0000,0.0000,-0.002538,-1.713457,1.727262,0.9463,0.8440,-0.2043,0.001534,0.585981,-0.555301,0.556835,-0.595185,0.558369,-0.559903
3.7032,0.020079,0.000000,-1.667871,1.667871,0.0000,0.0000,0.0000,-0.002537,-1.705787,1.714991,0.9520,0.8422,-0.1980,0.001534,0.585981,-0.555301,0.556835,-0.595185,0.558369,-0.559903
3.7233,0.020081,0.000000,-1.663665,1.663665,0.0000,0.0000,0.0000,-0.002526,-1.699651,1.702719,1.0011,0.8269,-0.1446,0.001534,0.587515,-0.555301,0.556835,-0.595185,0.558369,-0.559903
3.7434,0.020138,0.000000,-1.659448,1.659448,0.0000,0.0000,0.0000,-0.002527,-1.695049,1.695049,0.9960,0.8285,-0.1501,0.001534,0.587515,-0.555301,0.556835,-0.595185,0.558369,-0.559903
3.7635,0.020078,0.000000,-1.655243,1.655243,0.0000,0.0000,0.0000,-0.002527,-1.693515,1.688913,0.9960,0.8285,-0.1501,0.001534,0.587515,-0.555301,0.556835,-0.595185,0.558369,-0.559903
3.7836,0.020093,0.000000,-1.651034,1.651034,0.0000,0.0000,0.0000,-0.002527,-1.693515,1.687379,0.9960,0.8285,-0.1501,0.001534,0.587515,-0.555301,0.556835,-0.595185,0.558369,-0.559903
3.8037,0.020126,0.000000,-1.646819,1.646819,0.0000,0.0000,0.0000,-0.002538,-1.693515,1.687379,0.9469,0.8438,-0.2036,0.001534,0.585981,-0.555301,0.556835,-0.595185,0.558369,-0.559903
3.8237,0.020053,0.000000,-1.642619,1.642619,0.0000,0.0000,0.0000,-0.002538,-1.691981,1.687379,0.9469,0.8438,-0.2036,0.001534,0.585981,-0.555301,0.556835,-0.595185,0.558369,-0.559903
3.8440,0.020221,0.000000,-1.638384,1.638384,0.0000,0.0000,0.0000,-0.002526,-1.685845,1.687379,1.0011,0.8269,-0.1446,0.001534,0.587515,-0.555301,0.556835,-0.595185,0.558369,-0.559903
3.8641,0.020096,0.000000,-1.634175,1.634175,0.0000,0.0000,0.0000,-0.002551,-1.675107,1.687379,0.9868,0.8776,-0.2567,0.001534,0.585981,-0.555301,0.556835,-0.595185,0.556835,-0.559903
3.8842,0.020179,0.000000,-1.629949,1.629949,0.0000,0.0000,0.0000,-0.002535,-1.665903,1.685845,0.9478,0.8387,-0.1925,0.001534,0.585981,-0.555301,0.556835,-0.595185,0.558369,-0.559903
3.9044,0.020186,0.000000,-1.625721,1.625721,0.0000,0.0000,0.0000,-0.002526,-1.662835,1.684311,1.0016,0.8273,-0.1451,0.001534,0.587515,-0.555301,0.556835,-0.595185,0.558369,-0.559903
3.9245,0.020108,0.000000,-1.621510,1.621510,0.0000,0.0000,0.0000,-0.002527,-1.656699,1.675107,0.9959,0.8285,-0.1501,0.001534,0.587515,-0.555301,0.556835,-0.595185,0.558369,-0.559903
3.9446,0.020095,0.000000,-1.617301,1.617301,0.0000,0.0000,0.0000,-0.002527,-1.656699,1.675107,0.9959,0.8285,-0.1501,0.001534,0.587515,-0.555301,0.556835,-0.595185,0.558369,-0.559903
3.9647,0.020090,0.000000,-1.613093,1.613093,0.0000,0.0000,0.0000,-0.002527,-1.649029,1.655165,0.9959,0.8285,-0.1501,0.001534,0.587515,-0.555301,0.556835,-0.595185,0.558369,-0.559903
3.9848,0.020099,0.000000,-1.608884,1.608884,0.0000,0.0000,0.0000,-0.002538,-1.647495,1.650563,0.9469,0.8438,-0.2036,0.001534,0.585981,-0.555301,0.556835,-0.595185,0.558369,-0.559903
4.0049,0.020090,0.000000,-1.604676,1.604676,0.0000,0.0000,0.0000,-0.002526,-1.642893,1.645961,1.0017,0.8267,-0.1440,0.001534,0.587515,-0.555301,0.556835,-0.595185,0.558369,-0.559903
4.0250,0.020113,0.000000,-1.600464,1.600464,0.0000,0.0000,0.0000,-0.002526,-1.641359,1.644427,1.0017,0.8267,-0.1440,0.001534,0.587515,-0.555301,0.556835,-0.595185,0.558369,-0.559903
4.0451,0.020089,0.000000,-1.596257,1.596257,0.0000,0.0000,0.0000,-0.002527,-1.639825,1.639825,0.9959,0.8285,-0.1502,0.001534,0.587515,-0.555301,0.556835,-0.595185,0.558369,-0.559903
4.0656,0.020544,0.000000,-1.591954,1.591954,0.0000,0.0000,0.0000,-0.002538,-1.639825,1.635224,0.9469,0.8438,-0.2036,0.001534,0.585981,-0.555301,0.556835,-0.595185,0.558369,-0.559903
4.0857,0.020097,0.000000,-1.587745,1.587745,0.0000,0.0000,0.0000,-0.002537,-1.639825,1.632156,0.9520,0.8422,-0.1981,0.001534,0.585981,-0.555301,0.556835,-0.595185,0.558369,-0.559903
4.1058,0.020084,0.000000,-1.583538,1.583538,0.0000,0.0000,0.0000,-0.002526,-1.639825,1.632156,1.0011,0.8269,-0.1446,0.001534,0.587515,-0.555301,0.556835,-0.595185,0.558369,-0.559903
4.1259,0.020101,0.000000,-1.579328,1.579328,0.0000,0.0000,0.0000,-0.002538,-1.638291,1.630622,0.9463,0.8440,-0.2042,0.001534,0.585981,-0.555301,0.556835,-0.595185,0.558369,-0.559903
4.1461,0.020190,0.000000,-1.575100,1.575100,0.0000,0.0000,0.0000,-0.002538,-1.638291,1.630622,0.9463,0.8440,-0.2042,0.001534,0.585981,-0.555301,0.556835,-0.595185,0.558369,-0.559903
4.1662,0.020051,0.000000,-1.570900,1.570900,0.0000,0.0000,0.0000,-0.002527,-1.618350,1.618350,0.9959,0.8285,-0.1502,0.001534,0.587515,-0.555301,0.556835,-0.595185,0.558369,-0.559903
4.1863,0.020091,0.000000,-1.566693,1.566693,0.0000,0.0000,0.0000,-0.002527,-1.607612,1.610680,0.9959,0.8285,-0.1502,0.001534,0.587515,-0.555301,0.556835,-0.595185,0.558369,-0.559903
4.2064,0.020090,0.000000,-1.562485,1.562485,0.0000,0.0000,0.0000,-0.002527,-1.599942,1.604544,0.9959,0.8285,-0.1502,0.001534,0.587515,-0.555301,0.556835,-0.595185,0.558369,-0.559903
4.2264,0.020086,0.000000,-1.558278,1.558278,0.0000,0.0000,0.0000,-0.002527,-1.595340,1.603010,0.9959,0.8285,-0.1502,0.001534,0.587515,-0.555301,0.556835,-0.595185,0.558369,-0.559903
4.2466,0.020192,0.000000,-1.554049,1.554049,0.0000,0.0000,0.0000,-0.002527,-1.590738,1.601476,0.9959,0.8285,-0.1502,0.001534,0.585981,-0.555301,0.556835,-0.595185,0.558369,-0.559903
4.2667,0.020089,0.000000,-1.549842,1.549842,0.0000,0.0000,0.0000,-0.002526,-1.589204,1.598408,1.0017,0.8267,-0.1440,0.001534,0.587515,-0.555301,0.556835,-0.595185,0.558369,-0.559903
4.2868,0.020119,0.000000,-1.545628,1.545628,0.0000,0.0000,0.0000,-0.002526,-1.589204,1.598408,1.0017,0.8267,-0.1440,0.001534,0.587515,-0.555301,0.556835,-0.595185,0.558369,-0.559903
4.3069,0.020085,0.000000,-1.541421,1.541421,0.0000,0.0000,0.0000,-0.002538,-1.587670,1.593806,0.9463,0.8440,-0.2043,0.001534,0.585981,-0.555301,0.556835,-0.595185,0.558369,-0.559903
4.3270,0.020087,0.000000,-1.537214,1.537214,0.0000,0.0000,0.0000,-0.002526,-1.586136,1.583068,1.0011,0.8269,-0.1446,0.001534,0.587515,-0.555301,0.556835,-0.595185,0.558369,-0.559903
4.3471,0.020094,0.000000,-1.533006,1.533006,0.0000,0.0000,0.0000,-0.002526,-1.586136,1.583068,1.0011,0.8269,-0.1446,0.001534,0.587515,-0.555301,0.556835,-0.595185,0.558369,-0.559903
4.3672,0.020097,0.000000,-1.528797,1.528797,0.0000,0.0000,0.0000,-0.002538,-1.586136,1.578466,0.9469,0.8438,-0.2036,0.001534,0.585981,-0.555301,0.556835,-0.595185,0.558369,-0.559903
4.3873,0.020110,0.000000,-1.524585,1.524585,0.0000,0.0000,0.0000,-0.002537,-1.584602,1.578466,0.9520,0.8422,-0.1981,0.001534,0.585981,-0.555301,0.556835,-0.595185,0.558369,-0.559903
4.4074,0.020095,0.000000,-1.520376,1.520376,0.0000,0.0000,0.0000,-0.002526,-1.575398,1.578466,1.0011,0.8269,-0.1446,0.001534,0.587515,-0.555301,0.556835,-0.595185,0.558369,-0.559903
4.4275,0.020088,0.000000,-1.516169,1.516169,0.0000,0.0000,0.0000,-0.002526,-1.563126,1.576932,1.0011,0.8269,-0.1446,0.001534,0.587515,-0.555301,0.556835,-0.595185,0.558369,-0.559903
4.4476,0.020095,0.000000,-1.511960,1.511960,0.0000,0.0000,0.0000,-0.002527,-1.563126,1.576932,0.9960,0.8285,-0.1501,0.001534,0.587515,-0.555301,0.556835,-0.595185,0.558369,-0.559903
4.4677,0.020085,0.000000,-1.507754,1.507754,0.0000,0.0000,0.0000,-0.002526,-1.544719,1.561592,1.0017,0.8267,-0.1440,0.001534,0.587515,-0.555301,0.556835,-0.595185,0.558369,-0.559903
4.4878,0.020106,0.000000,-1.503543,1.503543,0.0000,0.0000,0.0000,-0.002526,-1.544719,1.561592,1.0017,0.8267,-0.1440,0.001534,0.587515,-0.555301,0.556835,-0.595185,0.558369,-0.559903
4.5079,0.020104,0.000000,-1.499332,1.499332,0.0000,0.0000,0.0000,-0.002527,-1.535515,1.541651,0.9959,0.8285,-0.1502,0.001534,0.587515,-0.555301,0.556835,-0.595185,0.558369,-0.559903
4.5280,0.020086,0.000000,-1.495125,1.495125,0.0000,0.0000,0.0000,-0.002527,-1.535515,1.541651,0.9959,0.8285,-0.1502,0.001534,0.587515,-0.555301,0.556835,-0.595185,0.558369,-0.559903
4.5481,0.020097,0.000000,-1.490916,1.490916,0.0000,0.0000,0.0000,-0.002538,-1.532447,1.533981,0.9469,0.8438,-0.2036,0.001534,0.585981,-0.555301,0.556835,-0.595185,0.558369,-0.559903
4.5682,0.020093,0.000000,-1.486708,1.486708,0.0000,0.0000,0.0000,-0.002526,-1.532447,1.526311,1.0017,0.8267,-0.1440,0.001534,0.587515,-0.555301,0.556835,-0.595185,0.558369,-0.559903
4.5882,0.020085,0.000000,-1.482501,1.482501,0.0000,0.0000,0.0000,-0.002527,-1.532447,1.526311,0.9959,0.8285,-0.1502,0.001534,0.587515,-0.555301,0.556835,-0.595185,0.558369,-0.559903
4.6083,0.020085,0.000000,-1.478295,1.478295,0.0000,0.0000,0.0000,-0.002527,-1.530913,1.524777,0.9959,0.8285,-0.1502,0.001534,0.587515,-0.555301,0.556835,-0.595185,0.558369,-0.559903
4.6288,0.020516,0.000000,-1.473998,1.473998,0.0000,0.0000,0.0000,-0.002527,-1.526311,1.526311,0.9959,0.8285,-0.1502,0.001534,0.587515,-0.555301,0.556835,-0.595185,0.558369,-0.559903
4.6489,0.020091,0.000000,-1.469790,1.469790,0.0000,0.0000,0.0000,-0.002527,-1.526311,1.526311,0.9959,0.8285,-0.1502,0.001534,0.587515,-0.555301,0.556835,-0.595185,0.558369,-0.559903
4.6690,0.020084,0.000000,-1.465584,1.465584,0.0000,0.0000,0.0000,-0.002538,-1.506369,1.524777,0.9469,0.8438,-0.2915,0.001534,0.587515,-0.555301,0.556835,-0.595185,0.558369,-0.559903
4.6891,0.020094,0.000000,-1.461375,1.461375,0.0000,0.0000,0.0000,-0.002526,-1.506369,1.524777,1.0017,0.8267,-0.1440,0.001534,0.587515,-0.555301,0.556835,-0.595185,0.558369,-0.559903
4.7092,0.020085,0.000000,-1.457168,1.457168,0.0000,0.0000,0.0000,-0.002527,-1.491029,1.521709,0.9959,0.8285,-0.1502,0.001534,0.585981,-0.555301,0.556835,-0.595185,0.558369,-0.559903
4.7293,0.020079,0.000000,-1.452963,1.452963,0.0000,0.0000,0.0000,-0.002538,-1.489495,1.512505,0.9469,0.8438,-0.2036,0.001534,0.587515,-0.555301,0.556835,-0.595185,0.558369,-0.559903
4.7494,0.020087,0.000000,-1.448756,1.448756,0.0000,0.0000,0.0000,-0.002526,-1.489495,1.512505,1.0017,0.8267,-0.1440,0.001534,0.587515,-0.555301,0.556835,-0.595185,0.558369,-0.559903
4.7695,0.020089,0.000000,-1.444548,1.444548,0.0000,0.0000,0.0000,-0.002527,-1.481825,1.487961,0.9959,0.8285,-0.1502,0.001534,0.587515,-0.555301,0.556835,-0.595185,0.558369,-0.559903
4.7897,0.020200,0.000000,-1.440318,1.440318,0.0000,0.0000,0.0000,-0.002527,-1.481825,1.487961,0.9959,0.8285,-0.1502,0.001534,0.587515,-0.555301,0.556835,-0.595185,0.558369,-0.559903
4.8097,0.020085,0.000000,-1.436111,1.436111,0.0000,0.0000,0.0000,-0.002527,-1.480291,1.477223,0.9959,0.8285,-0.1502,0.001534,0.587515,-0.555301,0.556835,-0.595185,0.558369,-0.559903
4.8298,0.020078,0.000000,-1.431906,1.431906,0.0000,0.0000,0.0000,-0.002527,-1.478757,1.466486,0.9959,0.8285,-0.1502,0.001534,0.587515,-0.555301,0.556835,-0.595185,0.558369,-0.559903
4.8499,0.020082,0.000000,-1.427700,1.427700,0.0000,0.0000,0.0000,-0.002527,-1.478757,1.466486,0.9959,0.8285,-0.1502,0.001534,0.587515,-0.555301,0.556835,-0.595185,0.558369,-0.559903
4.8700,0.020084,0.000000,-1.423494,1.423494,0.0000,0.0000,0.0000,-0.002527,-1.478757,1.464952,0.9959,0.8285,-0.1502,0.001534,0.587515,-0.555301,0.556835,-0.595185,0.558369,-0.559903
4.8901,0.020111,0.000000,-1.419281,1.419281,0.0000,0.0000,0.0000,-0.002527,-1.478757,1.460350,0.9959,0.8285,-0.1502,0.001534,0.587515,-0.555301,0.556835,-0.595185,0.558369,-0.559903
4.9102,0.020086,0.000000,-1.415075,1.415075,0.0000,0.0000,0.0000,-0.002527,-1.474156,1.458816,0.9959,0.8285,-0.1502,0.001534,0.587515,-0.555301,0.556835,-0.595185,0.558369,-0.559903
4.9303,0.020090,0.000000,-1.410867,1.410867,0.0000,0.0000,0.0000,-0.002527,-1.463418,1.458816,0.9959,0.8285,-0.1502,0.001534,0.587515,-0.555301,0.556835,-0.595185,0.558369,-0.559903
4.9518,0.021549,0.000000,-1.406354,1.406354,0.0000,0.0000,0.0000,-0.002527,-1.452680,1.457282,0.9959,0.8285,-0.1502,0.001534,0.587515,-0.555301,0.556835,-0.595185,0.558369,-0.559903
4.9720,0.020197,0.000000,-1.402123,1.402123,0.0000,0.0000,0.0000,-0.002527,-1.435806,1.448078,0.9959,0.8285,-0.1502,0.001534,0.587515,-0.555301,0.556835,-0.595185,0.558369,-0.559903
4.9921,0.020115,0.000000,-1.397911,1.397911,0.0000,0.0000,0.0000,-0.002527,-1.432738,1.441942,0.9959,0.8285,-0.1502,0.001534,0.587515,-0.555301,0.556835,-0.595185,0.558369,-0.559903
5.0123,0.020128,0.000000,-1.398832,1.398832,0.0000,0.0000,0.0000,-0.002527,-1.431204,1.440408,0.9959,0.8285,-0.1502,0.001534,0.585981,-0.555301,0.556835,-0.595185,0.558369,-0.559903
5.0323,0.020084,0.000000,-1.403038,1.403038,0.0000,0.0000,0.0000,-0.002537,-1.428136,1.434272,0.9520,0.8422,-0.1981,0.001534,0.585981,-0.555301,0.556835,-0.595185,0.558369,-0.559903
5.0524,0.020103,0.000000,-1.407248,1.407248,0.0000,0.0000,0.0000,-0.002526,-1.428136,1.431204,1.0011,0.8269,-0.1446,0.001534,0.587515,-0.555301,0.556835,-0.595185,0.558369,-0.559903
5.0726,0.020120,0.000000,-1.411462,1.411462,0.0000,0.0000,0.0000,-0.002527,-1.428136,1.428136,0.9960,0.8285,-0.2380,0.000000,0.587515,-0.555301,0.556835,-0.595185,0.558369,-0.559903
5.0927,0.020095,0.000000,-1.415671,1.415671,0.0000,0.0000,0.0000,-0.002527,-1.428136,1.425068,0.9960,0.8285,-0.1501,0.001534,0.587515,-0.555301,0.556835,-0.595185,0.558369,-0.559903
5.1128,0.020091,0.000000,-1.419879,1.419879,0.0000,0.0000,0.0000,-0.002538,-1.428136,1.423534,0.9469,0.8438,-0.2036,0.001534,0.585981,-0.555301,0.556835,-0.595185,0.558369,-0.559903
5.1329,0.020104,0.000000,-1.424089,1.424089,0.0000,0.0000,0.0000,-0.002526,-1.428136,1.423534,1.0017,0.8267,-0.1440,0.001534,0.587515,-0.555301,0.556835,-0.595185,0.558369,-0.559903
5.1530,0.020113,0.000000,-1.428302,1.428302,0.0000,0.0000,0.0000,-0.002526,-1.428136,1.423534,1.0017,0.8267,-0.1440,0.001534,0.587515,-0.555301,0.556835,-0.595185,0.558369,-0.559903
5.1731,0.020091,0.000000,-1.432510,1.432510,0.0000,0.0000,0.0000,-0.002527,-1.428136,1.423534,0.9959,0.8285,-0.1502,0.001534,0.587515,-0.555301,0.556835,-0.595185,0.558369,-0.559903
5.1932,0.020088,0.000000,-1.436717,1.436717,0.0000,0.0000,0.0000,-0.002538,-1.428136,1.425068,0.9469,0.8438,-0.2036,0.001534,0.585981,-0.555301,0.556835,-0.595185,0.558369,-0.559903
5.2132,0.020095,0.000000,-1.440926,1.440926,0.0000,0.0000,0.0000,-0.002538,-1.432738,1.428136,0.9469,0.8438,-0.2036,0.001534,0.587515,-0.555301,0.556835,-0.595185,0.558369,-0.559903
5.2333,0.020084,0.000000,-1.445132,1.445132,0.0000,0.0000,0.0000,-0.002538,-1.434272,1.431204,0.9463,0.8440,-0.2043,0.001534,0.585981,-0.555301,0.556835,-0.595185,0.558369,-0.559903
5.2534,0.020112,0.000000,-1.449344,1.449344,0.0000,0.0000,0.0000,-0.002538,-1.438874,1.435806,0.9463,0.8440,-0.2043,0.001534,0.585981,-0.555301,0.556835,-0.595185,0.558369,-0.559903
5.2736,0.020127,0.000000,-1.453560,1.453560,0.0000,0.0000,0.0000,-0.002526,-1.445010,1.441942,1.0011,0.8269,-0.1446,0.001534,0.587515,-0.555301,0.556835,-0.595185,0.558369,-0.559903
5.2937,0.020097,0.000000,-1.457769,1.457769,0.0000,0.0000,0.0000,-0.002527,-1.446544,1.448078,0.9960,0.8285,-0.1501,0.001534,0.587515,-0.555301,0.556835,-0.595185,0.558369,-0.559903
5.3138,0.020095,0.000000,-1.461977,1.461977,0.0000,0.0000,0.0000,-0.002527,-1.451146,1.448078,0.9960,0.8285,-0.1501,0.001534,0.587515,-0.555301,0.556835,-0.595185,0.558369,-0.559903
5.3338,0.020082,0.000000,-1.466183,1.466183,0.0000,0.0000,0.0000,-0.002538,-1.458816,1.451146,0.9469,0.8438,-0.2036,0.001534,0.585981,-0.555301,0.556835,-0.595185,0.558369,-0.559903
5.3540,0.020108,0.000000,-1.470395,1.470395,0.0000,0.0000,0.0000,-0.002538,-1.458816,1.458816,0.9469,0.8438,-0.2036,0.001534,0.587515,-0.555301,0.556835,-0.595185,0.558369,-0.559903
5.3740,0.020093,0.000000,-1.474603,1.474603,0.0000,0.0000,0.0000,-0.002527,-1.464952,1.461884,0.9959,0.8285,-0.1502,0.001534,0.587515,-0.555301,0.556835,-0.595185,0.558369,-0.559903
5.3941,0.020090,0.000000,-1.478811,1.478811,0.0000,0.0000,0.0000,-0.002527,-1.469554,1.464952,0.9959,0.8285,-0.1502,0.001534,0.587515,-0.555301,0.556835,-0.595185,0.558369,-0.559903
5.4142,0.020098,0.000000,-1.483020,1.483020,0.0000,0.0000,0.0000,-0.002527,-1.472622,1.471088,0.9959,0.8285,-0.1502,0.001534,0.587515,-0.555301,0.556835,-0.595185,0.558369,-0.559903
5.4343,0.020073,0.000000,-1.487224,1.487224,0.0000,0.0000,0.0000,-0.002527,-1.472622,1.471088,0.9959,0.8285,-0.1502,0.001534,0.587515,-0.555301,0.556835,-0.595185,0.558369,-0.559903
5.4544,0.020108,0.000000,-1.491436,1.491436,0.0000,0.0000,0.0000,-0.002538,-1.486427,1.478757,0.9469,0.8438,-0.2036,0.001534,0.585981,-0.555301,0.556835,-0.595185,0.558369,-0.559903
5.4745,0.020127,0.000000,-1.495651,1.495651,0.0000,0.0000,0.0000,-0.002537,-1.486427,1.480291,0.9520,0.8422,-0.1981,0.001534,0.587515,-0.555301,0.556835,-0.595185,0.558369,-0.559903
5.4946,0.020090,0.000000,-1.499859,1.499859,0.0000,0.0000,0.0000,-0.002526,-1.489495,1.484893,1.0011,0.8269,-0.1446,0.001534,0.587515,-0.555301,0.556835,-0.595185,0.558369,-0.559903
5.5150,0.020411,0.000000,-1.504134,1.504134,0.0000,0.0000,0.0000,-0.002527,-1.497165,1.492563,0.9960,0.8285,-0.1501,0.001534,0.587515,-0.555301,0.556835,-0.595185,0.558369,-0.559903
5.5351,0.020084,0.000000,-1.508340,1.508340,0.0000,0.0000,0.0000,-0.002527,-1.497165,1.495631,0.9960,0.8285,-0.1501,0.001534,0.585981,-0.555301,0.556835,-0.595185,0.558369,-0.559903
5.5552,0.020096,0.000000,-1.512549,1.512549,0.0000,0.0000,0.0000,-0.002538,-1.500233,1.497165,0.9469,0.8438,-0.2036,0.001534,0.585981,-0.555301,0.556835,-0.595185,0.558369,-0.559903
5.5753,0.020089,0.000000,-1.516756,1.516756,0.0000,0.0000,0.0000,-0.002537,-1.500233,1.497165,0.9520,0.8422,-0.1981,0.001534,0.585981,-0.555301,0.556835,-0.595185,0.558369,-0.559903
5.5954,0.020084,0.000000,-1.520963,1.520963,0.0000,0.0000,0.0000,-0.002537,-1.507903,1.503301,0.9520,0.8422,-0.1981,0.001534,0.585981,-0.555301,0.556835,-0.595185,0.558369,-0.559903
5.6155,0.020088,0.000000,-1.525170,1.525170,0.0000,0.0000,0.0000,-0.002537,-1.514039,1.507903,0.9520,0.8422,-0.1981,0.001534,0.585981,-0.555301,0.556835,-0.595185,0.558369,-0.559903
5.6356,0.020084,0.000000,-1.529376,1.529376,0.0000,0.0000,0.0000,-0.002537,-1.515573,1.509437,0.9520,0.8422,-0.1981,0.001534,0.585981,-0.555301,0.556835,-0.595185,0.558369,-0.559903
5.6557,0.020127,0.000000,-1.533592,1.533592,0.0000,0.0000,0.0000,-0.002526,-1.518641,1.514039,1.0011,0.8269,-0.1446,0.001534,0.587515,-0.555301,0.556835,-0.595185,0.558369,-0.559903
5.6758,0.020093,0.000000,-1.537800,1.537800,0.0000,0.0000,0.0000,-0.002527,-1.524777,1.518641,0.9960,0.8285,-0.1501,0.001534,0.587515,-0.555301,0.556835,-0.595185,0.558369,-0.559903
5.6959,0.020097,0.000000,-1.542009,1.542009,0.0000,0.0000,0.0000,-0.002527,-1.526311,1.526311,0.9960,0.8285,-0.1501,0.001534,0.587515,-0.555301,0.556835,-0.595185,0.558369,-0.559903
5.7165,0.020585,0.000000,-1.546321,1.546321,0.0000,0.0000,0.0000,-0.002538,-1.529379,1.527845,0.9469,0.8438,-0.2036,0.001534,0.585981,-0.555301,0.556835,-0.595185,0.558369,-0.559903
5.7377,0.021204,0.000000,-1.550762,1.550762,0.0000,0.0000,0.0000,-0.002526,-1.533981,1.527845,1.0017,0.8267,-0.1440,0.001534,0.587515,-0.555301,0.556835,-0.595185,0.558369,-0.559903
5.7578,0.020094,0.000000,-1.554970,1.554970,0.0000,0.0000,0.0000,-0.002527,-1.541651,1.537049,0.9959,0.8285,-0.1502,0.001534,0.587515,-0.555301,0.556835,-0.595185,0.558369,-0.559903
5.7779,0.020098,0.000000,-1.559179,1.559179,0.0000,0.0000,0.0000,-0.002538,-1.553923,1.550855,0.9469,0.8438,-0.2036,0.001534,0.585981,-0.555301,0.556835,-0.595185,0.558369,-0.559903
5.7980,0.020100,0.000000,-1.563389,1.563389,0.0000,0.0000,0.0000,-0.002538,-1.555457,1.553923,0.9469,0.8438,-0.2036,0.001534,0.587515,-0.555301,0.556835,-0.595185,0.558369,-0.559903
5.8181,0.020110,0.000000,-1.567601,1.567601,0.0000,0.0000,0.0000,-0.002526,-1.556990,1.555457,1.0017,0.8267,-0.1440,0.001534,0.585981,-0.555301,0.556835,-0.595185,0.558369,-0.559903
5.8383,0.020247,0.000000,-1.571841,1.571841,0.0000,0.0000,0.0000,-0.002526,-1.567728,1.563126,1.0017,0.8267,-0.1439,0.001534,0.587515,-0.555301,0.556835,-0.595185,0.558369,-0.559903
5.8584,0.020112,0.000000,-1.576054,1.576054,0.0000,0.0000,0.0000,-0.002526,-1.570796,1.564660,1.0017,0.8267,-0.1439,0.001534,0.587515,-0.555301,0.556835,-0.595185,0.558369,-0.559903
5.8785,0.020101,0.000000,-1.580264,1.580264,0.0000,0.0000,0.0000,-0.002527,-1.572330,1.567728,0.9959,0.8285,-0.1502,0.001534,0.587515,-0.555301,0.556835,-0.595185,0.558369,-0.559903
5.8987,0.020116,0.000000,-1.584477,1.584477,0.0000,0.0000,0.0000,-0.002527,-1.576932,1.573864,0.9959,0.8285,-0.1502,0.001534,0.587515,-0.555301,0.556835,-0.595185,0.558369,-0.559903
5.9188,0.020104,0.000000,-1.588687,1.588687,0.0000,0.0000,0.0000,-0.002527,-1.576932,1.573864,0.9959,0.8285,-0.1502,0.001534,0.587515,-0.555301,0.556835,-0.595185,0.558369,-0.559903
5.9389,0.020105,0.000000,-1.592898,1.592898,0.0000,0.0000,0.0000,-0.002538,-1.580000,1.583068,0.9469,0.8438,-0.2036,0.001534,0.585981,-0.555301,0.556835,-0.595185,0.558369,-0.559903
5.9589,0.020088,0.000000,-1.597105,1.597105,0.0000,0.0000,0.0000,-0.002537,-1.583068,1.581534,0.9520,0.8422,-0.1981,0.001534,0.585981,-0.555301,0.556835,-0.595185,0.558369,-0.559903
5.9790,0.020091,0.000000,-1.601313,1.601313,0.0000,0.0000,0.0000,-0.002537,-1.589204,1.584602,0.9520,0.8422,-0.1981,0.001534,0.585981,-0.555301,0.556835,-0.595185,0.558369,-0.559903
5.9991,0.020085,0.000000,-1.605520,1.605520,0.0000,0.0000,0.0000,-0.002526,-1.593806,1.592272,1.0011,0.8269,-0.1446,0.001534,0.587515,-0.555301,0.556835,-0.595185,0.558369,-0.559903
6.0196,0.020484,0.000000,-1.609810,1.609810,0.0000,0.0000,0.0000,-0.002527,-1.595340,1.593806,0.9960,0.8285,-0.1501,0.001534,0.587515,-0.555301,0.556835,-0.595185,0.558369,-0.559903
6.0397,0.020096,0.000000,-1.614019,1.614019,0.0000,0.0000,0.0000,-0.002527,-1.601476,1.599942,0.9960,0.8285,-0.1501,0.001534,0.587515,-0.555301,0.556835,-0.595185,0.558369,-0.559903
6.0598,0.020086,0.000000,-1.618225,1.618225,0.0000,0.0000,0.0000,-0.002527,-1.609146,1.610680,0.9960,0.8285,-0.1501,0.001534,0.587515,-0.555301,0.556835,-0.595185,0.558369,-0.559903
6.0799,0.020088,0.000000,-1.622433,1.622433,0.0000,0.0000,0.0000,-0.002527,-1.609146,1.612214,0.9960,0.8285,-0.1501,0.001534,0.587515,-0.555301,0.556835,-0.595185,0.558369,-0.559903
6.1000,0.020086,0.000000,-1.626639,1.626639,0.0000,0.0000,0.0000,-0.002538,-1.613748,1.612214,0.9469,0.8438,-0.2036,0.001534,0.585981,-0.555301,0.556835,-0.595185,0.558369,-0.559903
6.1201,0.020086,0.000000,-1.630846,1.630846,0.0000,0.0000,0.0000,-0.002526,-1.622952,1.618350,1.0017,0.8267,-0.1440,0.001534,0.587515,-0.555301,0.556835,-0.595185,0.558369,-0.559903
6.1401,0.020089,0.000000,-1.635054,1.635054,0.0000,0.0000,0.0000,-0.002538,-1.624486,1.622952,0.9463,0.8440,-0.2043,0.001534,0.585981,-0.555301,0.556835,-0.595185,0.558369,-0.559903
6.1602,0.020088,0.000000,-1.639261,1.639261,0.0000,0.0000,0.0000,-0.002537,-1.627554,1.626020,0.9520,0.8422,-0.1980,0.001534,0.585981,-0.555301,0.556835,-0.595185,0.558369,-0.559903
6.1803,0.020092,0.000000,-1.643469,1.643469,0.0000,0.0000,0.0000,-0.002526,-1.633690,1.633690,1.0011,0.8269,-0.1446,0.001534,0.587515,-0.555301,0.556835,-0.595185,0.558369,-0.559903
6.2004,0.020084,0.000000,-1.647675,1.647675,0.0000,0.0000,0.0000,-0.002527,-1.633690,1.636758,0.9960,0.8285,-0.1501,0.001534,0.587515,-0.555301,0.556835,-0.595185,0.558369,-0.559903
6.2205,0.020086,0.000000,-1.651882,1.651882,0.0000,0.0000,0.0000,-0.002527,-1.639825,1.636758,0.9960,0.8285,-0.1501,0.001534,0.587515,-0.555301,0.556835,-0.595185,0.558369,-0.559903
6.2406,0.020089,0.000000,-1.656090,1.656090,0.0000,0.0000,0.0000,-0.002538,-1.647495,1.641359,0.9469,0.8438,-0.2036,0.001534,0.585981,-0.555301,0.556835,-0.595185,0.558369,-0.559903
6.2607,0.020087,0.000000,-1.660297,1.660297,0.0000,0.0000,0.0000,-0.002526,-1.650563,1.650563,1.0017,0.8267,-0.1440,0.001534,0.587515,-0.555301,0.556835,-0.595185,0.558369,-0.559903
6.2808,0.020087,0.000000,-1.664504,1.664504,0.0000,0.0000,0.0000,-0.002538,-1.650563,1.652097,0.9463,0.8440,-0.2043,0.001534,0.585981,-0.555301,0.556835,-0.595185,0.558369,-0.559903
6.3008,0.020079,0.000000,-1.668709,1.668709,0.0000,0.0000,0.0000,-0.002526,-1.658233,1.655165,1.0017,0.8267,-0.1439,0.001534,0.587515,-0.555301,0.556835,-0.595185,0.558369,-0.559903
6.3209,0.020081,0.000000,-1.672915,1.672915,0.0000,0.0000,0.0000,-0.002527,-1.664369,1.664369,0.9959,0.8285,-0.1502,0.001534,0.587515,-0.555301,0.556835,-0.595185,0.558369,-0.559903
6.3410,0.020080,0.000000,-1.677120,1.677120,0.0000,0.0000,0.0000,-0.002538,-1.664369,1.665903,0.9469,0.8438,-0.2036,0.001534,0.585981,-0.555301,0.556835,-0.595185,0.558369,-0.559903
6.3611,0.020095,0.000000,-1.681329,1.681329,0.0000,0.0000,0.0000,-0.002526,-1.672039,1.665903,1.0017,0.8267,-0.1440,0.001534,0.587515,-0.555301,0.556835,-0.595185,0.558369,-0.559903
6.3812,0.020092,0.000000,-1.685537,1.685537,0.0000,0.0000,0.0000,-0.002527,-1.678175,1.672039,0.9959,0.8285,-0.1502,0.001534,0.587515,-0.555301,0.556835,-0.595185,0.558369,-0.559903
6.4013,0.020090,0.000000,-1.689745,1.689745,0.0000,0.0000,0.0000,-0.002527,-1.678175,1.678175,0.9959,0.8285,-0.1502,0.001534,0.587515,-0.555301,0.556835,-0.595185,0.558369,-0.559903
6.4214,0.020107,0.000000,-1.693956,1.693956,0.0000,0.0000,0.0000,-0.002538,-1.684311,1.682777,0.9469,0.8438,-0.2036,0.001534,0.585981,-0.555301,0.556835,-0.595185,0.558369,-0.559903
6.4415,0.020087,0.000000,-1.698163,1.698163,0.0000,0.0000,0.0000,-0.002526,-1.688913,1.684311,1.0017,0.8267,-0.1440,0.001534,0.587515,-0.555301,0.556835,-0.595185,0.558369,-0.559903
6.4616,0.020088,0.000000,-1.702370,1.702370,0.0000,0.0000,0.0000,-0.002527,-1.691981,1.690447,0.9959,0.8285,-0.1502,0.001534,0.587515,-0.555301,0.556835,-0.595185,0.558369,-0.559903
6.4817,0.020130,0.000000,-1.706586,1.706586,0.0000,0.0000,0.0000,-0.002551,-1.698117,1.693515,0.9874,0.8774,-0.2561,0.001534,0.585981,-0.555301,0.556835,-0.595185,0.556835,-0.559903
6.5018,0.020088,0.000000,-1.710793,1.710793,0.0000,0.0000,0.0000,-0.002535,-1.702719,1.698117,0.9477,0.8387,-0.1926,0.001534,0.585981,-0.555301,0.556835,-0.595185,0.558369,-0.559903
6.5225,0.020779,0.000000,-1.715145,1.715145,0.0000,0.0000,0.0000,-0.002526,-1.702719,1.701185,1.0016,0.8273,-0.1451,0.001534,0.587515,-0.555301,0.556835,-0.595185,0.558369,-0.559903
6.5426,0.020098,0.000000,-1.719354,1.719354,0.0000,0.0000,0.0000,-0.002538,-1.707321,1.705787,0.9463,0.8439,-0.2041,0.001534,0.585981,-0.555301,0.556835,-0.595185,0.558369,-0.559903
