t,loop_dt,cmd_z,cmd_ant_l,cmd_ant_r,cmd_roll,cmd_pitch,cmd_yaw,pres_z,pres_ant_l,pres_ant_r,pres_roll,pres_pitch,pres_yaw,pres_j0,pres_j1,pres_j2,pres_j3,pres_j4,pres_j5,pres_j6
0.0000,0.000001,0.000000,-1.745329,1.745329,0.0000,0.0000,0.0000,-0.002682,-1.612214,1.606078,1.0783,1.0602,-0.1558,0.001534,0.578311,-0.555301,0.556835,-0.595185,0.556835,-0.549165
0.0201,0.020105,0.000000,-1.743575,1.743575,0.0000,0.0000,0.0000,-0.002681,-1.612214,1.606078,1.0742,1.0568,-0.1504,0.001534,0.578311,-0.555301,0.556835,-0.595185,0.556835,-0.549165
0.0402,0.020062,0.000000,-1.741824,1.741824,0.0000,0.0000,0.0000,-0.002681,-1.612214,1.606078,1.0742,1.0568,-0.1504,0.001534,0.578311,-0.555301,0.556835,-0.595185,0.556835,-0.549165
0.0603,0.020093,0.000000,-1.740070,1.740070,0.0000,0.0000,0.0000,-0.002681,-1.630622,1.627554,1.0742,1.0568,-0.1504,0.001534,0.578311,-0.555301,0.556835,-0.595185,0.556835,-0.549165
0.0804,0.020095,0.000000,-1.738317,1.738317,0.0000,0.0000,0.0000,-0.002681,-1.687379,1.682777,1.0742,1.0568,-0.1504,0.001534,0.578311,-0.555301,0.556835,-0.595185,0.556835,-0.549165
0.1005,0.020101,0.000000,-1.736563,1.736563,0.0000,0.0000,0.0000,-0.002668,-1.757942,1.748738,1.0342,1.0235,-0.0985,0.001534,0.578311,-0.555301,0.556835,-0.595185,0.558369,-0.549165
0.1205,0.020091,0.000000,-1.734809,1.734809,0.0000,0.0000,0.0000,-0.002645,-1.782486,1.774816,1.0389,0.9935,-0.1035,0.001534,0.579845,-0.555301,0.556835,-0.595185,0.558369,-0.550699
0.1406,0.020090,0.000000,-1.733056,1.733056,0.0000,0.0000,0.0000,-0.002648,-1.777884,1.773282,1.0385,0.9966,-0.1030,0.001534,0.579845,-0.555301,0.556835,-0.595185,0.558369,-0.550699
0.1607,0.020091,0.000000,-1.731303,1.731303,0.0000,0.0000,0.0000,-0.002621,-1.768680,1.765612,0.9399,0.9602,-0.2102,0.001534,0.579845,-0.555301,0.556835,-0.595185,0.558369,-0.553767
0.1808,0.020094,0.000000,-1.729549,1.729549,0.0000,0.0000,0.0000,-0.002611,-1.759476,1.762544,0.9010,0.9461,-0.2526,0.001534,0.579845,-0.555301,0.556835,-0.595185,0.558369,-0.555301
0.2009,0.020099,0.000000,-1.727796,1.727796,0.0000,0.0000,0.0000,-0.002599,-1.753340,1.759476,0.8559,0.9297,-0.3017,0.001534,0.579845,-0.555301,0.556835,-0.595185,0.558369,-0.556835
0.2210,0.020103,0.000000,-1.726041,1.726041,0.0000,0.0000,0.0000,-0.002588,-1.751806,1.757942,0.8115,0.9135,-0.3502,0.001534,0.579845,-0.555301,0.556835,-0.595185,0.558369,-0.558369
0.2411,0.020093,0.000000,-1.724288,1.724288,0.0000,0.0000,0.0000,-0.002576,-1.750272,1.754874,0.7671,0.8974,-0.3988,0.001534,0.579845,-0.555301,0.556835,-0.595185,0.558369,-0.559903
0.2612,0.020085,0.000000,-1.722535,1.722535,0.0000,0.0000,0.0000,-0.002577,-1.751806,1.754874,0.7717,0.8991,-0.3938,0.001534,0.579845,-0.555301,0.556835,-0.595185,0.558369,-0.559903
0.2813,0.020091,0.000000,-1.720782,1.720782,0.0000,0.0000,0.0000,-0.002577,-1.750272,1.754874,0.7717,0.8991,-0.3938,0.001534,0.579845,-0.555301,0.556835,-0.595185,0.558369,-0.559903
0.3014,0.020090,0.000000,-1.719029,1.719029,0.0000,0.0000,0.0000,-0.002577,-1.751806,1.754874,0.7717,0.8991,-0.3938,0.001534,0.579845,-0.555301,0.556835,-0.595185,0.558369,-0.559903
0.3215,0.020091,0.000000,-1.717275,1.717275,0.0000,0.0000,0.0000,-0.002577,-1.750272,1.753340,0.7717,0.8991,-0.3938,0.001534,0.579845,-0.555301,0.556835,-0.595185,0.558369,-0.559903
0.3416,0.020083,0.000000,-1.715523,1.715523,0.0000,0.0000,0.0000,-0.002577,-1.750272,1.753340,0.7717,0.8991,-0.3938,0.001534,0.579845,-0.555301,0.556835,-0.595185,0.558369,-0.559903
0.3617,0.020112,0.000000,-1.713768,1.713768,0.0000,0.0000,0.0000,-0.002577,-1.750272,1.753340,0.7717,0.8991,-0.3938,0.001534,0.579845,-0.555301,0.556835,-0.595185,0.558369,-0.559903
0.3818,0.020092,0.000000,-1.712014,1.712014,0.0000,0.0000,0.0000,-0.002577,-1.750272,1.754874,0.7717,0.8991,-0.3938,0.001534,0.579845,-0.555301,0.556835,-0.595185,0.558369,-0.559903
0.4018,0.020088,0.000000,-1.710261,1.710261,0.0000,0.0000,0.0000,-0.002577,-1.750272,1.753340,0.7717,0.8991,-0.3938,0.001534,0.579845,-0.555301,0.556835,-0.595185,0.558369,-0.559903
0.4219,0.020094,0.000000,-1.708508,1.708508,0.0000,0.0000,0.0000,-0.002577,-1.748738,1.753340,0.7717,0.8991,-0.3938,0.001534,0.579845,-0.555301,0.556835,-0.595185,0.558369,-0.559903
0.4420,0.020082,0.000000,-1.706755,1.706755,0.0000,0.0000,0.0000,-0.002577,-1.748738,1.751806,0.7717,0.8991,-0.3938,0.001534,0.579845,-0.555301,0.556835,-0.595185,0.558369,-0.559903
0.4621,0.020083,0.000000,-1.705003,1.705003,0.0000,0.0000,0.0000,-0.002577,-1.748738,1.748738,0.7717,0.8991,-0.3938,0.001534,0.579845,-0.555301,0.556835,-0.595185,0.558369,-0.559903
0.4822,0.020086,0.000000,-1.703250,1.703250,0.0000,0.0000,0.0000,-0.002577,-1.748738,1.744136,0.7717,0.8991,-0.3938,0.001534,0.579845,-0.555301,0.556835,-0.595185,0.558369,-0.559903
0.5023,0.020106,0.000000,-1.701495,1.701495,0.0000,0.0000,0.0000,-0.002577,-1.748738,1.739534,0.7717,0.8991,-0.3938,0.001534,0.579845,-0.555301,0.556835,-0.595185,0.558369,-0.559903
0.5224,0.020127,0.000000,-1.699739,1.699739,0.0000,0.0000,0.0000,-0.002590,-1.748738,1.739534,0.8117,0.9326,-0.4468,0.001534,0.579845,-0.555301,0.556835,-0.595185,0.556835,-0.559903
0.5425,0.020104,0.000000,-1.697985,1.697985,0.0000,0.0000,0.0000,-0.002576,-1.747204,1.739534,0.7670,0.8954,-0.3888,0.001534,0.579845,-0.555301,0.556835,-0.595185,0.558369,-0.559903
0.5626,0.020089,0.000000,-1.696231,1.696231,0.0000,0.0000,0.0000,-0.002577,-1.741068,1.739534,0.7717,0.8993,-0.3948,0.001534,0.579845,-0.555301,0.556835,-0.595185,0.558369,-0.559903
0.5827,0.020083,0.000000,-1.694479,1.694479,0.0000,0.0000,0.0000,-0.002577,-1.730330,1.739534,0.7717,0.8993,-0.3948,0.001534,0.579845,-0.555301,0.556835,-0.595185,0.558369,-0.559903
0.6028,0.020097,0.000000,-1.692725,1.692725,0.0000,0.0000,0.0000,-0.002577,-1.722660,1.739534,0.7717,0.8993,-0.3948,0.001534,0.579845,-0.555301,0.556835,-0.595185,0.558369,-0.559903
0.6229,0.020109,0.000000,-1.690970,1.690970,0.0000,0.0000,0.0000,-0.002577,-1.719592,1.739534,0.7717,0.8993,-0.3948,0.001534,0.579845,-0.555301,0.556835,-0.595185,0.558369,-0.559903
0.6430,0.020087,0.000000,-1.689217,1.689217,0.0000,0.0000,0.0000,-0.002577,-1.719592,1.739534,0.7717,0.8993,-0.3948,0.001534,0.579845,-0.555301,0.556835,-0.595185,0.558369,-0.559903
0.6631,0.020092,0.000000,-1.687464,1.687464,0.0000,0.0000,0.0000,-0.002577,-1.719592,1.739534,0.7717,0.8993,-0.3948,0.001534,0.579845,-0.555301,0.556835,-0.595185,0.558369,-0.559903
0.6832,0.020095,0.000000,-1.685710,1.685710,0.0000,0.0000,0.0000,-0.002577,-1.716525,1.739534,0.7717,0.8993,-0.3948,0.001534,0.579845,-0.555301,0.556835,-0.595185,0.558369,-0.559903
0.7033,0.020096,0.000000,-1.683957,1.683957,0.0000,0.0000,0.0000,-0.002577,-1.713457,1.736466,0.7717,0.8993,-0.3948,0.001534,0.579845,-0.555301,0.556835,-0.595185,0.558369,-0.559903
0.7234,0.020092,0.000000,-1.682203,1.682203,0.0000,0.0000,0.0000,-0.002566,-1.708855,1.728796,0.8210,0.8832,-0.3402,0.001534,0.581379,-0.555301,0.556835,-0.595185,0.558369,-0.559903
0.7435,0.020088,0.000000,-1.680450,1.680450,0.0000,0.0000,0.0000,-0.002556,-1.707321,1.719592,0.8657,0.8692,-0.2919,0.001534,0.582913,-0.555301,0.556835,-0.595185,0.558369,-0.559903
0.7635,0.020087,0.000000,-1.678697,1.678697,0.0000,0.0000,0.0000,-0.002557,-1.707321,1.711923,0.8610,0.8707,-0.2969,0.001534,0.582913,-0.555301,0.556835,-0.595185,0.558369,-0.559903
0.7836,0.020093,0.000000,-1.676944,1.676944,0.0000,0.0000,0.0000,-0.002557,-1.707321,1.705787,0.8610,0.8707,-0.2969,0.001534,0.582913,-0.555301,0.556835,-0.595185,0.558369,-0.559903
0.8037,0.020104,0.000000,-1.675190,1.675190,0.0000,0.0000,0.0000,-0.002557,-1.707321,1.701185,0.8610,0.8707,-0.2969,0.001534,0.582913,-0.555301,0.556835,-0.595185,0.558369,-0.559903
0.8239,0.020108,0.000000,-1.673435,1.673435,0.0000,0.0000,0.0000,-0.002570,-1.707321,1.701185,0.9020,0.9042,-0.3489,0.001534,0.582913,-0.555301,0.556835,-0.595185,0.556835,-0.559903
0.8440,0.020198,0.000000,-1.671672,1.671672,0.0000,0.0000,0.0000,-0.002556,-1.707321,1.701185,0.8572,0.8671,-0.2910,0.001534,0.582913,-0.555301,0.556835,-0.595185,0.558369,-0.559903
0.8642,0.020104,0.000000,-1.669918,1.669918,0.0000,0.0000,0.0000,-0.002557,-1.707321,1.701185,0.8619,0.8709,-0.2970,0.001534,0.582913,-0.555301,0.556835,-0.595185,0.558369,-0.559903
0.8843,0.020098,0.000000,-1.668164,1.668164,0.0000,0.0000,0.0000,-0.002557,-1.707321,1.701185,0.8619,0.8709,-0.2970,0.001534,0.582913,-0.555301,0.556835,-0.595185,0.558369,-0.559903
0.9043,0.020094,0.000000,-1.666410,1.666410,0.0000,0.0000,0.0000,-0.002557,-1.705787,1.701185,0.8619,0.8709,-0.2970,0.001534,0.582913,-0.555301,0.556835,-0.595185,0.558369,-0.559903
0.9245,0.020166,0.000000,-1.664650,1.664650,0.0000,0.0000,0.0000,-0.002557,-1.699651,1.701185,0.8619,0.8709,-0.2970,0.001534,0.582913,-0.555301,0.556835,-0.595185,0.558369,-0.559903
0.9446,0.020095,0.000000,-1.662897,1.662897,0.0000,0.0000,0.0000,-0.002557,-1.695049,1.701185,0.8619,0.8709,-0.2970,0.001534,0.582913,-0.555301,0.556835,-0.595185,0.558369,-0.559903
0.9647,0.020102,0.000000,-1.661143,1.661143,0.0000,0.0000,0.0000,-0.002570,-1.691981,1.701185,0.9019,0.9042,-0.3489,0.001534,0.582913,-0.555301,0.556835,-0.595185,0.556835,-0.559903
0.9848,0.020088,0.000000,-1.659390,1.659390,0.0000,0.0000,0.0000,-0.002556,-1.690447,1.701185,0.8572,0.8671,-0.2910,0.001534,0.582913,-0.555301,0.556835,-0.595185,0.558369,-0.559903
1.0049,0.020091,0.000000,-1.657636,1.657636,0.0000,0.0000,0.0000,-0.002557,-1.685845,1.701185,0.8619,0.8709,-0.2970,0.001534,0.582913,-0.555301,0.556835,-0.595185,0.558369,-0.559903
1.0250,0.020105,0.000000,-1.655882,1.655882,0.0000,0.0000,0.0000,-0.002557,-1.681243,1.701185,0.8619,0.8709,-0.2970,0.001534,0.582913,-0.555301,0.556835,-0.595185,0.558369,-0.559903
1.0453,0.020281,0.000000,-1.654112,1.654112,0.0000,0.0000,0.0000,-0.002557,-1.681243,1.699651,0.8619,0.8709,-0.2970,0.001534,0.582913,-0.555301,0.556835,-0.595185,0.558369,-0.559903
1.0654,0.020091,0.000000,-1.652359,1.652359,0.0000,0.0000,0.0000,-0.002557,-1.681243,1.695049,0.8619,0.8709,-0.2970,0.001534,0.582913,-0.555301,0.556835,-0.595185,0.558369,-0.559903
1.0855,0.020115,0.000000,-1.650603,1.650603,0.0000,0.0000,0.0000,-0.002557,-1.681243,1.688913,0.8619,0.8709,-0.2970,0.001534,0.582913,-0.555301,0.556835,-0.595185,0.558369,-0.559903
1.1056,0.020090,0.000000,-1.648850,1.648850,0.0000,0.0000,0.0000,-0.002557,-1.681243,1.684311,0.8619,0.8709,-0.2970,0.001534,0.582913,-0.555301,0.556835,-0.595185,0.558369,-0.559903
1.1257,0.020094,0.000000,-1.647097,1.647097,0.0000,0.0000,0.0000,-0.002557,-1.681243,1.681243,0.8619,0.8709,-0.2970,0.001534,0.582913,-0.555301,0.556835,-0.595185,0.558369,-0.559903
1.1458,0.020091,0.000000,-1.645343,1.645343,0.0000,0.0000,0.0000,-0.002557,-1.679709,1.678175,0.8619,0.8709,-0.2970,0.001534,0.582913,-0.555301,0.556835,-0.595185,0.558369,-0.559903
1.1658,0.020091,0.000000,-1.643590,1.643590,0.0000,0.0000,0.0000,-0.002557,-1.679709,1.673573,0.8619,0.8709,-0.2970,0.001534,0.582913,-0.555301,0.556835,-0.595185,0.558369,-0.559903
1.1859,0.020092,0.000000,-1.641837,1.641837,0.0000,0.0000,0.0000,-0.002557,-1.678175,1.672039,0.8619,0.8709,-0.2970,0.001534,0.582913,-0.555301,0.556835,-0.595185,0.558369,-0.559903
1.2060,0.020093,0.000000,-1.640083,1.640083,0.0000,0.0000,0.0000,-0.002557,-1.673573,1.668971,0.8619,0.8709,-0.2970,0.001534,0.582913,-0.555301,0.556835,-0.595185,0.558369,-0.559903
1.2265,0.020514,0.000000,-1.638293,1.638293,0.0000,0.0000,0.0000,-0.002557,-1.667437,1.667437,0.8619,0.8709,-0.2970,0.001534,0.582913,-0.555301,0.556835,-0.595185,0.558369,-0.559903
1.2466,0.020099,0.000000,-1.636539,1.636539,0.0000,0.0000,0.0000,-0.002570,-1.665903,1.667437,0.9019,0.9042,-0.3489,0.001534,0.582913,-0.555301,0.556835,-0.595185,0.556835,-0.559903
1.2667,0.020100,0.000000,-1.634785,1.634785,0.0000,0.0000,0.0000,-0.002556,-1.665903,1.665903,0.8572,0.8671,-0.2910,0.001534,0.582913,-0.555301,0.556835,-0.595185,0.558369,-0.559903
1.2868,0.020098,0.000000,-1.633031,1.633031,0.0000,0.0000,0.0000,-0.002557,-1.665903,1.665903,0.8619,0.8709,-0.2970,0.001534,0.582913,-0.555301,0.556835,-0.595185,0.558369,-0.559903
1.3070,0.020152,0.000000,-1.631273,1.631273,0.0000,0.0000,0.0000,-0.002557,-1.665903,1.664369,0.8619,0.8709,-0.2970,0.001534,0.582913,-0.555301,0.556835,-0.595185,0.558369,-0.559903
1.3271,0.020083,0.000000,-1.629520,1.629520,0.0000,0.0000,0.0000,-0.002557,-1.665903,1.664369,0.8619,0.8709,-0.2970,0.001534,0.582913,-0.555301,0.556835,-0.595185,0.558369,-0.559903
1.3472,0.020093,0.000000,-1.627767,1.627767,0.0000,0.0000,0.0000,-0.002557,-1.665903,1.664369,0.8619,0.8709,-0.2970,0.001534,0.582913,-0.555301,0.556835,-0.595185,0.558369,-0.559903
1.3673,0.020088,0.000000,-1.626014,1.626014,0.0000,0.0000,0.0000,-0.002570,-1.665903,1.662835,0.8724,0.8184,-0.3498,0.001534,0.582913,-0.555301,0.555301,-0.595185,0.558369,-0.559903
1.3873,0.020093,0.000000,-1.624260,1.624260,0.0000,0.0000,0.0000,-0.002555,-1.665903,1.662835,0.8603,0.8760,-0.2909,0.001534,0.582913,-0.555301,0.556835,-0.595185,0.558369,-0.559903
1.4074,0.020085,0.000000,-1.622507,1.622507,0.0000,0.0000,0.0000,-0.002557,-1.665903,1.662835,0.8616,0.8700,-0.2970,0.001534,0.582913,-0.555301,0.556835,-0.595185,0.558369,-0.559903
1.4275,0.020093,0.000000,-1.620754,1.620754,0.0000,0.0000,0.0000,-0.002557,-1.665903,1.662835,0.8616,0.8700,-0.2970,0.001534,0.582913,-0.555301,0.556835,-0.595185,0.558369,-0.559903
1.4476,0.020089,0.000000,-1.619001,1.619001,0.0000,0.0000,0.0000,-0.002557,-1.665903,1.662835,0.8616,0.8700,-0.2970,0.001534,0.582913,-0.555301,0.556835,-0.595185,0.558369,-0.559903
1.4677,0.020101,0.000000,-1.617247,1.617247,0.0000,0.0000,0.0000,-0.002557,-1.665903,1.661301,0.8616,0.8700,-0.2970,0.001534,0.582913,-0.555301,0.556835,-0.595185,0.558369,-0.559903
1.4878,0.020098,0.000000,-1.615493,1.615493,0.0000,0.0000,0.0000,-0.002557,-1.664369,1.661301,0.8616,0.8700,-0.2970,0.001534,0.582913,-0.555301,0.556835,-0.595185,0.558369,-0.559903
1.5079,0.020092,0.000000,-1.613739,1.613739,0.0000,0.0000,0.0000,-0.002557,-1.656699,1.661301,0.8616,0.8700,-0.2970,0.001534,0.582913,-0.555301,0.556835,-0.595185,0.558369,-0.559903
1.5280,0.020094,0.000000,-1.611986,1.611986,0.0000,0.0000,0.0000,-0.002557,-1.647495,1.661301,0.8616,0.8700,-0.2970,0.001534,0.582913,-0.555301,0.556835,-0.595185,0.558369,-0.559903
1.5481,0.020084,0.000000,-1.610233,1.610233,0.0000,0.0000,0.0000,-0.002557,-1.639825,1.661301,0.8616,0.8700,-0.2970,0.001534,0.582913,-0.555301,0.556835,-0.595185,0.558369,-0.559903
1.5682,0.020093,0.000000,-1.608480,1.608480,0.0000,0.0000,0.0000,-0.002557,-1.639825,1.661301,0.8616,0.8700,-0.2970,0.001534,0.582913,-0.555301,0.556835,-0.595185,0.558369,-0.559903
1.5883,0.020088,0.000000,-1.606727,1.606727,0.0000,0.0000,0.0000,-0.002557,-1.639825,1.659767,0.8616,0.8700,-0.2970,0.001534,0.582913,-0.555301,0.556835,-0.595185,0.558369,-0.559903
1.6083,0.020079,0.000000,-1.604975,1.604975,0.0000,0.0000,0.0000,-0.002557,-1.639825,1.655165,0.8616,0.8700,-0.2970,0.001534,0.582913,-0.555301,0.556835,-0.595185,0.558369,-0.559903
1.6284,0.020084,0.000000,-1.603222,1.603222,0.0000,0.0000,0.0000,-0.002557,-1.639825,1.647495,0.8616,0.8700,-0.2970,0.001534,0.582913,-0.555301,0.556835,-0.595185,0.558369,-0.559903
1.6485,0.020090,0.000000,-1.601469,1.601469,0.0000,0.0000,0.0000,-0.002557,-1.639825,1.639825,0.8616,0.8700,-0.2970,0.001534,0.582913,-0.555301,0.556835,-0.595185,0.558369,-0.559903
1.6686,0.020097,0.000000,-1.599715,1.599715,0.0000,0.0000,0.0000,-0.002570,-1.639825,1.632156,0.9019,0.9043,-0.4368,0.000000,0.582913,-0.555301,0.556835,-0.595185,0.556835,-0.559903
1.6887,0.020089,0.000000,-1.597962,1.597962,0.0000,0.0000,0.0000,-0.002556,-1.639825,1.632156,0.8572,0.8671,-0.2910,0.001534,0.582913,-0.555301,0.556835,-0.595185,0.558369,-0.559903
1.7088,0.020089,0.000000,-1.596209,1.596209,0.0000,0.0000,0.0000,-0.002557,-1.639825,1.632156,0.8619,0.8709,-0.2970,0.001534,0.582913,-0.555301,0.556835,-0.595185,0.558369,-0.559903
1.7296,0.020795,0.000000,-1.594394,1.594394,0.0000,0.0000,0.0000,-0.002557,-1.639825,1.632156,0.8619,0.8709,-0.2970,0.001534,0.582913,-0.555301,0.556835,-0.595185,0.558369,-0.559903
1.7497,0.020097,0.000000,-1.592640,1.592640,0.0000,0.0000,0.0000,-0.002557,-1.638291,1.632156,0.8619,0.8709,-0.2970,0.001534,0.582913,-0.555301,0.556835,-0.595185,0.558369,-0.559903
1.7699,0.020213,0.000000,-1.590876,1.590876,0.0000,0.0000,0.0000,-0.002557,-1.636758,1.630622,0.8619,0.8709,-0.2970,0.001534,0.582913,-0.555301,0.556835,-0.595185,0.558369,-0.559903
1.7900,0.020054,0.000000,-1.589126,1.589126,0.0000,0.0000,0.0000,-0.002557,-1.630622,1.630622,0.8619,0.8709,-0.2970,0.001534,0.582913,-0.555301,0.556835,-0.595185,0.558369,-0.559903
1.8100,0.020087,0.000000,-1.587373,1.587373,0.0000,0.0000,0.0000,-0.002557,-1.622952,1.629088,0.8619,0.8709,-0.2970,0.001534,0.582913,-0.555301,0.556835,-0.595185,0.558369,-0.559903
1.8305,0.020442,0.000000,-1.585589,1.585589,0.0000,0.0000,0.0000,-0.002557,-1.616816,1.626020,0.8619,0.8709,-0.2970,0.001534,0.582913,-0.555301,0.556835,-0.595185,0.558369,-0.559903
1.8506,0.020084,0.000000,-1.583837,1.583837,0.0000,0.0000,0.0000,-0.002546,-1.615282,1.622952,0.9111,0.8549,-0.2424,0.001534,0.584447,-0.555301,0.556835,-0.595185,0.558369,-0.559903
1.8707,0.020108,0.000000,-1.582082,1.582082,0.0000,0.0000,0.0000,-0.002547,-1.615282,1.616816,0.9060,0.8566,-0.2481,0.001534,0.584447,-0.555301,0.556835,-0.595185,0.558369,-0.559903
1.8908,0.020101,0.000000,-1.580328,1.580328,0.0000,0.0000,0.0000,-0.002536,-1.615282,1.613748,0.9562,0.8409,-0.1934,0.001534,0.585981,-0.555301,0.556835,-0.595185,0.558369,-0.559903
1.9109,0.020112,0.000000,-1.578573,1.578573,0.0000,0.0000,0.0000,-0.002537,-1.613748,1.610680,0.9510,0.8425,-0.1991,0.001534,0.585981,-0.555301,0.556835,-0.595185,0.558369,-0.559903
1.9313,0.020391,0.000000,-1.576793,1.576793,0.0000,0.0000,0.0000,-0.002537,-1.613748,1.607612,0.9510,0.8425,-0.1991,0.001534,0.585981,-0.555301,0.556835,-0.595185,0.558369,-0.559903
1.9515,0.020253,0.000000,-1.575026,1.575026,0.0000,0.0000,0.0000,-0.002537,-1.613748,1.607612,0.9510,0.8425,-0.1991,0.001534,0.585981,-0.555301,0.556835,-0.595185,0.558369,-0.559903
1.9722,0.020657,0.000000,-1.573223,1.573223,0.0000,0.0000,0.0000,-0.002537,-1.613748,1.607612,0.9510,0.8425,-0.1991,0.001534,0.585981,-0.555301,0.556835,-0.595185,0.558369,-0.559903
1.9925,0.020351,0.000000,-1.571447,1.571447,0.0000,0.0000,0.0000,-0.002537,-1.612214,1.607612,0.9510,0.8425,-0.1991,0.001534,0.585981,-0.555301,0.556835,-0.595185,0.558369,-0.559903
2.0126,0.020090,0.000000,-1.569694,1.569694,0.0000,0.0000,0.0000,-0.002537,-1.612214,1.607612,0.9510,0.8425,-0.1991,0.001534,0.585981,-0.555301,0.556835,-0.595185,0.558369,-0.559903
2.0327,0.020091,0.000000,-1.567941,1.567941,0.0000,0.0000,0.0000,-0.002537,-1.612214,1.607612,0.9510,0.8425,-0.1991,0.001534,0.585981,-0.555301,0.556835,-0.595185,0.558369,-0.559903
2.0529,0.020220,0.000000,-1.566176,1.566176,0.0000,0.0000,0.0000,-0.002537,-1.612214,1.607612,0.9510,0.8425,-0.1991,0.001534,0.585981,-0.555301,0.556835,-0.595185,0.558369,-0.559903
2.0730,0.020086,0.000000,-1.564423,1.564423,0.0000,0.0000,0.0000,-0.002537,-1.612214,1.607612,0.9510,0.8425,-0.1991,0.001534,0.585981,-0.555301,0.556835,-0.595185,0.558369,-0.559903
2.0933,0.020278,0.000000,-1.562654,1.562654,0.0000,0.0000,0.0000,-0.002537,-1.612214,1.607612,0.9510,0.8425,-0.1991,0.001534,0.585981,-0.555301,0.556835,-0.595185,0.558369,-0.559903
2.1134,0.020115,0.000000,-1.560898,1.560898,0.0000,0.0000,0.0000,-0.002537,-1.612214,1.607612,0.9510,0.8425,-0.1991,0.001534,0.585981,-0.555301,0.556835,-0.595185,0.558369,-0.559903
2.1335,0.020101,0.000000,-1.559144,1.559144,0.0000,0.0000,0.0000,-0.002537,-1.609146,1.607612,0.9510,0.8425,-0.1991,0.001534,0.585981,-0.555301,0.556835,-0.595185,0.558369,-0.559903
2.1538,0.020265,0.000000,-1.557376,1.557376,0.0000,0.0000,0.0000,-0.002537,-1.603010,1.607612,0.9510,0.8425,-0.1991,0.001534,0.585981,-0.555301,0.556835,-0.595185,0.558369,-0.559903
2.1739,0.020087,0.000000,-1.555623,1.555623,0.0000,0.0000,0.0000,-0.002537,-1.593806,1.607612,0.9510,0.8425,-0.1991,0.001534,0.585981,-0.555301,0.556835,-0.595185,0.558369,-0.559903
2.1940,0.020108,0.000000,-1.553868,1.553868,0.0000,0.0000,0.0000,-0.002537,-1.593806,1.607612,0.9510,0.8425,-0.1991,0.001534,0.585981,-0.555301,0.556835,-0.595185,0.558369,-0.559903
2.2141,0.020098,0.000000,-1.552114,1.552114,0.0000,0.0000,0.0000,-0.002537,-1.584602,1.607612,0.9510,0.8425,-0.1991,0.001534,0.585981,-0.555301,0.556835,-0.595185,0.558369,-0.559903
2.2342,0.020089,0.000000,-1.550361,1.550361,0.0000,0.0000,0.0000,-0.002537,-1.583068,1.606078,0.9510,0.8425,-0.1991,0.001534,0.585981,-0.555301,0.556835,-0.595185,0.558369,-0.559903
2.2543,0.020094,0.000000,-1.548608,1.548608,0.0000,0.0000,0.0000,-0.002537,-1.580000,1.606078,0.9510,0.8425,-0.1991,0.001534,0.585981,-0.555301,0.556835,-0.595185,0.558369,-0.559903
2.2744,0.020087,0.000000,-1.546855,1.546855,0.0000,0.0000,0.0000,-0.002537,-1.575398,1.604544,0.9510,0.8425,-0.1991,0.001534,0.585981,-0.555301,0.556835,-0.595185,0.558369,-0.559903
2.2944,0.020087,0.000000,-1.545102,1.545102,0.0000,0.0000,0.0000,-0.002537,-1.572330,1.599942,0.9510,0.8425,-0.1991,0.001534,0.585981,-0.555301,0.556835,-0.595185,0.558369,-0.559903
2.3145,0.020084,0.000000,-1.543349,1.543349,0.0000,0.0000,0.0000,-0.002537,-1.572330,1.590738,0.9510,0.8425,-0.1991,0.001534,0.585981,-0.555301,0.556835,-0.595185,0.558369,-0.559903
2.3346,0.020089,0.000000,-1.541596,1.541596,0.0000,0.0000,0.0000,-0.002537,-1.572330,1.581534,0.9510,0.8425,-0.1991,0.001534,0.585981,-0.555301,0.556835,-0.595185,0.558369,-0.559903
2.3547,0.020103,0.000000,-1.539842,1.539842,0.0000,0.0000,0.0000,-0.002537,-1.572330,1.578466,0.9510,0.8425,-0.1991,0.001534,0.585981,-0.555301,0.556835,-0.595185,0.558369,-0.559903
2.3748,0.020083,0.000000,-1.538089,1.538089,0.0000,0.0000,0.0000,-0.002537,-1.572330,1.578466,0.9510,0.8425,-0.1991,0.001534,0.585981,-0.555301,0.556835,-0.595185,0.558369,-0.559903
2.3949,0.020085,0.000000,-1.536336,1.536336,0.0000,0.0000,0.0000,-0.002537,-1.572330,1.578466,0.9510,0.8425,-0.1991,0.001534,0.585981,-0.555301,0.556835,-0.595185,0.558369,-0.559903
2.4150,0.020083,0.000000,-1.534584,1.534584,0.0000,0.0000,0.0000,-0.002537,-1.572330,1.576932,0.9510,0.8425,-0.1991,0.001534,0.585981,-0.555301,0.556835,-0.595185,0.558369,-0.559903
2.4350,0.020084,0.000000,-1.532831,1.532831,0.0000,0.0000,0.0000,-0.002537,-1.572330,1.576932,0.9510,0.8425,-0.1991,0.001534,0.585981,-0.555301,0.556835,-0.595185,0.558369,-0.559903
2.4551,0.020094,0.000000,-1.531078,1.531078,0.0000,0.0000,0.0000,-0.002537,-1.572330,1.576932,0.9510,0.8425,-0.1991,0.001534,0.585981,-0.555301,0.556835,-0.595185,0.558369,-0.559903
2.4752,0.020084,0.000000,-1.529325,1.529325,0.0000,0.0000,0.0000,-0.002537,-1.572330,1.573864,0.9510,0.8425,-0.1991,0.001534,0.585981,-0.555301,0.556835,-0.595185,0.558369,-0.559903
2.4953,0.020083,0.000000,-1.527572,1.527572,0.0000,0.0000,0.0000,-0.002537,-1.572330,1.567728,0.9510,0.8425,-0.1991,0.001534,0.585981,-0.555301,0.556835,-0.595185,0.558369,-0.559903
2.5154,0.020088,0.000000,-1.525819,1.525819,0.0000,0.0000,0.0000,-0.002537,-1.570796,1.563126,0.9510,0.8425,-0.1991,0.001534,0.585981,-0.555301,0.556835,-0.595185,0.558369,-0.559903
2.5355,0.020094,0.000000,-1.524066,1.524066,0.0000,0.0000,0.0000,-0.002537,-1.566194,1.558524,0.9510,0.8425,-0.1991,0.001534,0.585981,-0.555301,0.556835,-0.595185,0.558369,-0.559903
2.5556,0.020137,0.000000,-1.522309,1.522309,0.0000,0.0000,0.0000,-0.002537,-1.558524,1.555457,0.9510,0.8425,-0.1991,0.001534,0.585981,-0.555301,0.556835,-0.595185,0.558369,-0.559903
2.5757,0.020119,0.000000,-1.520553,1.520553,0.0000,0.0000,0.0000,-0.002550,-1.553923,1.553923,0.9921,0.8760,-0.2510,0.001534,0.585981,-0.555301,0.556835,-0.595185,0.556835,-0.559903
2.5959,0.020105,0.000000,-1.518798,1.518798,0.0000,0.0000,0.0000,-0.002535,-1.547787,1.553923,0.9472,0.8389,-0.1931,0.001534,0.585981,-0.555301,0.556835,-0.595185,0.558369,-0.559903
2.6159,0.020094,0.000000,-1.517045,1.517045,0.0000,0.0000,0.0000,-0.002537,-1.544719,1.553923,0.9519,0.8428,-0.1992,0.001534,0.585981,-0.555301,0.556835,-0.595185,0.558369,-0.559903
2.6360,0.020100,0.000000,-1.515291,1.515291,0.0000,0.0000,0.0000,-0.002537,-1.544719,1.553923,0.9519,0.8428,-0.1992,0.001534,0.585981,-0.555301,0.556835,-0.595185,0.558369,-0.559903
2.6561,0.020099,0.000000,-1.513537,1.513537,0.0000,0.0000,0.0000,-0.002537,-1.544719,1.553923,0.9519,0.8428,-0.1992,0.001534,0.585981,-0.555301,0.556835,-0.595185,0.558369,-0.559903
2.6762,0.020098,0.000000,-1.511783,1.511783,0.0000,0.0000,0.0000,-0.002537,-1.544719,1.553923,0.9519,0.8428,-0.1992,0.001534,0.585981,-0.555301,0.556835,-0.595185,0.558369,-0.559903
2.6963,0.020094,0.000000,-1.510030,1.510030,0.0000,0.0000,0.0000,-0.002537,-1.544719,1.553923,0.9519,0.8428,-0.1992,0.001534,0.585981,-0.555301,0.556835,-0.595185,0.558369,-0.559903
2.7165,0.020159,0.000000,-1.508270,1.508270,0.0000,0.0000,0.0000,-0.002537,-1.541651,1.553923,0.9519,0.8428,-0.1992,0.001534,0.585981,-0.555301,0.556835,-0.595185,0.558369,-0.559903
2.7366,0.020083,0.000000,-1.506518,1.506518,0.0000,0.0000,0.0000,-0.002537,-1.538583,1.553923,0.9519,0.8428,-0.1992,0.001534,0.585981,-0.555301,0.556835,-0.595185,0.558369,-0.559903
2.7567,0.020084,0.000000,-1.504765,1.504765,0.0000,0.0000,0.0000,-0.002537,-1.533981,1.552389,0.9519,0.8428,-0.1992,0.001534,0.585981,-0.555301,0.556835,-0.595185,0.558369,-0.559903
2.7767,0.020087,0.000000,-1.503012,1.503012,0.0000,0.0000,0.0000,-0.002537,-1.533981,1.553923,0.9519,0.8428,-0.1992,0.001534,0.585981,-0.555301,0.556835,-0.595185,0.558369,-0.559903
2.7968,0.020089,0.000000,-1.501259,1.501259,0.0000,0.0000,0.0000,-0.002537,-1.533981,1.553923,0.9519,0.8428,-0.1992,0.001534,0.585981,-0.555301,0.556835,-0.595185,0.558369,-0.559903
2.8169,0.020082,0.000000,-1.499507,1.499507,0.0000,0.0000,0.0000,-0.002537,-1.533981,1.553923,0.9519,0.8428,-0.1992,0.001534,0.585981,-0.555301,0.556835,-0.595185,0.558369,-0.559903
2.8370,0.020076,0.000000,-1.497755,1.497755,0.0000,0.0000,0.0000,-0.002537,-1.533981,1.553923,0.9519,0.8428,-0.1992,0.001534,0.585981,-0.555301,0.556835,-0.595185,0.558369,-0.559903
2.8571,0.020079,0.000000,-1.496002,1.496002,0.0000,0.0000,0.0000,-0.002537,-1.533981,1.552389,0.9519,0.8428,-0.1992,0.001534,0.585981,-0.555301,0.556835,-0.595185,0.558369,-0.559903
2.8772,0.020078,0.000000,-1.494250,1.494250,0.0000,0.0000,0.0000,-0.002537,-1.533981,1.552389,0.9519,0.8428,-0.1992,0.001534,0.585981,-0.555301,0.556835,-0.595185,0.558369,-0.559903
2.8972,0.020082,0.000000,-1.492498,1.492498,0.0000,0.0000,0.0000,-0.002537,-1.533981,1.552389,0.9519,0.8428,-0.1992,0.001534,0.585981,-0.555301,0.556835,-0.595185,0.558369,-0.559903
2.9173,0.020077,0.000000,-1.490746,1.490746,0.0000,0.0000,0.0000,-0.002537,-1.533981,1.549321,0.9519,0.8428,-0.1992,0.001534,0.585981,-0.555301,0.556835,-0.595185,0.558369,-0.559903
2.9374,0.020078,0.000000,-1.488993,1.488993,0.0000,0.0000,0.0000,-0.002537,-1.533981,1.540117,0.9519,0.8428,-0.1992,0.001534,0.585981,-0.555301,0.556835,-0.595185,0.558369,-0.559903
2.9575,0.020081,0.000000,-1.487241,1.487241,0.0000,0.0000,0.0000,-0.002537,-1.533981,1.527845,0.9519,0.8428,-0.1992,0.001534,0.585981,-0.555301,0.556835,-0.595185,0.558369,-0.559903
2.9776,0.020079,0.000000,-1.485489,1.485489,0.0000,0.0000,0.0000,-0.002537,-1.532447,1.518641,0.9519,0.8428,-0.1992,0.001534,0.585981,-0.555301,0.556835,-0.595185,0.558369,-0.559903
2.9976,0.020077,0.000000,-1.483737,1.483737,0.0000,0.0000,0.0000,-0.002537,-1.530913,1.512505,0.9519,0.8428,-0.1992,0.001534,0.585981,-0.555301,0.556835,-0.595185,0.558369,-0.559903
3.0177,0.020106,0.000000,-1.481982,1.481982,0.0000,0.0000,0.0000,-0.002537,-1.524777,1.510971,0.9519,0.8428,-0.1992,0.001534,0.585981,-0.555301,0.556835,-0.595185,0.558369,-0.559903
3.0378,0.020077,0.000000,-1.480230,1.480230,0.0000,0.0000,0.0000,-0.002537,-1.515573,1.512505,0.9519,0.8428,-0.1992,0.001534,0.585981,-0.555301,0.556835,-0.595185,0.558369,-0.559903
3.0579,0.020083,0.000000,-1.478478,1.478478,0.0000,0.0000,0.0000,-0.002537,-1.507903,1.510971,0.9519,0.8428,-0.1992,0.001534,0.585981,-0.555301,0.556835,-0.595185,0.558369,-0.559903
3.0780,0.020079,0.000000,-1.476725,1.476725,0.0000,0.0000,0.0000,-0.002537,-1.506369,1.510971,0.9519,0.8428,-0.1992,0.001534,0.585981,-0.555301,0.556835,-0.595185,0.558369,-0.559903
3.0981,0.020083,0.000000,-1.474973,1.474973,0.0000,0.0000,0.0000,-0.002537,-1.506369,1.510971,0.9519,0.8428,-0.1992,0.001534,0.585981,-0.555301,0.556835,-0.595185,0.558369,-0.559903
3.1181,0.020091,0.000000,-1.473220,1.473220,0.0000,0.0000,0.0000,-0.002537,-1.506369,1.510971,0.9519,0.8428,-0.1992,0.001534,0.585981,-0.555301,0.556835,-0.595185,0.558369,-0.559903
3.1382,0.020083,0.000000,-1.471467,1.471467,0.0000,0.0000,0.0000,-0.002537,-1.506369,1.510971,0.9519,0.8428,-0.1992,0.001534,0.585981,-0.555301,0.556835,-0.595185,0.558369,-0.559903
3.1583,0.020094,0.000000,-1.469713,1.469713,0.0000,0.0000,0.0000,-0.002537,-1.506369,1.509437,0.9519,0.8428,-0.1992,0.001534,0.585981,-0.555301,0.556835,-0.595185,0.558369,-0.559903
3.1784,0.020083,0.000000,-1.467961,1.467961,0.0000,0.0000,0.0000,-0.002537,-1.506369,1.509437,0.9519,0.8428,-0.1992,0.001534,0.585981,-0.555301,0.556835,-0.595185,0.558369,-0.559903
3.1985,0.020081,0.000000,-1.466209,1.466209,0.0000,0.0000,0.0000,-0.002537,-1.506369,1.500233,0.9519,0.8428,-0.1992,0.001534,0.585981,-0.555301,0.556835,-0.595185,0.558369,-0.559903
3.2186,0.020083,0.000000,-1.464456,1.464456,0.0000,0.0000,0.0000,-0.002537,-1.506369,1.498699,0.9519,0.8428,-0.1992,0.001534,0.585981,-0.555301,0.556835,-0.595185,0.558369,-0.559903
3.2387,0.020081,0.000000,-1.462704,1.462704,0.0000,0.0000,0.0000,-0.002537,-1.506369,1.498699,0.9519,0.8428,-0.1992,0.001534,0.585981,-0.555301,0.556835,-0.595185,0.558369,-0.559903
3.2589,0.020274,0.000000,-1.460934,1.460934,0.0000,0.0000,0.0000,-0.002537,-1.504835,1.498699,0.9519,0.8428,-0.1992,0.001534,0.585981,-0.555301,0.556835,-0.595185,0.558369,-0.559903
3.2790,0.020077,0.000000,-1.459182,1.459182,0.0000,0.0000,0.0000,-0.002537,-1.504835,1.498699,0.9519,0.8428,-0.1992,0.001534,0.585981,-0.555301,0.556835,-0.595185,0.558369,-0.559903
3.2991,0.020078,0.000000,-1.457430,1.457430,0.0000,0.0000,0.0000,-0.002537,-1.498699,1.498699,0.9519,0.8428,-0.1992,0.001534,0.585981,-0.555301,0.556835,-0.595185,0.558369,-0.559903
3.3192,0.020082,0.000000,-1.455678,1.455678,0.0000,0.0000,0.0000,-0.002537,-1.489495,1.498699,0.9519,0.8428,-0.1992,0.001534,0.585981,-0.555301,0.556835,-0.595185,0.558369,-0.559903
3.3392,0.020077,0.000000,-1.453926,1.453926,0.0000,0.0000,0.0000,-0.002537,-1.481825,1.498699,0.9519,0.8428,-0.1992,0.001534,0.585981,-0.555301,0.556835,-0.595185,0.558369,-0.559903
3.3594,0.020180,0.000000,-1.452165,1.452165,0.0000,0.0000,0.0000,-0.002537,-1.478757,1.498699,0.9519,0.8428,-0.1992,0.001534,0.585981,-0.555301,0.556835,-0.595185,0.558369,-0.559903
3.3795,0.020081,0.000000,-1.450412,1.450412,0.0000,0.0000,0.0000,-0.002537,-1.478757,1.498699,0.9519,0.8428,-0.1992,0.001534,0.585981,-0.555301,0.556835,-0.595185,0.558369,-0.559903
3.3996,0.020083,0.000000,-1.448660,1.448660,0.0000,0.0000,0.0000,-0.002537,-1.478757,1.498699,0.9519,0.8428,-0.1992,0.001534,0.585981,-0.555301,0.556835,-0.595185,0.558369,-0.559903
3.4197,0.020108,0.000000,-1.446905,1.446905,0.0000,0.0000,0.0000,-0.002537,-1.478757,1.497165,0.9519,0.8428,-0.1992,0.001534,0.585981,-0.555301,0.556835,-0.595185,0.558369,-0.559903
3.4398,0.020081,0.000000,-1.445152,1.445152,0.0000,0.0000,0.0000,-0.002537,-1.478757,1.495631,0.9519,0.8428,-0.1992,0.001534,0.585981,-0.555301,0.556835,-0.595185,0.558369,-0.559903
3.4599,0.020133,0.000000,-1.443395,1.443395,0.0000,0.0000,0.0000,-0.002537,-1.478757,1.487961,0.9519,0.8428,-0.1992,0.001534,0.585981,-0.555301,0.556835,-0.595185,0.558369,-0.559903
3.4800,0.020082,0.000000,-1.441643,1.441643,0.0000,0.0000,0.0000,-0.002537,-1.478757,1.477223,0.9519,0.8428,-0.1992,0.001534,0.585981,-0.555301,0.556835,-0.595185,0.558369,-0.559903
3.5001,0.020078,0.000000,-1.439891,1.439891,0.0000,0.0000,0.0000,-0.002537,-1.478757,1.469554,0.9519,0.8428,-0.1992,0.001534,0.585981,-0.555301,0.556835,-0.595185,0.558369,-0.559903
3.5202,0.020094,0.000000,-1.438137,1.438137,0.0000,0.0000,0.0000,-0.002537,-1.478757,1.463418,0.9519,0.8428,-0.1992,0.001534,0.585981,-0.555301,0.556835,-0.595185,0.558369,-0.559903
3.5402,0.020079,0.000000,-1.436385,1.436385,0.0000,0.0000,0.0000,-0.002537,-1.478757,1.460350,0.9519,0.8428,-0.1992,0.001534,0.585981,-0.555301,0.556835,-0.595185,0.558369,-0.559903
3.5605,0.020293,0.000000,-1.434614,1.434614,0.0000,0.0000,0.0000,-0.002537,-1.478757,1.458816,0.9519,0.8428,-0.1992,0.001534,0.585981,-0.555301,0.556835,-0.595185,0.558369,-0.559903
3.5806,0.020081,0.000000,-1.432862,1.432862,0.0000,0.0000,0.0000,-0.002537,-1.475690,1.458816,0.9519,0.8428,-0.1992,0.001534,0.585981,-0.555301,0.556835,-0.595185,0.558369,-0.559903
3.6007,0.020082,0.000000,-1.431109,1.431109,0.0000,0.0000,0.0000,-0.002537,-1.469554,1.458816,0.9519,0.8428,-0.1992,0.001534,0.585981,-0.555301,0.556835,-0.595185,0.558369,-0.559903
3.6209,0.020255,0.000000,-1.429342,1.429342,0.0000,0.0000,0.0000,-0.002537,-1.461884,1.458816,0.9519,0.8428,-0.1992,0.001534,0.585981,-0.555301,0.556835,-0.595185,0.558369,-0.559903
3.6410,0.020079,0.000000,-1.427590,1.427590,0.0000,0.0000,0.0000,-0.002537,-1.454214,1.458816,0.9519,0.8428,-0.1992,0.001534,0.585981,-0.555301,0.556835,-0.595185,0.558369,-0.559903
3.6612,0.020203,0.000000,-1.425827,1.425827,0.0000,0.0000,0.0000,-0.002537,-1.452680,1.458816,0.9519,0.8428,-0.1992,0.001534,0.585981,-0.555301,0.556835,-0.595185,0.558369,-0.559903
3.6813,0.020076,0.000000,-1.424075,1.424075,0.0000,0.0000,0.0000,-0.002537,-1.452680,1.458816,0.9519,0.8428,-0.1992,0.001534,0.585981,-0.555301,0.556835,-0.595185,0.558369,-0.559903
3.7016,0.020274,0.000000,-1.422305,1.422305,0.0000,0.0000,0.0000,-0.002537,-1.452680,1.458816,0.9519,0.8428,-0.1992,0.001534,0.585981,-0.555301,0.556835,-0.595185,0.558369,-0.559903
3.7217,0.020080,0.000000,-1.420553,1.420553,0.0000,0.0000,0.0000,-0.002537,-1.452680,1.458816,0.9519,0.8428,-0.1992,0.001534,0.585981,-0.555301,0.556835,-0.595185,0.558369,-0.559903
3.7417,0.020078,0.000000,-1.418801,1.418801,0.0000,0.0000,0.0000,-0.002537,-1.452680,1.458816,0.9519,0.8428,-0.1992,0.001534,0.585981,-0.555301,0.556835,-0.595185,0.558369,-0.559903
3.7621,0.020378,0.000000,-1.417023,1.417023,0.0000,0.0000,0.0000,-0.002537,-1.452680,1.458816,0.9519,0.8428,-0.1992,0.001534,0.585981,-0.555301,0.556835,-0.595185,0.558369,-0.559903
3.7822,0.020074,0.000000,-1.415271,1.415271,0.0000,0.0000,0.0000,-0.002537,-1.452680,1.458816,0.9519,0.8428,-0.1992,0.001534,0.585981,-0.555301,0.556835,-0.595185,0.558369,-0.559903
3.8023,0.020084,0.000000,-1.413518,1.413518,0.0000,0.0000,0.0000,-0.002537,-1.452680,1.455748,0.9519,0.8428,-0.1992,0.001534,0.585981,-0.555301,0.556835,-0.595185,0.558369,-0.559903
3.8224,0.020100,0.000000,-1.411764,1.411764,0.0000,0.0000,0.0000,-0.002537,-1.452680,1.451146,0.9519,0.8428,-0.1992,0.001534,0.585981,-0.555301,0.556835,-0.595185,0.558369,-0.559903
3.8425,0.020088,0.000000,-1.410011,1.410011,0.0000,0.0000,0.0000,-0.002537,-1.452680,1.443476,0.9519,0.8428,-0.1992,0.001534,0.585981,-0.555301,0.556835,-0.595185,0.558369,-0.559903
3.8625,0.020076,0.000000,-1.408259,1.408259,0.0000,0.0000,0.0000,-0.002537,-1.452680,1.441942,0.9519,0.8428,-0.1992,0.001534,0.585981,-0.555301,0.556835,-0.595185,0.558369,-0.559903
3.8826,0.020084,0.000000,-1.406506,1.406506,0.0000,0.0000,0.0000,-0.002537,-1.452680,1.440408,0.9519,0.8428,-0.1992,0.001534,0.585981,-0.555301,0.556835,-0.595185,0.558369,-0.559903
3.9031,0.020508,0.000000,-1.404717,1.404717,0.0000,0.0000,0.0000,-0.002537,-1.452680,1.438874,0.9519,0.8428,-0.1992,0.001534,0.585981,-0.555301,0.556835,-0.595185,0.558369,-0.559903
3.9234,0.020307,0.000000,-1.402945,1.402945,0.0000,0.0000,0.0000,-0.002537,-1.451146,1.438874,0.9519,0.8428,-0.1992,0.001534,0.585981,-0.555301,0.556835,-0.595185,0.558369,-0.559903
3.9436,0.020152,0.000000,-1.401186,1.401186,0.0000,0.0000,0.0000,-0.002537,-1.451146,1.432738,0.9519,0.8428,-0.1992,0.001534,0.585981,-0.555301,0.556835,-0.595185,0.558369,-0.559903
3.9637,0.020094,0.000000,-1.399433,1.399433,0.0000,0.0000,0.0000,-0.002537,-1.446544,1.431204,0.9519,0.8428,-0.1992,0.001534,0.585981,-0.555301,0.556835,-0.595185,0.558369,-0.559903
3.9838,0.020076,0.000000,-1.397681,1.397681,0.0000,0.0000,0.0000,-0.002537,-1.437340,1.431204,0.9519,0.8428,-0.1992,0.001534,0.585981,-0.555301,0.556835,-0.595185,0.558369,-0.559903
4.0039,0.020112,0.000000,-1.396601,1.396601,0.0000,0.0000,0.0000,-0.002537,-1.428136,1.431204,0.9519,0.8428,-0.1992,0.001534,0.585981,-0.555301,0.556835,-0.595185,0.558369,-0.559903
4.0241,0.020186,0.000000,-1.398363,1.398363,0.0000,0.0000,0.0000,-0.002537,-1.425068,1.431204,0.9519,0.8428,-0.1992,0.001534,0.585981,-0.555301,0.556835,-0.595185,0.558369,-0.559903
4.0441,0.020081,0.000000,-1.400115,1.400115,0.0000,0.0000,0.0000,-0.002537,-1.425068,1.431204,0.9519,0.8428,-0.1992,0.001534,0.585981,-0.555301,0.556835,-0.595185,0.558369,-0.559903
4.0642,0.020077,0.000000,-1.401867,1.401867,0.0000,0.0000,0.0000,-0.002537,-1.425068,1.431204,0.9519,0.8428,-0.1992,0.001534,0.585981,-0.555301,0.556835,-0.595185,0.558369,-0.559903
4.0847,0.020493,0.000000,-1.403656,1.403656,0.0000,0.0000,0.0000,-0.002537,-1.425068,1.431204,0.9519,0.8428,-0.1992,0.001534,0.585981,-0.555301,0.556835,-0.595185,0.558369,-0.559903
4.1048,0.020075,0.000000,-1.405408,1.405408,0.0000,0.0000,0.0000,-0.002537,-1.425068,1.431204,0.9519,0.8428,-0.1992,0.001534,0.585981,-0.555301,0.556835,-0.595185,0.558369,-0.559903
4.1249,0.020083,0.000000,-1.407160,1.407160,0.0000,0.0000,0.0000,-0.002537,-1.425068,1.431204,0.9519,0.8428,-0.1992,0.001534,0.585981,-0.555301,0.556835,-0.595185,0.558369,-0.559903
4.1450,0.020119,0.000000,-1.408916,1.408916,0.0000,0.0000,0.0000,-0.002537,-1.425068,1.431204,0.9519,0.8428,-0.1992,0.001534,0.585981,-0.555301,0.556835,-0.595185,0.558369,-0.559903
4.1651,0.020074,0.000000,-1.410668,1.410668,0.0000,0.0000,0.0000,-0.002537,-1.425068,1.431204,0.9519,0.8428,-0.1992,0.001534,0.585981,-0.555301,0.556835,-0.595185,0.558369,-0.559903
4.1853,0.020209,0.000000,-1.412431,1.412431,0.0000,0.0000,0.0000,-0.002537,-1.425068,1.431204,0.9519,0.8428,-0.1992,0.001534,0.585981,-0.555301,0.556835,-0.595185,0.558369,-0.559903
4.2053,0.020074,0.000000,-1.414183,1.414183,0.0000,0.0000,0.0000,-0.002537,-1.425068,1.431204,0.9519,0.8428,-0.1992,0.001534,0.585981,-0.555301,0.556835,-0.595185,0.558369,-0.559903
4.2254,0.020088,0.000000,-1.415936,1.415936,0.0000,0.0000,0.0000,-0.002537,-1.425068,1.431204,0.9519,0.8428,-0.1992,0.001534,0.585981,-0.555301,0.556835,-0.595185,0.558369,-0.559903
4.2455,0.020075,0.000000,-1.417688,1.417688,0.0000,0.0000,0.0000,-0.002537,-1.425068,1.431204,0.9519,0.8428,-0.1992,0.001534,0.585981,-0.555301,0.556835,-0.595185,0.558369,-0.559903
4.2656,0.020076,0.000000,-1.419440,1.419440,0.0000,0.0000,0.0000,-0.002537,-1.425068,1.431204,0.9519,0.8428,-0.1992,0.001534,0.585981,-0.555301,0.556835,-0.595185,0.558369,-0.559903
4.2857,0.020086,0.000000,-1.421193,1.421193,0.0000,0.0000,0.0000,-0.002537,-1.425068,1.431204,0.9519,0.8428,-0.1992,0.001534,0.585981,-0.555301,0.556835,-0.595185,0.558369,-0.559903
4.3057,0.020073,0.000000,-1.422944,1.422944,0.0000,0.0000,0.0000,-0.002537,-1.425068,1.431204,0.9519,0.8428,-0.1992,0.001534,0.585981,-0.555301,0.556835,-0.595185,0.558369,-0.559903
4.3258,0.020096,0.000000,-1.424698,1.424698,0.0000,0.0000,0.0000,-0.002537,-1.425068,1.431204,0.9519,0.8428,-0.1992,0.001534,0.585981,-0.555301,0.556835,-0.595185,0.558369,-0.559903
4.3459,0.020081,0.000000,-1.426450,1.426450,0.0000,0.0000,0.0000,-0.002537,-1.425068,1.431204,0.9519,0.8428,-0.1992,0.001534,0.585981,-0.555301,0.556835,-0.595185,0.558369,-0.559903
4.3661,0.020173,0.000000,-1.428211,1.428211,0.0000,0.0000,0.0000,-0.002537,-1.426602,1.431204,0.9519,0.8428,-0.1992,0.001534,0.585981,-0.555301,0.556835,-0.595185,0.558369,-0.559903
4.3863,0.020210,0.000000,-1.429975,1.429975,0.0000,0.0000,0.0000,-0.002537,-1.426602,1.431204,0.9519,0.8428,-0.1992,0.001534,0.585981,-0.555301,0.556835,-0.595185,0.558369,-0.559903
4.4064,0.020079,0.000000,-1.431727,1.431727,0.0000,0.0000,0.0000,-0.002537,-1.426602,1.431204,0.9519,0.8428,-0.1992,0.001534,0.585981,-0.555301,0.556835,-0.595185,0.558369,-0.559903
4.4265,0.020103,0.000000,-1.433481,1.433481,0.0000,0.0000,0.0000,-0.002537,-1.432738,1.431204,0.9519,0.8428,-0.2870,0.000000,0.585981,-0.555301,0.556835,-0.595185,0.558369,-0.559903
4.4466,0.020078,0.000000,-1.435233,1.435233,0.0000,0.0000,0.0000,-0.002537,-1.434272,1.431204,0.9519,0.8428,-0.1992,0.001534,0.585981,-0.555301,0.556835,-0.595185,0.558369,-0.559903
4.4666,0.020079,0.000000,-1.436985,1.436985,0.0000,0.0000,0.0000,-0.002537,-1.434272,1.431204,0.9519,0.8428,-0.1992,0.001534,0.585981,-0.555301,0.556835,-0.595185,0.558369,-0.559903
4.4870,0.020326,0.000000,-1.438759,1.438759,0.0000,0.0000,0.0000,-0.002537,-1.434272,1.432738,0.9519,0.8428,-0.1992,0.001534,0.585981,-0.555301,0.556835,-0.595185,0.558369,-0.559903
4.5070,0.020077,0.000000,-1.440511,1.440511,0.0000,0.0000,0.0000,-0.002537,-1.438874,1.432738,0.9519,0.8428,-0.1992,0.001534,0.585981,-0.555301,0.556835,-0.595185,0.558369,-0.559903
4.5271,0.020096,0.000000,-1.442265,1.442265,0.0000,0.0000,0.0000,-0.002537,-1.438874,1.435806,0.9519,0.8428,-0.1992,0.001534,0.585981,-0.555301,0.556835,-0.595185,0.558369,-0.559903
4.5472,0.020079,0.000000,-1.444017,1.444017,0.0000,0.0000,0.0000,-0.002537,-1.438874,1.438874,0.9519,0.8428,-0.1992,0.001534,0.585981,-0.555301,0.556835,-0.595185,0.558369,-0.559903
4.5676,0.020390,0.000000,-1.445797,1.445797,0.0000,0.0000,0.0000,-0.002537,-1.443476,1.440408,0.9519,0.8428,-0.1992,0.001534,0.585981,-0.555301,0.556835,-0.595185,0.558369,-0.559903
4.5877,0.020083,0.000000,-1.447549,1.447549,0.0000,0.0000,0.0000,-0.002537,-1.445010,1.441942,0.9519,0.8428,-0.1992,0.001534,0.585981,-0.555301,0.556835,-0.595185,0.558369,-0.559903
4.6077,0.020049,0.000000,-1.449299,1.449299,0.0000,0.0000,0.0000,-0.002537,-1.445010,1.445010,0.9519,0.8428,-0.1992,0.001534,0.585981,-0.555301,0.556835,-0.595185,0.558369,-0.559903
4.6278,0.020094,0.000000,-1.451052,1.451052,0.0000,0.0000,0.0000,-0.002537,-1.446544,1.446544,0.9519,0.8428,-0.1992,0.001534,0.585981,-0.555301,0.556835,-0.595185,0.558369,-0.559903
4.6479,0.020077,0.000000,-1.452804,1.452804,0.0000,0.0000,0.0000,-0.002537,-1.451146,1.446544,0.9519,0.8428,-0.1992,0.001534,0.585981,-0.555301,0.556835,-0.595185,0.558369,-0.559903
4.6680,0.020082,0.000000,-1.454557,1.454557,0.0000,0.0000,0.0000,-0.002537,-1.452680,1.446544,0.9519,0.8428,-0.1992,0.001534,0.585981,-0.555301,0.556835,-0.595185,0.558369,-0.559903
4.6881,0.020083,0.000000,-1.456309,1.456309,0.0000,0.0000,0.0000,-0.002537,-1.454214,1.449612,0.9519,0.8428,-0.1992,0.001534,0.585981,-0.555301,0.556835,-0.595185,0.558369,-0.559903
4.7081,0.020072,0.000000,-1.458061,1.458061,0.0000,0.0000,0.0000,-0.002537,-1.454214,1.452680,0.9519,0.8428,-0.1992,0.001534,0.585981,-0.555301,0.556835,-0.595185,0.558369,-0.559903
4.7282,0.020100,0.000000,-1.459815,1.459815,0.0000,0.0000,0.0000,-0.002537,-1.458816,1.452680,0.9519,0.8428,-0.1992,0.001534,0.585981,-0.555301,0.556835,-0.595185,0.558369,-0.559903
4.7484,0.020137,0.000000,-1.461572,1.461572,0.0000,0.0000,0.0000,-0.002537,-1.460350,1.454214,0.9519,0.8428,-0.1992,0.001534,0.585981,-0.555301,0.556835,-0.595185,0.558369,-0.559903
4.7685,0.020081,0.000000,-1.463325,1.463325,0.0000,0.0000,0.0000,-0.002537,-1.460350,1.455748,0.9519,0.8428,-0.1992,0.001534,0.585981,-0.555301,0.556835,-0.595185,0.558369,-0.559903
4.7886,0.020088,0.000000,-1.465078,1.465078,0.0000,0.0000,0.0000,-0.002537,-1.460350,1.458816,0.9519,0.8428,-0.1992,0.001534,0.585981,-0.555301,0.556835,-0.595185,0.558369,-0.559903
4.8088,0.020215,0.000000,-1.466842,1.466842,0.0000,0.0000,0.0000,-0.002537,-1.464952,1.460350,0.9519,0.8428,-0.1992,0.001534,0.585981,-0.555301,0.556835,-0.595185,0.558369,-0.559903
4.8289,0.020082,0.000000,-1.468594,1.468594,0.0000,0.0000,0.0000,-0.002537,-1.466486,1.460350,0.9519,0.8428,-0.1992,0.001534,0.585981,-0.555301,0.556835,-0.595185,0.558369,-0.559903
4.8490,0.020152,0.000000,-1.470353,1.470353,0.0000,0.0000,0.0000,-0.002537,-1.466486,1.463418,0.9519,0.8428,-0.1992,0.001534,0.585981,-0.555301,0.556835,-0.595185,0.558369,-0.559903
4.8691,0.020081,0.000000,-1.472105,1.472105,0.0000,0.0000,0.0000,-0.002537,-1.469554,1.469554,0.9519,0.8428,-0.1992,0.001534,0.585981,-0.555301,0.556835,-0.595185,0.558369,-0.559903
4.8892,0.020090,0.000000,-1.473859,1.473859,0.0000,0.0000,0.0000,-0.002537,-1.469554,1.469554,0.9519,0.8428,-0.1992,0.001534,0.585981,-0.555301,0.556835,-0.595185,0.558369,-0.559903
4.9093,0.020085,0.000000,-1.475611,1.475611,0.0000,0.0000,0.0000,-0.002537,-1.471088,1.469554,0.9519,0.8428,-0.1992,0.001534,0.585981,-0.555301,0.556835,-0.595185,0.558369,-0.559903
4.9293,0.020083,0.000000,-1.477364,1.477364,0.0000,0.0000,0.0000,-0.002537,-1.474156,1.471088,0.9519,0.8428,-0.1992,0.001534,0.585981,-0.555301,0.556835,-0.595185,0.558369,-0.559903
4.9494,0.020085,0.000000,-1.479117,1.479117,0.0000,0.0000,0.0000,-0.002537,-1.474156,1.471088,0.9519,0.8428,-0.1992,0.001534,0.585981,-0.555301,0.556835,-0.595185,0.558369,-0.559903
4.9695,0.020088,0.000000,-1.480870,1.480870,0.0000,0.0000,0.0000,-0.002537,-1.477223,1.474156,0.9519,0.8428,-0.1992,0.001534,0.585981,-0.555301,0.556835,-0.595185,0.558369,-0.559903
4.9896,0.020084,0.000000,-1.482622,1.482622,0.0000,0.0000,0.0000,-0.002537,-1.483359,1.477223,0.9519,0.8428,-0.1992,0.001534,0.585981,-0.555301,0.556835,-0.595185,0.558369,-0.559903
5.0097,0.020092,0.000000,-1.484376,1.484376,0.0000,0.0000,0.0000,-0.002537,-1.483359,1.477223,0.9519,0.8428,-0.1992,0.001534,0.585981,-0.555301,0.556835,-0.595185,0.558369,-0.559903
5.0298,0.020080,0.000000,-1.486128,1.486128,0.0000,0.0000,0.0000,-0.002537,-1.483359,1.480291,0.9519,0.8428,-0.1992,0.001534,0.585981,-0.555301,0.556835,-0.595185,0.558369,-0.559903
5.0499,0.020087,0.000000,-1.487881,1.487881,0.0000,0.0000,0.0000,-0.002537,-1.483359,1.480291,0.9519,0.8428,-0.1992,0.001534,0.585981,-0.555301,0.556835,-0.595185,0.558369,-0.559903
5.0699,0.020082,0.000000,-1.489633,1.489633,0.0000,0.0000,0.0000,-0.002537,-1.487961,1.481825,0.9519,0.8428,-0.1992,0.001534,0.585981,-0.555301,0.556835,-0.595185,0.558369,-0.559903
5.0900,0.020092,0.000000,-1.491387,1.491387,0.0000,0.0000,0.0000,-0.002537,-1.487961,1.484893,0.9519,0.8428,-0.1992,0.001534,0.585981,-0.555301,0.556835,-0.595185,0.558369,-0.559903
5.1101,0.020086,0.000000,-1.493140,1.493140,0.0000,0.0000,0.0000,-0.002537,-1.487961,1.484893,0.9519,0.8428,-0.1992,0.001534,0.585981,-0.555301,0.556835,-0.595185,0.558369,-0.559903
5.1302,0.020078,0.000000,-1.494892,1.494892,0.0000,0.0000,0.0000,-0.002537,-1.494097,1.487961,0.9519,0.8428,-0.1992,0.001534,0.585981,-0.555301,0.556835,-0.595185,0.558369,-0.559903
5.1503,0.020082,0.000000,-1.496644,1.496644,0.0000,0.0000,0.0000,-0.002537,-1.497165,1.492563,0.9519,0.8428,-0.1992,0.001534,0.585981,-0.555301,0.556835,-0.595185,0.558369,-0.559903
5.1704,0.020085,0.000000,-1.498397,1.498397,0.0000,0.0000,0.0000,-0.002537,-1.497165,1.492563,0.9519,0.8428,-0.1992,0.001534,0.585981,-0.555301,0.556835,-0.595185,0.558369,-0.559903
5.1905,0.020090,0.000000,-1.500150,1.500150,0.0000,0.0000,0.0000,-0.002537,-1.495631,1.494097,0.9519,0.8428,-0.1992,0.001534,0.585981,-0.555301,0.556835,-0.595185,0.558369,-0.559903
5.2105,0.020079,0.000000,-1.501902,1.501902,0.0000,0.0000,0.0000,-0.002537,-1.498699,1.494097,0.9519,0.8428,-0.1992,0.001534,0.585981,-0.555301,0.556835,-0.595185,0.558369,-0.559903
5.2306,0.020079,0.000000,-1.503655,1.503655,0.0000,0.0000,0.0000,-0.002537,-1.498699,1.497165,0.9519,0.8428,-0.1992,0.001534,0.585981,-0.555301,0.556835,-0.595185,0.558369,-0.559903
5.2507,0.020086,0.000000,-1.505407,1.505407,0.0000,0.0000,0.0000,-0.002537,-1.501767,1.500233,0.9519,0.8428,-0.1992,0.001534,0.585981,-0.555301,0.556835,-0.595185,0.558369,-0.559903
5.2708,0.020085,0.000000,-1.507160,1.507160,0.0000,0.0000,0.0000,-0.002537,-1.504835,1.500233,0.9519,0.8428,-0.1992,0.001534,0.585981,-0.555301,0.556835,-0.595185,0.558369,-0.559903
5.2909,0.020095,0.000000,-1.508914,1.508914,0.0000,0.0000,0.0000,-0.002537,-1.507903,1.501767,0.9519,0.8428,-0.1992,0.001534,0.585981,-0.555301,0.556835,-0.595185,0.558369,-0.559903
5.3110,0.020080,0.000000,-1.510666,1.510666,0.0000,0.0000,0.0000,-0.002537,-1.507903,1.503301,0.9519,0.8428,-0.1992,0.001534,0.585981,-0.555301,0.556835,-0.595185,0.558369,-0.559903
5.3310,0.020077,0.000000,-1.512418,1.512418,0.0000,0.0000,0.0000,-0.002537,-1.507903,1.504835,0.9519,0.8428,-0.1992,0.001534,0.585981,-0.555301,0.556835,-0.595185,0.558369,-0.559903
5.3521,0.021101,0.000000,-1.514260,1.514260,0.0000,0.0000,0.0000,-0.002537,-1.512505,1.507903,0.9519,0.8428,-0.1992,0.001534,0.585981,-0.555301,0.556835,-0.595185,0.558369,-0.559903
5.3722,0.020092,0.000000,-1.516013,1.516013,0.0000,0.0000,0.0000,-0.002537,-1.512505,1.507903,0.9519,0.8428,-0.1992,0.001534,0.585981,-0.555301,0.556835,-0.595185,0.558369,-0.559903
5.3923,0.020100,0.000000,-1.517767,1.517767,0.0000,0.0000,0.0000,-0.002537,-1.512505,1.507903,0.9519,0.8428,-0.1992,0.001534,0.585981,-0.555301,0.556835,-0.595185,0.558369,-0.559903
5.4124,0.020084,0.000000,-1.519520,1.519520,0.0000,0.0000,0.0000,-0.002537,-1.517107,1.514039,0.9519,0.8428,-0.1992,0.001534,0.585981,-0.555301,0.556835,-0.595185,0.558369,-0.559903
5.4325,0.020072,0.000000,-1.521271,1.521271,0.0000,0.0000,0.0000,-0.002537,-1.520175,1.515573,0.9519,0.8428,-0.1992,0.001534,0.585981,-0.555301,0.556835,-0.595185,0.558369,-0.559903
5.4526,0.020078,0.000000,-1.523023,1.523023,0.0000,0.0000,0.0000,-0.002550,-1.520175,1.515573,0.9920,0.8759,-0.2510,0.001534,0.585981,-0.555301,0.556835,-0.595185,0.556835,-0.559903
5.4727,0.020154,0.000000,-1.524782,1.524782,0.0000,0.0000,0.0000,-0.002535,-1.520175,1.517107,0.9473,0.8389,-0.1931,0.001534,0.585981,-0.555301,0.556835,-0.595185,0.558369,-0.559903
5.4928,0.020084,0.000000,-1.526535,1.526535,0.0000,0.0000,0.0000,-0.002537,-1.524777,1.520175,0.9519,0.8428,-0.1992,0.001534,0.585981,-0.555301,0.556835,-0.595185,0.558369,-0.559903
5.5129,0.020087,0.000000,-1.528288,1.528288,0.0000,0.0000,0.0000,-0.002537,-1.524777,1.521709,0.9519,0.8428,-0.1992,0.001534,0.585981,-0.555301,0.556835,-0.595185,0.558369,-0.559903
5.5330,0.020082,0.000000,-1.530040,1.530040,0.0000,0.0000,0.0000,-0.002537,-1.527845,1.526311,0.9519,0.8428,-0.1992,0.001534,0.585981,-0.555301,0.556835,-0.595185,0.558369,-0.559903
5.5531,0.020083,0.000000,-1.531793,1.531793,0.0000,0.0000,0.0000,-0.002537,-1.529379,1.527845,0.9519,0.8428,-0.1992,0.001534,0.585981,-0.555301,0.556835,-0.595185,0.558369,-0.559903
5.5731,0.020077,0.000000,-1.533545,1.533545,0.0000,0.0000,0.0000,-0.002526,-1.529379,1.527845,1.0011,0.8268,-0.1444,0.001534,0.587515,-0.555301,0.556835,-0.595185,0.558369,-0.559903
5.5932,0.020084,0.000000,-1.535297,1.535297,0.0000,0.0000,0.0000,-0.002538,-1.532447,1.527845,0.9463,0.8440,-0.2042,0.001534,0.585981,-0.555301,0.556835,-0.595185,0.558369,-0.559903
5.6133,0.020085,0.000000,-1.537050,1.537050,0.0000,0.0000,0.0000,-0.002537,-1.535515,1.530913,0.9520,0.8422,-0.1980,0.001534,0.585981,-0.555301,0.556835,-0.595185,0.558369,-0.559903
5.6334,0.020122,0.000000,-1.538806,1.538806,0.0000,0.0000,0.0000,-0.002537,-1.535515,1.530913,0.9520,0.8422,-0.1980,0.001534,0.585981,-0.555301,0.556835,-0.595185,0.558369,-0.559903
5.6535,0.020088,0.000000,-1.540559,1.540559,0.0000,0.0000,0.0000,-0.002537,-1.537049,1.532447,0.9520,0.8422,-0.1980,0.001534,0.585981,-0.555301,0.556835,-0.595185,0.558369,-0.559903
5.6736,0.020083,0.000000,-1.542312,1.542312,0.0000,0.0000,0.0000,-0.002537,-1.541651,1.535515,0.9520,0.8422,-0.1980,0.001534,0.585981,-0.555301,0.556835,-0.595185,0.558369,-0.559903
5.6937,0.020102,0.000000,-1.544066,1.544066,0.0000,0.0000,0.0000,-0.002537,-1.541651,1.537049,0.9520,0.8422,-0.1980,0.001534,0.585981,-0.555301,0.556835,-0.595185,0.558369,-0.559903
5.7138,0.020085,0.000000,-1.545819,1.545819,0.0000,0.0000,0.0000,-0.002537,-1.543185,1.538583,0.9520,0.8422,-0.1980,0.001534,0.585981,-0.555301,0.556835,-0.595185,0.558369,-0.559903
5.7339,0.020081,0.000000,-1.547571,1.547571,0.0000,0.0000,0.0000,-0.002537,-1.543185,1.540117,0.9520,0.8422,-0.1980,0.001534,0.585981,-0.555301,0.556835,-0.595185,0.558369,-0.559903
5.7539,0.020086,0.000000,-1.549324,1.549324,0.0000,0.0000,0.0000,-0.002537,-1.546253,1.541651,0.9520,0.8422,-0.1980,0.001534,0.585981,-0.555301,0.556835,-0.595185,0.558369,-0.559903
5.7740,0.020085,0.000000,-1.551077,1.551077,0.0000,0.0000,0.0000,-0.002537,-1.547787,1.541651,0.9520,0.8422,-0.1980,0.001534,0.585981,-0.555301,0.556835,-0.595185,0.558369,-0.559903
5.7941,0.020091,0.000000,-1.552830,1.552830,0.0000,0.0000,0.0000,-0.002537,-1.547787,1.546253,0.9520,0.8422,-0.1980,0.001534,0.585981,-0.555301,0.556835,-0.595185,0.558369,-0.559903
5.8142,0.020083,0.000000,-1.554583,1.554583,0.0000,0.0000,0.0000,-0.002537,-1.547787,1.547787,0.9520,0.8422,-0.1980,0.001534,0.585981,-0.555301,0.556835,-0.595185,0.558369,-0.559903
5.8343,0.020090,0.000000,-1.556336,1.556336,0.0000,0.0000,0.0000,-0.002537,-1.553923,1.550855,0.9520,0.8422,-0.1980,0.001534,0.585981,-0.555301,0.556835,-0.595185,0.558369,-0.559903
5.8544,0.020089,0.000000,-1.558089,1.558089,0.0000,0.0000,0.0000,-0.002537,-1.555457,1.553923,0.9520,0.8422,-0.1980,0.001534,0.585981,-0.555301,0.556835,-0.595185,0.558369,-0.559903
5.8745,0.020082,0.000000,-1.559841,1.559841,0.0000,0.0000,0.0000,-0.002537,-1.555457,1.553923,0.9520,0.8422,-0.1980,0.001534,0.585981,-0.555301,0.556835,-0.595185,0.558369,-0.559903
5.8946,0.020087,0.000000,-1.561594,1.561594,0.0000,0.0000,0.0000,-0.002537,-1.556990,1.553923,0.9520,0.8422,-0.1980,0.001534,0.585981,-0.555301,0.556835,-0.595185,0.558369,-0.559903
5.9146,0.020047,0.000000,-1.563344,1.563344,0.0000,0.0000,0.0000,-0.002537,-1.561592,1.556990,0.9520,0.8422,-0.1980,0.001534,0.585981,-0.555301,0.556835,-0.595185,0.558369,-0.559903
5.9347,0.020083,0.000000,-1.565096,1.565096,0.0000,0.0000,0.0000,-0.002537,-1.564660,1.560058,0.9520,0.8422,-0.1980,0.001534,0.585981,-0.555301,0.556835,-0.595185,0.558369,-0.559903
5.9548,0.020084,0.000000,-1.566849,1.566849,0.0000,0.0000,0.0000,-0.002537,-1.566194,1.561592,0.9520,0.8422,-0.1980,0.001534,0.585981,-0.555301,0.556835,-0.595185,0.558369,-0.559903
5.9749,0.020089,0.000000,-1.568602,1.568602,0.0000,0.0000,0.0000,-0.002537,-1.566194,1.563126,0.9520,0.8422,-0.1980,0.001534,0.585981,-0.555301,0.556835,-0.595185,0.558369,-0.559903
5.9949,0.020081,0.000000,-1.570354,1.570354,0.0000,0.0000,0.0000,-0.002537,-1.567728,1.564660,0.9520,0.8422,-0.1980,0.001534,0.585981,-0.555301,0.556835,-0.595185,0.558369,-0.559903
6.0152,0.020309,0.000000,-1.572127,1.572127,0.0000,0.0000,0.0000,-0.002537,-1.572330,1.567728,0.9520,0.8422,-0.1980,0.001534,0.585981,-0.555301,0.556835,-0.595185,0.558369,-0.559903
6.0353,0.020082,0.000000,-1.573879,1.573879,0.0000,0.0000,0.0000,-0.002537,-1.572330,1.567728,0.9520,0.8422,-0.1980,0.001534,0.585981,-0.555301,0.556835,-0.595185,0.558369,-0.559903
6.0554,0.020087,0.000000,-1.575632,1.575632,0.0000,0.0000,0.0000,-0.002537,-1.572330,1.567728,0.9520,0.8422,-0.1980,0.001534,0.585981,-0.555301,0.556835,-0.595185,0.558369,-0.559903
6.0756,0.020203,0.000000,-1.577395,1.577395,0.0000,0.0000,0.0000,-0.002526,-1.575398,1.573864,1.0011,0.8269,-0.1446,0.001534,0.587515,-0.555301,0.556835,-0.595185,0.558369,-0.559903
6.0957,0.020084,0.000000,-1.579148,1.579148,0.0000,0.0000,0.0000,-0.002538,-1.575398,1.576932,0.9463,0.8440,-0.2042,0.001534,0.585981,-0.555301,0.556835,-0.595185,0.558369,-0.559903
6.1158,0.020085,0.000000,-1.580901,1.580901,0.0000,0.0000,0.0000,-0.002526,-1.576932,1.576932,1.0017,0.8267,-0.1439,0.001534,0.587515,-0.555301,0.556835,-0.595185,0.558369,-0.559903
6.1359,0.020085,0.000000,-1.582653,1.582653,0.0000,0.0000,0.0000,-0.002538,-1.578466,1.576932,0.9463,0.8440,-0.2043,0.001534,0.585981,-0.555301,0.556835,-0.595185,0.558369,-0.559903
6.1560,0.020094,0.000000,-1.584407,1.584407,0.0000,0.0000,0.0000,-0.002537,-1.580000,1.580000,0.9520,0.8422,-0.1980,0.001534,0.585981,-0.555301,0.556835,-0.595185,0.558369,-0.559903
6.1761,0.020087,0.000000,-1.586160,1.586160,0.0000,0.0000,0.0000,-0.002537,-1.581534,1.580000,0.9520,0.8422,-0.1980,0.001534,0.585981,-0.555301,0.556835,-0.595185,0.558369,-0.559903
6.1961,0.020080,0.000000,-1.587912,1.587912,0.0000,0.0000,0.0000,-0.002537,-1.583068,1.581534,0.9520,0.8422,-0.1980,0.001534,0.585981,-0.555301,0.556835,-0.595185,0.558369,-0.559903
6.2166,0.020425,0.000000,-1.589695,1.589695,0.0000,0.0000,0.0000,-0.002537,-1.587670,1.583068,0.9520,0.8422,-0.1980,0.001534,0.585981,-0.555301,0.556835,-0.595185,0.558369,-0.559903
6.2366,0.020075,0.000000,-1.591446,1.591446,0.0000,0.0000,0.0000,-0.002537,-1.590738,1.587670,0.9520,0.8422,-0.1980,0.001534,0.585981,-0.555301,0.556835,-0.595185,0.558369,-0.559903
6.2567,0.020086,0.000000,-1.593199,1.593199,0.0000,0.0000,0.0000,-0.002537,-1.590738,1.587670,0.9520,0.8422,-0.1980,0.001534,0.585981,-0.555301,0.556835,-0.595185,0.558369,-0.559903
6.2768,0.020073,0.000000,-1.594951,1.594951,0.0000,0.0000,0.0000,-0.002537,-1.590738,1.589204,0.9520,0.8422,-0.1980,0.001534,0.585981,-0.555301,0.556835,-0.595185,0.558369,-0.559903
6.2969,0.020078,0.000000,-1.596703,1.596703,0.0000,0.0000,0.0000,-0.002537,-1.593806,1.590738,0.9520,0.8422,-0.1980,0.001534,0.585981,-0.555301,0.556835,-0.595185,0.558369,-0.559903
6.3170,0.020081,0.000000,-1.598455,1.598455,0.0000,0.0000,0.0000,-0.002550,-1.593806,1.592272,0.9920,0.8760,-0.2512,0.001534,0.585981,-0.555301,0.556835,-0.595185,0.556835,-0.559903
6.3370,0.020074,0.000000,-1.600207,1.600207,0.0000,0.0000,0.0000,-0.002535,-1.595340,1.593806,0.9473,0.8389,-0.1931,0.001534,0.585981,-0.555301,0.556835,-0.595185,0.558369,-0.559903
6.3571,0.020087,0.000000,-1.601960,1.601960,0.0000,0.0000,0.0000,-0.002537,-1.598408,1.595340,0.9519,0.8428,-0.1992,0.001534,0.585981,-0.555301,0.556835,-0.595185,0.558369,-0.559903
6.3772,0.020079,0.000000,-1.603712,1.603712,0.0000,0.0000,0.0000,-0.002537,-1.601476,1.599942,0.9519,0.8428,-0.1992,0.001534,0.585981,-0.555301,0.556835,-0.595185,0.558369,-0.559903
6.3973,0.020076,0.000000,-1.605464,1.605464,0.0000,0.0000,0.0000,-0.002537,-1.601476,1.603010,0.9519,0.8428,-0.1992,0.001534,0.585981,-0.555301,0.556835,-0.595185,0.558369,-0.559903
6.4193,0.022006,0.000000,-1.607385,1.607385,0.0000,0.0000,0.0000,-0.002537,-1.601476,1.603010,0.9519,0.8428,-0.1992,0.001534,0.585981,-0.555301,0.556835,-0.595185,0.558369,-0.559903
6.4393,0.020073,0.000000,-1.609136,1.609136,0.0000,0.0000,0.0000,-0.002537,-1.604544,1.603010,0.9519,0.8428,-0.1992,0.001534,0.585981,-0.555301,0.556835,-0.595185,0.558369,-0.559903
6.4594,0.020083,0.000000,-1.610889,1.610889,0.0000,0.0000,0.0000,-0.002537,-1.606078,1.604544,0.9519,0.8428,-0.1992,0.001534,0.585981,-0.555301,0.556835,-0.595185,0.558369,-0.559903
6.4795,0.020098,0.000000,-1.612643,1.612643,0.0000,0.0000,0.0000,-0.002526,-1.607612,1.606078,1.0011,0.8268,-0.1444,0.001534,0.587515,-0.555301,0.556835,-0.595185,0.558369,-0.559903
6.4997,0.020145,0.000000,-1.614401,1.614401,0.0000,0.0000,0.0000,-0.002538,-1.610680,1.609146,0.9463,0.8440,-0.2042,0.001534,0.585981,-0.555301,0.556835,-0.595185,0.558369,-0.559903
6.5197,0.020068,0.000000,-1.616152,1.616152,0.0000,0.0000,0.0000,-0.002537,-1.613748,1.610680,0.9520,0.8422,-0.1980,0.001534,0.585981,-0.555301,0.556835,-0.595185,0.558369,-0.559903
6.5398,0.020079,0.000000,-1.617904,1.617904,0.0000,0.0000,0.0000,-0.002537,-1.615282,1.612214,0.9520,0.8422,-0.1980,0.001534,0.585981,-0.555301,0.556835,-0.595185,0.558369,-0.559903
