t,loop_dt,cmd_z,cmd_ant_l,cmd_ant_r,cmd_roll,cmd_pitch,cmd_yaw,pres_z,pres_ant_l,pres_ant_r,pres_roll,pres_pitch,pres_yaw,pres_j0,pres_j1,pres_j2,pres_j3,pres_j4,pres_j5,pres_j6
0.0000,0.000002,0.000000,-1.745329,1.745329,0.0000,0.0000,0.0000,-0.002695,-1.530913,1.523243,0.9615,1.0929,-0.0131,0.001534,0.578311,-0.552233,0.556835,-0.595185,0.556835,-0.549165
0.0201,0.020097,0.000000,-1.744978,1.744978,0.0000,0.0000,0.0000,-0.002706,-1.535515,1.527845,1.0077,1.1248,-0.0593,0.001534,0.579845,-0.552233,0.555301,-0.595185,0.558369,-0.549165
0.0402,0.020096,0.000000,-1.744628,1.744628,0.0000,0.0000,0.0000,-0.002682,-1.555457,1.549321,1.0108,1.0834,0.0459,0.001534,0.579845,-0.552233,0.556835,-0.595185,0.558369,-0.549165
0.0603,0.020106,0.000000,-1.744277,1.744277,0.0000,0.0000,0.0000,-0.002682,-1.639825,1.632156,1.0108,1.0834,0.0459,0.001534,0.579845,-0.553767,0.556835,-0.595185,0.558369,-0.550699
0.0804,0.020104,0.000000,-1.743926,1.743926,0.0000,0.0000,0.0000,-0.002658,-1.741068,1.730330,0.9925,1.0090,-0.1609,0.001534,0.578311,-0.555301,0.556835,-0.595185,0.558369,-0.550699
0.1005,0.020110,0.000000,-1.743575,1.743575,0.0000,0.0000,0.0000,-0.002658,-1.796292,1.788622,0.9925,1.0090,-0.1609,0.001534,0.579845,-0.555301,0.556835,-0.595185,0.558369,-0.552233
0.1206,0.020103,0.000000,-1.743224,1.743224,0.0000,0.0000,0.0000,-0.002633,-1.794758,1.793224,0.9940,0.9770,-0.1505,0.001534,0.579845,-0.555301,0.556835,-0.595185,0.558369,-0.552233
0.1408,0.020166,0.000000,-1.742872,1.742872,0.0000,0.0000,0.0000,-0.002636,-1.794758,1.793224,0.9939,0.9803,-0.1516,0.001534,0.579845,-0.555301,0.556835,-0.595185,0.558369,-0.552233
0.1609,0.020125,0.000000,-1.742521,1.742521,0.0000,0.0000,0.0000,-0.002623,-1.779418,1.782486,0.9446,0.9619,-0.2051,0.001534,0.579845,-0.555301,0.556835,-0.595185,0.558369,-0.553767
0.1811,0.020184,0.000000,-1.742169,1.742169,0.0000,0.0000,0.0000,-0.002624,-1.765612,1.774816,0.9498,0.9639,-0.1995,0.001534,0.579845,-0.555301,0.556835,-0.595185,0.558369,-0.553767
0.2012,0.020126,0.000000,-1.741817,1.741817,0.0000,0.0000,0.0000,-0.002611,-1.761010,1.768680,0.9000,0.9457,-0.2537,0.001534,0.579845,-0.555301,0.556835,-0.595185,0.558369,-0.555301
0.2213,0.020105,0.000000,-1.741466,1.741466,0.0000,0.0000,0.0000,-0.002599,-1.756408,1.765612,0.8560,0.9297,-0.3016,0.001534,0.579845,-0.555301,0.556835,-0.595185,0.558369,-0.556835
0.2414,0.020097,0.000000,-1.741116,1.741116,0.0000,0.0000,0.0000,-0.002601,-1.756408,1.765612,0.8606,0.9314,-0.2966,0.001534,0.579845,-0.555301,0.556835,-0.595185,0.558369,-0.556835
0.2615,0.020095,0.000000,-1.740765,1.740765,0.0000,0.0000,0.0000,-0.002587,-1.754874,1.765612,0.8994,0.8956,-0.3502,0.001534,0.579845,-0.556835,0.556835,-0.595185,0.558369,-0.556835
0.2816,0.020094,0.000000,-1.740414,1.740414,0.0000,0.0000,0.0000,-0.002589,-1.754874,1.765612,0.8953,0.8994,-0.3446,0.001534,0.579845,-0.556835,0.556835,-0.595185,0.558369,-0.556835
0.3017,0.020095,0.000000,-1.740064,1.740064,0.0000,0.0000,0.0000,-0.002575,-1.754874,1.765612,0.9349,0.8634,-0.3983,0.001534,0.579845,-0.558369,0.556835,-0.595185,0.558369,-0.556835
0.3218,0.020102,0.000000,-1.739713,1.739713,0.0000,0.0000,0.0000,-0.002577,-1.754874,1.765612,0.9308,0.8672,-0.3927,0.001534,0.579845,-0.558369,0.556835,-0.595185,0.558369,-0.556835
0.3419,0.020094,0.000000,-1.739362,1.739362,0.0000,0.0000,0.0000,-0.002577,-1.754874,1.765612,0.9308,0.8672,-0.3927,0.001534,0.579845,-0.558369,0.556835,-0.595185,0.558369,-0.556835
0.3620,0.020089,0.000000,-1.739011,1.739011,0.0000,0.0000,0.0000,-0.002563,-1.754874,1.765612,0.9703,0.8312,-0.5344,0.000000,0.579845,-0.559903,0.556835,-0.595185,0.558369,-0.556835
0.3821,0.020084,0.000000,-1.738661,1.738661,0.0000,0.0000,0.0000,-0.002565,-1.753340,1.765612,0.9662,0.8350,-0.4409,0.001534,0.579845,-0.559903,0.556835,-0.595185,0.558369,-0.556835
0.4022,0.020096,0.000000,-1.738310,1.738310,0.0000,0.0000,0.0000,-0.002578,-1.754874,1.765612,0.9275,0.8701,-0.3883,0.001534,0.579845,-0.558369,0.556835,-0.595185,0.558369,-0.556835
0.4223,0.020104,0.000000,-1.737959,1.737959,0.0000,0.0000,0.0000,-0.002576,-1.754874,1.765612,0.9315,0.8665,-0.3938,0.001534,0.579845,-0.558369,0.556835,-0.595185,0.558369,-0.556835
0.4424,0.020098,0.000000,-1.737608,1.737608,0.0000,0.0000,0.0000,-0.002564,-1.754874,1.765612,0.9702,0.8313,-0.4464,0.001534,0.579845,-0.559903,0.556835,-0.595185,0.558369,-0.556835
0.4625,0.020092,0.000000,-1.737258,1.737258,0.0000,0.0000,0.0000,-0.002552,-1.754874,1.765612,0.9170,0.8172,-0.4945,0.001534,0.579845,-0.559903,0.556835,-0.595185,0.558369,-0.558369
0.4826,0.020094,0.000000,-1.736907,1.736907,0.0000,0.0000,0.0000,-0.002553,-1.753340,1.765612,0.9226,0.8187,-0.4895,0.001534,0.579845,-0.559903,0.556835,-0.595185,0.558369,-0.558369
0.5027,0.020092,0.000000,-1.736556,1.736556,0.0000,0.0000,0.0000,-0.002566,-1.754874,1.765612,0.8829,0.8540,-0.4368,0.001534,0.579845,-0.558369,0.556835,-0.595185,0.558369,-0.558369
0.5228,0.020102,0.000000,-1.736206,1.736206,0.0000,0.0000,0.0000,-0.002552,-1.753340,1.765612,0.9262,0.8148,-0.4955,0.001534,0.579845,-0.559903,0.556835,-0.595185,0.558369,-0.558369
0.5428,0.020094,0.000000,-1.735855,1.735855,0.0000,0.0000,0.0000,-0.002566,-1.754874,1.765612,0.8826,0.8544,-0.4362,0.001534,0.579845,-0.558369,0.556835,-0.595185,0.558369,-0.558369
0.5629,0.020093,0.000000,-1.735504,1.735504,0.0000,0.0000,0.0000,-0.002529,-1.754874,1.765612,1.0260,0.7834,-0.3877,0.001534,0.582913,-0.559903,0.556835,-0.595185,0.558369,-0.558369
0.5830,0.020090,0.000000,-1.735153,1.735153,0.0000,0.0000,0.0000,-0.002533,-1.754874,1.765612,1.0110,0.7909,-0.3927,0.001534,0.582913,-0.559903,0.556835,-0.595185,0.558369,-0.558369
0.6031,0.020085,0.000000,-1.734803,1.734803,0.0000,0.0000,0.0000,-0.002546,-1.754874,1.765612,0.9734,0.8256,-0.3390,0.001534,0.582913,-0.558369,0.556835,-0.595185,0.558369,-0.558369
0.6232,0.020075,0.000000,-1.734453,1.734453,0.0000,0.0000,0.0000,-0.002531,-1.754874,1.765612,1.0165,0.7865,-0.3978,0.001534,0.582913,-0.559903,0.556835,-0.595185,0.558369,-0.558369
0.6433,0.020086,0.000000,-1.734102,1.734102,0.0000,0.0000,0.0000,-0.002533,-1.754874,1.765612,0.9237,0.8083,-0.4800,0.000000,0.582913,-0.558369,0.556835,-0.595185,0.558369,-0.559903
0.6634,0.020089,0.000000,-1.733751,1.733751,0.0000,0.0000,0.0000,-0.002520,-1.754874,1.765612,0.9726,0.7705,-0.4459,0.001534,0.582913,-0.559903,0.556835,-0.595185,0.558369,-0.559903
0.6835,0.020088,0.000000,-1.733401,1.733401,0.0000,0.0000,0.0000,-0.002521,-1.754874,1.765612,0.9675,0.7744,-0.4403,0.001534,0.582913,-0.559903,0.556835,-0.595185,0.558369,-0.559903
0.7035,0.020082,0.000000,-1.733050,1.733050,0.0000,0.0000,0.0000,-0.002521,-1.754874,1.765612,0.9675,0.7744,-0.4403,0.001534,0.582913,-0.559903,0.556835,-0.595185,0.558369,-0.559903
0.7236,0.020092,0.000000,-1.732700,1.732700,0.0000,0.0000,0.0000,-0.002521,-1.754874,1.765612,0.9675,0.7744,-0.4403,0.001534,0.582913,-0.559903,0.556835,-0.595185,0.558369,-0.559903
0.7437,0.020085,0.000000,-1.732349,1.732349,0.0000,0.0000,0.0000,-0.002521,-1.754874,1.765612,0.9675,0.7744,-0.4403,0.001534,0.582913,-0.559903,0.556835,-0.595185,0.558369,-0.559903
0.7638,0.020094,0.000000,-1.731998,1.731998,0.0000,0.0000,0.0000,-0.002521,-1.753340,1.765612,0.9675,0.7744,-0.4403,0.001534,0.582913,-0.559903,0.556835,-0.595185,0.558369,-0.559903
0.7839,0.020095,0.000000,-1.731648,1.731648,0.0000,0.0000,0.0000,-0.002521,-1.754874,1.765612,0.9675,0.7744,-0.4403,0.001534,0.582913,-0.559903,0.556835,-0.595185,0.558369,-0.559903
0.8040,0.020090,0.000000,-1.731297,1.731297,0.0000,0.0000,0.0000,-0.002521,-1.754874,1.765612,0.9675,0.7744,-0.4403,0.001534,0.582913,-0.559903,0.556835,-0.595185,0.558369,-0.559903
0.8241,0.020086,0.000000,-1.730946,1.730946,0.0000,0.0000,0.0000,-0.002510,-1.753340,1.765612,1.0178,0.7584,-0.3869,0.001534,0.584447,-0.559903,0.556835,-0.595185,0.558369,-0.559903
0.8442,0.020085,0.000000,-1.730596,1.730596,0.0000,0.0000,0.0000,-0.002500,-1.753340,1.765612,1.0623,0.7444,-0.3385,0.001534,0.585981,-0.559903,0.556835,-0.595185,0.558369,-0.559903
0.8642,0.020089,0.000000,-1.730245,1.730245,0.0000,0.0000,0.0000,-0.002501,-1.754874,1.765612,1.0577,0.7459,-0.3435,0.001534,0.585981,-0.559903,0.556835,-0.595185,0.558369,-0.559903
0.8843,0.020096,0.000000,-1.729895,1.729895,0.0000,0.0000,0.0000,-0.002514,-1.753340,1.765612,1.0190,0.7813,-0.2898,0.001534,0.585981,-0.558369,0.556835,-0.595185,0.558369,-0.559903
0.9044,0.020081,0.000000,-1.729544,1.729544,0.0000,0.0000,0.0000,-0.002499,-1.754874,1.765612,1.0622,0.7421,-0.3486,0.001534,0.585981,-0.559903,0.556835,-0.595185,0.558369,-0.559903
0.9245,0.020086,0.000000,-1.729193,1.729193,0.0000,0.0000,0.0000,-0.002514,-1.753340,1.765612,1.0185,0.7817,-0.2892,0.001534,0.585981,-0.558369,0.556835,-0.595185,0.558369,-0.559903
0.9446,0.020078,0.000000,-1.728843,1.728843,0.0000,0.0000,0.0000,-0.002499,-1.753340,1.765612,1.0623,0.7420,-0.3487,0.001534,0.585981,-0.559903,0.556835,-0.595185,0.558369,-0.559903
0.9647,0.020082,0.000000,-1.728493,1.728493,0.0000,0.0000,0.0000,-0.002501,-1.753340,1.765612,1.0577,0.7462,-0.3425,0.001534,0.585981,-0.559903,0.556835,-0.595185,0.558369,-0.559903
0.9848,0.020110,0.000000,-1.728142,1.728142,0.0000,0.0000,0.0000,-0.002501,-1.753340,1.765612,1.0577,0.7462,-0.3425,0.001534,0.585981,-0.559903,0.556835,-0.595185,0.558369,-0.559903
1.0049,0.020084,0.000000,-1.727791,1.727791,0.0000,0.0000,0.0000,-0.002501,-1.753340,1.765612,1.0577,0.7462,-0.3425,0.001534,0.585981,-0.559903,0.556835,-0.595185,0.558369,-0.559903
1.0250,0.020083,0.000000,-1.727440,1.727440,0.0000,0.0000,0.0000,-0.002501,-1.753340,1.765612,1.0577,0.7462,-0.3425,0.001534,0.585981,-0.559903,0.556835,-0.595185,0.558369,-0.559903
1.0450,0.020087,0.000000,-1.727090,1.727090,0.0000,0.0000,0.0000,-0.002501,-1.753340,1.765612,1.0577,0.7462,-0.3425,0.001534,0.585981,-0.559903,0.556835,-0.595185,0.558369,-0.559903
1.0651,0.020097,0.000000,-1.726739,1.726739,0.0000,0.0000,0.0000,-0.002514,-1.754874,1.765612,1.0190,0.7813,-0.2899,0.001534,0.585981,-0.558369,0.556835,-0.595185,0.558369,-0.559903
1.0852,0.020086,0.000000,-1.726389,1.726389,0.0000,0.0000,0.0000,-0.002499,-1.753340,1.765612,1.0622,0.7421,-0.3486,0.001534,0.585981,-0.559903,0.556835,-0.595185,0.558369,-0.559903
1.1053,0.020103,0.000000,-1.726038,1.726038,0.0000,0.0000,0.0000,-0.002501,-1.753340,1.765612,1.0577,0.7462,-0.3425,0.001534,0.585981,-0.559903,0.556835,-0.595185,0.558369,-0.559903
1.1254,0.020120,0.000000,-1.725687,1.725687,0.0000,0.0000,0.0000,-0.002514,-1.753340,1.765612,1.0190,0.7813,-0.2899,0.001534,0.585981,-0.558369,0.556835,-0.595185,0.558369,-0.559903
1.1455,0.020095,0.000000,-1.725336,1.725336,0.0000,0.0000,0.0000,-0.002513,-1.753340,1.765612,1.0230,0.7776,-0.2954,0.001534,0.585981,-0.558369,0.556835,-0.595185,0.558369,-0.559903
1.1656,0.020099,0.000000,-1.724985,1.724985,0.0000,0.0000,0.0000,-0.002499,-1.753340,1.765612,1.0618,0.7424,-0.3480,0.001534,0.585981,-0.559903,0.556835,-0.595185,0.558369,-0.559903
1.1857,0.020103,0.000000,-1.724634,1.724634,0.0000,0.0000,0.0000,-0.002501,-1.753340,1.765612,1.0577,0.7461,-0.3425,0.001534,0.585981,-0.559903,0.556835,-0.595185,0.558369,-0.559903
1.2058,0.020091,0.000000,-1.724284,1.724284,0.0000,0.0000,0.0000,-0.002501,-1.753340,1.765612,1.0577,0.7461,-0.3425,0.001534,0.585981,-0.559903,0.556835,-0.595185,0.558369,-0.559903
1.2259,0.020097,0.000000,-1.723933,1.723933,0.0000,0.0000,0.0000,-0.002501,-1.753340,1.765612,1.0577,0.7461,-0.3425,0.001534,0.585981,-0.559903,0.556835,-0.595185,0.558369,-0.559903
1.2460,0.020090,0.000000,-1.723582,1.723582,0.0000,0.0000,0.0000,-0.002501,-1.753340,1.765612,1.0577,0.7461,-0.3425,0.001534,0.585981,-0.559903,0.556835,-0.595185,0.558369,-0.559903
1.2661,0.020089,0.000000,-1.723232,1.723232,0.0000,0.0000,0.0000,-0.002501,-1.753340,1.765612,1.0577,0.7461,-0.3425,0.001534,0.585981,-0.559903,0.556835,-0.595185,0.558369,-0.559903
1.2862,0.020099,0.000000,-1.722881,1.722881,0.0000,0.0000,0.0000,-0.002501,-1.753340,1.765612,1.0577,0.7461,-0.3425,0.001534,0.585981,-0.559903,0.556835,-0.595185,0.558369,-0.559903
1.3063,0.020092,0.000000,-1.722530,1.722530,0.0000,0.0000,0.0000,-0.002514,-1.753340,1.765612,1.0190,0.7813,-0.2899,0.001534,0.585981,-0.558369,0.556835,-0.595185,0.558369,-0.559903
1.3264,0.020093,0.000000,-1.722179,1.722179,0.0000,0.0000,0.0000,-0.002499,-1.753340,1.765612,1.0622,0.7421,-0.3486,0.001534,0.585981,-0.559903,0.556835,-0.595185,0.558369,-0.559903
1.3465,0.020085,0.000000,-1.721829,1.721829,0.0000,0.0000,0.0000,-0.002501,-1.753340,1.765612,1.0577,0.7462,-0.3425,0.001534,0.585981,-0.559903,0.556835,-0.595185,0.558369,-0.559903
1.3666,0.020096,0.000000,-1.721478,1.721478,0.0000,0.0000,0.0000,-0.002501,-1.753340,1.765612,1.0577,0.7462,-0.3425,0.001534,0.585981,-0.559903,0.556835,-0.595185,0.558369,-0.559903
1.3868,0.020207,0.000000,-1.721125,1.721125,0.0000,0.0000,0.0000,-0.002501,-1.753340,1.765612,1.0577,0.7462,-0.3425,0.001534,0.585981,-0.559903,0.556835,-0.595185,0.558369,-0.559903
1.4069,0.020095,0.000000,-1.720775,1.720775,0.0000,0.0000,0.0000,-0.002501,-1.753340,1.765612,1.0577,0.7462,-0.3425,0.001534,0.585981,-0.559903,0.556835,-0.595185,0.558369,-0.559903
1.4270,0.020097,0.000000,-1.720424,1.720424,0.0000,0.0000,0.0000,-0.002501,-1.751806,1.765612,1.0577,0.7462,-0.3425,0.001534,0.585981,-0.559903,0.556835,-0.595185,0.558369,-0.559903
1.4471,0.020097,0.000000,-1.720073,1.720073,0.0000,0.0000,0.0000,-0.002514,-1.751806,1.765612,1.0190,0.7813,-0.2899,0.001534,0.585981,-0.558369,0.556835,-0.595185,0.558369,-0.559903
1.4672,0.020098,0.000000,-1.719722,1.719722,0.0000,0.0000,0.0000,-0.002499,-1.751806,1.765612,1.0622,0.7421,-0.3486,0.001534,0.585981,-0.559903,0.556835,-0.595185,0.558369,-0.559903
1.4873,0.020095,0.000000,-1.719372,1.719372,0.0000,0.0000,0.0000,-0.002501,-1.751806,1.765612,1.0577,0.7462,-0.3425,0.001534,0.585981,-0.559903,0.556835,-0.595185,0.558369,-0.559903
1.5074,0.020113,0.000000,-1.719021,1.719021,0.0000,0.0000,0.0000,-0.002501,-1.751806,1.765612,1.0577,0.7462,-0.3425,0.001534,0.585981,-0.559903,0.556835,-0.595185,0.558369,-0.559903
1.5275,0.020096,0.000000,-1.718670,1.718670,0.0000,0.0000,0.0000,-0.002514,-1.751806,1.765612,1.0190,0.7813,-0.2899,0.001534,0.585981,-0.558369,0.556835,-0.595185,0.558369,-0.559903
1.5476,0.020091,0.000000,-1.718319,1.718319,0.0000,0.0000,0.0000,-0.002499,-1.750272,1.765612,1.0622,0.7421,-0.3486,0.001534,0.585981,-0.559903,0.556835,-0.595185,0.558369,-0.559903
1.5676,0.020089,0.000000,-1.717969,1.717969,0.0000,0.0000,0.0000,-0.002501,-1.750272,1.765612,1.0577,0.7462,-0.3425,0.001534,0.585981,-0.559903,0.556835,-0.595185,0.558369,-0.559903
1.5877,0.020089,0.000000,-1.717618,1.717618,0.0000,0.0000,0.0000,-0.002501,-1.750272,1.765612,1.0577,0.7462,-0.3425,0.001534,0.585981,-0.559903,0.556835,-0.595185,0.558369,-0.559903
1.6078,0.020093,0.000000,-1.717267,1.717267,0.0000,0.0000,0.0000,-0.002514,-1.750272,1.765612,1.0190,0.7813,-0.2899,0.001534,0.585981,-0.558369,0.556835,-0.595185,0.558369,-0.559903
1.6279,0.020089,0.000000,-1.716917,1.716917,0.0000,0.0000,0.0000,-0.002499,-1.750272,1.765612,1.0622,0.7421,-0.3486,0.001534,0.585981,-0.559903,0.556835,-0.595185,0.558369,-0.559903
1.6480,0.020088,0.000000,-1.716566,1.716566,0.0000,0.0000,0.0000,-0.002501,-1.750272,1.765612,1.0577,0.7462,-0.3425,0.001534,0.585981,-0.559903,0.556835,-0.595185,0.558369,-0.559903
1.6681,0.020086,0.000000,-1.716216,1.716216,0.0000,0.0000,0.0000,-0.002501,-1.750272,1.765612,1.0577,0.7462,-0.3425,0.001534,0.585981,-0.559903,0.556835,-0.595185,0.558369,-0.559903
1.6882,0.020085,0.000000,-1.715865,1.715865,0.0000,0.0000,0.0000,-0.002501,-1.750272,1.765612,1.0577,0.7462,-0.3425,0.001534,0.585981,-0.559903,0.556835,-0.595185,0.558369,-0.559903
1.7083,0.020085,0.000000,-1.715514,1.715514,0.0000,0.0000,0.0000,-0.002501,-1.750272,1.765612,1.0577,0.7462,-0.3425,0.001534,0.585981,-0.559903,0.556835,-0.595185,0.558369,-0.559903
1.7284,0.020086,0.000000,-1.715164,1.715164,0.0000,0.0000,0.0000,-0.002514,-1.750272,1.765612,1.0190,0.7813,-0.2899,0.001534,0.585981,-0.558369,0.556835,-0.595185,0.558369,-0.559903
1.7484,0.020085,0.000000,-1.714813,1.714813,0.0000,0.0000,0.0000,-0.002499,-1.750272,1.765612,1.0622,0.7421,-0.3486,0.001534,0.585981,-0.559903,0.556835,-0.595185,0.558369,-0.559903
1.7685,0.020082,0.000000,-1.714463,1.714463,0.0000,0.0000,0.0000,-0.002501,-1.750272,1.765612,1.0577,0.7462,-0.3425,0.001534,0.585981,-0.559903,0.556835,-0.595185,0.558369,-0.559903
1.7886,0.020086,0.000000,-1.714112,1.714112,0.0000,0.0000,0.0000,-0.002501,-1.750272,1.765612,1.0577,0.7462,-0.3425,0.001534,0.585981,-0.559903,0.556835,-0.595185,0.558369,-0.559903
1.8087,0.020095,0.000000,-1.713762,1.713762,0.0000,0.0000,0.0000,-0.002501,-1.750272,1.765612,1.0577,0.7462,-0.3425,0.001534,0.585981,-0.559903,0.556835,-0.595185,0.558369,-0.559903
1.8288,0.020090,0.000000,-1.713411,1.713411,0.0000,0.0000,0.0000,-0.002501,-1.750272,1.765612,1.0577,0.7462,-0.3425,0.001534,0.585981,-0.559903,0.556835,-0.595185,0.558369,-0.559903
1.8489,0.020090,0.000000,-1.713060,1.713060,0.0000,0.0000,0.0000,-0.002501,-1.750272,1.765612,1.0577,0.7462,-0.3425,0.001534,0.585981,-0.559903,0.556835,-0.595185,0.558369,-0.559903
1.8690,0.020099,0.000000,-1.712709,1.712709,0.0000,0.0000,0.0000,-0.002501,-1.750272,1.765612,1.0577,0.7462,-0.3425,0.001534,0.585981,-0.559903,0.556835,-0.595185,0.558369,-0.559903
1.8891,0.020095,0.000000,-1.712359,1.712359,0.0000,0.0000,0.0000,-0.002501,-1.750272,1.761010,1.0577,0.7462,-0.3425,0.001534,0.585981,-0.559903,0.556835,-0.595185,0.558369,-0.559903
1.9092,0.020085,0.000000,-1.712008,1.712008,0.0000,0.0000,0.0000,-0.002514,-1.750272,1.754874,1.0190,0.7813,-0.2899,0.001534,0.585981,-0.558369,0.556835,-0.595185,0.558369,-0.559903
1.9292,0.020086,0.000000,-1.711658,1.711658,0.0000,0.0000,0.0000,-0.002499,-1.750272,1.748738,1.0622,0.7421,-0.3486,0.001534,0.585981,-0.559903,0.556835,-0.595185,0.558369,-0.559903
1.9493,0.020097,0.000000,-1.711307,1.711307,0.0000,0.0000,0.0000,-0.002501,-1.750272,1.745670,1.0577,0.7462,-0.3425,0.001534,0.585981,-0.559903,0.556835,-0.595185,0.558369,-0.559903
1.9694,0.020083,0.000000,-1.710956,1.710956,0.0000,0.0000,0.0000,-0.002501,-1.750272,1.745670,1.0577,0.7462,-0.3425,0.001534,0.585981,-0.559903,0.556835,-0.595185,0.558369,-0.559903
1.9895,0.020086,0.000000,-1.710606,1.710606,0.0000,0.0000,0.0000,-0.002501,-1.750272,1.745670,1.0577,0.7462,-0.3425,0.001534,0.585981,-0.559903,0.556835,-0.595185,0.558369,-0.559903
2.0098,0.020342,0.000000,-1.710251,1.710251,0.0000,0.0000,0.0000,-0.002514,-1.750272,1.745670,1.0190,0.7813,-0.2899,0.001534,0.585981,-0.558369,0.556835,-0.595185,0.558369,-0.559903
2.0299,0.020094,0.000000,-1.709900,1.709900,0.0000,0.0000,0.0000,-0.002513,-1.750272,1.745670,1.0230,0.7776,-0.2954,0.001534,0.585981,-0.558369,0.556835,-0.595185,0.558369,-0.559903
2.0501,0.020110,0.000000,-1.709549,1.709549,0.0000,0.0000,0.0000,-0.002499,-1.750272,1.745670,1.0618,0.7424,-0.3480,0.001534,0.585981,-0.559903,0.556835,-0.595185,0.558369,-0.559903
2.0701,0.020088,0.000000,-1.709198,1.709198,0.0000,0.0000,0.0000,-0.002501,-1.748738,1.745670,1.0577,0.7461,-0.3425,0.001534,0.585981,-0.559903,0.556835,-0.595185,0.558369,-0.559903
2.0905,0.020356,0.000000,-1.708843,1.708843,0.0000,0.0000,0.0000,-0.002501,-1.748738,1.745670,1.0577,0.7461,-0.3425,0.001534,0.585981,-0.559903,0.556835,-0.595185,0.558369,-0.559903
2.1106,0.020086,0.000000,-1.708493,1.708493,0.0000,0.0000,0.0000,-0.002501,-1.748738,1.745670,1.0577,0.7461,-0.3425,0.001534,0.585981,-0.559903,0.556835,-0.595185,0.558369,-0.559903
2.1307,0.020091,0.000000,-1.708142,1.708142,0.0000,0.0000,0.0000,-0.002501,-1.748738,1.744136,1.0577,0.7461,-0.3425,0.001534,0.585981,-0.559903,0.556835,-0.595185,0.558369,-0.559903
2.1512,0.020513,0.000000,-1.707784,1.707784,0.0000,0.0000,0.0000,-0.002501,-1.748738,1.744136,1.0577,0.7461,-0.3425,0.001534,0.585981,-0.559903,0.556835,-0.595185,0.558369,-0.559903
2.1713,0.020081,0.000000,-1.707433,1.707433,0.0000,0.0000,0.0000,-0.002501,-1.748738,1.745670,1.0577,0.7461,-0.3425,0.001534,0.585981,-0.559903,0.556835,-0.595185,0.558369,-0.559903
2.1914,0.020082,0.000000,-1.707083,1.707083,0.0000,0.0000,0.0000,-0.002501,-1.748738,1.745670,1.0577,0.7461,-0.3425,0.001534,0.585981,-0.559903,0.556835,-0.595185,0.558369,-0.559903
2.2114,0.020082,0.000000,-1.706732,1.706732,0.0000,0.0000,0.0000,-0.002514,-1.748738,1.745670,1.0190,0.7813,-0.2899,0.001534,0.585981,-0.558369,0.556835,-0.595185,0.558369,-0.559903
2.2318,0.020363,0.000000,-1.706377,1.706377,0.0000,0.0000,0.0000,-0.002499,-1.748738,1.745670,1.0622,0.7421,-0.3486,0.001534,0.585981,-0.559903,0.556835,-0.595185,0.558369,-0.559903
2.2522,0.020451,0.000000,-1.706020,1.706020,0.0000,0.0000,0.0000,-0.002501,-1.748738,1.744136,1.0577,0.7462,-0.3425,0.001534,0.585981,-0.559903,0.556835,-0.595185,0.558369,-0.559903
2.2723,0.020085,0.000000,-1.705670,1.705670,0.0000,0.0000,0.0000,-0.002501,-1.748738,1.744136,1.0577,0.7462,-0.3425,0.001534,0.585981,-0.559903,0.556835,-0.595185,0.558369,-0.559903
2.2924,0.020091,0.000000,-1.705319,1.705319,0.0000,0.0000,0.0000,-0.002501,-1.748738,1.745670,1.0577,0.7462,-0.3425,0.001534,0.585981,-0.559903,0.556835,-0.595185,0.558369,-0.559903
2.3125,0.020087,0.000000,-1.704968,1.704968,0.0000,0.0000,0.0000,-0.002501,-1.748738,1.744136,1.0577,0.7462,-0.3425,0.001534,0.585981,-0.559903,0.556835,-0.595185,0.558369,-0.559903
2.3326,0.020094,0.000000,-1.704618,1.704618,0.0000,0.0000,0.0000,-0.002501,-1.748738,1.744136,1.0577,0.7462,-0.3425,0.001534,0.585981,-0.559903,0.556835,-0.595185,0.558369,-0.559903
2.3531,0.020472,0.000000,-1.704260,1.704260,0.0000,0.0000,0.0000,-0.002501,-1.748738,1.744136,1.0577,0.7462,-0.3425,0.001534,0.585981,-0.559903,0.556835,-0.595185,0.558369,-0.559903
2.3732,0.020093,0.000000,-1.703910,1.703910,0.0000,0.0000,0.0000,-0.002501,-1.748738,1.744136,1.0577,0.7462,-0.3425,0.001534,0.585981,-0.559903,0.556835,-0.595185,0.558369,-0.559903
2.3933,0.020085,0.000000,-1.703559,1.703559,0.0000,0.0000,0.0000,-0.002514,-1.747204,1.745670,1.0190,0.7813,-0.2899,0.001534,0.585981,-0.558369,0.556835,-0.595185,0.558369,-0.559903
2.4133,0.020093,0.000000,-1.703208,1.703208,0.0000,0.0000,0.0000,-0.002499,-1.739534,1.745670,1.0622,0.7421,-0.3486,0.001534,0.585981,-0.559903,0.556835,-0.595185,0.558369,-0.559903
2.4334,0.020086,0.000000,-1.702858,1.702858,0.0000,0.0000,0.0000,-0.002501,-1.731864,1.745670,1.0577,0.7462,-0.3425,0.001534,0.585981,-0.559903,0.556835,-0.595185,0.558369,-0.559903
2.4535,0.020090,0.000000,-1.702507,1.702507,0.0000,0.0000,0.0000,-0.002501,-1.727262,1.745670,1.0577,0.7462,-0.3425,0.001534,0.585981,-0.559903,0.556835,-0.595185,0.558369,-0.559903
2.4736,0.020089,0.000000,-1.702157,1.702157,0.0000,0.0000,0.0000,-0.002501,-1.725728,1.745670,1.0577,0.7462,-0.3425,0.001534,0.585981,-0.559903,0.556835,-0.595185,0.558369,-0.559903
2.4937,0.020092,0.000000,-1.701806,1.701806,0.0000,0.0000,0.0000,-0.002514,-1.725728,1.745670,1.0190,0.7813,-0.2899,0.001534,0.585981,-0.558369,0.556835,-0.595185,0.558369,-0.559903
2.5138,0.020084,0.000000,-1.701455,1.701455,0.0000,0.0000,0.0000,-0.002499,-1.725728,1.744136,1.0622,0.7421,-0.3486,0.001534,0.585981,-0.559903,0.556835,-0.595185,0.558369,-0.559903
2.5339,0.020155,0.000000,-1.701104,1.701104,0.0000,0.0000,0.0000,-0.002501,-1.725728,1.744136,1.0577,0.7462,-0.3425,0.001534,0.585981,-0.559903,0.556835,-0.595185,0.558369,-0.559903
2.5540,0.020097,0.000000,-1.700753,1.700753,0.0000,0.0000,0.0000,-0.002501,-1.725728,1.745670,1.0577,0.7462,-0.3425,0.001534,0.585981,-0.559903,0.556835,-0.595185,0.558369,-0.559903
2.5742,0.020203,0.000000,-1.700400,1.700400,0.0000,0.0000,0.0000,-0.002501,-1.725728,1.744136,1.0577,0.7462,-0.3425,0.001534,0.585981,-0.559903,0.556835,-0.595185,0.558369,-0.559903
2.5948,0.020597,0.000000,-1.700041,1.700041,0.0000,0.0000,0.0000,-0.002514,-1.725728,1.745670,1.0190,0.7813,-0.2899,0.001534,0.585981,-0.558369,0.556835,-0.595185,0.558369,-0.559903
2.6149,0.020086,0.000000,-1.699690,1.699690,0.0000,0.0000,0.0000,-0.002499,-1.725728,1.744136,1.0622,0.7421,-0.3486,0.001534,0.585981,-0.559903,0.556835,-0.595185,0.558369,-0.559903
2.6351,0.020160,0.000000,-1.699338,1.699338,0.0000,0.0000,0.0000,-0.002501,-1.725728,1.744136,1.0577,0.7462,-0.3425,0.001534,0.585981,-0.559903,0.556835,-0.595185,0.558369,-0.559903
2.6552,0.020091,0.000000,-1.698988,1.698988,0.0000,0.0000,0.0000,-0.002514,-1.725728,1.744136,1.0190,0.7813,-0.2899,0.001534,0.585981,-0.558369,0.556835,-0.595185,0.558369,-0.559903
2.6753,0.020096,0.000000,-1.698637,1.698637,0.0000,0.0000,0.0000,-0.002499,-1.725728,1.744136,1.0622,0.7421,-0.3486,0.001534,0.585981,-0.559903,0.556835,-0.595185,0.558369,-0.559903
2.6955,0.020215,0.000000,-1.698284,1.698284,0.0000,0.0000,0.0000,-0.002501,-1.725728,1.744136,1.0577,0.7462,-0.3425,0.001534,0.585981,-0.559903,0.556835,-0.595185,0.558369,-0.559903
2.7156,0.020118,0.000000,-1.697933,1.697933,0.0000,0.0000,0.0000,-0.002501,-1.725728,1.744136,1.0577,0.7462,-0.3425,0.001534,0.585981,-0.559903,0.556835,-0.595185,0.558369,-0.559903
2.7357,0.020092,0.000000,-1.697582,1.697582,0.0000,0.0000,0.0000,-0.002501,-1.725728,1.742602,1.0577,0.7462,-0.3425,0.001534,0.585981,-0.559903,0.556835,-0.595185,0.558369,-0.559903
2.7558,0.020103,0.000000,-1.697231,1.697231,0.0000,0.0000,0.0000,-0.002501,-1.725728,1.742602,1.0577,0.7462,-0.3425,0.001534,0.585981,-0.559903,0.556835,-0.595185,0.558369,-0.559903
2.7759,0.020128,0.000000,-1.696880,1.696880,0.0000,0.0000,0.0000,-0.002514,-1.725728,1.741068,1.0190,0.7813,-0.2899,0.001534,0.585981,-0.558369,0.556835,-0.595185,0.558369,-0.559903
2.7961,0.020145,0.000000,-1.696529,1.696529,0.0000,0.0000,0.0000,-0.002513,-1.725728,1.741068,1.0230,0.7776,-0.2954,0.001534,0.585981,-0.558369,0.556835,-0.595185,0.558369,-0.559903
2.8163,0.020187,0.000000,-1.696176,1.696176,0.0000,0.0000,0.0000,-0.002499,-1.725728,1.741068,1.0618,0.7424,-0.3480,0.001534,0.585981,-0.559903,0.556835,-0.595185,0.558369,-0.559903
2.8364,0.020090,0.000000,-1.695826,1.695826,0.0000,0.0000,0.0000,-0.002501,-1.725728,1.741068,1.0577,0.7461,-0.3425,0.001534,0.585981,-0.559903,0.556835,-0.595185,0.558369,-0.559903
2.8566,0.020202,0.000000,-1.695473,1.695473,0.0000,0.0000,0.0000,-0.002501,-1.725728,1.741068,1.0577,0.7461,-0.3425,0.001534,0.585981,-0.559903,0.556835,-0.595185,0.558369,-0.559903
2.8766,0.020086,0.000000,-1.695122,1.695122,0.0000,0.0000,0.0000,-0.002501,-1.725728,1.741068,1.0577,0.7461,-0.3425,0.001534,0.585981,-0.559903,0.556835,-0.595185,0.558369,-0.559903
2.8968,0.020169,0.000000,-1.694770,1.694770,0.0000,0.0000,0.0000,-0.002501,-1.725728,1.741068,1.0577,0.7461,-0.3425,0.001534,0.585981,-0.559903,0.556835,-0.595185,0.558369,-0.559903
2.9169,0.020089,0.000000,-1.694420,1.694420,0.0000,0.0000,0.0000,-0.002501,-1.725728,1.741068,1.0577,0.7461,-0.3425,0.001534,0.585981,-0.559903,0.556835,-0.595185,0.558369,-0.559903
2.9370,0.020084,0.000000,-1.694069,1.694069,0.0000,0.0000,0.0000,-0.002501,-1.725728,1.741068,1.0577,0.7461,-0.3425,0.001534,0.585981,-0.559903,0.556835,-0.595185,0.558369,-0.559903
2.9571,0.020088,0.000000,-1.693719,1.693719,0.0000,0.0000,0.0000,-0.002501,-1.725728,1.741068,1.0577,0.7461,-0.3425,0.001534,0.585981,-0.559903,0.556835,-0.595185,0.558369,-0.559903
2.9772,0.020090,0.000000,-1.693368,1.693368,0.0000,0.0000,0.0000,-0.002501,-1.725728,1.741068,1.0577,0.7461,-0.3425,0.001534,0.585981,-0.559903,0.556835,-0.595185,0.558369,-0.559903
2.9973,0.020100,0.000000,-1.693017,1.693017,0.0000,0.0000,0.0000,-0.002501,-1.725728,1.741068,1.0577,0.7461,-0.3425,0.001534,0.585981,-0.559903,0.556835,-0.595185,0.558369,-0.559903
3.0176,0.020294,0.000000,-1.692663,1.692663,0.0000,0.0000,0.0000,-0.002514,-1.725728,1.741068,1.0190,0.7813,-0.2899,0.001534,0.585981,-0.558369,0.556835,-0.595185,0.558369,-0.559903
3.0376,0.020084,0.000000,-1.692312,1.692312,0.0000,0.0000,0.0000,-0.002499,-1.725728,1.741068,1.0622,0.7421,-0.3486,0.001534,0.585981,-0.559903,0.556835,-0.595185,0.558369,-0.559903
3.0578,0.020146,0.000000,-1.691961,1.691961,0.0000,0.0000,0.0000,-0.002501,-1.724194,1.741068,1.0577,0.7462,-0.3425,0.001534,0.585981,-0.559903,0.556835,-0.595185,0.558369,-0.559903
3.0779,0.020135,0.000000,-1.691609,1.691609,0.0000,0.0000,0.0000,-0.002501,-1.724194,1.741068,1.0577,0.7462,-0.3425,0.001534,0.585981,-0.559903,0.556835,-0.595185,0.558369,-0.559903
3.0981,0.020137,0.000000,-1.691258,1.691258,0.0000,0.0000,0.0000,-0.002501,-1.724194,1.741068,1.0577,0.7462,-0.3425,0.001534,0.585981,-0.559903,0.556835,-0.595185,0.558369,-0.559903
3.1193,0.021262,0.000000,-1.690887,1.690887,0.0000,0.0000,0.0000,-0.002501,-1.724194,1.741068,1.0577,0.7462,-0.3425,0.001534,0.585981,-0.559903,0.556835,-0.595185,0.558369,-0.559903
3.1394,0.020088,0.000000,-1.690536,1.690536,0.0000,0.0000,0.0000,-0.002514,-1.724194,1.741068,1.0190,0.7813,-0.2899,0.001534,0.585981,-0.558369,0.556835,-0.595185,0.558369,-0.559903
3.1595,0.020100,0.000000,-1.690185,1.690185,0.0000,0.0000,0.0000,-0.002499,-1.722660,1.741068,1.0622,0.7421,-0.3486,0.001534,0.585981,-0.559903,0.556835,-0.595185,0.558369,-0.559903
3.1796,0.020090,0.000000,-1.689835,1.689835,0.0000,0.0000,0.0000,-0.002501,-1.722660,1.741068,1.0577,0.7462,-0.3425,0.001534,0.585981,-0.559903,0.556835,-0.595185,0.558369,-0.559903
3.1997,0.020093,0.000000,-1.689484,1.689484,0.0000,0.0000,0.0000,-0.002501,-1.724194,1.741068,1.0577,0.7462,-0.3425,0.001534,0.585981,-0.559903,0.556835,-0.595185,0.558369,-0.559903
3.2198,0.020101,0.000000,-1.689133,1.689133,0.0000,0.0000,0.0000,-0.002514,-1.722660,1.741068,1.0190,0.7813,-0.2899,0.001534,0.585981,-0.558369,0.556835,-0.595185,0.558369,-0.559903
3.2399,0.020096,0.000000,-1.688783,1.688783,0.0000,0.0000,0.0000,-0.002499,-1.722660,1.741068,1.0622,0.7421,-0.3486,0.001534,0.585981,-0.559903,0.556835,-0.595185,0.558369,-0.559903
3.2609,0.020979,0.000000,-1.688416,1.688416,0.0000,0.0000,0.0000,-0.002501,-1.722660,1.741068,1.0577,0.7462,-0.3425,0.001534,0.585981,-0.559903,0.556835,-0.595185,0.558369,-0.559903
3.2811,0.020226,0.000000,-1.688063,1.688063,0.0000,0.0000,0.0000,-0.002514,-1.724194,1.741068,1.0190,0.7813,-0.2899,0.001534,0.585981,-0.558369,0.556835,-0.595185,0.558369,-0.559903
3.3013,0.020209,0.000000,-1.687711,1.687711,0.0000,0.0000,0.0000,-0.002513,-1.722660,1.741068,1.0230,0.7776,-0.2954,0.001534,0.585981,-0.558369,0.556835,-0.595185,0.558369,-0.559903
3.3214,0.020103,0.000000,-1.687360,1.687360,0.0000,0.0000,0.0000,-0.002499,-1.722660,1.741068,1.0618,0.7424,-0.3480,0.001534,0.585981,-0.559903,0.556835,-0.595185,0.558369,-0.559903
3.3415,0.020103,0.000000,-1.687009,1.687009,0.0000,0.0000,0.0000,-0.002501,-1.722660,1.741068,1.0577,0.7461,-0.3425,0.001534,0.585981,-0.559903,0.556835,-0.595185,0.558369,-0.559903
3.3616,0.020103,0.000000,-1.686658,1.686658,0.0000,0.0000,0.0000,-0.002501,-1.722660,1.741068,1.0577,0.7461,-0.3425,0.001534,0.585981,-0.559903,0.556835,-0.595185,0.558369,-0.559903
3.3817,0.020126,0.000000,-1.686307,1.686307,0.0000,0.0000,0.0000,-0.002501,-1.722660,1.741068,1.0577,0.7461,-0.3425,0.001534,0.585981,-0.559903,0.556835,-0.595185,0.558369,-0.559903
3.4021,0.020335,0.000000,-1.685952,1.685952,0.0000,0.0000,0.0000,-0.002501,-1.722660,1.741068,1.0577,0.7461,-0.3425,0.001534,0.585981,-0.559903,0.556835,-0.595185,0.558369,-0.559903
3.4224,0.020306,0.000000,-1.685598,1.685598,0.0000,0.0000,0.0000,-0.002501,-1.722660,1.741068,1.0577,0.7461,-0.3425,0.001534,0.585981,-0.559903,0.556835,-0.595185,0.558369,-0.559903
3.4425,0.020092,0.000000,-1.685247,1.685247,0.0000,0.0000,0.0000,-0.002501,-1.722660,1.741068,1.0577,0.7461,-0.3425,0.001534,0.585981,-0.559903,0.556835,-0.595185,0.558369,-0.559903
3.4630,0.020521,0.000000,-1.684889,1.684889,0.0000,0.0000,0.0000,-0.002501,-1.722660,1.741068,1.0577,0.7461,-0.3425,0.001534,0.585981,-0.559903,0.556835,-0.595185,0.558369,-0.559903
3.4831,0.020094,0.000000,-1.684538,1.684538,0.0000,0.0000,0.0000,-0.002501,-1.722660,1.741068,1.0577,0.7461,-0.3425,0.001534,0.585981,-0.559903,0.556835,-0.595185,0.558369,-0.559903
3.5032,0.020087,0.000000,-1.684187,1.684187,0.0000,0.0000,0.0000,-0.002501,-1.722660,1.741068,1.0577,0.7461,-0.3425,0.001534,0.585981,-0.559903,0.556835,-0.595185,0.558369,-0.559903
3.5233,0.020088,0.000000,-1.683837,1.683837,0.0000,0.0000,0.0000,-0.002501,-1.722660,1.741068,1.0577,0.7461,-0.3425,0.001534,0.585981,-0.559903,0.556835,-0.595185,0.558369,-0.559903
3.5434,0.020103,0.000000,-1.683486,1.683486,0.0000,0.0000,0.0000,-0.002501,-1.722660,1.741068,1.0577,0.7461,-0.3425,0.001534,0.585981,-0.559903,0.556835,-0.595185,0.558369,-0.559903
3.5635,0.020089,0.000000,-1.683135,1.683135,0.0000,0.0000,0.0000,-0.002501,-1.722660,1.741068,1.0577,0.7461,-0.3425,0.001534,0.585981,-0.559903,0.556835,-0.595185,0.558369,-0.559903
3.5838,0.020312,0.000000,-1.682781,1.682781,0.0000,0.0000,0.0000,-0.002501,-1.722660,1.741068,1.0577,0.7461,-0.3425,0.001534,0.585981,-0.559903,0.556835,-0.595185,0.558369,-0.559903
3.6039,0.020092,0.000000,-1.682430,1.682430,0.0000,0.0000,0.0000,-0.002514,-1.722660,1.741068,1.0190,0.7813,-0.2899,0.001534,0.585981,-0.558369,0.556835,-0.595185,0.558369,-0.559903
3.6239,0.020095,0.000000,-1.682079,1.682079,0.0000,0.0000,0.0000,-0.002514,-1.722660,1.741068,1.0190,0.7813,-0.2899,0.001534,0.585981,-0.559903,0.556835,-0.595185,0.558369,-0.559903
3.6440,0.020096,0.000000,-1.681729,1.681729,0.0000,0.0000,0.0000,-0.002514,-1.722660,1.741068,1.0185,0.7817,-0.2892,0.001534,0.585981,-0.558369,0.556835,-0.595185,0.558369,-0.559903
3.6643,0.020243,0.000000,-1.681375,1.681375,0.0000,0.0000,0.0000,-0.002512,-1.722660,1.741068,1.0231,0.7776,-0.2954,0.001534,0.585981,-0.558369,0.556835,-0.595185,0.558369,-0.559903
3.6844,0.020100,0.000000,-1.681025,1.681025,0.0000,0.0000,0.0000,-0.002512,-1.722660,1.741068,1.0231,0.7776,-0.2954,0.001534,0.585981,-0.559903,0.556835,-0.595185,0.558369,-0.559903
3.7045,0.020162,0.000000,-1.680673,1.680673,0.0000,0.0000,0.0000,-0.002514,-1.722660,1.741068,1.0186,0.7817,-0.2893,0.001534,0.585981,-0.558369,0.556835,-0.595185,0.558369,-0.559903
3.7246,0.020090,0.000000,-1.680322,1.680322,0.0000,0.0000,0.0000,-0.002499,-1.722660,1.741068,1.0623,0.7420,-0.3486,0.001534,0.585981,-0.559903,0.556835,-0.595185,0.558369,-0.559903
3.7448,0.020208,0.000000,-1.679969,1.679969,0.0000,0.0000,0.0000,-0.002501,-1.722660,1.741068,1.0577,0.7462,-0.3425,0.001534,0.585981,-0.559903,0.556835,-0.595185,0.558369,-0.559903
3.7651,0.020272,0.000000,-1.679616,1.679616,0.0000,0.0000,0.0000,-0.002501,-1.722660,1.741068,1.0577,0.7462,-0.3425,0.001534,0.585981,-0.559903,0.556835,-0.595185,0.558369,-0.559903
3.7852,0.020096,0.000000,-1.679265,1.679265,0.0000,0.0000,0.0000,-0.002514,-1.722660,1.741068,1.0190,0.7813,-0.2899,0.001534,0.585981,-0.558369,0.556835,-0.595185,0.558369,-0.559903
3.8056,0.020400,0.000000,-1.678909,1.678909,0.0000,0.0000,0.0000,-0.002499,-1.722660,1.741068,1.0622,0.7421,-0.3486,0.001534,0.585981,-0.559903,0.556835,-0.595185,0.558369,-0.559903
3.8259,0.020255,0.000000,-1.678555,1.678555,0.0000,0.0000,0.0000,-0.002501,-1.722660,1.741068,1.0577,0.7462,-0.3425,0.001534,0.585981,-0.559903,0.556835,-0.595185,0.558369,-0.559903
3.8460,0.020090,0.000000,-1.678205,1.678205,0.0000,0.0000,0.0000,-0.002501,-1.722660,1.741068,1.0577,0.7462,-0.3425,0.001534,0.585981,-0.559903,0.556835,-0.595185,0.558369,-0.559903
3.8669,0.020917,0.000000,-1.677839,1.677839,0.0000,0.0000,0.0000,-0.002514,-1.722660,1.741068,1.0190,0.7813,-0.2899,0.001534,0.585981,-0.558369,0.556835,-0.595185,0.558369,-0.559903
3.8872,0.020274,0.000000,-1.677486,1.677486,0.0000,0.0000,0.0000,-0.002513,-1.722660,1.741068,1.0230,0.7776,-0.2954,0.001534,0.585981,-0.558369,0.556835,-0.595185,0.558369,-0.559903
3.9072,0.020082,0.000000,-1.677135,1.677135,0.0000,0.0000,0.0000,-0.002499,-1.722660,1.741068,1.0618,0.7424,-0.3480,0.001534,0.585981,-0.559903,0.556835,-0.595185,0.558369,-0.559903
3.9273,0.020090,0.000000,-1.676785,1.676785,0.0000,0.0000,0.0000,-0.002501,-1.722660,1.741068,1.0577,0.7461,-0.3425,0.001534,0.585981,-0.559903,0.556835,-0.595185,0.558369,-0.559903
3.9474,0.020087,0.000000,-1.676434,1.676434,0.0000,0.0000,0.0000,-0.002501,-1.722660,1.741068,1.0577,0.7461,-0.3425,0.001534,0.585981,-0.559903,0.556835,-0.595185,0.558369,-0.559903
3.9675,0.020088,0.000000,-1.676083,1.676083,0.0000,0.0000,0.0000,-0.002501,-1.722660,1.741068,1.0577,0.7461,-0.3425,0.001534,0.585981,-0.559903,0.556835,-0.595185,0.558369,-0.559903
3.9876,0.020091,0.000000,-1.675733,1.675733,0.0000,0.0000,0.0000,-0.002501,-1.722660,1.741068,1.0577,0.7461,-0.3425,0.001534,0.585981,-0.559903,0.556835,-0.595185,0.558369,-0.559903
4.0077,0.020093,0.000000,-1.675382,1.675382,0.0000,0.0000,0.0000,-0.002514,-1.722660,1.741068,1.0190,0.7813,-0.2899,0.001534,0.585981,-0.558369,0.556835,-0.595185,0.558369,-0.559903
4.0278,0.020093,0.000000,-1.675031,1.675031,0.0000,0.0000,0.0000,-0.002499,-1.722660,1.739534,1.0622,0.7421,-0.3486,0.001534,0.585981,-0.559903,0.556835,-0.595185,0.558369,-0.559903
4.0479,0.020088,0.000000,-1.674681,1.674681,0.0000,0.0000,0.0000,-0.002501,-1.721126,1.736466,1.0577,0.7462,-0.3425,0.001534,0.585981,-0.559903,0.556835,-0.595185,0.558369,-0.559903
4.0680,0.020088,0.000000,-1.674330,1.674330,0.0000,0.0000,0.0000,-0.002501,-1.719592,1.725728,1.0577,0.7462,-0.3425,0.001534,0.585981,-0.559903,0.556835,-0.595185,0.558369,-0.559903
4.0880,0.020094,0.000000,-1.673979,1.673979,0.0000,0.0000,0.0000,-0.002501,-1.713457,1.713457,1.0577,0.7462,-0.3425,0.001534,0.585981,-0.559903,0.556835,-0.595185,0.558369,-0.559903
4.1081,0.020082,0.000000,-1.673629,1.673629,0.0000,0.0000,0.0000,-0.002501,-1.705787,1.702719,1.0577,0.7462,-0.3425,0.001534,0.585981,-0.559903,0.556835,-0.595185,0.558369,-0.559903
4.1282,0.020090,0.000000,-1.673278,1.673278,0.0000,0.0000,0.0000,-0.002501,-1.698117,1.695049,1.0577,0.7462,-0.3425,0.001534,0.585981,-0.559903,0.556835,-0.595185,0.558369,-0.559903
4.1483,0.020097,0.000000,-1.672927,1.672927,0.0000,0.0000,0.0000,-0.002501,-1.696583,1.691981,1.0577,0.7462,-0.3425,0.001534,0.585981,-0.559903,0.556835,-0.595185,0.558369,-0.559903
4.1684,0.020085,0.000000,-1.672577,1.672577,0.0000,0.0000,0.0000,-0.002501,-1.696583,1.691981,1.0577,0.7462,-0.3425,0.001534,0.585981,-0.559903,0.556835,-0.595185,0.558369,-0.559903
4.1885,0.020100,0.000000,-1.672226,1.672226,0.0000,0.0000,0.0000,-0.002501,-1.696583,1.691981,1.0577,0.7462,-0.3425,0.001534,0.585981,-0.559903,0.556835,-0.595185,0.558369,-0.559903
4.2086,0.020098,0.000000,-1.671875,1.671875,0.0000,0.0000,0.0000,-0.002501,-1.696583,1.691981,1.0577,0.7462,-0.3425,0.001534,0.585981,-0.559903,0.556835,-0.595185,0.558369,-0.559903
4.2290,0.020424,0.000000,-1.671519,1.671519,0.0000,0.0000,0.0000,-0.002501,-1.696583,1.691981,1.0577,0.7462,-0.3425,0.001534,0.585981,-0.558369,0.556835,-0.595185,0.558369,-0.559903
4.2503,0.021252,0.000000,-1.671148,1.671148,0.0000,0.0000,0.0000,-0.002499,-1.696583,1.691981,1.0622,0.7421,-0.3486,0.001534,0.585981,-0.559903,0.556835,-0.595185,0.558369,-0.559903
4.2704,0.020103,0.000000,-1.670797,1.670797,0.0000,0.0000,0.0000,-0.002501,-1.696583,1.691981,1.0577,0.7462,-0.3425,0.001534,0.585981,-0.559903,0.556835,-0.595185,0.558369,-0.559903
4.2905,0.020108,0.000000,-1.670446,1.670446,0.0000,0.0000,0.0000,-0.002501,-1.696583,1.691981,1.0577,0.7462,-0.3425,0.001534,0.585981,-0.559903,0.556835,-0.595185,0.558369,-0.559903
4.3106,0.020102,0.000000,-1.670095,1.670095,0.0000,0.0000,0.0000,-0.002501,-1.696583,1.691981,1.0577,0.7462,-0.3425,0.001534,0.585981,-0.559903,0.556835,-0.595185,0.558369,-0.559903
4.3307,0.020113,0.000000,-1.669744,1.669744,0.0000,0.0000,0.0000,-0.002501,-1.696583,1.691981,1.0577,0.7462,-0.3425,0.001534,0.585981,-0.559903,0.556835,-0.595185,0.558369,-0.559903
4.3508,0.020125,0.000000,-1.669393,1.669393,0.0000,0.0000,0.0000,-0.002501,-1.696583,1.691981,1.0577,0.7462,-0.3425,0.001534,0.585981,-0.559903,0.556835,-0.595185,0.558369,-0.559903
4.3709,0.020093,0.000000,-1.669042,1.669042,0.0000,0.0000,0.0000,-0.002501,-1.696583,1.691981,1.0577,0.7462,-0.3425,0.001534,0.585981,-0.559903,0.556835,-0.595185,0.558369,-0.559903
4.3910,0.020109,0.000000,-1.668691,1.668691,0.0000,0.0000,0.0000,-0.002501,-1.696583,1.691981,1.0577,0.7462,-0.3425,0.001534,0.585981,-0.559903,0.556835,-0.595185,0.558369,-0.559903
4.4111,0.020098,0.000000,-1.668341,1.668341,0.0000,0.0000,0.0000,-0.002501,-1.696583,1.691981,1.0577,0.7462,-0.3425,0.001534,0.585981,-0.559903,0.556835,-0.595185,0.558369,-0.559903
4.4312,0.020100,0.000000,-1.667990,1.667990,0.0000,0.0000,0.0000,-0.002501,-1.696583,1.691981,1.0577,0.7462,-0.3425,0.001534,0.585981,-0.559903,0.556835,-0.595185,0.558369,-0.559903
4.4513,0.020102,0.000000,-1.667639,1.667639,0.0000,0.0000,0.0000,-0.002514,-1.696583,1.691981,1.0190,0.7813,-0.2899,0.001534,0.585981,-0.558369,0.556835,-0.595185,0.558369,-0.559903
4.4714,0.020093,0.000000,-1.667288,1.667288,0.0000,0.0000,0.0000,-0.002499,-1.696583,1.691981,1.0622,0.7421,-0.3486,0.001534,0.585981,-0.559903,0.556835,-0.595185,0.558369,-0.559903
4.4915,0.020111,0.000000,-1.666937,1.666937,0.0000,0.0000,0.0000,-0.002501,-1.696583,1.691981,1.0577,0.7462,-0.3425,0.001534,0.585981,-0.559903,0.556835,-0.595185,0.558369,-0.559903
4.5116,0.020105,0.000000,-1.666586,1.666586,0.0000,0.0000,0.0000,-0.002501,-1.696583,1.691981,1.0577,0.7462,-0.3425,0.001534,0.585981,-0.559903,0.556835,-0.595185,0.558369,-0.559903
4.5317,0.020105,0.000000,-1.666235,1.666235,0.0000,0.0000,0.0000,-0.002501,-1.696583,1.691981,1.0577,0.7462,-0.3425,0.001534,0.585981,-0.559903,0.556835,-0.595185,0.558369,-0.559903
4.5518,0.020098,0.000000,-1.665885,1.665885,0.0000,0.0000,0.0000,-0.002501,-1.696583,1.691981,1.0577,0.7462,-0.3425,0.001534,0.585981,-0.558369,0.556835,-0.595185,0.558369,-0.559903
4.5719,0.020095,0.000000,-1.665534,1.665534,0.0000,0.0000,0.0000,-0.002514,-1.696583,1.691981,1.0190,0.7813,-0.2899,0.001534,0.585981,-0.558369,0.556835,-0.595185,0.558369,-0.559903
4.5920,0.020098,0.000000,-1.665183,1.665183,0.0000,0.0000,0.0000,-0.002513,-1.696583,1.691981,1.0230,0.7776,-0.2954,0.001534,0.585981,-0.558369,0.556835,-0.595185,0.558369,-0.559903
4.6121,0.020099,0.000000,-1.664832,1.664832,0.0000,0.0000,0.0000,-0.002499,-1.696583,1.691981,1.0618,0.7424,-0.3480,0.001534,0.585981,-0.559903,0.556835,-0.595185,0.558369,-0.559903
4.6322,0.020117,0.000000,-1.664481,1.664481,0.0000,0.0000,0.0000,-0.002501,-1.696583,1.691981,1.0577,0.7461,-0.3425,0.001534,0.585981,-0.559903,0.556835,-0.595185,0.558369,-0.559903
4.6523,0.020100,0.000000,-1.664130,1.664130,0.0000,0.0000,0.0000,-0.002501,-1.696583,1.691981,1.0577,0.7461,-0.3425,0.001534,0.585981,-0.558369,0.556835,-0.595185,0.558369,-0.559903
4.6724,0.020098,0.000000,-1.663780,1.663780,0.0000,0.0000,0.0000,-0.002514,-1.696583,1.691981,1.0190,0.7813,-0.2899,0.001534,0.585981,-0.558369,0.556835,-0.595185,0.558369,-0.559903
4.6925,0.020095,0.000000,-1.663429,1.663429,0.0000,0.0000,0.0000,-0.002499,-1.696583,1.691981,1.0622,0.7421,-0.3486,0.001534,0.585981,-0.559903,0.556835,-0.595185,0.558369,-0.559903
4.7126,0.020096,0.000000,-1.663078,1.663078,0.0000,0.0000,0.0000,-0.002501,-1.696583,1.691981,1.0577,0.7462,-0.3425,0.001534,0.585981,-0.559903,0.556835,-0.595185,0.558369,-0.559903
4.7327,0.020094,0.000000,-1.662728,1.662728,0.0000,0.0000,0.0000,-0.002514,-1.696583,1.691981,1.0190,0.7813,-0.2899,0.001534,0.585981,-0.558369,0.556835,-0.595185,0.558369,-0.559903
4.7528,0.020102,0.000000,-1.662377,1.662377,0.0000,0.0000,0.0000,-0.002499,-1.696583,1.691981,1.0622,0.7421,-0.3486,0.001534,0.585981,-0.559903,0.556835,-0.595185,0.558369,-0.559903
4.7729,0.020109,0.000000,-1.662026,1.662026,0.0000,0.0000,0.0000,-0.002501,-1.696583,1.691981,1.0577,0.7462,-0.3425,0.001534,0.585981,-0.559903,0.556835,-0.595185,0.558369,-0.559903
4.7930,0.020101,0.000000,-1.661675,1.661675,0.0000,0.0000,0.0000,-0.002501,-1.696583,1.691981,1.0577,0.7462,-0.3425,0.001534,0.585981,-0.559903,0.556835,-0.595185,0.558369,-0.559903
4.8131,0.020099,0.000000,-1.661324,1.661324,0.0000,0.0000,0.0000,-0.002501,-1.696583,1.691981,1.0577,0.7462,-0.3425,0.001534,0.585981,-0.559903,0.556835,-0.595185,0.558369,-0.559903
4.8332,0.020103,0.000000,-1.660973,1.660973,0.0000,0.0000,0.0000,-0.002501,-1.696583,1.691981,1.0577,0.7462,-0.3425,0.001534,0.585981,-0.559903,0.556835,-0.595185,0.558369,-0.559903
4.8538,0.020531,0.000000,-1.660615,1.660615,0.0000,0.0000,0.0000,-0.002514,-1.696583,1.691981,1.0190,0.7813,-0.2899,0.001534,0.585981,-0.558369,0.556835,-0.595185,0.558369,-0.559903
4.8739,0.020099,0.000000,-1.660264,1.660264,0.0000,0.0000,0.0000,-0.002499,-1.695049,1.691981,1.0622,0.7421,-0.3486,0.001534,0.585981,-0.559903,0.556835,-0.595185,0.558369,-0.559903
4.8943,0.020382,0.000000,-1.659908,1.659908,0.0000,0.0000,0.0000,-0.002514,-1.696583,1.691981,1.0185,0.7817,-0.2892,0.001534,0.585981,-0.559903,0.556835,-0.595185,0.558369,-0.559903
4.9144,0.020109,0.000000,-1.659557,1.659557,0.0000,0.0000,0.0000,-0.002499,-1.696583,1.691981,1.0623,0.7420,-0.3487,0.001534,0.585981,-0.559903,0.556835,-0.595185,0.558369,-0.559903
4.9345,0.020091,0.000000,-1.659207,1.659207,0.0000,0.0000,0.0000,-0.002501,-1.696583,1.691981,1.0577,0.7462,-0.3425,0.001534,0.585981,-0.559903,0.556835,-0.595185,0.558369,-0.559903
4.9546,0.020104,0.000000,-1.658856,1.658856,0.0000,0.0000,0.0000,-0.002501,-1.695049,1.691981,1.0577,0.7462,-0.3425,0.001534,0.585981,-0.559903,0.556835,-0.595185,0.558369,-0.559903
4.9747,0.020094,0.000000,-1.658505,1.658505,0.0000,0.0000,0.0000,-0.002501,-1.696583,1.691981,1.0577,0.7462,-0.3425,0.001534,0.585981,-0.559903,0.556835,-0.595185,0.558369,-0.559903
4.9948,0.020101,0.000000,-1.658154,1.658154,0.0000,0.0000,0.0000,-0.002514,-1.696583,1.691981,1.0190,0.7813,-0.2899,0.001534,0.585981,-0.558369,0.556835,-0.595185,0.558369,-0.559903
5.0149,0.020152,0.000000,-1.657803,1.657803,0.0000,0.0000,0.0000,-0.002514,-1.695049,1.691981,1.0190,0.7813,-0.2899,0.001534,0.585981,-0.559903,0.556835,-0.595185,0.558369,-0.559903
5.0351,0.020174,0.000000,-1.657451,1.657451,0.0000,0.0000,0.0000,-0.002499,-1.695049,1.691981,1.0622,0.7421,-0.3486,0.001534,0.585981,-0.559903,0.556835,-0.595185,0.558369,-0.559903
5.0552,0.020111,0.000000,-1.657100,1.657100,0.0000,0.0000,0.0000,-0.002501,-1.695049,1.691981,1.0577,0.7462,-0.3425,0.001534,0.585981,-0.559903,0.556835,-0.595185,0.558369,-0.559903
5.0752,0.020057,0.000000,-1.656749,1.656749,0.0000,0.0000,0.0000,-0.002501,-1.696583,1.691981,1.0577,0.7462,-0.3425,0.001534,0.585981,-0.559903,0.556835,-0.595185,0.558369,-0.559903
5.0953,0.020097,0.000000,-1.656399,1.656399,0.0000,0.0000,0.0000,-0.002501,-1.695049,1.691981,1.0577,0.7462,-0.3425,0.001534,0.585981,-0.559903,0.556835,-0.595185,0.558369,-0.559903
5.1154,0.020101,0.000000,-1.656048,1.656048,0.0000,0.0000,0.0000,-0.002501,-1.696583,1.691981,1.0577,0.7462,-0.3425,0.001534,0.585981,-0.559903,0.556835,-0.595185,0.558369,-0.559903
5.1355,0.020085,0.000000,-1.655697,1.655697,0.0000,0.0000,0.0000,-0.002501,-1.696583,1.691981,1.0577,0.7462,-0.3425,0.001534,0.585981,-0.559903,0.556835,-0.595185,0.558369,-0.559903
5.1556,0.020096,0.000000,-1.655347,1.655347,0.0000,0.0000,0.0000,-0.002514,-1.696583,1.691981,1.0190,0.7813,-0.2899,0.001534,0.585981,-0.558369,0.556835,-0.595185,0.558369,-0.559903
5.1757,0.020089,0.000000,-1.654996,1.654996,0.0000,0.0000,0.0000,-0.002499,-1.696583,1.691981,1.0622,0.7421,-0.3486,0.001534,0.585981,-0.559903,0.556835,-0.595185,0.558369,-0.559903
5.1958,0.020097,0.000000,-1.654645,1.654645,0.0000,0.0000,0.0000,-0.002501,-1.696583,1.691981,1.0577,0.7462,-0.3425,0.001534,0.585981,-0.559903,0.556835,-0.595185,0.558369,-0.559903
5.2159,0.020096,0.000000,-1.654294,1.654294,0.0000,0.0000,0.0000,-0.002514,-1.696583,1.690447,1.0190,0.7813,-0.2899,0.001534,0.585981,-0.558369,0.556835,-0.595185,0.558369,-0.559903
5.2360,0.020086,0.000000,-1.653944,1.653944,0.0000,0.0000,0.0000,-0.002499,-1.695049,1.690447,1.0622,0.7421,-0.3486,0.001534,0.585981,-0.559903,0.556835,-0.595185,0.558369,-0.559903
5.2561,0.020095,0.000000,-1.653593,1.653593,0.0000,0.0000,0.0000,-0.002501,-1.695049,1.690447,1.0577,0.7462,-0.3425,0.001534,0.585981,-0.559903,0.556835,-0.595185,0.558369,-0.559903
5.2762,0.020095,0.000000,-1.653242,1.653242,0.0000,0.0000,0.0000,-0.002501,-1.695049,1.691981,1.0577,0.7462,-0.3425,0.001534,0.585981,-0.559903,0.556835,-0.595185,0.558369,-0.559903
5.2963,0.020088,0.000000,-1.652892,1.652892,0.0000,0.0000,0.0000,-0.002501,-1.695049,1.691981,1.0577,0.7462,-0.3425,0.001534,0.585981,-0.559903,0.556835,-0.595185,0.558369,-0.559903
5.3164,0.020095,0.000000,-1.652541,1.652541,0.0000,0.0000,0.0000,-0.002514,-1.695049,1.690447,1.0190,0.7813,-0.2899,0.001534,0.585981,-0.558369,0.556835,-0.595185,0.558369,-0.559903
5.3365,0.020089,0.000000,-1.652190,1.652190,0.0000,0.0000,0.0000,-0.002499,-1.695049,1.691981,1.0622,0.7421,-0.3486,0.001534,0.585981,-0.559903,0.556835,-0.595185,0.558369,-0.559903
5.3566,0.020093,0.000000,-1.651840,1.651840,0.0000,0.0000,0.0000,-0.002501,-1.695049,1.690447,1.0577,0.7462,-0.3425,0.001534,0.585981,-0.559903,0.556835,-0.595185,0.558369,-0.559903
5.3766,0.020086,0.000000,-1.651489,1.651489,0.0000,0.0000,0.0000,-0.002501,-1.695049,1.690447,1.0577,0.7462,-0.3425,0.001534,0.585981,-0.559903,0.556835,-0.595185,0.558369,-0.559903
5.3967,0.020092,0.000000,-1.651139,1.651139,0.0000,0.0000,0.0000,-0.002501,-1.695049,1.690447,1.0577,0.7462,-0.3425,0.001534,0.585981,-0.559903,0.556835,-0.595185,0.558369,-0.559903
5.4170,0.020284,0.000000,-1.650785,1.650785,0.0000,0.0000,0.0000,-0.002501,-1.693515,1.690447,1.0577,0.7462,-0.3425,0.001534,0.585981,-0.559903,0.556835,-0.595185,0.558369,-0.559903
5.4371,0.020080,0.000000,-1.650434,1.650434,0.0000,0.0000,0.0000,-0.002501,-1.679709,1.690447,1.0577,0.7462,-0.3425,0.001534,0.585981,-0.559903,0.556835,-0.595185,0.558369,-0.559903
5.4572,0.020091,0.000000,-1.650083,1.650083,0.0000,0.0000,0.0000,-0.002501,-1.673573,1.690447,1.0577,0.7462,-0.3425,0.001534,0.585981,-0.559903,0.556835,-0.595185,0.558369,-0.559903
5.4773,0.020088,0.000000,-1.649733,1.649733,0.0000,0.0000,0.0000,-0.002501,-1.672039,1.690447,1.0577,0.7462,-0.3425,0.001534,0.585981,-0.559903,0.556835,-0.595185,0.558369,-0.559903
5.4974,0.020088,0.000000,-1.649382,1.649382,0.0000,0.0000,0.0000,-0.002501,-1.672039,1.690447,1.0577,0.7462,-0.3425,0.001534,0.585981,-0.559903,0.556835,-0.595185,0.558369,-0.559903
5.5175,0.020091,0.000000,-1.649032,1.649032,0.0000,0.0000,0.0000,-0.002501,-1.672039,1.688913,1.0577,0.7462,-0.3425,0.001534,0.585981,-0.559903,0.556835,-0.595185,0.558369,-0.559903
5.5375,0.020096,0.000000,-1.648681,1.648681,0.0000,0.0000,0.0000,-0.002514,-1.672039,1.688913,1.0190,0.7813,-0.2899,0.001534,0.585981,-0.558369,0.556835,-0.595185,0.558369,-0.559903
5.5576,0.020091,0.000000,-1.648330,1.648330,0.0000,0.0000,0.0000,-0.002499,-1.672039,1.688913,1.0622,0.7421,-0.3486,0.001534,0.585981,-0.559903,0.556835,-0.595185,0.558369,-0.559903
5.5777,0.020091,0.000000,-1.647979,1.647979,0.0000,0.0000,0.0000,-0.002501,-1.672039,1.688913,1.0577,0.7462,-0.3425,0.001534,0.585981,-0.559903,0.556835,-0.595185,0.558369,-0.559903
5.5978,0.020091,0.000000,-1.647629,1.647629,0.0000,0.0000,0.0000,-0.002514,-1.672039,1.688913,1.0190,0.7813,-0.2899,0.001534,0.585981,-0.558369,0.556835,-0.595185,0.558369,-0.559903
5.6179,0.020094,0.000000,-1.647278,1.647278,0.0000,0.0000,0.0000,-0.002499,-1.672039,1.688913,1.0622,0.7421,-0.3486,0.001534,0.585981,-0.559903,0.556835,-0.595185,0.558369,-0.559903
5.6380,0.020092,0.000000,-1.646927,1.646927,0.0000,0.0000,0.0000,-0.002501,-1.672039,1.688913,1.0577,0.7462,-0.3425,0.001534,0.585981,-0.559903,0.556835,-0.595185,0.558369,-0.559903
5.6581,0.020088,0.000000,-1.646577,1.646577,0.0000,0.0000,0.0000,-0.002501,-1.672039,1.688913,1.0577,0.7462,-0.3425,0.001534,0.585981,-0.559903,0.556835,-0.595185,0.558369,-0.559903
5.6782,0.020087,0.000000,-1.646226,1.646226,0.0000,0.0000,0.0000,-0.002514,-1.672039,1.688913,1.0190,0.7813,-0.2899,0.001534,0.585981,-0.558369,0.556835,-0.595185,0.558369,-0.559903
5.6983,0.020091,0.000000,-1.645876,1.645876,0.0000,0.0000,0.0000,-0.002499,-1.672039,1.688913,1.0622,0.7421,-0.3486,0.001534,0.585981,-0.559903,0.556835,-0.595185,0.558369,-0.559903
5.7184,0.020095,0.000000,-1.645525,1.645525,0.0000,0.0000,0.0000,-0.002501,-1.672039,1.688913,1.0577,0.7462,-0.3425,0.001534,0.585981,-0.559903,0.556835,-0.595185,0.558369,-0.559903
5.7385,0.020088,0.000000,-1.645174,1.645174,0.0000,0.0000,0.0000,-0.002501,-1.672039,1.688913,1.0577,0.7462,-0.3425,0.001534,0.585981,-0.559903,0.556835,-0.595185,0.558369,-0.559903
5.7586,0.020095,0.000000,-1.644824,1.644824,0.0000,0.0000,0.0000,-0.002501,-1.672039,1.688913,1.0577,0.7462,-0.3425,0.001534,0.585981,-0.559903,0.556835,-0.595185,0.558369,-0.559903
5.7786,0.020086,0.000000,-1.644473,1.644473,0.0000,0.0000,0.0000,-0.002501,-1.672039,1.688913,1.0577,0.7462,-0.3425,0.001534,0.585981,-0.559903,0.556835,-0.595185,0.558369,-0.559903
5.7987,0.020088,0.000000,-1.644122,1.644122,0.0000,0.0000,0.0000,-0.002501,-1.672039,1.688913,1.0577,0.7462,-0.3425,0.001534,0.585981,-0.559903,0.556835,-0.595185,0.558369,-0.559903
5.8188,0.020087,0.000000,-1.643772,1.643772,0.0000,0.0000,0.0000,-0.002501,-1.672039,1.688913,1.0577,0.7462,-0.3425,0.001534,0.585981,-0.559903,0.556835,-0.595185,0.558369,-0.559903
5.8389,0.020098,0.000000,-1.643421,1.643421,0.0000,0.0000,0.0000,-0.002501,-1.672039,1.688913,1.0577,0.7462,-0.3425,0.001534,0.585981,-0.559903,0.556835,-0.595185,0.558369,-0.559903
5.8590,0.020104,0.000000,-1.643070,1.643070,0.0000,0.0000,0.0000,-0.002501,-1.672039,1.688913,1.0577,0.7462,-0.3425,0.001534,0.585981,-0.559903,0.556835,-0.595185,0.558369,-0.559903
5.8791,0.020091,0.000000,-1.642719,1.642719,0.0000,0.0000,0.0000,-0.002501,-1.672039,1.688913,1.0577,0.7462,-0.3425,0.001534,0.585981,-0.559903,0.556835,-0.595185,0.558369,-0.559903
5.8992,0.020094,0.000000,-1.642369,1.642369,0.0000,0.0000,0.0000,-0.002501,-1.672039,1.688913,1.0577,0.7462,-0.3425,0.001534,0.585981,-0.559903,0.556835,-0.595185,0.558369,-0.559903
5.9193,0.020135,0.000000,-1.642017,1.642017,0.0000,0.0000,0.0000,-0.002501,-1.672039,1.688913,1.0577,0.7462,-0.3425,0.001534,0.585981,-0.559903,0.556835,-0.595185,0.558369,-0.559903
5.9394,0.020057,0.000000,-1.641667,1.641667,0.0000,0.0000,0.0000,-0.002501,-1.672039,1.688913,1.0577,0.7462,-0.3425,0.001534,0.585981,-0.559903,0.556835,-0.595185,0.558369,-0.559903
5.9595,0.020085,0.000000,-1.641317,1.641317,0.0000,0.0000,0.0000,-0.002514,-1.672039,1.688913,1.0190,0.7813,-0.2899,0.001534,0.585981,-0.558369,0.556835,-0.595185,0.558369,-0.559903
5.9796,0.020087,0.000000,-1.640966,1.640966,0.0000,0.0000,0.0000,-0.002499,-1.672039,1.688913,1.0622,0.7421,-0.3486,0.001534,0.585981,-0.559903,0.556835,-0.595185,0.558369,-0.559903
5.9996,0.020085,0.000000,-1.640616,1.640616,0.0000,0.0000,0.0000,-0.002501,-1.672039,1.687379,1.0577,0.7462,-0.3425,0.001534,0.585981,-0.559903,0.556835,-0.595185,0.558369,-0.559903
6.0198,0.020100,0.000000,-1.640265,1.640265,0.0000,0.0000,0.0000,-0.002501,-1.670505,1.688913,1.0577,0.7462,-0.3425,0.001534,0.585981,-0.559903,0.556835,-0.595185,0.558369,-0.559903
6.0401,0.020386,0.000000,-1.639909,1.639909,0.0000,0.0000,0.0000,-0.002501,-1.670505,1.688913,1.0577,0.7462,-0.3425,0.001534,0.585981,-0.559903,0.556835,-0.595185,0.558369,-0.559903
6.0602,0.020091,0.000000,-1.639558,1.639558,0.0000,0.0000,0.0000,-0.002501,-1.670505,1.688913,1.0577,0.7462,-0.3425,0.001534,0.585981,-0.559903,0.556835,-0.595185,0.558369,-0.559903
6.0804,0.020163,0.000000,-1.639206,1.639206,0.0000,0.0000,0.0000,-0.002501,-1.670505,1.688913,1.0577,0.7462,-0.3425,0.001534,0.585981,-0.559903,0.556835,-0.595185,0.558369,-0.559903
6.1005,0.020112,0.000000,-1.638855,1.638855,0.0000,0.0000,0.0000,-0.002501,-1.670505,1.687379,1.0577,0.7462,-0.3425,0.001534,0.585981,-0.559903,0.556835,-0.595185,0.558369,-0.559903
6.1206,0.020092,0.000000,-1.638505,1.638505,0.0000,0.0000,0.0000,-0.002514,-1.670505,1.687379,1.0190,0.7813,-0.2899,0.001534,0.585981,-0.558369,0.556835,-0.595185,0.558369,-0.559903
6.1407,0.020088,0.000000,-1.638154,1.638154,0.0000,0.0000,0.0000,-0.002513,-1.670505,1.687379,1.0230,0.7776,-0.2954,0.001534,0.585981,-0.558369,0.556835,-0.595185,0.558369,-0.559903
6.1608,0.020079,0.000000,-1.637804,1.637804,0.0000,0.0000,0.0000,-0.002499,-1.670505,1.687379,1.0618,0.7424,-0.3480,0.001534,0.585981,-0.559903,0.556835,-0.595185,0.558369,-0.559903
6.1809,0.020093,0.000000,-1.637453,1.637453,0.0000,0.0000,0.0000,-0.002514,-1.670505,1.687379,1.0186,0.7817,-0.2893,0.001534,0.585981,-0.558369,0.556835,-0.595185,0.558369,-0.559903
6.2009,0.020083,0.000000,-1.637102,1.637102,0.0000,0.0000,0.0000,-0.002499,-1.670505,1.685845,1.0623,0.7420,-0.3486,0.001534,0.585981,-0.559903,0.556835,-0.595185,0.558369,-0.559903
6.2210,0.020084,0.000000,-1.636752,1.636752,0.0000,0.0000,0.0000,-0.002501,-1.667437,1.681243,1.0577,0.7462,-0.3425,0.001534,0.585981,-0.559903,0.556835,-0.595185,0.558369,-0.559903
6.2411,0.020087,0.000000,-1.636401,1.636401,0.0000,0.0000,0.0000,-0.002501,-1.667437,1.673573,1.0577,0.7462,-0.3425,0.001534,0.585981,-0.559903,0.556835,-0.595185,0.558369,-0.559903
6.2612,0.020080,0.000000,-1.636051,1.636051,0.0000,0.0000,0.0000,-0.002514,-1.667437,1.665903,1.0190,0.7813,-0.2899,0.001534,0.585981,-0.558369,0.556835,-0.595185,0.558369,-0.559903
6.2813,0.020089,0.000000,-1.635700,1.635700,0.0000,0.0000,0.0000,-0.002499,-1.667437,1.662835,1.0622,0.7421,-0.3486,0.001534,0.585981,-0.559903,0.556835,-0.595185,0.558369,-0.559903
6.3014,0.020079,0.000000,-1.635350,1.635350,0.0000,0.0000,0.0000,-0.002501,-1.667437,1.662835,1.0577,0.7462,-0.3425,0.001534,0.585981,-0.559903,0.556835,-0.595185,0.558369,-0.559903
6.3214,0.020082,0.000000,-1.634999,1.634999,0.0000,0.0000,0.0000,-0.002501,-1.667437,1.662835,1.0577,0.7462,-0.3425,0.001534,0.585981,-0.559903,0.556835,-0.595185,0.558369,-0.559903
6.3415,0.020078,0.000000,-1.634649,1.634649,0.0000,0.0000,0.0000,-0.002501,-1.667437,1.662835,1.0577,0.7462,-0.3425,0.001534,0.585981,-0.559903,0.556835,-0.595185,0.558369,-0.559903
6.3616,0.020075,0.000000,-1.634299,1.634299,0.0000,0.0000,0.0000,-0.002501,-1.667437,1.662835,1.0577,0.7462,-0.3425,0.001534,0.585981,-0.559903,0.556835,-0.595185,0.558369,-0.559903
6.3817,0.020085,0.000000,-1.633948,1.633948,0.0000,0.0000,0.0000,-0.002514,-1.667437,1.662835,1.0190,0.7813,-0.2899,0.001534,0.585981,-0.558369,0.556835,-0.595185,0.558369,-0.559903
6.4018,0.020079,0.000000,-1.633598,1.633598,0.0000,0.0000,0.0000,-0.002499,-1.667437,1.662835,1.0622,0.7421,-0.3486,0.001534,0.585981,-0.559903,0.556835,-0.595185,0.558369,-0.559903
6.4218,0.020087,0.000000,-1.633247,1.633247,0.0000,0.0000,0.0000,-0.002501,-1.667437,1.662835,1.0577,0.7462,-0.3425,0.001534,0.585981,-0.559903,0.556835,-0.595185,0.558369,-0.559903
6.4419,0.020080,0.000000,-1.632897,1.632897,0.0000,0.0000,0.0000,-0.002514,-1.667437,1.662835,1.0190,0.7813,-0.2899,0.001534,0.585981,-0.558369,0.556835,-0.595185,0.558369,-0.559903
6.4620,0.020075,0.000000,-1.632546,1.632546,0.0000,0.0000,0.0000,-0.002499,-1.667437,1.662835,1.0622,0.7421,-0.3486,0.001534,0.585981,-0.559903,0.556835,-0.595185,0.558369,-0.559903
6.4821,0.020085,0.000000,-1.632196,1.632196,0.0000,0.0000,0.0000,-0.002501,-1.667437,1.662835,1.0577,0.7462,-0.3425,0.001534,0.585981,-0.559903,0.556835,-0.595185,0.558369,-0.559903
6.5022,0.020083,0.000000,-1.631845,1.631845,0.0000,0.0000,0.0000,-0.002501,-1.670505,1.662835,1.0577,0.7462,-0.3425,0.001534,0.585981,-0.559903,0.556835,-0.595185,0.558369,-0.559903
6.5225,0.020357,0.000000,-1.631490,1.631490,0.0000,0.0000,0.0000,-0.002501,-1.667437,1.662835,1.0577,0.7462,-0.3425,0.001534,0.585981,-0.559903,0.556835,-0.595185,0.558369,-0.559903
6.5426,0.020043,0.000000,-1.631140,1.631140,0.0000,0.0000,0.0000,-0.002501,-1.667437,1.662835,1.0577,0.7462,-0.3425,0.001534,0.585981,-0.559903,0.556835,-0.595185,0.558369,-0.559903
