t,loop_dt,cmd_z,cmd_ant_l,cmd_ant_r,cmd_roll,cmd_pitch,cmd_yaw,pres_z,pres_ant_l,pres_ant_r,pres_roll,pres_pitch,pres_yaw,pres_j0,pres_j1,pres_j2,pres_j3,pres_j4,pres_j5,pres_j6
0.0000,0.000001,0.000000,-0.174533,0.174533,0.0000,0.0000,0.0000,-0.002683,0.003068,-0.003068,1.0816,0.9577,0.2355,0.001534,0.582913,-0.552233,0.556835,-0.592117,0.558369,-0.549165
0.0201,0.020085,0.000000,-0.173832,0.173832,0.0000,0.0000,0.0000,-0.002683,-0.003068,-0.001534,1.0816,0.9577,0.2355,0.001534,0.582913,-0.552233,0.556835,-0.592117,0.558369,-0.549165
0.0403,0.020261,0.000000,-0.173125,0.173125,0.0000,0.0000,0.0000,-0.002683,0.000000,-0.003068,1.0816,0.9577,0.2355,0.001534,0.582913,-0.552233,0.556835,-0.592117,0.558369,-0.549165
0.0604,0.020092,0.000000,-0.172423,0.172423,0.0000,0.0000,0.0000,-0.002670,-0.026078,0.024544,1.0321,0.9401,0.1826,0.001534,0.582913,-0.552233,0.556835,-0.592117,0.558369,-0.550699
0.0805,0.020086,0.000000,-0.171722,0.171722,0.0000,0.0000,0.0000,-0.002671,-0.092039,0.092039,1.0373,0.9419,0.1882,0.001534,0.582913,-0.552233,0.556835,-0.592117,0.558369,-0.550699
0.1006,0.020121,0.000000,-0.171020,0.171020,0.0000,0.0000,0.0000,-0.002631,-0.167204,0.167204,1.0663,0.8521,0.0280,0.001534,0.582913,-0.555301,0.556835,-0.592117,0.558369,-0.552233
0.1207,0.020090,0.000000,-0.170318,0.170318,0.0000,0.0000,0.0000,-0.002623,-0.204019,0.200951,1.0139,0.8434,-0.0088,0.001534,0.582913,-0.555301,0.556835,-0.592117,0.558369,-0.553767
0.1408,0.020087,0.000000,-0.169617,0.169617,0.0000,0.0000,0.0000,-0.002599,-0.205553,0.200951,1.0198,0.8109,-0.0046,0.001534,0.584447,-0.555301,0.556835,-0.592117,0.558369,-0.555301
0.1609,0.020087,0.000000,-0.168916,0.168916,0.0000,0.0000,0.0000,-0.002578,-0.187146,0.188680,1.0196,0.7808,-0.0046,0.001534,0.585981,-0.555301,0.556835,-0.592117,0.558369,-0.556835
0.1810,0.020090,0.000000,-0.168215,0.168215,0.0000,0.0000,0.0000,-0.002580,-0.174874,0.176408,1.0196,0.7839,-0.0046,0.001534,0.585981,-0.555301,0.556835,-0.592117,0.558369,-0.556835
0.2011,0.020085,0.000000,-0.167514,0.167514,0.0000,0.0000,0.0000,-0.002569,-0.167204,0.167204,1.0693,0.7682,0.0495,0.001534,0.587515,-0.555301,0.556835,-0.592117,0.558369,-0.556835
0.2212,0.020088,0.000000,-0.166813,0.166813,0.0000,0.0000,0.0000,-0.002557,-0.168738,0.168738,1.0149,0.7517,-0.0097,0.001534,0.587515,-0.555301,0.556835,-0.592117,0.558369,-0.558369
0.2413,0.020087,0.000000,-0.166111,0.166111,0.0000,0.0000,0.0000,-0.002545,-0.176408,0.171806,0.9714,0.7354,-0.0572,0.001534,0.587515,-0.555301,0.556835,-0.592117,0.558369,-0.559903
0.2613,0.020085,0.000000,-0.165410,0.165410,0.0000,0.0000,0.0000,-0.002533,-0.174874,0.170272,1.0154,0.7016,-0.1054,0.001534,0.587515,-0.556835,0.556835,-0.592117,0.558369,-0.559903
0.2814,0.020090,0.000000,-0.164709,0.164709,0.0000,0.0000,0.0000,-0.002535,-0.171806,0.170272,1.0108,0.7051,-0.1004,0.001534,0.587515,-0.556835,0.556835,-0.592117,0.558369,-0.559903
0.3015,0.020084,0.000000,-0.164008,0.164008,0.0000,0.0000,0.0000,-0.002535,-0.168738,0.168738,1.0108,0.7051,-0.1004,0.001534,0.587515,-0.556835,0.556835,-0.592117,0.558369,-0.559903
0.3216,0.020084,0.000000,-0.163307,0.163307,0.0000,0.0000,0.0000,-0.002521,-0.165670,0.168738,1.0506,0.6692,-0.1541,0.001534,0.587515,-0.558369,0.556835,-0.592117,0.558369,-0.559903
0.3417,0.020084,0.000000,-0.162606,0.162606,0.0000,0.0000,0.0000,-0.002522,-0.167204,0.168738,1.0464,0.6729,-0.1485,0.001534,0.587515,-0.558369,0.556835,-0.592117,0.558369,-0.559903
0.3618,0.020084,0.000000,-0.161905,0.161905,0.0000,0.0000,0.0000,-0.002509,-0.165670,0.168738,1.0861,0.6370,-0.2024,0.001534,0.587515,-0.559903,0.556835,-0.592117,0.558369,-0.559903
0.3819,0.020090,0.000000,-0.161204,0.161204,0.0000,0.0000,0.0000,-0.002510,-0.165670,0.170272,1.0820,0.6408,-0.1967,0.001534,0.587515,-0.559903,0.556835,-0.592117,0.558369,-0.559903
0.4019,0.020087,0.000000,-0.160502,0.160502,0.0000,0.0000,0.0000,-0.002510,-0.165670,0.168738,1.0820,0.6408,-0.1967,0.001534,0.587515,-0.559903,0.556835,-0.592117,0.558369,-0.559903
0.4220,0.020087,0.000000,-0.159801,0.159801,0.0000,0.0000,0.0000,-0.002510,-0.164136,0.168738,1.0820,0.6408,-0.1967,0.001534,0.587515,-0.559903,0.556835,-0.592117,0.558369,-0.559903
0.4421,0.020099,0.000000,-0.159100,0.159100,0.0000,0.0000,0.0000,-0.002524,-0.164136,0.168738,1.0432,0.6759,-0.1441,0.001534,0.587515,-0.558369,0.556835,-0.592117,0.558369,-0.559903
0.4622,0.020092,0.000000,-0.158398,0.158398,0.0000,0.0000,0.0000,-0.002509,-0.162602,0.168738,1.0865,0.6367,-0.2028,0.001534,0.587515,-0.559903,0.556835,-0.592117,0.558369,-0.559903
0.4823,0.020093,0.000000,-0.157697,0.157697,0.0000,0.0000,0.0000,-0.002510,-0.162602,0.168738,1.0819,0.6408,-0.1967,0.001534,0.587515,-0.559903,0.556835,-0.592117,0.558369,-0.559903
0.5024,0.020099,0.000000,-0.156995,0.156995,0.0000,0.0000,0.0000,-0.002510,-0.161068,0.168738,1.0819,0.6408,-0.1967,0.001534,0.587515,-0.559903,0.556835,-0.592117,0.558369,-0.559903
0.5225,0.020095,0.000000,-0.156294,0.156294,0.0000,0.0000,0.0000,-0.002510,-0.161068,0.168738,1.0819,0.6408,-0.1967,0.001534,0.587515,-0.559903,0.556835,-0.592117,0.558369,-0.559903
0.5426,0.020094,0.000000,-0.155592,0.155592,0.0000,0.0000,0.0000,-0.002524,-0.159534,0.168738,1.0432,0.6759,-0.1441,0.001534,0.587515,-0.558369,0.556835,-0.592117,0.558369,-0.559903
0.5627,0.020097,0.000000,-0.154891,0.154891,0.0000,0.0000,0.0000,-0.002522,-0.159534,0.168738,1.0472,0.6722,-0.1495,0.001534,0.587515,-0.558369,0.556835,-0.592117,0.558369,-0.559903
0.5828,0.020085,0.000000,-0.154190,0.154190,0.0000,0.0000,0.0000,-0.002522,-0.159534,0.165670,1.0472,0.6722,-0.1495,0.001534,0.587515,-0.558369,0.556835,-0.592117,0.558369,-0.559903
0.6029,0.020090,0.000000,-0.153488,0.153488,0.0000,0.0000,0.0000,-0.002509,-0.158000,0.162602,1.0860,0.6371,-0.2022,0.001534,0.587515,-0.559903,0.556835,-0.592117,0.558369,-0.559903
0.6239,0.021060,0.000000,-0.152753,0.152753,0.0000,0.0000,0.0000,-0.002524,-0.156466,0.156466,1.0427,0.6763,-0.1435,0.001534,0.587515,-0.558369,0.556835,-0.592117,0.558369,-0.559903
0.6443,0.020334,0.000000,-0.152044,0.152044,0.0000,0.0000,0.0000,-0.002509,-0.156466,0.153398,1.0865,0.6367,-0.2029,0.001534,0.587515,-0.559903,0.556835,-0.592117,0.558369,-0.559903
0.6645,0.020255,0.000000,-0.151337,0.151337,0.0000,0.0000,0.0000,-0.002510,-0.156466,0.151864,1.0819,0.6408,-0.1967,0.001534,0.587515,-0.559903,0.556835,-0.592117,0.558369,-0.559903
0.6846,0.020096,0.000000,-0.150635,0.150635,0.0000,0.0000,0.0000,-0.002510,-0.154932,0.151864,1.0819,0.6408,-0.1967,0.001534,0.587515,-0.559903,0.556835,-0.592117,0.558369,-0.559903
0.7047,0.020086,0.000000,-0.149934,0.149934,0.0000,0.0000,0.0000,-0.002510,-0.154932,0.151864,1.0819,0.6408,-0.1967,0.001534,0.587515,-0.559903,0.556835,-0.592117,0.558369,-0.559903
0.7248,0.020091,0.000000,-0.149233,0.149233,0.0000,0.0000,0.0000,-0.002524,-0.153398,0.151864,1.0432,0.6759,-0.1441,0.001534,0.587515,-0.558369,0.556835,-0.592117,0.558369,-0.559903
0.7449,0.020084,0.000000,-0.148532,0.148532,0.0000,0.0000,0.0000,-0.002509,-0.153398,0.150330,1.0865,0.6367,-0.2028,0.001534,0.587515,-0.559903,0.556835,-0.592117,0.558369,-0.559903
0.7650,0.020091,0.000000,-0.147830,0.147830,0.0000,0.0000,0.0000,-0.002510,-0.153398,0.150330,1.0819,0.6408,-0.1967,0.001534,0.587515,-0.559903,0.556835,-0.592117,0.558369,-0.559903
0.7851,0.020087,0.000000,-0.147129,0.147129,0.0000,0.0000,0.0000,-0.002510,-0.151864,0.150330,1.0819,0.6408,-0.1967,0.001534,0.587515,-0.559903,0.556835,-0.592117,0.558369,-0.559903
0.8052,0.020091,0.000000,-0.146428,0.146428,0.0000,0.0000,0.0000,-0.002510,-0.150330,0.150330,1.0819,0.6408,-0.1967,0.001534,0.587515,-0.559903,0.556835,-0.592117,0.558369,-0.559903
0.8253,0.020180,0.000000,-0.145723,0.145723,0.0000,0.0000,0.0000,-0.002510,-0.150330,0.148796,1.0819,0.6408,-0.1967,0.001534,0.587515,-0.559903,0.556835,-0.592117,0.558369,-0.559903
0.8454,0.020083,0.000000,-0.145022,0.145022,0.0000,0.0000,0.0000,-0.002510,-0.148796,0.148796,1.0819,0.6408,-0.1967,0.001534,0.587515,-0.559903,0.556835,-0.592117,0.558369,-0.559903
0.8655,0.020094,0.000000,-0.144321,0.144321,0.0000,0.0000,0.0000,-0.002510,-0.148796,0.148796,1.0819,0.6408,-0.1967,0.001534,0.587515,-0.559903,0.556835,-0.592117,0.558369,-0.559903
0.8856,0.020096,0.000000,-0.143619,0.143619,0.0000,0.0000,0.0000,-0.002510,-0.148796,0.147262,1.0819,0.6408,-0.1967,0.001534,0.587515,-0.559903,0.556835,-0.592117,0.558369,-0.559903
0.9057,0.020100,0.000000,-0.142918,0.142918,0.0000,0.0000,0.0000,-0.002510,-0.148796,0.147262,1.0819,0.6408,-0.1967,0.001534,0.587515,-0.559903,0.556835,-0.592117,0.558369,-0.559903
0.9258,0.020101,0.000000,-0.142216,0.142216,0.0000,0.0000,0.0000,-0.002510,-0.148796,0.147262,1.0819,0.6408,-0.1967,0.001534,0.587515,-0.559903,0.556835,-0.592117,0.558369,-0.559903
0.9459,0.020091,0.000000,-0.141515,0.141515,0.0000,0.0000,0.0000,-0.002510,-0.148796,0.147262,1.0819,0.6408,-0.1967,0.001534,0.587515,-0.559903,0.556835,-0.592117,0.558369,-0.559903
0.9660,0.020092,0.000000,-0.140813,0.140813,0.0000,0.0000,0.0000,-0.002524,-0.148796,0.147262,1.0432,0.6759,-0.1441,0.001534,0.587515,-0.558369,0.556835,-0.592117,0.558369,-0.559903
0.9861,0.020098,0.000000,-0.140112,0.140112,0.0000,0.0000,0.0000,-0.002509,-0.148796,0.145728,1.0865,0.6367,-0.2028,0.001534,0.587515,-0.559903,0.556835,-0.592117,0.558369,-0.559903
1.0062,0.020094,0.000000,-0.139410,0.139410,0.0000,0.0000,0.0000,-0.002510,-0.148796,0.145728,1.0819,0.6408,-0.1967,0.001534,0.587515,-0.559903,0.556835,-0.592117,0.558369,-0.559903
1.0263,0.020102,0.000000,-0.138709,0.138709,0.0000,0.0000,0.0000,-0.002510,-0.148796,0.144194,1.0819,0.6408,-0.1967,0.001534,0.587515,-0.559903,0.556835,-0.592117,0.558369,-0.559903
1.0464,0.020090,0.000000,-0.138008,0.138008,0.0000,0.0000,0.0000,-0.002510,-0.148796,0.144194,1.0819,0.6408,-0.1967,0.001534,0.587515,-0.559903,0.556835,-0.592117,0.558369,-0.559903
1.0665,0.020084,0.000000,-0.137306,0.137306,0.0000,0.0000,0.0000,-0.002510,-0.148796,0.144194,1.0819,0.6408,-0.1967,0.001534,0.587515,-0.559903,0.556835,-0.592117,0.558369,-0.559903
1.0865,0.020087,0.000000,-0.136605,0.136605,0.0000,0.0000,0.0000,-0.002510,-0.148796,0.144194,1.0819,0.6408,-0.1967,0.001534,0.587515,-0.559903,0.556835,-0.592117,0.558369,-0.559903
1.1066,0.020097,0.000000,-0.135904,0.135904,0.0000,0.0000,0.0000,-0.002510,-0.148796,0.144194,1.0819,0.6408,-0.1967,0.001534,0.587515,-0.559903,0.556835,-0.592117,0.558369,-0.559903
1.1267,0.020100,0.000000,-0.135202,0.135202,0.0000,0.0000,0.0000,-0.002510,-0.147262,0.144194,1.0819,0.6408,-0.1967,0.001534,0.587515,-0.559903,0.556835,-0.592117,0.558369,-0.559903
1.1468,0.020088,0.000000,-0.134501,0.134501,0.0000,0.0000,0.0000,-0.002510,-0.148796,0.144194,1.0819,0.6408,-0.1967,0.001534,0.587515,-0.559903,0.556835,-0.592117,0.558369,-0.559903
1.1669,0.020089,0.000000,-0.133800,0.133800,0.0000,0.0000,0.0000,-0.002510,-0.147262,0.144194,1.0819,0.6408,-0.1967,0.001534,0.587515,-0.559903,0.556835,-0.592117,0.558369,-0.559903
1.1870,0.020088,0.000000,-0.133098,0.133098,0.0000,0.0000,0.0000,-0.002510,-0.147262,0.144194,1.0819,0.6408,-0.1967,0.001534,0.587515,-0.559903,0.556835,-0.592117,0.558369,-0.559903
1.2071,0.020089,0.000000,-0.132397,0.132397,0.0000,0.0000,0.0000,-0.002510,-0.145728,0.144194,1.0819,0.6408,-0.1967,0.001534,0.587515,-0.559903,0.556835,-0.592117,0.558369,-0.559903
1.2272,0.020090,0.000000,-0.131696,0.131696,0.0000,0.0000,0.0000,-0.002510,-0.142660,0.144194,1.0819,0.6408,-0.1967,0.001534,0.587515,-0.559903,0.556835,-0.592117,0.558369,-0.559903
1.2473,0.020091,0.000000,-0.130995,0.130995,0.0000,0.0000,0.0000,-0.002510,-0.136524,0.144194,1.0819,0.6408,-0.1967,0.001534,0.587515,-0.559903,0.556835,-0.592117,0.558369,-0.559903
1.2674,0.020096,0.000000,-0.130293,0.130293,0.0000,0.0000,0.0000,-0.002510,-0.131922,0.144194,1.0819,0.6408,-0.1967,0.001534,0.587515,-0.559903,0.556835,-0.592117,0.558369,-0.559903
1.2875,0.020094,0.000000,-0.129592,0.129592,0.0000,0.0000,0.0000,-0.002510,-0.133456,0.142660,1.0819,0.6408,-0.1967,0.001534,0.587515,-0.559903,0.556835,-0.592117,0.558369,-0.559903
1.3076,0.020098,0.000000,-0.128890,0.128890,0.0000,0.0000,0.0000,-0.002510,-0.133456,0.142660,1.0819,0.6408,-0.1967,0.001534,0.587515,-0.559903,0.556835,-0.592117,0.558369,-0.559903
1.3277,0.020088,0.000000,-0.128189,0.128189,0.0000,0.0000,0.0000,-0.002510,-0.131922,0.139592,1.0819,0.6408,-0.1967,0.001534,0.587515,-0.559903,0.556835,-0.592117,0.558369,-0.559903
1.3478,0.020101,0.000000,-0.127487,0.127487,0.0000,0.0000,0.0000,-0.002510,-0.131922,0.134990,1.0819,0.6408,-0.1967,0.001534,0.587515,-0.559903,0.556835,-0.592117,0.558369,-0.559903
1.3678,0.020090,0.000000,-0.126786,0.126786,0.0000,0.0000,0.0000,-0.002510,-0.131922,0.130388,1.0819,0.6408,-0.1967,0.001534,0.587515,-0.559903,0.556835,-0.592117,0.558369,-0.559903
1.3879,0.020089,0.000000,-0.126085,0.126085,0.0000,0.0000,0.0000,-0.002510,-0.130388,0.127320,1.0819,0.6408,-0.1967,0.001534,0.587515,-0.559903,0.556835,-0.592117,0.558369,-0.559903
1.4081,0.020122,0.000000,-0.125382,0.125382,0.0000,0.0000,0.0000,-0.002510,-0.130388,0.127320,1.0819,0.6408,-0.1967,0.001534,0.587515,-0.559903,0.556835,-0.592117,0.558369,-0.559903
1.4282,0.020101,0.000000,-0.124681,0.124681,0.0000,0.0000,0.0000,-0.002510,-0.128854,0.125786,1.0819,0.6408,-0.1967,0.001534,0.587515,-0.559903,0.556835,-0.592117,0.558369,-0.559903
1.4483,0.020093,0.000000,-0.123979,0.123979,0.0000,0.0000,0.0000,-0.002510,-0.128854,0.125786,1.0819,0.6408,-0.1967,0.001534,0.587515,-0.559903,0.556835,-0.592117,0.558369,-0.559903
1.4683,0.020092,0.000000,-0.123278,0.123278,0.0000,0.0000,0.0000,-0.002524,-0.127320,0.125786,1.0432,0.6759,-0.1441,0.001534,0.587515,-0.558369,0.556835,-0.592117,0.558369,-0.559903
1.4884,0.020085,0.000000,-0.122577,0.122577,0.0000,0.0000,0.0000,-0.002522,-0.127320,0.124252,1.0472,0.6722,-0.1495,0.001534,0.587515,-0.558369,0.556835,-0.592117,0.558369,-0.559903
1.5086,0.020131,0.000000,-0.121874,0.121874,0.0000,0.0000,0.0000,-0.002509,-0.125786,0.124252,1.0860,0.6371,-0.2022,0.001534,0.587515,-0.559903,0.556835,-0.592117,0.558369,-0.559903
1.5286,0.020091,0.000000,-0.121173,0.121173,0.0000,0.0000,0.0000,-0.002524,-0.125786,0.122718,1.0427,0.6763,-0.1435,0.001534,0.587515,-0.558369,0.556835,-0.592117,0.558369,-0.559903
1.5490,0.020319,0.000000,-0.120464,0.120464,0.0000,0.0000,0.0000,-0.002522,-0.125786,0.122718,1.0472,0.6722,-0.1496,0.001534,0.587515,-0.558369,0.556835,-0.592117,0.558369,-0.559903
1.5691,0.020112,0.000000,-0.119762,0.119762,0.0000,0.0000,0.0000,-0.002522,-0.124252,0.122718,1.0472,0.6722,-0.1496,0.001534,0.587515,-0.558369,0.556835,-0.592117,0.558369,-0.559903
1.5897,0.020612,0.000000,-0.119042,0.119042,0.0000,0.0000,0.0000,-0.002509,-0.124252,0.122718,1.0860,0.6371,-0.2022,0.001534,0.587515,-0.559903,0.556835,-0.592117,0.558369,-0.559903
1.6098,0.020143,0.000000,-0.118339,0.118339,0.0000,0.0000,0.0000,-0.002524,-0.122718,0.121184,1.0427,0.6763,-0.1435,0.001534,0.587515,-0.558369,0.556835,-0.592117,0.558369,-0.559903
1.6301,0.020218,0.000000,-0.117633,0.117633,0.0000,0.0000,0.0000,-0.002509,-0.122718,0.121184,1.0865,0.6367,-0.2029,0.001534,0.587515,-0.559903,0.556835,-0.592117,0.558369,-0.559903
1.6503,0.020294,0.000000,-0.116925,0.116925,0.0000,0.0000,0.0000,-0.002510,-0.122718,0.121184,1.0819,0.6408,-0.1967,0.001534,0.587515,-0.559903,0.556835,-0.592117,0.558369,-0.559903
1.6705,0.020196,0.000000,-0.116220,0.116220,0.0000,0.0000,0.0000,-0.002510,-0.121184,0.119651,1.0819,0.6408,-0.1967,0.001534,0.587515,-0.559903,0.556835,-0.592117,0.558369,-0.559903
1.6920,0.021445,0.000000,-0.115471,0.115471,0.0000,0.0000,0.0000,-0.002510,-0.121184,0.119651,1.0819,0.6408,-0.2846,0.000000,0.587515,-0.559903,0.556835,-0.592117,0.558369,-0.559903
1.7121,0.020088,0.000000,-0.114770,0.114770,0.0000,0.0000,0.0000,-0.002510,-0.121184,0.118117,1.0819,0.6408,-0.1967,0.001534,0.587515,-0.559903,0.556835,-0.592117,0.558369,-0.559903
1.7322,0.020094,0.000000,-0.114069,0.114069,0.0000,0.0000,0.0000,-0.002510,-0.121184,0.118117,1.0819,0.6408,-0.1967,0.001534,0.587515,-0.559903,0.556835,-0.592117,0.558369,-0.559903
1.7523,0.020087,0.000000,-0.113368,0.113368,0.0000,0.0000,0.0000,-0.002510,-0.121184,0.118117,1.0819,0.6408,-0.1967,0.001534,0.587515,-0.559903,0.556835,-0.592117,0.558369,-0.559903
1.7723,0.020090,0.000000,-0.112666,0.112666,0.0000,0.0000,0.0000,-0.002510,-0.121184,0.118117,1.0819,0.6408,-0.1967,0.001534,0.587515,-0.559903,0.556835,-0.592117,0.558369,-0.559903
1.7928,0.020435,0.000000,-0.111953,0.111953,0.0000,0.0000,0.0000,-0.002510,-0.121184,0.118117,1.0819,0.6408,-0.1967,0.001534,0.587515,-0.559903,0.556835,-0.592117,0.558369,-0.559903
1.8129,0.020093,0.000000,-0.111252,0.111252,0.0000,0.0000,0.0000,-0.002510,-0.121184,0.118117,1.0819,0.6408,-0.1967,0.001534,0.587515,-0.559903,0.556835,-0.592117,0.558369,-0.559903
1.8330,0.020096,0.000000,-0.110550,0.110550,0.0000,0.0000,0.0000,-0.002510,-0.121184,0.118117,1.0819,0.6408,-0.1967,0.001534,0.587515,-0.559903,0.556835,-0.592117,0.558369,-0.559903
1.8531,0.020102,0.000000,-0.109848,0.109848,0.0000,0.0000,0.0000,-0.002510,-0.121184,0.118117,1.0819,0.6408,-0.1967,0.001534,0.587515,-0.559903,0.556835,-0.592117,0.558369,-0.559903
1.8735,0.020387,0.000000,-0.109137,0.109137,0.0000,0.0000,0.0000,-0.002510,-0.121184,0.118117,1.0819,0.6408,-0.1967,0.001534,0.587515,-0.559903,0.556835,-0.592117,0.558369,-0.559903
1.8938,0.020363,0.000000,-0.108426,0.108426,0.0000,0.0000,0.0000,-0.002510,-0.121184,0.118117,1.0819,0.6408,-0.1967,0.001534,0.587515,-0.559903,0.556835,-0.592117,0.558369,-0.559903
1.9139,0.020098,0.000000,-0.107724,0.107724,0.0000,0.0000,0.0000,-0.002510,-0.119651,0.118117,1.0819,0.6408,-0.1967,0.001534,0.587515,-0.559903,0.556835,-0.592117,0.558369,-0.559903
1.9340,0.020115,0.000000,-0.107022,0.107022,0.0000,0.0000,0.0000,-0.002510,-0.118117,0.118117,1.0819,0.6408,-0.1967,0.001534,0.587515,-0.559903,0.556835,-0.592117,0.558369,-0.559903
1.9541,0.020065,0.000000,-0.106322,0.106322,0.0000,0.0000,0.0000,-0.002510,-0.113515,0.116583,1.0819,0.6408,-0.1967,0.001534,0.587515,-0.559903,0.556835,-0.592117,0.558369,-0.559903
1.9742,0.020087,0.000000,-0.105621,0.105621,0.0000,0.0000,0.0000,-0.002510,-0.107379,0.116583,1.0819,0.6408,-0.1967,0.001534,0.587515,-0.559903,0.556835,-0.592117,0.558369,-0.559903
1.9948,0.020591,0.000000,-0.104902,0.104902,0.0000,0.0000,0.0000,-0.002524,-0.107379,0.115049,1.0432,0.6759,-0.1441,0.001534,0.587515,-0.558369,0.556835,-0.592117,0.558369,-0.559903
2.0149,0.020143,0.000000,-0.104199,0.104199,0.0000,0.0000,0.0000,-0.002509,-0.108913,0.113515,1.0865,0.6367,-0.2028,0.001534,0.587515,-0.559903,0.556835,-0.592117,0.558369,-0.559903
2.0351,0.020194,0.000000,-0.103494,0.103494,0.0000,0.0000,0.0000,-0.002510,-0.107379,0.111981,1.0819,0.6408,-0.1967,0.001534,0.587515,-0.559903,0.556835,-0.592117,0.558369,-0.559903
2.0552,0.020091,0.000000,-0.102793,0.102793,0.0000,0.0000,0.0000,-0.002510,-0.107379,0.108913,1.0819,0.6408,-0.1967,0.001534,0.587515,-0.559903,0.556835,-0.592117,0.558369,-0.559903
2.0753,0.020087,0.000000,-0.102091,0.102091,0.0000,0.0000,0.0000,-0.002510,-0.107379,0.102777,1.0819,0.6408,-0.1967,0.001534,0.587515,-0.559903,0.556835,-0.592117,0.558369,-0.559903
2.0954,0.020097,0.000000,-0.101390,0.101390,0.0000,0.0000,0.0000,-0.002510,-0.107379,0.102777,1.0819,0.6408,-0.1967,0.001534,0.587515,-0.559903,0.556835,-0.592117,0.558369,-0.559903
2.1155,0.020091,0.000000,-0.100689,0.100689,0.0000,0.0000,0.0000,-0.002510,-0.105845,0.102777,1.0819,0.6408,-0.1967,0.001534,0.587515,-0.559903,0.556835,-0.592117,0.558369,-0.559903
2.1356,0.020095,0.000000,-0.099987,0.099987,0.0000,0.0000,0.0000,-0.002510,-0.105845,0.101243,1.0819,0.6408,-0.1967,0.001534,0.587515,-0.559903,0.556835,-0.592117,0.558369,-0.559903
2.1557,0.020086,0.000000,-0.099286,0.099286,0.0000,0.0000,0.0000,-0.002510,-0.104311,0.101243,1.0819,0.6408,-0.1967,0.001534,0.587515,-0.559903,0.556835,-0.592117,0.558369,-0.559903
2.1758,0.020089,0.000000,-0.098585,0.098585,0.0000,0.0000,0.0000,-0.002510,-0.102777,0.101243,1.0819,0.6408,-0.1967,0.001534,0.587515,-0.559903,0.556835,-0.592117,0.558369,-0.559903
2.1958,0.020086,0.000000,-0.097884,0.097884,0.0000,0.0000,0.0000,-0.002510,-0.102777,0.099709,1.0819,0.6408,-0.1967,0.001534,0.587515,-0.559903,0.556835,-0.592117,0.558369,-0.559903
2.2159,0.020082,0.000000,-0.097183,0.097183,0.0000,0.0000,0.0000,-0.002510,-0.102777,0.098175,1.0819,0.6408,-0.1967,0.001534,0.587515,-0.559903,0.556835,-0.592117,0.558369,-0.559903
2.2360,0.020097,0.000000,-0.096481,0.096481,0.0000,0.0000,0.0000,-0.002510,-0.101243,0.098175,1.0819,0.6408,-0.1967,0.001534,0.587515,-0.559903,0.556835,-0.592117,0.558369,-0.559903
2.2561,0.020097,0.000000,-0.095780,0.095780,0.0000,0.0000,0.0000,-0.002510,-0.099709,0.096641,1.0819,0.6408,-0.1967,0.001534,0.587515,-0.559903,0.556835,-0.592117,0.558369,-0.559903
2.2762,0.020085,0.000000,-0.095079,0.095079,0.0000,0.0000,0.0000,-0.002510,-0.099709,0.096641,1.0819,0.6408,-0.1967,0.001534,0.587515,-0.559903,0.556835,-0.592117,0.558369,-0.559903
2.2964,0.020188,0.000000,-0.094374,0.094374,0.0000,0.0000,0.0000,-0.002524,-0.099709,0.096641,1.0432,0.6759,-0.1441,0.001534,0.587515,-0.558369,0.556835,-0.592117,0.558369,-0.559903
2.3165,0.020096,0.000000,-0.093672,0.093672,0.0000,0.0000,0.0000,-0.002509,-0.096641,0.095107,1.0865,0.6367,-0.2028,0.001534,0.587515,-0.559903,0.556835,-0.592117,0.558369,-0.559903
2.3373,0.020793,0.000000,-0.092947,0.092947,0.0000,0.0000,0.0000,-0.002510,-0.096641,0.095107,1.0819,0.6408,-0.1967,0.001534,0.587515,-0.559903,0.556835,-0.592117,0.558369,-0.559903
2.3574,0.020092,0.000000,-0.092245,0.092245,0.0000,0.0000,0.0000,-0.002524,-0.095107,0.093573,1.0432,0.6759,-0.1441,0.001534,0.587515,-0.558369,0.556835,-0.592117,0.558369,-0.559903
2.3776,0.020205,0.000000,-0.091540,0.091540,0.0000,0.0000,0.0000,-0.002509,-0.095107,0.093573,1.0865,0.6367,-0.2028,0.001534,0.587515,-0.559903,0.556835,-0.592117,0.558369,-0.559903
2.3978,0.020205,0.000000,-0.090835,0.090835,0.0000,0.0000,0.0000,-0.002510,-0.095107,0.092039,1.0819,0.6408,-0.1967,0.001534,0.587515,-0.559903,0.556835,-0.592117,0.558369,-0.559903
2.4179,0.020087,0.000000,-0.090133,0.090133,0.0000,0.0000,0.0000,-0.002510,-0.093573,0.092039,1.0819,0.6408,-0.1967,0.001534,0.587515,-0.559903,0.556835,-0.592117,0.558369,-0.559903
2.4380,0.020102,0.000000,-0.089432,0.089432,0.0000,0.0000,0.0000,-0.002524,-0.093573,0.092039,1.0432,0.6759,-0.1441,0.001534,0.587515,-0.558369,0.556835,-0.592117,0.558369,-0.559903
2.4581,0.020095,0.000000,-0.088730,0.088730,0.0000,0.0000,0.0000,-0.002522,-0.093573,0.090505,1.0472,0.6722,-0.1495,0.001534,0.587515,-0.558369,0.556835,-0.592117,0.558369,-0.559903
2.4784,0.020355,0.000000,-0.088020,0.088020,0.0000,0.0000,0.0000,-0.002509,-0.093573,0.090505,1.0860,0.6371,-0.2022,0.001534,0.587515,-0.559903,0.556835,-0.592117,0.558369,-0.559903
2.4986,0.020163,0.000000,-0.087316,0.087316,0.0000,0.0000,0.0000,-0.002510,-0.093573,0.090505,1.0820,0.6408,-0.1968,0.001534,0.587515,-0.559903,0.556835,-0.592117,0.558369,-0.559903
2.5187,0.020085,0.000000,-0.086615,0.086615,0.0000,0.0000,0.0000,-0.002510,-0.093573,0.090505,1.0820,0.6408,-0.1968,0.001534,0.587515,-0.559903,0.556835,-0.592117,0.558369,-0.559903
2.5388,0.020095,0.000000,-0.085913,0.085913,0.0000,0.0000,0.0000,-0.002510,-0.092039,0.090505,1.0820,0.6408,-0.1968,0.001534,0.587515,-0.559903,0.556835,-0.592117,0.558369,-0.559903
2.5589,0.020096,0.000000,-0.085212,0.085212,0.0000,0.0000,0.0000,-0.002510,-0.092039,0.090505,1.0820,0.6408,-0.1968,0.001534,0.587515,-0.559903,0.556835,-0.592117,0.558369,-0.559903
2.5789,0.020082,0.000000,-0.084511,0.084511,0.0000,0.0000,0.0000,-0.002510,-0.090505,0.090505,1.0820,0.6408,-0.1968,0.001534,0.587515,-0.559903,0.556835,-0.592117,0.558369,-0.559903
2.5990,0.020087,0.000000,-0.083810,0.083810,0.0000,0.0000,0.0000,-0.002510,-0.087437,0.090505,1.0820,0.6408,-0.1968,0.001534,0.587515,-0.559903,0.556835,-0.592117,0.558369,-0.559903
2.6191,0.020085,0.000000,-0.083109,0.083109,0.0000,0.0000,0.0000,-0.002524,-0.084369,0.090505,1.0432,0.6759,-0.1441,0.001534,0.587515,-0.558369,0.556835,-0.592117,0.558369,-0.559903
2.6392,0.020097,0.000000,-0.082407,0.082407,0.0000,0.0000,0.0000,-0.002522,-0.085903,0.090505,1.0472,0.6722,-0.1495,0.001534,0.587515,-0.558369,0.556835,-0.592117,0.558369,-0.559903
2.6593,0.020101,0.000000,-0.081705,0.081705,0.0000,0.0000,0.0000,-0.002509,-0.084369,0.088971,1.0860,0.6371,-0.2022,0.001534,0.587515,-0.559903,0.556835,-0.592117,0.558369,-0.559903
2.6794,0.020095,0.000000,-0.081004,0.081004,0.0000,0.0000,0.0000,-0.002510,-0.082835,0.088971,1.0820,0.6408,-0.1968,0.001534,0.587515,-0.559903,0.556835,-0.592117,0.558369,-0.559903
2.6995,0.020090,0.000000,-0.080303,0.080303,0.0000,0.0000,0.0000,-0.002510,-0.084369,0.087437,1.0820,0.6408,-0.1968,0.001534,0.587515,-0.559903,0.556835,-0.592117,0.558369,-0.559903
2.7196,0.020089,0.000000,-0.079602,0.079602,0.0000,0.0000,0.0000,-0.002510,-0.082835,0.087437,1.0820,0.6408,-0.1968,0.001534,0.587515,-0.559903,0.556835,-0.592117,0.558369,-0.559903
2.7397,0.020092,0.000000,-0.078900,0.078900,0.0000,0.0000,0.0000,-0.002510,-0.081301,0.085903,1.0820,0.6408,-0.1968,0.001534,0.587515,-0.559903,0.556835,-0.592117,0.558369,-0.559903
2.7598,0.020097,0.000000,-0.078199,0.078199,0.0000,0.0000,0.0000,-0.002510,-0.081301,0.084369,1.0820,0.6408,-0.1968,0.001534,0.587515,-0.559903,0.556835,-0.592117,0.558369,-0.559903
2.7801,0.020283,0.000000,-0.077491,0.077491,0.0000,0.0000,0.0000,-0.002510,-0.081301,0.081301,1.0820,0.6408,-0.1968,0.001534,0.587515,-0.559903,0.556835,-0.592117,0.558369,-0.559903
2.8001,0.020088,0.000000,-0.076789,0.076789,0.0000,0.0000,0.0000,-0.002510,-0.079767,0.076699,1.0820,0.6408,-0.1968,0.001534,0.587515,-0.559903,0.556835,-0.592117,0.558369,-0.559903
2.8202,0.020086,0.000000,-0.076088,0.076088,0.0000,0.0000,0.0000,-0.002510,-0.078233,0.076699,1.0820,0.6408,-0.1968,0.001534,0.587515,-0.559903,0.556835,-0.592117,0.558369,-0.559903
2.8403,0.020105,0.000000,-0.075387,0.075387,0.0000,0.0000,0.0000,-0.002510,-0.078233,0.078233,1.0820,0.6408,-0.1968,0.001534,0.587515,-0.559903,0.556835,-0.592117,0.558369,-0.559903
2.8604,0.020097,0.000000,-0.074685,0.074685,0.0000,0.0000,0.0000,-0.002510,-0.078233,0.076699,1.0820,0.6408,-0.1968,0.001534,0.587515,-0.559903,0.556835,-0.592117,0.558369,-0.559903
2.8805,0.020098,0.000000,-0.073983,0.073983,0.0000,0.0000,0.0000,-0.002510,-0.078233,0.076699,1.0820,0.6408,-0.1968,0.001534,0.587515,-0.559903,0.556835,-0.592117,0.558369,-0.559903
2.9006,0.020093,0.000000,-0.073282,0.073282,0.0000,0.0000,0.0000,-0.002510,-0.076699,0.076699,1.0820,0.6408,-0.1968,0.001534,0.587515,-0.559903,0.556835,-0.592117,0.558369,-0.559903
2.9207,0.020090,0.000000,-0.072581,0.072581,0.0000,0.0000,0.0000,-0.002510,-0.075165,0.075165,1.0820,0.6408,-0.1968,0.001534,0.587515,-0.559903,0.556835,-0.592117,0.558369,-0.559903
2.9408,0.020091,0.000000,-0.071880,0.071880,0.0000,0.0000,0.0000,-0.002510,-0.075165,0.075165,1.0820,0.6408,-0.1968,0.001534,0.587515,-0.559903,0.556835,-0.592117,0.558369,-0.559903
2.9609,0.020090,0.000000,-0.071178,0.071178,0.0000,0.0000,0.0000,-0.002510,-0.073631,0.072097,1.0820,0.6408,-0.1968,0.001534,0.587515,-0.559903,0.556835,-0.592117,0.558369,-0.559903
2.9810,0.020089,0.000000,-0.070477,0.070477,0.0000,0.0000,0.0000,-0.002510,-0.073631,0.072097,1.0820,0.6408,-0.1968,0.001534,0.587515,-0.559903,0.556835,-0.592117,0.558369,-0.559903
3.0011,0.020088,0.000000,-0.069776,0.069776,0.0000,0.0000,0.0000,-0.002510,-0.073631,0.070563,1.0820,0.6408,-0.1968,0.001534,0.587515,-0.559903,0.556835,-0.592117,0.558369,-0.559903
3.0211,0.020079,0.000000,-0.069075,0.069075,0.0000,0.0000,0.0000,-0.002510,-0.072097,0.070563,1.0820,0.6408,-0.1968,0.001534,0.587515,-0.559903,0.556835,-0.592117,0.558369,-0.559903
3.0412,0.020088,0.000000,-0.068374,0.068374,0.0000,0.0000,0.0000,-0.002510,-0.072097,0.070563,1.0820,0.6408,-0.1968,0.001534,0.587515,-0.559903,0.556835,-0.592117,0.558369,-0.559903
3.0613,0.020090,0.000000,-0.067672,0.067672,0.0000,0.0000,0.0000,-0.002510,-0.070563,0.069029,1.0820,0.6408,-0.1968,0.001534,0.587515,-0.559903,0.556835,-0.592117,0.558369,-0.559903
3.0814,0.020081,0.000000,-0.066972,0.066972,0.0000,0.0000,0.0000,-0.002510,-0.070563,0.069029,1.0820,0.6408,-0.1968,0.001534,0.587515,-0.559903,0.556835,-0.592117,0.558369,-0.559903
3.1015,0.020087,0.000000,-0.066270,0.066270,0.0000,0.0000,0.0000,-0.002510,-0.070563,0.069029,1.0820,0.6408,-0.1968,0.001534,0.587515,-0.559903,0.556835,-0.592117,0.558369,-0.559903
3.1216,0.020096,0.000000,-0.065569,0.065569,0.0000,0.0000,0.0000,-0.002510,-0.069029,0.067495,1.0820,0.6408,-0.1968,0.001534,0.587515,-0.559903,0.556835,-0.592117,0.558369,-0.559903
3.1417,0.020084,0.000000,-0.064868,0.064868,0.0000,0.0000,0.0000,-0.002510,-0.069029,0.067495,1.0820,0.6408,-0.1968,0.001534,0.587515,-0.559903,0.556835,-0.592117,0.558369,-0.559903
3.1618,0.020083,0.000000,-0.064167,0.064167,0.0000,0.0000,0.0000,-0.002510,-0.069029,0.065961,1.0820,0.6408,-0.1968,0.001534,0.587515,-0.559903,0.556835,-0.592117,0.558369,-0.559903
3.1818,0.020087,0.000000,-0.063466,0.063466,0.0000,0.0000,0.0000,-0.002510,-0.069029,0.065961,1.0820,0.6408,-0.1968,0.001534,0.587515,-0.559903,0.556835,-0.592117,0.558369,-0.559903
3.2019,0.020085,0.000000,-0.062765,0.062765,0.0000,0.0000,0.0000,-0.002510,-0.069029,0.065961,1.0820,0.6408,-0.1968,0.001534,0.587515,-0.559903,0.556835,-0.592117,0.558369,-0.559903
3.2222,0.020294,0.000000,-0.062056,0.062056,0.0000,0.0000,0.0000,-0.002510,-0.069029,0.064427,1.0820,0.6408,-0.1968,0.001534,0.587515,-0.559903,0.556835,-0.592117,0.558369,-0.559903
3.2423,0.020086,0.000000,-0.061355,0.061355,0.0000,0.0000,0.0000,-0.002510,-0.067495,0.064427,1.0820,0.6408,-0.1968,0.001534,0.587515,-0.559903,0.556835,-0.592117,0.558369,-0.559903
3.2624,0.020045,0.000000,-0.060655,0.060655,0.0000,0.0000,0.0000,-0.002510,-0.067495,0.064427,1.0820,0.6408,-0.1968,0.001534,0.587515,-0.559903,0.556835,-0.592117,0.558369,-0.559903
3.2824,0.020090,0.000000,-0.059954,0.059954,0.0000,0.0000,0.0000,-0.002510,-0.067495,0.064427,1.0820,0.6408,-0.1968,0.001534,0.587515,-0.559903,0.556835,-0.592117,0.558369,-0.559903
3.3025,0.020098,0.000000,-0.059252,0.059252,0.0000,0.0000,0.0000,-0.002510,-0.064427,0.064427,1.0820,0.6408,-0.1968,0.001534,0.587515,-0.559903,0.556835,-0.592117,0.558369,-0.559903
3.3226,0.020093,0.000000,-0.058551,0.058551,0.0000,0.0000,0.0000,-0.002510,-0.059825,0.064427,1.0820,0.6408,-0.1968,0.001534,0.587515,-0.559903,0.556835,-0.592117,0.558369,-0.559903
3.3427,0.020082,0.000000,-0.057850,0.057850,0.0000,0.0000,0.0000,-0.002510,-0.058291,0.064427,1.0820,0.6408,-0.1968,0.001534,0.587515,-0.559903,0.556835,-0.592117,0.558369,-0.559903
3.3628,0.020090,0.000000,-0.057149,0.057149,0.0000,0.0000,0.0000,-0.002524,-0.061359,0.064427,1.0432,0.6759,-0.1441,0.001534,0.587515,-0.558369,0.556835,-0.592117,0.558369,-0.559903
3.3829,0.020087,0.000000,-0.056448,0.056448,0.0000,0.0000,0.0000,-0.002509,-0.059825,0.064427,1.0865,0.6367,-0.2028,0.001534,0.587515,-0.559903,0.556835,-0.592117,0.558369,-0.559903
3.4030,0.020085,0.000000,-0.055747,0.055747,0.0000,0.0000,0.0000,-0.002510,-0.055223,0.062893,1.0819,0.6408,-0.1967,0.001534,0.587515,-0.559903,0.556835,-0.592117,0.558369,-0.559903
3.4231,0.020121,0.000000,-0.055044,0.055044,0.0000,0.0000,0.0000,-0.002510,-0.055223,0.062893,1.0819,0.6408,-0.1967,0.001534,0.587515,-0.559903,0.556835,-0.592117,0.558369,-0.559903
3.4432,0.020086,0.000000,-0.054343,0.054343,0.0000,0.0000,0.0000,-0.002510,-0.059825,0.062893,1.0819,0.6408,-0.1967,0.001534,0.587515,-0.559903,0.556835,-0.592117,0.558369,-0.559903
3.4633,0.020085,0.000000,-0.053642,0.053642,0.0000,0.0000,0.0000,-0.002510,-0.058291,0.062893,1.0819,0.6408,-0.2846,0.000000,0.587515,-0.559903,0.556835,-0.592117,0.558369,-0.559903
3.4834,0.020086,0.000000,-0.052941,0.052941,0.0000,0.0000,0.0000,-0.002510,-0.050621,0.062893,1.0819,0.6408,-0.1967,0.001534,0.587515,-0.559903,0.556835,-0.592117,0.558369,-0.559903
3.5035,0.020093,0.000000,-0.052239,0.052239,0.0000,0.0000,0.0000,-0.002510,-0.052155,0.061359,1.0819,0.6408,-0.1967,0.001534,0.587515,-0.559903,0.556835,-0.592117,0.558369,-0.559903
3.5235,0.020091,0.000000,-0.051538,0.051538,0.0000,0.0000,0.0000,-0.002524,-0.058291,0.059825,1.0432,0.6759,-0.1441,0.001534,0.587515,-0.558369,0.556835,-0.592117,0.558369,-0.559903
3.5436,0.020084,0.000000,-0.050837,0.050837,0.0000,0.0000,0.0000,-0.002509,-0.053689,0.056757,1.0865,0.6367,-0.2028,0.001534,0.587515,-0.559903,0.556835,-0.592117,0.558369,-0.559903
3.5637,0.020099,0.000000,-0.050135,0.050135,0.0000,0.0000,0.0000,-0.002510,-0.049087,0.053689,1.0819,0.6408,-0.1967,0.001534,0.587515,-0.559903,0.556835,-0.592117,0.558369,-0.559903
3.5838,0.020095,0.000000,-0.049434,0.049434,0.0000,0.0000,0.0000,-0.002510,-0.056757,0.050621,1.0819,0.6408,-0.1967,0.001534,0.587515,-0.559903,0.556835,-0.592117,0.558369,-0.559903
3.6039,0.020091,0.000000,-0.048733,0.048733,0.0000,0.0000,0.0000,-0.002510,-0.052155,0.050621,1.0819,0.6408,-0.1967,0.001534,0.587515,-0.559903,0.556835,-0.592117,0.558369,-0.559903
3.6240,0.020100,0.000000,-0.048031,0.048031,0.0000,0.0000,0.0000,-0.002510,-0.047553,0.050621,1.0819,0.6408,-0.1967,0.001534,0.587515,-0.559903,0.556835,-0.592117,0.558369,-0.559903
3.6441,0.020084,0.000000,-0.047330,0.047330,0.0000,0.0000,0.0000,-0.002510,-0.049087,0.050621,1.0819,0.6408,-0.1967,0.001534,0.587515,-0.559903,0.556835,-0.592117,0.558369,-0.559903
3.6642,0.020087,0.000000,-0.046629,0.046629,0.0000,0.0000,0.0000,-0.002510,-0.053689,0.049087,1.0819,0.6408,-0.1967,0.001534,0.587515,-0.559903,0.556835,-0.592117,0.558369,-0.559903
3.6843,0.020089,0.000000,-0.045928,0.045928,0.0000,0.0000,0.0000,-0.002510,-0.050621,0.049087,1.0819,0.6408,-0.1967,0.001534,0.587515,-0.559903,0.556835,-0.592117,0.558369,-0.559903
3.7044,0.020093,0.000000,-0.045226,0.045226,0.0000,0.0000,0.0000,-0.002510,-0.042951,0.049087,1.0819,0.6408,-0.1967,0.001534,0.587515,-0.559903,0.556835,-0.592117,0.558369,-0.559903
3.7245,0.020098,0.000000,-0.044525,0.044525,0.0000,0.0000,0.0000,-0.002510,-0.046019,0.049087,1.0819,0.6408,-0.1967,0.001534,0.587515,-0.559903,0.556835,-0.592117,0.558369,-0.559903
3.7445,0.020089,0.000000,-0.043823,0.043823,0.0000,0.0000,0.0000,-0.002524,-0.050621,0.046019,1.0432,0.6759,-0.1441,0.001534,0.587515,-0.558369,0.556835,-0.592117,0.558369,-0.559903
3.7646,0.020086,0.000000,-0.043122,0.043122,0.0000,0.0000,0.0000,-0.002509,-0.046019,0.044485,1.0865,0.6367,-0.2028,0.001534,0.587515,-0.559903,0.556835,-0.592117,0.558369,-0.559903
3.7847,0.020087,0.000000,-0.042421,0.042421,0.0000,0.0000,0.0000,-0.002510,-0.041417,0.044485,1.0819,0.6408,-0.1967,0.001534,0.587515,-0.559903,0.556835,-0.592117,0.558369,-0.559903
3.8048,0.020100,0.000000,-0.041720,0.041720,0.0000,0.0000,0.0000,-0.002524,-0.046019,0.042951,1.0432,0.6759,-0.1441,0.001534,0.587515,-0.558369,0.556835,-0.592117,0.558369,-0.559903
3.8249,0.020088,0.000000,-0.041018,0.041018,0.0000,0.0000,0.0000,-0.002522,-0.047553,0.042951,1.0472,0.6722,-0.1495,0.001534,0.587515,-0.558369,0.556835,-0.592117,0.558369,-0.559903
3.8450,0.020084,0.000000,-0.040317,0.040317,0.0000,0.0000,0.0000,-0.002522,-0.041417,0.042951,1.0472,0.6722,-0.1495,0.001534,0.587515,-0.558369,0.556835,-0.592117,0.558369,-0.559903
3.8651,0.020086,0.000000,-0.039616,0.039616,0.0000,0.0000,0.0000,-0.002509,-0.038350,0.041417,1.0860,0.6371,-0.2022,0.001534,0.587515,-0.559903,0.556835,-0.592117,0.558369,-0.559903
3.8852,0.020085,0.000000,-0.038915,0.038915,0.0000,0.0000,0.0000,-0.002510,-0.042951,0.039884,1.0820,0.6408,-0.1968,0.001534,0.587515,-0.559903,0.556835,-0.592117,0.558369,-0.559903
3.9053,0.020092,0.000000,-0.038214,0.038214,0.0000,0.0000,0.0000,-0.002510,-0.044485,0.039884,1.0820,0.6408,-0.1968,0.001534,0.587515,-0.559903,0.556835,-0.592117,0.558369,-0.559903
3.9254,0.020140,0.000000,-0.037511,0.037511,0.0000,0.0000,0.0000,-0.002510,-0.038350,0.038350,1.0820,0.6408,-0.1968,0.001534,0.587515,-0.559903,0.556835,-0.592117,0.558369,-0.559903
3.9457,0.020284,0.000000,-0.036803,0.036803,0.0000,0.0000,0.0000,-0.002510,-0.036816,0.038350,1.0820,0.6408,-0.1968,0.001534,0.587515,-0.559903,0.556835,-0.592117,0.558369,-0.559903
3.9658,0.020091,0.000000,-0.036101,0.036101,0.0000,0.0000,0.0000,-0.002510,-0.039884,0.036816,1.0820,0.6408,-0.1968,0.001534,0.587515,-0.559903,0.556835,-0.592117,0.558369,-0.559903
3.9859,0.020110,0.000000,-0.035399,0.035399,0.0000,0.0000,0.0000,-0.002510,-0.041417,0.036816,1.0820,0.6408,-0.1968,0.001534,0.587515,-0.559903,0.556835,-0.592117,0.558369,-0.559903
4.0060,0.020103,0.000000,-0.034698,0.034698,0.0000,0.0000,0.0000,-0.002510,-0.038350,0.036816,1.0820,0.6408,-0.1968,0.001534,0.587515,-0.559903,0.556835,-0.592117,0.558369,-0.559903
4.0261,0.020089,0.000000,-0.033996,0.033996,0.0000,0.0000,0.0000,-0.002510,-0.038350,0.036816,1.0820,0.6408,-0.1968,0.001534,0.587515,-0.559903,0.556835,-0.592117,0.558369,-0.559903
4.0463,0.020260,0.000000,-0.033289,0.033289,0.0000,0.0000,0.0000,-0.002510,-0.035282,0.036816,1.0820,0.6408,-0.1968,0.001534,0.587515,-0.559903,0.556835,-0.592117,0.558369,-0.559903
4.0664,0.020086,0.000000,-0.032588,0.032588,0.0000,0.0000,0.0000,-0.002510,-0.033748,0.036816,1.0820,0.6408,-0.1968,0.001534,0.587515,-0.559903,0.556835,-0.592117,0.558369,-0.559903
4.0865,0.020085,0.000000,-0.031887,0.031887,0.0000,0.0000,0.0000,-0.002510,-0.035282,0.036816,1.0820,0.6408,-0.1968,0.001534,0.587515,-0.559903,0.556835,-0.592117,0.558369,-0.559903
4.1066,0.020085,0.000000,-0.031186,0.031186,0.0000,0.0000,0.0000,-0.002510,-0.033748,0.036816,1.0820,0.6408,-0.1968,0.001534,0.587515,-0.559903,0.556835,-0.592117,0.558369,-0.559903
4.1267,0.020098,0.000000,-0.030484,0.030484,0.0000,0.0000,0.0000,-0.002510,-0.030680,0.035282,1.0820,0.6408,-0.1968,0.001534,0.587515,-0.559903,0.556835,-0.592117,0.558369,-0.559903
4.1468,0.020087,0.000000,-0.029783,0.029783,0.0000,0.0000,0.0000,-0.002510,-0.032214,0.035282,1.0820,0.6408,-0.1968,0.001534,0.587515,-0.559903,0.556835,-0.592117,0.558369,-0.559903
4.1673,0.020498,0.000000,-0.029068,0.029068,0.0000,0.0000,0.0000,-0.002510,-0.032214,0.035282,1.0820,0.6408,-0.1968,0.001534,0.587515,-0.559903,0.556835,-0.592117,0.558369,-0.559903
4.1874,0.020091,0.000000,-0.028366,0.028366,0.0000,0.0000,0.0000,-0.002510,-0.030680,0.035282,1.0820,0.6408,-0.1968,0.001534,0.587515,-0.559903,0.556835,-0.592117,0.558369,-0.559903
4.2075,0.020092,0.000000,-0.027665,0.027665,0.0000,0.0000,0.0000,-0.002510,-0.027612,0.035282,1.0820,0.6408,-0.1968,0.001534,0.587515,-0.559903,0.556835,-0.592117,0.558369,-0.559903
4.2275,0.020089,0.000000,-0.026964,0.026964,0.0000,0.0000,0.0000,-0.002510,-0.027612,0.033748,1.0820,0.6408,-0.1968,0.001534,0.587515,-0.559903,0.556835,-0.592117,0.558369,-0.559903
4.2476,0.020087,0.000000,-0.026263,0.026263,0.0000,0.0000,0.0000,-0.002510,-0.029146,0.033748,1.0820,0.6408,-0.1968,0.001534,0.587515,-0.559903,0.556835,-0.592117,0.558369,-0.559903
4.2677,0.020088,0.000000,-0.025561,0.025561,0.0000,0.0000,0.0000,-0.002510,-0.029146,0.032214,1.0820,0.6408,-0.1968,0.001534,0.587515,-0.559903,0.556835,-0.592117,0.558369,-0.559903
4.2878,0.020087,0.000000,-0.024860,0.024860,0.0000,0.0000,0.0000,-0.002510,-0.027612,0.030680,1.0820,0.6408,-0.1968,0.001534,0.587515,-0.559903,0.556835,-0.592117,0.558369,-0.559903
4.3079,0.020082,0.000000,-0.024159,0.024159,0.0000,0.0000,0.0000,-0.002510,-0.026078,0.027612,1.0820,0.6408,-0.1968,0.001534,0.587515,-0.559903,0.556835,-0.592117,0.558369,-0.559903
4.3280,0.020103,0.000000,-0.023458,0.023458,0.0000,0.0000,0.0000,-0.002510,-0.026078,0.024544,1.0820,0.6408,-0.1968,0.001534,0.587515,-0.559903,0.556835,-0.592117,0.558369,-0.559903
4.3481,0.020091,0.000000,-0.022756,0.022756,0.0000,0.0000,0.0000,-0.002510,-0.026078,0.023010,1.0820,0.6408,-0.1968,0.001534,0.587515,-0.559903,0.556835,-0.592117,0.558369,-0.559903
4.3682,0.020088,0.000000,-0.022055,0.022055,0.0000,0.0000,0.0000,-0.002510,-0.026078,0.023010,1.0820,0.6408,-0.1968,0.001534,0.587515,-0.559903,0.556835,-0.592117,0.558369,-0.559903
4.3883,0.020094,0.000000,-0.021354,0.021354,0.0000,0.0000,0.0000,-0.002510,-0.024544,0.023010,1.0820,0.6408,-0.1968,0.001534,0.587515,-0.559903,0.556835,-0.592117,0.558369,-0.559903
4.4084,0.020094,0.000000,-0.020652,0.020652,0.0000,0.0000,0.0000,-0.002524,-0.021476,0.023010,1.0432,0.6759,-0.1441,0.001534,0.587515,-0.558369,0.556835,-0.592117,0.558369,-0.559903
4.4285,0.020096,0.000000,-0.019951,0.019951,0.0000,0.0000,0.0000,-0.002509,-0.021476,0.023010,1.0865,0.6367,-0.2028,0.001534,0.587515,-0.559903,0.556835,-0.592117,0.558369,-0.559903
4.4486,0.020167,0.000000,-0.019247,0.019247,0.0000,0.0000,0.0000,-0.002510,-0.023010,0.023010,1.0819,0.6408,-0.1967,0.001534,0.587515,-0.559903,0.556835,-0.592117,0.558369,-0.559903
4.4687,0.020109,0.000000,-0.018545,0.018545,0.0000,0.0000,0.0000,-0.002510,-0.021476,0.023010,1.0819,0.6408,-0.1967,0.001534,0.587515,-0.559903,0.556835,-0.592117,0.558369,-0.559903
4.4888,0.020096,0.000000,-0.017843,0.017843,0.0000,0.0000,0.0000,-0.002510,-0.021476,0.023010,1.0819,0.6408,-0.1967,0.001534,0.587515,-0.559903,0.556835,-0.592117,0.558369,-0.559903
4.5089,0.020090,0.000000,-0.017142,0.017142,0.0000,0.0000,0.0000,-0.002510,-0.019942,0.021476,1.0819,0.6408,-0.1967,0.001534,0.587515,-0.559903,0.556835,-0.592117,0.558369,-0.559903
4.5296,0.020700,0.000000,-0.016420,0.016420,0.0000,0.0000,0.0000,-0.002510,-0.018408,0.021476,1.0819,0.6408,-0.1967,0.001534,0.587515,-0.559903,0.556835,-0.592117,0.558369,-0.559903
4.5497,0.020085,0.000000,-0.015718,0.015718,0.0000,0.0000,0.0000,-0.002510,-0.019942,0.021476,1.0819,0.6408,-0.1967,0.001534,0.587515,-0.559903,0.556835,-0.592117,0.558369,-0.559903
4.5698,0.020088,0.000000,-0.015017,0.015017,0.0000,0.0000,0.0000,-0.002510,-0.019942,0.016874,1.0819,0.6408,-0.1967,0.001534,0.587515,-0.559903,0.556835,-0.592117,0.558369,-0.559903
4.5899,0.020096,0.000000,-0.014316,0.014316,0.0000,0.0000,0.0000,-0.002510,-0.016874,0.013806,1.0819,0.6408,-0.1967,0.001534,0.587515,-0.559903,0.556835,-0.592117,0.558369,-0.559903
4.6103,0.020405,0.000000,-0.013604,0.013604,0.0000,0.0000,0.0000,-0.002510,-0.015340,0.013806,1.0819,0.6408,-0.1967,0.001534,0.587515,-0.559903,0.556835,-0.592117,0.558369,-0.559903
4.6312,0.020898,0.000000,-0.012874,0.012874,0.0000,0.0000,0.0000,-0.002510,-0.015340,0.013806,1.0819,0.6408,-0.1967,0.001534,0.587515,-0.559903,0.556835,-0.592117,0.558369,-0.559903
4.6513,0.020084,0.000000,-0.012173,0.012173,0.0000,0.0000,0.0000,-0.002510,-0.015340,0.013806,1.0819,0.6408,-0.1967,0.001534,0.587515,-0.559903,0.556835,-0.592117,0.558369,-0.559903
4.6717,0.020404,0.000000,-0.011461,0.011461,0.0000,0.0000,0.0000,-0.002524,-0.015340,0.013806,1.0432,0.6759,-0.1441,0.001534,0.587515,-0.558369,0.556835,-0.592117,0.558369,-0.559903
4.6918,0.020104,0.000000,-0.010759,0.010759,0.0000,0.0000,0.0000,-0.002509,-0.013806,0.012272,1.0865,0.6367,-0.2028,0.001534,0.587515,-0.559903,0.556835,-0.592117,0.558369,-0.559903
4.7119,0.020141,0.000000,-0.010056,0.010056,0.0000,0.0000,0.0000,-0.002510,-0.013806,0.010738,1.0819,0.6408,-0.1967,0.001534,0.587515,-0.559903,0.556835,-0.592117,0.558369,-0.559903
4.7322,0.020289,0.000000,-0.009348,0.009348,0.0000,0.0000,0.0000,-0.002510,-0.013806,0.010738,1.0819,0.6408,-0.1967,0.001534,0.587515,-0.559903,0.556835,-0.592117,0.558369,-0.559903
4.7525,0.020290,0.000000,-0.008639,0.008639,0.0000,0.0000,0.0000,-0.002510,-0.012272,0.010738,1.0819,0.6408,-0.1967,0.001534,0.587515,-0.559903,0.556835,-0.592117,0.558369,-0.559903
4.7732,0.020656,0.000000,-0.007918,0.007918,0.0000,0.0000,0.0000,-0.002510,-0.012272,0.010738,1.0819,0.6408,-0.1967,0.001534,0.587515,-0.559903,0.556835,-0.592117,0.558369,-0.559903
4.7932,0.020092,0.000000,-0.007217,0.007217,0.0000,0.0000,0.0000,-0.002510,-0.009204,0.009204,1.0819,0.6408,-0.1967,0.001534,0.587515,-0.559903,0.556835,-0.592117,0.558369,-0.559903
4.8133,0.020086,0.000000,-0.006516,0.006516,0.0000,0.0000,0.0000,-0.002510,-0.007670,0.009204,1.0819,0.6408,-0.1967,0.001534,0.587515,-0.559903,0.556835,-0.592117,0.558369,-0.559903
4.8336,0.020244,0.000000,-0.005809,0.005809,0.0000,0.0000,0.0000,-0.002510,-0.007670,0.009204,1.0819,0.6408,-0.1967,0.001534,0.587515,-0.559903,0.556835,-0.592117,0.558369,-0.559903
4.8537,0.020130,0.000000,-0.005107,0.005107,0.0000,0.0000,0.0000,-0.002510,-0.007670,0.009204,1.0819,0.6408,-0.1967,0.001534,0.587515,-0.559903,0.556835,-0.592117,0.558369,-0.559903
4.8738,0.020138,0.000000,-0.004404,0.004404,0.0000,0.0000,0.0000,-0.002524,-0.007670,0.007670,1.0432,0.6759,-0.1441,0.001534,0.587515,-0.558369,0.556835,-0.592117,0.558369,-0.559903
4.8944,0.020538,0.000000,-0.003687,0.003687,0.0000,0.0000,0.0000,-0.002522,-0.006136,0.007670,1.0472,0.6722,-0.1495,0.001534,0.587515,-0.558369,0.556835,-0.592117,0.558369,-0.559903
4.9148,0.020443,0.000000,-0.002973,0.002973,0.0000,0.0000,0.0000,-0.002509,-0.003068,0.007670,1.0860,0.6371,-0.2022,0.001534,0.587515,-0.559903,0.556835,-0.592117,0.558369,-0.559903
4.9349,0.020088,0.000000,-0.002272,0.002272,0.0000,0.0000,0.0000,-0.002510,-0.001534,0.006136,1.0820,0.6408,-0.1968,0.001534,0.587515,-0.559903,0.556835,-0.592117,0.558369,-0.559903
4.9550,0.020098,0.000000,-0.001570,0.001570,0.0000,0.0000,0.0000,-0.002510,-0.004602,0.006136,1.0820,0.6408,-0.1968,0.001534,0.587515,-0.559903,0.556835,-0.592117,0.558369,-0.559903
4.9751,0.020087,0.000000,-0.000869,0.000869,0.0000,0.0000,0.0000,-0.002510,-0.003068,0.006136,1.0820,0.6408,-0.1968,0.001534,0.587515,-0.559903,0.556835,-0.592117,0.558369,-0.559903
4.9954,0.020302,0.000000,-0.000161,0.000161,0.0000,0.0000,0.0000,-0.002510,0.000000,0.004602,1.0820,0.6408,-0.1968,0.001534,0.587515,-0.559903,0.556835,-0.592117,0.558369,-0.559903
5.0155,0.020084,0.000000,0.000541,-0.000541,0.0000,0.0000,0.0000,-0.002510,0.001534,0.004602,1.0820,0.6408,-0.1968,0.001534,0.587515,-0.559903,0.556835,-0.592117,0.558369,-0.559903
5.0356,0.020090,0.000000,0.001242,-0.001242,0.0000,0.0000,0.0000,-0.002510,-0.003068,0.003068,1.0820,0.6408,-0.1968,0.001534,0.587515,-0.559903,0.556835,-0.592117,0.558369,-0.559903
5.0557,0.020100,0.000000,0.001943,-0.001943,0.0000,0.0000,0.0000,-0.002510,-0.006136,0.001534,1.0820,0.6408,-0.1968,0.001534,0.587515,-0.559903,0.556835,-0.592117,0.558369,-0.559903
5.0758,0.020085,0.000000,0.002645,-0.002645,0.0000,0.0000,0.0000,-0.002510,0.000000,-0.001534,1.0820,0.6408,-0.1968,0.001534,0.587515,-0.559903,0.556835,-0.592117,0.558369,-0.559903
5.0958,0.020090,0.000000,0.003346,-0.003346,0.0000,0.0000,0.0000,-0.002510,0.004602,-0.001534,1.0820,0.6408,-0.2846,0.000000,0.587515,-0.559903,0.556835,-0.592117,0.558369,-0.559903
5.1159,0.020088,0.000000,0.004047,-0.004047,0.0000,0.0000,0.0000,-0.002510,0.000000,-0.001534,1.0820,0.6408,-0.1968,0.001534,0.587515,-0.559903,0.556835,-0.592117,0.558369,-0.559903
5.1360,0.020111,0.000000,0.004749,-0.004749,0.0000,0.0000,0.0000,-0.002524,-0.003068,-0.001534,1.0432,0.6759,-0.1441,0.001534,0.587515,-0.558369,0.556835,-0.592117,0.558369,-0.559903
5.1570,0.020971,0.000000,0.005481,-0.005481,0.0000,0.0000,0.0000,-0.002509,0.006136,-0.003068,1.0865,0.6367,-0.2028,0.001534,0.587515,-0.559903,0.556835,-0.592117,0.558369,-0.559903
5.1771,0.020088,0.000000,0.006182,-0.006182,0.0000,0.0000,0.0000,-0.002510,0.003068,-0.003068,1.0819,0.6408,-0.1967,0.001534,0.587515,-0.559903,0.556835,-0.592117,0.558369,-0.559903
5.1972,0.020087,0.000000,0.006883,-0.006883,0.0000,0.0000,0.0000,-0.002510,-0.001534,-0.003068,1.0819,0.6408,-0.1967,0.001534,0.587515,-0.559903,0.556835,-0.592117,0.558369,-0.559903
5.2173,0.020091,0.000000,0.007585,-0.007585,0.0000,0.0000,0.0000,-0.002510,0.004602,-0.004602,1.0819,0.6408,-0.1967,0.001534,0.587515,-0.559903,0.556835,-0.592117,0.558369,-0.559903
5.2376,0.020336,0.000000,0.008295,-0.008295,0.0000,0.0000,0.0000,-0.002510,0.009204,-0.004602,1.0819,0.6408,-0.1967,0.001534,0.587515,-0.559903,0.556835,-0.592117,0.558369,-0.559903
5.2577,0.020094,0.000000,0.008996,-0.008996,0.0000,0.0000,0.0000,-0.002510,0.004602,-0.006136,1.0819,0.6408,-0.1967,0.001534,0.587515,-0.559903,0.556835,-0.592117,0.558369,-0.559903
5.2778,0.020086,0.000000,0.009697,-0.009697,0.0000,0.0000,0.0000,-0.002510,0.000000,-0.007670,1.0819,0.6408,-0.1967,0.001534,0.587515,-0.559903,0.556835,-0.592117,0.558369,-0.559903
5.2979,0.020089,0.000000,0.010398,-0.010398,0.0000,0.0000,0.0000,-0.002510,0.004602,-0.007670,1.0819,0.6408,-0.1967,0.001534,0.587515,-0.559903,0.556835,-0.592117,0.558369,-0.559903
5.3180,0.020096,0.000000,0.011100,-0.011100,0.0000,0.0000,0.0000,-0.002510,0.012272,-0.009204,1.0819,0.6408,-0.1967,0.001534,0.587515,-0.559903,0.556835,-0.592117,0.558369,-0.559903
5.3381,0.020112,0.000000,0.011802,-0.011802,0.0000,0.0000,0.0000,-0.002510,0.007670,-0.009204,1.0819,0.6408,-0.1967,0.001534,0.587515,-0.559903,0.556835,-0.592117,0.558369,-0.559903
5.3583,0.020247,0.000000,0.012509,-0.012509,0.0000,0.0000,0.0000,-0.002524,0.003068,-0.009204,1.0432,0.6759,-0.1441,0.001534,0.587515,-0.558369,0.556835,-0.592117,0.558369,-0.559903
5.3786,0.020229,0.000000,0.013215,-0.013215,0.0000,0.0000,0.0000,-0.002509,0.006136,-0.010738,1.0865,0.6367,-0.2028,0.001534,0.587515,-0.559903,0.556835,-0.592117,0.558369,-0.559903
5.3987,0.020114,0.000000,0.013917,-0.013917,0.0000,0.0000,0.0000,-0.002510,0.016874,-0.012272,1.0819,0.6408,-0.1967,0.001534,0.587515,-0.559903,0.556835,-0.592117,0.558369,-0.559903
5.4188,0.020094,0.000000,0.014618,-0.014618,0.0000,0.0000,0.0000,-0.002510,0.013806,-0.012272,1.0819,0.6408,-0.1967,0.001534,0.587515,-0.559903,0.556835,-0.592117,0.558369,-0.559903
5.4389,0.020154,0.000000,0.015322,-0.015322,0.0000,0.0000,0.0000,-0.002510,0.006136,-0.012272,1.0819,0.6408,-0.1967,0.001534,0.587515,-0.559903,0.556835,-0.592117,0.558369,-0.559903
5.4596,0.020646,0.000000,0.016042,-0.016042,0.0000,0.0000,0.0000,-0.002510,0.007670,-0.013806,1.0819,0.6408,-0.1967,0.001534,0.587515,-0.559903,0.556835,-0.592117,0.558369,-0.559903
5.4797,0.020087,0.000000,0.016744,-0.016744,0.0000,0.0000,0.0000,-0.002510,0.018408,-0.013806,1.0819,0.6408,-0.1967,0.001534,0.587515,-0.559903,0.556835,-0.592117,0.558369,-0.559903
5.4999,0.020243,0.000000,0.017450,-0.017450,0.0000,0.0000,0.0000,-0.002510,0.016874,-0.013806,1.0819,0.6408,-0.1967,0.001534,0.587515,-0.559903,0.556835,-0.592117,0.558369,-0.559903
5.5200,0.020090,0.000000,0.018151,-0.018151,0.0000,0.0000,0.0000,-0.002510,0.007670,-0.015340,1.0819,0.6408,-0.1967,0.001534,0.587515,-0.559903,0.556835,-0.592117,0.558369,-0.559903
5.5404,0.020399,0.000000,0.018864,-0.018864,0.0000,0.0000,0.0000,-0.002510,0.010738,-0.016874,1.0819,0.6408,-0.1967,0.001534,0.587515,-0.559903,0.556835,-0.592117,0.558369,-0.559903
5.5606,0.020225,0.000000,0.019569,-0.019569,0.0000,0.0000,0.0000,-0.002510,0.019942,-0.016874,1.0819,0.6408,-0.1967,0.001534,0.587515,-0.559903,0.556835,-0.592117,0.558369,-0.559903
5.5808,0.020127,0.000000,0.020272,-0.020272,0.0000,0.0000,0.0000,-0.002510,0.018408,-0.016874,1.0819,0.6408,-0.1967,0.001534,0.587515,-0.559903,0.556835,-0.592117,0.558369,-0.559903
5.6009,0.020114,0.000000,0.020974,-0.020974,0.0000,0.0000,0.0000,-0.002510,0.013806,-0.016874,1.0819,0.6408,-0.1967,0.001534,0.587515,-0.559903,0.556835,-0.592117,0.558369,-0.559903
5.6210,0.020114,0.000000,0.021676,-0.021676,0.0000,0.0000,0.0000,-0.002510,0.013806,-0.016874,1.0819,0.6408,-0.1967,0.001534,0.587515,-0.559903,0.556835,-0.592117,0.558369,-0.559903
5.6411,0.020123,0.000000,0.022379,-0.022379,0.0000,0.0000,0.0000,-0.002510,0.018408,-0.016874,1.0819,0.6408,-0.1967,0.000000,0.587515,-0.558369,0.556835,-0.592117,0.558369,-0.559903
5.6612,0.020116,0.000000,0.023081,-0.023081,0.0000,0.0000,0.0000,-0.002524,0.018408,-0.016874,1.0432,0.6759,-0.2320,0.000000,0.587515,-0.558369,0.556835,-0.592117,0.558369,-0.559903
5.6813,0.020099,0.000000,0.023782,-0.023782,0.0000,0.0000,0.0000,-0.002509,0.019942,-0.018408,1.0865,0.6367,-0.2028,0.001534,0.587515,-0.559903,0.556835,-0.592117,0.558369,-0.559903
5.7014,0.020105,0.000000,0.024484,-0.024484,0.0000,0.0000,0.0000,-0.002510,0.019942,-0.018408,1.0819,0.6408,-0.1967,0.001534,0.587515,-0.559903,0.556835,-0.592117,0.558369,-0.559903
5.7215,0.020104,0.000000,0.025186,-0.025186,0.0000,0.0000,0.0000,-0.002510,0.019942,-0.018408,1.0819,0.6408,-0.1967,0.001534,0.587515,-0.559903,0.556835,-0.592117,0.558369,-0.559903
5.7416,0.020092,0.000000,0.025887,-0.025887,0.0000,0.0000,0.0000,-0.002510,0.026078,-0.019942,1.0819,0.6408,-0.1967,0.001534,0.587515,-0.559903,0.556835,-0.592117,0.558369,-0.559903
5.7618,0.020144,0.000000,0.026591,-0.026591,0.0000,0.0000,0.0000,-0.002510,0.026078,-0.019942,1.0819,0.6408,-0.1967,0.001534,0.587515,-0.559903,0.556835,-0.592117,0.558369,-0.559903
5.7819,0.020104,0.000000,0.027292,-0.027292,0.0000,0.0000,0.0000,-0.002510,0.024544,-0.021476,1.0819,0.6408,-0.1967,0.001534,0.587515,-0.559903,0.556835,-0.592117,0.558369,-0.559903
5.8019,0.020080,0.000000,0.027993,-0.027993,0.0000,0.0000,0.0000,-0.002510,0.024544,-0.024544,1.0819,0.6408,-0.1967,0.001534,0.587515,-0.559903,0.556835,-0.592117,0.558369,-0.559903
5.8220,0.020074,0.000000,0.028694,-0.028694,0.0000,0.0000,0.0000,-0.002510,0.024544,-0.024544,1.0819,0.6408,-0.1967,0.001534,0.587515,-0.559903,0.556835,-0.592117,0.558369,-0.559903
5.8421,0.020096,0.000000,0.029395,-0.029395,0.0000,0.0000,0.0000,-0.002510,0.030680,-0.026078,1.0819,0.6408,-0.1967,0.001534,0.587515,-0.559903,0.556835,-0.592117,0.558369,-0.559903
5.8622,0.020109,0.000000,0.030097,-0.030097,0.0000,0.0000,0.0000,-0.002510,0.029146,-0.026078,1.0819,0.6408,-0.1967,0.001534,0.587515,-0.559903,0.556835,-0.592117,0.558369,-0.559903
5.8823,0.020101,0.000000,0.030799,-0.030799,0.0000,0.0000,0.0000,-0.002510,0.021476,-0.027612,1.0819,0.6408,-0.1967,0.001534,0.587515,-0.559903,0.556835,-0.592117,0.558369,-0.559903
5.9024,0.020100,0.000000,0.031501,-0.031501,0.0000,0.0000,0.0000,-0.002510,0.026078,-0.029146,1.0819,0.6408,-0.1967,0.001534,0.587515,-0.559903,0.556835,-0.592117,0.558369,-0.559903
5.9248,0.022386,0.000000,0.032282,-0.032282,0.0000,0.0000,0.0000,-0.002510,0.033748,-0.029146,1.0819,0.6408,-0.1967,0.001534,0.587515,-0.559903,0.556835,-0.592117,0.558369,-0.559903
5.9449,0.020098,0.000000,0.032984,-0.032984,0.0000,0.0000,0.0000,-0.002510,0.024544,-0.030680,1.0819,0.6408,-0.2846,0.000000,0.587515,-0.559903,0.556835,-0.592117,0.558369,-0.559903
5.9650,0.020101,0.000000,0.033685,-0.033685,0.0000,0.0000,0.0000,-0.002510,0.029146,-0.030680,1.0819,0.6408,-0.1967,0.001534,0.587515,-0.559903,0.556835,-0.592117,0.558369,-0.559903
5.9851,0.020087,0.000000,0.034386,-0.034386,0.0000,0.0000,0.0000,-0.002510,0.036816,-0.030680,1.0819,0.6408,-0.1967,0.001534,0.587515,-0.559903,0.556835,-0.592117,0.558369,-0.559903
6.0052,0.020104,0.000000,0.035088,-0.035088,0.0000,0.0000,0.0000,-0.002510,0.033748,-0.032214,1.0819,0.6408,-0.1967,0.001534,0.587515,-0.559903,0.556835,-0.592117,0.558369,-0.559903
6.0253,0.020100,0.000000,0.035790,-0.035790,0.0000,0.0000,0.0000,-0.002510,0.026078,-0.032214,1.0819,0.6408,-0.1967,0.001534,0.587515,-0.559903,0.556835,-0.592117,0.558369,-0.559903
6.0454,0.020096,0.000000,0.036491,-0.036491,0.0000,0.0000,0.0000,-0.002510,0.029146,-0.032214,1.0819,0.6408,-0.1967,0.001534,0.587515,-0.559903,0.556835,-0.592117,0.558369,-0.559903
6.0655,0.020111,0.000000,0.037193,-0.037193,0.0000,0.0000,0.0000,-0.002510,0.038350,-0.033748,1.0819,0.6408,-0.1967,0.001534,0.587515,-0.559903,0.556835,-0.592117,0.558369,-0.559903
6.0856,0.020100,0.000000,0.037895,-0.037895,0.0000,0.0000,0.0000,-0.002510,0.036816,-0.035282,1.0819,0.6408,-0.1967,0.001534,0.587515,-0.559903,0.556835,-0.592117,0.558369,-0.559903
6.1057,0.020101,0.000000,0.038597,-0.038597,0.0000,0.0000,0.0000,-0.002510,0.029146,-0.035282,1.0819,0.6408,-0.1967,0.001534,0.587515,-0.558369,0.556835,-0.592117,0.558369,-0.559903
6.1258,0.020105,0.000000,0.039298,-0.039298,0.0000,0.0000,0.0000,-0.002522,0.029146,-0.036816,1.0472,0.6722,-0.1495,0.001534,0.587515,-0.558369,0.556835,-0.592117,0.558369,-0.559903
6.1459,0.020101,0.000000,0.040000,-0.040000,0.0000,0.0000,0.0000,-0.002522,0.038350,-0.036816,1.0472,0.6722,-0.1495,0.001534,0.587515,-0.559903,0.556835,-0.592117,0.558369,-0.559903
6.1660,0.020110,0.000000,0.040702,-0.040702,0.0000,0.0000,0.0000,-0.002509,0.038350,-0.036816,1.0860,0.6371,-0.2022,0.001534,0.587515,-0.559903,0.556835,-0.592117,0.558369,-0.559903
6.1861,0.020098,0.000000,0.041404,-0.041404,0.0000,0.0000,0.0000,-0.002510,0.036816,-0.038350,1.0820,0.6408,-0.1968,0.001534,0.587515,-0.559903,0.556835,-0.592117,0.558369,-0.559903
6.2062,0.020094,0.000000,0.042105,-0.042105,0.0000,0.0000,0.0000,-0.002510,0.033748,-0.039884,1.0820,0.6408,-0.1968,0.001534,0.587515,-0.559903,0.556835,-0.592117,0.558369,-0.559903
6.2263,0.020103,0.000000,0.042807,-0.042807,0.0000,0.0000,0.0000,-0.002510,0.038350,-0.039884,1.0820,0.6408,-0.1968,0.001534,0.587515,-0.559903,0.556835,-0.592117,0.558369,-0.559903
6.2464,0.020096,0.000000,0.043508,-0.043508,0.0000,0.0000,0.0000,-0.002510,0.044485,-0.039884,1.0820,0.6408,-0.1968,0.001534,0.587515,-0.559903,0.556835,-0.592117,0.558369,-0.559903
6.2665,0.020108,0.000000,0.044210,-0.044210,0.0000,0.0000,0.0000,-0.002510,0.039884,-0.041417,1.0820,0.6408,-0.1968,0.001534,0.587515,-0.559903,0.556835,-0.592117,0.558369,-0.559903
6.2866,0.020094,0.000000,0.044911,-0.044911,0.0000,0.0000,0.0000,-0.002510,0.036816,-0.041417,1.0820,0.6408,-0.1968,0.001534,0.587515,-0.559903,0.556835,-0.592117,0.558369,-0.559903
6.3067,0.020093,0.000000,0.045613,-0.045613,0.0000,0.0000,0.0000,-0.002510,0.041417,-0.042951,1.0820,0.6408,-0.1968,0.001534,0.587515,-0.559903,0.556835,-0.592117,0.558369,-0.559903
6.3268,0.020105,0.000000,0.046315,-0.046315,0.0000,0.0000,0.0000,-0.002510,0.046019,-0.042951,1.0820,0.6408,-0.1968,0.001534,0.587515,-0.559903,0.556835,-0.592117,0.558369,-0.559903
6.3469,0.020092,0.000000,0.047016,-0.047016,0.0000,0.0000,0.0000,-0.002510,0.042951,-0.042951,1.0820,0.6408,-0.1968,0.001534,0.587515,-0.559903,0.556835,-0.592117,0.558369,-0.559903
6.3670,0.020103,0.000000,0.047718,-0.047718,0.0000,0.0000,0.0000,-0.002510,0.042951,-0.042951,1.0820,0.6408,-0.1968,0.001534,0.587515,-0.559903,0.556835,-0.592117,0.558369,-0.559903
6.3871,0.020118,0.000000,0.048420,-0.048420,0.0000,0.0000,0.0000,-0.002524,0.038350,-0.044485,1.0432,0.6759,-0.1441,0.001534,0.587515,-0.558369,0.556835,-0.592117,0.558369,-0.559903
6.4072,0.020098,0.000000,0.049121,-0.049121,0.0000,0.0000,0.0000,-0.002509,0.042951,-0.046019,1.0865,0.6367,-0.2028,0.001534,0.587515,-0.559903,0.556835,-0.592117,0.558369,-0.559903
6.4273,0.020107,0.000000,0.049823,-0.049823,0.0000,0.0000,0.0000,-0.002510,0.049087,-0.046019,1.0819,0.6408,-0.1967,0.001534,0.587515,-0.559903,0.556835,-0.592117,0.558369,-0.559903
6.4474,0.020101,0.000000,0.050525,-0.050525,0.0000,0.0000,0.0000,-0.002510,0.046019,-0.046019,1.0819,0.6408,-0.1967,0.001534,0.587515,-0.559903,0.556835,-0.592117,0.558369,-0.559903
6.4675,0.020099,0.000000,0.051227,-0.051227,0.0000,0.0000,0.0000,-0.002510,0.041417,-0.046019,1.0819,0.6408,-0.1967,0.001534,0.587515,-0.559903,0.556835,-0.592117,0.558369,-0.559903
6.4876,0.020097,0.000000,0.051928,-0.051928,0.0000,0.0000,0.0000,-0.002510,0.044485,-0.047553,1.0819,0.6408,-0.1967,0.001534,0.587515,-0.559903,0.556835,-0.592117,0.558369,-0.559903
6.5077,0.020086,0.000000,0.052629,-0.052629,0.0000,0.0000,0.0000,-0.002510,0.050621,-0.047553,1.0819,0.6408,-0.1967,0.001534,0.587515,-0.559903,0.556835,-0.592117,0.558369,-0.559903
6.5278,0.020092,0.000000,0.053331,-0.053331,0.0000,0.0000,0.0000,-0.002510,0.052155,-0.047553,1.0819,0.6408,-0.1967,0.001534,0.587515,-0.559903,0.556835,-0.592117,0.558369,-0.559903
6.5479,0.020086,0.000000,0.054032,-0.054032,0.0000,0.0000,0.0000,-0.002510,0.050621,-0.049087,1.0819,0.6408,-0.1967,0.001534,0.587515,-0.559903,0.556835,-0.592117,0.558369,-0.559903
