t,loop_dt,cmd_z,cmd_ant_l,cmd_ant_r,cmd_roll,cmd_pitch,cmd_yaw,pres_z,pres_ant_l,pres_ant_r,pres_roll,pres_pitch,pres_yaw,pres_j0,pres_j1,pres_j2,pres_j3,pres_j4,pres_j5,pres_j6
0.0000,0.000001,0.000000,-1.745329,1.745329,0.0000,0.0000,0.0000,-0.002668,-1.569262,1.566194,1.0347,1.0233,-0.0979,0.001534,0.578311,-0.555301,0.556835,-0.595185,0.558369,-0.549165
0.0201,0.020098,0.000000,-1.744628,1.744628,0.0000,0.0000,0.0000,-0.002682,-1.572330,1.566194,1.0787,1.0606,-0.1565,0.001534,0.578311,-0.555301,0.556835,-0.595185,0.556835,-0.549165
0.0402,0.020090,0.000000,-1.743926,1.743926,0.0000,0.0000,0.0000,-0.002657,-1.572330,1.567728,1.0836,1.0077,-0.0440,0.001534,0.579845,-0.555301,0.556835,-0.595185,0.558369,-0.549165
0.0603,0.020100,0.000000,-1.743225,1.743225,0.0000,0.0000,0.0000,-0.002671,-1.572330,1.567728,1.0333,1.0286,-0.1096,0.001534,0.578311,-0.555301,0.556835,-0.595185,0.558369,-0.549165
0.0804,0.020087,0.000000,-1.742524,1.742524,0.0000,0.0000,0.0000,-0.002682,-1.595340,1.590738,1.0789,1.0601,-0.1552,0.001534,0.578311,-0.555301,0.556835,-0.595185,0.556835,-0.549165
0.1005,0.020090,0.000000,-1.741822,1.741822,0.0000,0.0000,0.0000,-0.002657,-1.667437,1.662835,1.0836,1.0078,-0.0441,0.001534,0.579845,-0.555301,0.556835,-0.595185,0.558369,-0.549165
0.1209,0.020392,0.000000,-1.741110,1.741110,0.0000,0.0000,0.0000,-0.002671,-1.751806,1.742602,1.0333,1.0286,-0.1096,0.001534,0.578311,-0.555301,0.556835,-0.595185,0.558369,-0.549165
0.1410,0.020095,0.000000,-1.740409,1.740409,0.0000,0.0000,0.0000,-0.002645,-1.788622,1.780952,1.0391,0.9930,-0.1024,0.001534,0.579845,-0.555301,0.556835,-0.595185,0.558369,-0.550699
0.1610,0.020095,0.000000,-1.739708,1.739708,0.0000,0.0000,0.0000,-0.002647,-1.790156,1.784020,1.0295,1.0122,-0.2091,0.001534,0.579845,-0.555301,0.556835,-0.595185,0.556835,-0.552233
0.1811,0.020092,0.000000,-1.739006,1.739006,0.0000,0.0000,0.0000,-0.002608,-1.767146,1.767146,0.8917,0.9406,-0.2527,0.001534,0.579845,-0.555301,0.556835,-0.595185,0.558369,-0.555301
0.2012,0.020091,0.000000,-1.738305,1.738305,0.0000,0.0000,0.0000,-0.002600,-1.761010,1.765612,0.8569,0.9302,-0.3017,0.001534,0.579845,-0.555301,0.556835,-0.595185,0.558369,-0.556835
0.2213,0.020086,0.000000,-1.737604,1.737604,0.0000,0.0000,0.0000,-0.002575,-1.754874,1.765612,0.7623,0.8956,-0.4039,0.001534,0.579845,-0.555301,0.556835,-0.595185,0.558369,-0.559903
0.2414,0.020096,0.000000,-1.736902,1.736902,0.0000,0.0000,0.0000,-0.002577,-1.754874,1.764078,0.7722,0.8993,-0.3932,0.001534,0.579845,-0.555301,0.556835,-0.595185,0.558369,-0.559903
0.2617,0.020276,0.000000,-1.736195,1.736195,0.0000,0.0000,0.0000,-0.002590,-1.754874,1.764078,0.8117,0.9326,-0.4469,0.001534,0.579845,-0.555301,0.556835,-0.595185,0.556835,-0.559903
0.2818,0.020085,0.000000,-1.735493,1.735493,0.0000,0.0000,0.0000,-0.002576,-1.753340,1.764078,0.7670,0.8954,-0.3888,0.001534,0.579845,-0.555301,0.556835,-0.595185,0.558369,-0.559903
0.3019,0.020093,0.000000,-1.734792,1.734792,0.0000,0.0000,0.0000,-0.002577,-1.753340,1.762544,0.7717,0.8993,-0.3948,0.001534,0.579845,-0.555301,0.556835,-0.595185,0.558369,-0.559903
0.3220,0.020098,0.000000,-1.734091,1.734091,0.0000,0.0000,0.0000,-0.002577,-1.753340,1.762544,0.7717,0.8993,-0.3948,0.001534,0.579845,-0.555301,0.556835,-0.595185,0.558369,-0.559903
0.3421,0.020112,0.000000,-1.733388,1.733388,0.0000,0.0000,0.0000,-0.002577,-1.753340,1.761010,0.7717,0.8993,-0.3948,0.001534,0.579845,-0.555301,0.556835,-0.595185,0.558369,-0.559903
0.3622,0.020098,0.000000,-1.732687,1.732687,0.0000,0.0000,0.0000,-0.002577,-1.753340,1.761010,0.7717,0.8993,-0.3948,0.001534,0.579845,-0.555301,0.556835,-0.595185,0.558369,-0.559903
0.3823,0.020088,0.000000,-1.731986,1.731986,0.0000,0.0000,0.0000,-0.002577,-1.753340,1.761010,0.7717,0.8993,-0.3948,0.001534,0.579845,-0.555301,0.556835,-0.595185,0.558369,-0.559903
0.4024,0.020098,0.000000,-1.731284,1.731284,0.0000,0.0000,0.0000,-0.002577,-1.753340,1.759476,0.7717,0.8993,-0.3948,0.001534,0.579845,-0.555301,0.556835,-0.595185,0.558369,-0.559903
0.4224,0.020086,0.000000,-1.730583,1.730583,0.0000,0.0000,0.0000,-0.002577,-1.753340,1.759476,0.7717,0.8993,-0.3948,0.001534,0.579845,-0.555301,0.556835,-0.595185,0.558369,-0.559903
0.4425,0.020078,0.000000,-1.729882,1.729882,0.0000,0.0000,0.0000,-0.002577,-1.753340,1.757942,0.7717,0.8993,-0.3948,0.001534,0.579845,-0.555301,0.556835,-0.595185,0.558369,-0.559903
0.4626,0.020078,0.000000,-1.729181,1.729181,0.0000,0.0000,0.0000,-0.002577,-1.753340,1.757942,0.7717,0.8993,-0.3948,0.001534,0.579845,-0.555301,0.556835,-0.595185,0.558369,-0.559903
0.4827,0.020079,0.000000,-1.728480,1.728480,0.0000,0.0000,0.0000,-0.002577,-1.753340,1.754874,0.7717,0.8993,-0.3948,0.001534,0.579845,-0.555301,0.556835,-0.595185,0.558369,-0.559903
0.5031,0.020440,0.000000,-1.727767,1.727767,0.0000,0.0000,0.0000,-0.002577,-1.753340,1.754874,0.7717,0.8993,-0.3948,0.001534,0.579845,-0.555301,0.556835,-0.595185,0.558369,-0.559903
0.5232,0.020077,0.000000,-1.727066,1.727066,0.0000,0.0000,0.0000,-0.002577,-1.753340,1.754874,0.7717,0.8993,-0.3948,0.001534,0.579845,-0.555301,0.556835,-0.595185,0.558369,-0.559903
0.5434,0.020209,0.000000,-1.726361,1.726361,0.0000,0.0000,0.0000,-0.002590,-1.753340,1.754874,0.8117,0.9326,-0.4467,0.001534,0.579845,-0.555301,0.556835,-0.595185,0.556835,-0.559903
0.5635,0.020081,0.000000,-1.725660,1.725660,0.0000,0.0000,0.0000,-0.002576,-1.753340,1.754874,0.7670,0.8954,-0.3888,0.001534,0.579845,-0.555301,0.556835,-0.595185,0.558369,-0.559903
0.5836,0.020075,0.000000,-1.724959,1.724959,0.0000,0.0000,0.0000,-0.002577,-1.753340,1.754874,0.7717,0.8993,-0.3948,0.001534,0.579845,-0.555301,0.556835,-0.595185,0.558369,-0.559903
0.6040,0.020403,0.000000,-1.724247,1.724247,0.0000,0.0000,0.0000,-0.002577,-1.753340,1.754874,0.7717,0.8993,-0.3948,0.001534,0.579845,-0.555301,0.556835,-0.595185,0.558369,-0.559903
0.6240,0.020077,0.000000,-1.723546,1.723546,0.0000,0.0000,0.0000,-0.002577,-1.751806,1.754874,0.7717,0.8993,-0.3948,0.001534,0.579845,-0.555301,0.556835,-0.595185,0.558369,-0.559903
0.6441,0.020079,0.000000,-1.722845,1.722845,0.0000,0.0000,0.0000,-0.002577,-1.751806,1.754874,0.7717,0.8993,-0.3948,0.001534,0.579845,-0.555301,0.556835,-0.595185,0.558369,-0.559903
0.6642,0.020081,0.000000,-1.722144,1.722144,0.0000,0.0000,0.0000,-0.002577,-1.753340,1.754874,0.7717,0.8993,-0.3948,0.001534,0.579845,-0.555301,0.556835,-0.595185,0.558369,-0.559903
0.6843,0.020083,0.000000,-1.721443,1.721443,0.0000,0.0000,0.0000,-0.002577,-1.751806,1.754874,0.7717,0.8993,-0.3948,0.001534,0.579845,-0.555301,0.556835,-0.595185,0.558369,-0.559903
0.7044,0.020126,0.000000,-1.720741,1.720741,0.0000,0.0000,0.0000,-0.002590,-1.751806,1.754874,0.8117,0.9326,-0.4467,0.001534,0.579845,-0.555301,0.556835,-0.595185,0.556835,-0.559903
0.7245,0.020081,0.000000,-1.720040,1.720040,0.0000,0.0000,0.0000,-0.002576,-1.751806,1.754874,0.7670,0.8954,-0.3888,0.001534,0.579845,-0.555301,0.556835,-0.595185,0.558369,-0.559903
0.7447,0.020190,0.000000,-1.719335,1.719335,0.0000,0.0000,0.0000,-0.002577,-1.751806,1.754874,0.7717,0.8993,-0.3948,0.001534,0.579845,-0.555301,0.556835,-0.595185,0.558369,-0.559903
0.7648,0.020118,0.000000,-1.718633,1.718633,0.0000,0.0000,0.0000,-0.002577,-1.750272,1.754874,0.7717,0.8993,-0.3948,0.001534,0.579845,-0.555301,0.556835,-0.595185,0.558369,-0.559903
0.7849,0.020094,0.000000,-1.717931,1.717931,0.0000,0.0000,0.0000,-0.002577,-1.750272,1.754874,0.7717,0.8993,-0.3948,0.001534,0.579845,-0.555301,0.556835,-0.595185,0.558369,-0.559903
0.8050,0.020081,0.000000,-1.717230,1.717230,0.0000,0.0000,0.0000,-0.002577,-1.750272,1.754874,0.7717,0.8993,-0.3948,0.001534,0.579845,-0.555301,0.556835,-0.595185,0.558369,-0.559903
0.8251,0.020083,0.000000,-1.716529,1.716529,0.0000,0.0000,0.0000,-0.002577,-1.750272,1.754874,0.7717,0.8993,-0.3948,0.001534,0.579845,-0.555301,0.556835,-0.595185,0.558369,-0.559903
0.8451,0.020085,0.000000,-1.715828,1.715828,0.0000,0.0000,0.0000,-0.002577,-1.750272,1.754874,0.7717,0.8993,-0.3948,0.001534,0.579845,-0.555301,0.556835,-0.595185,0.558369,-0.559903
0.8652,0.020106,0.000000,-1.715126,1.715126,0.0000,0.0000,0.0000,-0.002590,-1.750272,1.754874,0.8117,0.9326,-0.4467,0.001534,0.579845,-0.555301,0.556835,-0.595185,0.556835,-0.559903
0.8854,0.020108,0.000000,-1.714424,1.714424,0.0000,0.0000,0.0000,-0.002589,-1.750272,1.754874,0.8076,0.9292,-0.4413,0.001534,0.579845,-0.555301,0.556835,-0.595185,0.556835,-0.559903
0.9055,0.020125,0.000000,-1.713722,1.713722,0.0000,0.0000,0.0000,-0.002576,-1.750272,1.754874,0.7675,0.8958,-0.3893,0.001534,0.579845,-0.555301,0.556835,-0.595185,0.558369,-0.559903
0.9256,0.020089,0.000000,-1.713021,1.713021,0.0000,0.0000,0.0000,-0.002577,-1.750272,1.754874,0.7717,0.8993,-0.3948,0.001534,0.579845,-0.555301,0.556835,-0.595185,0.558369,-0.559903
0.9456,0.020077,0.000000,-1.712320,1.712320,0.0000,0.0000,0.0000,-0.002577,-1.750272,1.754874,0.7717,0.8993,-0.3948,0.001534,0.579845,-0.555301,0.556835,-0.595185,0.558369,-0.559903
0.9657,0.020087,0.000000,-1.711619,1.711619,0.0000,0.0000,0.0000,-0.002577,-1.750272,1.754874,0.7717,0.8993,-0.3948,0.001534,0.579845,-0.555301,0.556835,-0.595185,0.558369,-0.559903
0.9858,0.020081,0.000000,-1.710918,1.710918,0.0000,0.0000,0.0000,-0.002590,-1.750272,1.754874,0.8118,0.9326,-0.4467,0.001534,0.579845,-0.555301,0.556835,-0.595185,0.556835,-0.559903
1.0059,0.020080,0.000000,-1.710217,1.710217,0.0000,0.0000,0.0000,-0.002576,-1.748738,1.754874,0.7670,0.8954,-0.3888,0.001534,0.579845,-0.555301,0.556835,-0.595185,0.558369,-0.559903
1.0260,0.020110,0.000000,-1.709515,1.709515,0.0000,0.0000,0.0000,-0.002577,-1.748738,1.754874,0.7717,0.8993,-0.3948,0.001534,0.579845,-0.555301,0.556835,-0.595185,0.558369,-0.559903
1.0462,0.020237,0.000000,-1.708809,1.708809,0.0000,0.0000,0.0000,-0.002577,-1.748738,1.754874,0.7717,0.8993,-0.3948,0.001534,0.579845,-0.555301,0.556835,-0.595185,0.558369,-0.559903
1.0663,0.020099,0.000000,-1.708107,1.708107,0.0000,0.0000,0.0000,-0.002577,-1.748738,1.754874,0.7717,0.8993,-0.3948,0.001534,0.579845,-0.555301,0.556835,-0.595185,0.558369,-0.559903
1.0865,0.020126,0.000000,-1.707404,1.707404,0.0000,0.0000,0.0000,-0.002577,-1.748738,1.754874,0.7717,0.8993,-0.3948,0.001534,0.579845,-0.555301,0.556835,-0.595185,0.558369,-0.559903
1.1065,0.020083,0.000000,-1.706703,1.706703,0.0000,0.0000,0.0000,-0.002577,-1.748738,1.754874,0.7717,0.8993,-0.3948,0.001534,0.579845,-0.555301,0.556835,-0.595185,0.558369,-0.559903
1.1266,0.020094,0.000000,-1.706002,1.706002,0.0000,0.0000,0.0000,-0.002577,-1.748738,1.754874,0.7717,0.8993,-0.3948,0.001534,0.579845,-0.555301,0.556835,-0.595185,0.558369,-0.559903
1.1468,0.020112,0.000000,-1.705300,1.705300,0.0000,0.0000,0.0000,-0.002577,-1.748738,1.754874,0.7717,0.8993,-0.3948,0.001534,0.579845,-0.555301,0.556835,-0.595185,0.558369,-0.559903
1.1669,0.020095,0.000000,-1.704598,1.704598,0.0000,0.0000,0.0000,-0.002566,-1.748738,1.754874,0.8210,0.8832,-0.3402,0.001534,0.581379,-0.555301,0.556835,-0.595185,0.558369,-0.559903
1.1892,0.022323,0.000000,-1.703819,1.703819,0.0000,0.0000,0.0000,-0.002556,-1.748738,1.753340,0.8657,0.8692,-0.2919,0.001534,0.582913,-0.555301,0.556835,-0.595185,0.558369,-0.559903
1.2093,0.020086,0.000000,-1.703118,1.703118,0.0000,0.0000,0.0000,-0.002557,-1.748738,1.753340,0.8610,0.8707,-0.2969,0.001534,0.582913,-0.555301,0.556835,-0.595185,0.558369,-0.559903
1.2293,0.020086,0.000000,-1.702417,1.702417,0.0000,0.0000,0.0000,-0.002557,-1.747204,1.750272,0.8610,0.8707,-0.2969,0.001534,0.582913,-0.555301,0.556835,-0.595185,0.558369,-0.559903
1.2494,0.020083,0.000000,-1.701716,1.701716,0.0000,0.0000,0.0000,-0.002570,-1.739534,1.744136,0.9020,0.9042,-0.3489,0.001534,0.582913,-0.555301,0.556835,-0.595185,0.556835,-0.559903
1.2695,0.020089,0.000000,-1.701015,1.701015,0.0000,0.0000,0.0000,-0.002556,-1.731864,1.739534,0.8572,0.8671,-0.2910,0.001534,0.582913,-0.555301,0.556835,-0.595185,0.558369,-0.559903
1.2896,0.020084,0.000000,-1.700314,1.700314,0.0000,0.0000,0.0000,-0.002557,-1.725728,1.738000,0.8619,0.8709,-0.2970,0.001534,0.582913,-0.555301,0.556835,-0.595185,0.558369,-0.559903
1.3097,0.020082,0.000000,-1.699613,1.699613,0.0000,0.0000,0.0000,-0.002557,-1.724194,1.738000,0.8619,0.8709,-0.2970,0.001534,0.582913,-0.555301,0.556835,-0.595185,0.558369,-0.559903
1.3298,0.020086,0.000000,-1.698912,1.698912,0.0000,0.0000,0.0000,-0.002557,-1.724194,1.738000,0.8619,0.8709,-0.2970,0.001534,0.582913,-0.555301,0.556835,-0.595185,0.558369,-0.559903
1.3498,0.020081,0.000000,-1.698211,1.698211,0.0000,0.0000,0.0000,-0.002557,-1.724194,1.738000,0.8619,0.8709,-0.2970,0.001534,0.582913,-0.555301,0.556835,-0.595185,0.558369,-0.559903
1.3703,0.020402,0.000000,-1.697498,1.697498,0.0000,0.0000,0.0000,-0.002557,-1.724194,1.738000,0.8619,0.8709,-0.2970,0.001534,0.582913,-0.555301,0.556835,-0.595185,0.558369,-0.559903
1.3903,0.020081,0.000000,-1.696797,1.696797,0.0000,0.0000,0.0000,-0.002557,-1.724194,1.738000,0.8619,0.8709,-0.2970,0.001534,0.582913,-0.555301,0.556835,-0.595185,0.558369,-0.559903
1.4104,0.020081,0.000000,-1.696097,1.696097,0.0000,0.0000,0.0000,-0.002557,-1.724194,1.738000,0.8619,0.8709,-0.2970,0.001534,0.582913,-0.555301,0.556835,-0.595185,0.558369,-0.559903
1.4305,0.020090,0.000000,-1.695395,1.695395,0.0000,0.0000,0.0000,-0.002557,-1.724194,1.738000,0.8619,0.8709,-0.2970,0.001534,0.582913,-0.555301,0.556835,-0.595185,0.558369,-0.559903
1.4506,0.020120,0.000000,-1.694693,1.694693,0.0000,0.0000,0.0000,-0.002546,-1.724194,1.738000,0.9111,0.8549,-0.2424,0.001534,0.584447,-0.555301,0.556835,-0.595185,0.558369,-0.559903
1.4707,0.020125,0.000000,-1.693990,1.693990,0.0000,0.0000,0.0000,-0.002547,-1.724194,1.736466,0.9060,0.8566,-0.2481,0.001534,0.584447,-0.555301,0.556835,-0.595185,0.558369,-0.559903
1.4908,0.020080,0.000000,-1.693290,1.693290,0.0000,0.0000,0.0000,-0.002547,-1.724194,1.733398,0.9060,0.8566,-0.2481,0.001534,0.584447,-0.555301,0.556835,-0.595185,0.558369,-0.559903
1.5109,0.020074,0.000000,-1.692589,1.692589,0.0000,0.0000,0.0000,-0.002547,-1.724194,1.727262,0.9060,0.8566,-0.2481,0.001534,0.584447,-0.555301,0.556835,-0.595185,0.558369,-0.559903
1.5310,0.020128,0.000000,-1.691886,1.691886,0.0000,0.0000,0.0000,-0.002536,-1.724194,1.724194,0.9562,0.8409,-0.1934,0.001534,0.585981,-0.555301,0.556835,-0.595185,0.558369,-0.559903
1.5511,0.020078,0.000000,-1.691185,1.691185,0.0000,0.0000,0.0000,-0.002537,-1.724194,1.722660,0.9510,0.8425,-0.1991,0.001534,0.585981,-0.555301,0.556835,-0.595185,0.558369,-0.559903
1.5713,0.020186,0.000000,-1.690481,1.690481,0.0000,0.0000,0.0000,-0.002537,-1.724194,1.719592,0.9510,0.8425,-0.1991,0.001534,0.585981,-0.555301,0.556835,-0.595185,0.558369,-0.559903
1.5914,0.020084,0.000000,-1.689780,1.689780,0.0000,0.0000,0.0000,-0.002537,-1.724194,1.716525,0.9510,0.8425,-0.1991,0.001534,0.585981,-0.555301,0.556835,-0.595185,0.558369,-0.559903
1.6115,0.020079,0.000000,-1.689079,1.689079,0.0000,0.0000,0.0000,-0.002537,-1.724194,1.714991,0.9510,0.8425,-0.1991,0.001534,0.585981,-0.555301,0.556835,-0.595185,0.558369,-0.559903
1.6315,0.020084,0.000000,-1.688378,1.688378,0.0000,0.0000,0.0000,-0.002537,-1.724194,1.714991,0.9510,0.8425,-0.1991,0.001534,0.585981,-0.555301,0.556835,-0.595185,0.558369,-0.559903
1.6516,0.020081,0.000000,-1.687677,1.687677,0.0000,0.0000,0.0000,-0.002537,-1.724194,1.714991,0.9510,0.8425,-0.1991,0.001534,0.585981,-0.555301,0.556835,-0.595185,0.558369,-0.559903
1.6717,0.020030,0.000000,-1.686978,1.686978,0.0000,0.0000,0.0000,-0.002537,-1.722660,1.714991,0.9510,0.8425,-0.1991,0.001534,0.585981,-0.555301,0.556835,-0.595185,0.558369,-0.559903
1.6917,0.020084,0.000000,-1.686276,1.686276,0.0000,0.0000,0.0000,-0.002537,-1.722660,1.714991,0.9510,0.8425,-0.1991,0.001534,0.585981,-0.555301,0.556835,-0.595185,0.558369,-0.559903
1.7118,0.020086,0.000000,-1.685575,1.685575,0.0000,0.0000,0.0000,-0.002537,-1.722660,1.714991,0.9510,0.8425,-0.1991,0.001534,0.585981,-0.555301,0.556835,-0.595185,0.558369,-0.559903
1.7319,0.020090,0.000000,-1.684874,1.684874,0.0000,0.0000,0.0000,-0.002537,-1.722660,1.714991,0.9510,0.8425,-0.1991,0.001534,0.585981,-0.555301,0.556835,-0.595185,0.558369,-0.559903
1.7520,0.020087,0.000000,-1.684173,1.684173,0.0000,0.0000,0.0000,-0.002537,-1.722660,1.714991,0.9510,0.8425,-0.1991,0.001534,0.585981,-0.555301,0.556835,-0.595185,0.558369,-0.559903
1.7721,0.020087,0.000000,-1.683472,1.683472,0.0000,0.0000,0.0000,-0.002537,-1.722660,1.714991,0.9510,0.8425,-0.1991,0.001534,0.585981,-0.555301,0.556835,-0.595185,0.558369,-0.559903
1.7922,0.020092,0.000000,-1.682770,1.682770,0.0000,0.0000,0.0000,-0.002537,-1.722660,1.714991,0.9510,0.8425,-0.1991,0.001534,0.585981,-0.555301,0.556835,-0.595185,0.558369,-0.559903
1.8123,0.020083,0.000000,-1.682069,1.682069,0.0000,0.0000,0.0000,-0.002537,-1.722660,1.714991,0.9510,0.8425,-0.1991,0.001534,0.585981,-0.555301,0.556835,-0.595185,0.558369,-0.559903
1.8324,0.020093,0.000000,-1.681368,1.681368,0.0000,0.0000,0.0000,-0.002537,-1.722660,1.714991,0.9510,0.8425,-0.1991,0.001534,0.585981,-0.555301,0.556835,-0.595185,0.558369,-0.559903
1.8524,0.020085,0.000000,-1.680667,1.680667,0.0000,0.0000,0.0000,-0.002537,-1.722660,1.714991,0.9510,0.8425,-0.1991,0.001534,0.585981,-0.555301,0.556835,-0.595185,0.558369,-0.559903
1.8725,0.020081,0.000000,-1.679966,1.679966,0.0000,0.0000,0.0000,-0.002537,-1.722660,1.714991,0.9510,0.8425,-0.1991,0.001534,0.585981,-0.555301,0.556835,-0.595185,0.558369,-0.559903
1.8926,0.020093,0.000000,-1.679265,1.679265,0.0000,0.0000,0.0000,-0.002537,-1.722660,1.714991,0.9510,0.8425,-0.1991,0.001534,0.585981,-0.555301,0.556835,-0.595185,0.558369,-0.559903
1.9127,0.020084,0.000000,-1.678563,1.678563,0.0000,0.0000,0.0000,-0.002537,-1.722660,1.714991,0.9510,0.8425,-0.1991,0.001534,0.585981,-0.555301,0.556835,-0.595185,0.558369,-0.559903
1.9328,0.020091,0.000000,-1.677862,1.677862,0.0000,0.0000,0.0000,-0.002537,-1.722660,1.714991,0.9510,0.8425,-0.1991,0.001534,0.585981,-0.555301,0.556835,-0.595185,0.558369,-0.559903
1.9529,0.020088,0.000000,-1.677161,1.677161,0.0000,0.0000,0.0000,-0.002537,-1.722660,1.714991,0.9510,0.8425,-0.1991,0.001534,0.585981,-0.555301,0.556835,-0.595185,0.558369,-0.559903
1.9730,0.020080,0.000000,-1.676460,1.676460,0.0000,0.0000,0.0000,-0.002537,-1.722660,1.714991,0.9510,0.8425,-0.1991,0.001534,0.585981,-0.555301,0.556835,-0.595185,0.558369,-0.559903
1.9930,0.020092,0.000000,-1.675759,1.675759,0.0000,0.0000,0.0000,-0.002537,-1.721126,1.714991,0.9510,0.8425,-0.1991,0.001534,0.585981,-0.555301,0.556835,-0.595185,0.558369,-0.559903
2.0131,0.020083,0.000000,-1.675058,1.675058,0.0000,0.0000,0.0000,-0.002550,-1.721126,1.714991,0.9921,0.8760,-0.2510,0.001534,0.585981,-0.555301,0.556835,-0.595185,0.556835,-0.559903
2.0332,0.020087,0.000000,-1.674357,1.674357,0.0000,0.0000,0.0000,-0.002535,-1.719592,1.714991,0.9472,0.8389,-0.1931,0.001534,0.585981,-0.555301,0.556835,-0.595185,0.558369,-0.559903
2.0533,0.020086,0.000000,-1.673655,1.673655,0.0000,0.0000,0.0000,-0.002537,-1.710389,1.714991,0.9519,0.8428,-0.1992,0.001534,0.585981,-0.555301,0.556835,-0.595185,0.558369,-0.559903
2.0734,0.020079,0.000000,-1.672955,1.672955,0.0000,0.0000,0.0000,-0.002537,-1.702719,1.714991,0.9519,0.8428,-0.1992,0.001534,0.585981,-0.555301,0.556835,-0.595185,0.558369,-0.559903
2.0935,0.020075,0.000000,-1.672254,1.672254,0.0000,0.0000,0.0000,-0.002537,-1.696583,1.714991,0.9519,0.8428,-0.1992,0.001534,0.585981,-0.555301,0.556835,-0.595185,0.558369,-0.559903
2.1136,0.020123,0.000000,-1.671551,1.671551,0.0000,0.0000,0.0000,-0.002537,-1.695049,1.714991,0.9519,0.8428,-0.1992,0.001534,0.585981,-0.555301,0.556835,-0.595185,0.558369,-0.559903
2.1337,0.020079,0.000000,-1.670850,1.670850,0.0000,0.0000,0.0000,-0.002537,-1.695049,1.714991,0.9519,0.8428,-0.1992,0.001534,0.585981,-0.555301,0.556835,-0.595185,0.558369,-0.559903
2.1537,0.020074,0.000000,-1.670150,1.670150,0.0000,0.0000,0.0000,-0.002537,-1.695049,1.714991,0.9519,0.8428,-0.1992,0.001534,0.585981,-0.555301,0.556835,-0.595185,0.558369,-0.559903
2.1738,0.020073,0.000000,-1.669449,1.669449,0.0000,0.0000,0.0000,-0.002537,-1.695049,1.714991,0.9519,0.8428,-0.1992,0.001534,0.585981,-0.555301,0.556835,-0.595185,0.558369,-0.559903
2.1939,0.020073,0.000000,-1.668748,1.668748,0.0000,0.0000,0.0000,-0.002537,-1.695049,1.714991,0.9519,0.8428,-0.1992,0.001534,0.585981,-0.555301,0.556835,-0.595185,0.558369,-0.559903
2.2140,0.020078,0.000000,-1.668047,1.668047,0.0000,0.0000,0.0000,-0.002537,-1.695049,1.714991,0.9519,0.8428,-0.1992,0.001534,0.585981,-0.555301,0.556835,-0.595185,0.558369,-0.559903
2.2340,0.020084,0.000000,-1.667346,1.667346,0.0000,0.0000,0.0000,-0.002537,-1.695049,1.714991,0.9519,0.8428,-0.1992,0.001534,0.585981,-0.555301,0.556835,-0.595185,0.558369,-0.559903
2.2541,0.020079,0.000000,-1.666646,1.666646,0.0000,0.0000,0.0000,-0.002537,-1.695049,1.714991,0.9519,0.8428,-0.1992,0.001534,0.585981,-0.555301,0.556835,-0.595185,0.558369,-0.559903
2.2742,0.020083,0.000000,-1.665945,1.665945,0.0000,0.0000,0.0000,-0.002537,-1.695049,1.714991,0.9519,0.8428,-0.1992,0.001534,0.585981,-0.555301,0.556835,-0.595185,0.558369,-0.559903
2.2943,0.020089,0.000000,-1.665243,1.665243,0.0000,0.0000,0.0000,-0.002537,-1.695049,1.714991,0.9519,0.8428,-0.1992,0.001534,0.585981,-0.555301,0.556835,-0.595185,0.558369,-0.559903
2.3144,0.020077,0.000000,-1.664542,1.664542,0.0000,0.0000,0.0000,-0.002537,-1.695049,1.714991,0.9519,0.8428,-0.1992,0.001534,0.585981,-0.555301,0.556835,-0.595185,0.558369,-0.559903
2.3345,0.020082,0.000000,-1.663841,1.663841,0.0000,0.0000,0.0000,-0.002537,-1.695049,1.714991,0.9519,0.8428,-0.1992,0.001534,0.585981,-0.555301,0.556835,-0.595185,0.558369,-0.559903
2.3545,0.020077,0.000000,-1.663141,1.663141,0.0000,0.0000,0.0000,-0.002537,-1.695049,1.714991,0.9519,0.8428,-0.1992,0.001534,0.585981,-0.555301,0.556835,-0.595185,0.558369,-0.559903
2.3746,0.020079,0.000000,-1.662440,1.662440,0.0000,0.0000,0.0000,-0.002537,-1.695049,1.714991,0.9519,0.8428,-0.1992,0.001534,0.585981,-0.555301,0.556835,-0.595185,0.558369,-0.559903
2.3947,0.020087,0.000000,-1.661739,1.661739,0.0000,0.0000,0.0000,-0.002537,-1.695049,1.714991,0.9519,0.8428,-0.1992,0.001534,0.585981,-0.555301,0.556835,-0.595185,0.558369,-0.559903
2.4148,0.020080,0.000000,-1.661038,1.661038,0.0000,0.0000,0.0000,-0.002537,-1.695049,1.713457,0.9519,0.8428,-0.1992,0.001534,0.585981,-0.555301,0.556835,-0.595185,0.558369,-0.559903
2.4349,0.020090,0.000000,-1.660336,1.660336,0.0000,0.0000,0.0000,-0.002537,-1.695049,1.710389,0.9519,0.8428,-0.1992,0.001534,0.585981,-0.555301,0.556835,-0.595185,0.558369,-0.559903
2.4549,0.020080,0.000000,-1.659635,1.659635,0.0000,0.0000,0.0000,-0.002537,-1.695049,1.702719,0.9519,0.8428,-0.1992,0.001534,0.585981,-0.555301,0.556835,-0.595185,0.558369,-0.559903
2.4750,0.020077,0.000000,-1.658935,1.658935,0.0000,0.0000,0.0000,-0.002537,-1.695049,1.691981,0.9519,0.8428,-0.1992,0.001534,0.585981,-0.555301,0.556835,-0.595185,0.558369,-0.559903
2.4951,0.020083,0.000000,-1.658234,1.658234,0.0000,0.0000,0.0000,-0.002537,-1.695049,1.685845,0.9519,0.8428,-0.1992,0.001534,0.585981,-0.555301,0.556835,-0.595185,0.558369,-0.559903
2.5152,0.020080,0.000000,-1.657533,1.657533,0.0000,0.0000,0.0000,-0.002537,-1.695049,1.684311,0.9519,0.8428,-0.1992,0.001534,0.585981,-0.555301,0.556835,-0.595185,0.558369,-0.559903
2.5353,0.020096,0.000000,-1.656831,1.656831,0.0000,0.0000,0.0000,-0.002537,-1.695049,1.684311,0.9519,0.8428,-0.1992,0.001534,0.585981,-0.555301,0.556835,-0.595185,0.558369,-0.559903
2.5554,0.020078,0.000000,-1.656130,1.656130,0.0000,0.0000,0.0000,-0.002537,-1.695049,1.684311,0.9519,0.8428,-0.1992,0.001534,0.585981,-0.555301,0.556835,-0.595185,0.558369,-0.559903
2.5754,0.020077,0.000000,-1.655430,1.655430,0.0000,0.0000,0.0000,-0.002537,-1.695049,1.684311,0.9519,0.8428,-0.1992,0.001534,0.585981,-0.555301,0.556835,-0.595185,0.558369,-0.559903
2.5955,0.020078,0.000000,-1.654729,1.654729,0.0000,0.0000,0.0000,-0.002537,-1.695049,1.684311,0.9519,0.8428,-0.1992,0.001534,0.585981,-0.555301,0.556835,-0.595185,0.558369,-0.559903
2.6156,0.020084,0.000000,-1.654028,1.654028,0.0000,0.0000,0.0000,-0.002537,-1.695049,1.684311,0.9519,0.8428,-0.1992,0.001534,0.585981,-0.555301,0.556835,-0.595185,0.558369,-0.559903
2.6358,0.020232,0.000000,-1.653321,1.653321,0.0000,0.0000,0.0000,-0.002537,-1.695049,1.684311,0.9519,0.8428,-0.1992,0.001534,0.585981,-0.555301,0.556835,-0.595185,0.558369,-0.559903
2.6559,0.020082,0.000000,-1.652620,1.652620,0.0000,0.0000,0.0000,-0.002537,-1.693515,1.684311,0.9519,0.8428,-0.1992,0.001534,0.585981,-0.555301,0.556835,-0.595185,0.558369,-0.559903
2.6760,0.020079,0.000000,-1.651919,1.651919,0.0000,0.0000,0.0000,-0.002537,-1.693515,1.684311,0.9519,0.8428,-0.1992,0.001534,0.585981,-0.555301,0.556835,-0.595185,0.558369,-0.559903
2.6961,0.020084,0.000000,-1.651218,1.651218,0.0000,0.0000,0.0000,-0.002537,-1.688913,1.684311,0.9519,0.8428,-0.1992,0.001534,0.585981,-0.555301,0.556835,-0.595185,0.558369,-0.559903
2.7162,0.020084,0.000000,-1.650517,1.650517,0.0000,0.0000,0.0000,-0.002537,-1.681243,1.684311,0.9519,0.8428,-0.1992,0.001534,0.585981,-0.555301,0.556835,-0.595185,0.558369,-0.559903
2.7363,0.020181,0.000000,-1.649813,1.649813,0.0000,0.0000,0.0000,-0.002537,-1.675107,1.684311,0.9519,0.8428,-0.1992,0.001534,0.585981,-0.555301,0.556835,-0.595185,0.558369,-0.559903
2.7564,0.020079,0.000000,-1.649112,1.649112,0.0000,0.0000,0.0000,-0.002537,-1.672039,1.684311,0.9519,0.8428,-0.1992,0.001534,0.585981,-0.555301,0.556835,-0.595185,0.558369,-0.559903
2.7765,0.020081,0.000000,-1.648411,1.648411,0.0000,0.0000,0.0000,-0.002537,-1.672039,1.684311,0.9519,0.8428,-0.1992,0.001534,0.585981,-0.555301,0.556835,-0.595185,0.558369,-0.559903
2.7966,0.020076,0.000000,-1.647710,1.647710,0.0000,0.0000,0.0000,-0.002550,-1.672039,1.684311,0.9920,0.8759,-0.2510,0.001534,0.585981,-0.555301,0.556835,-0.595185,0.556835,-0.559903
2.8167,0.020085,0.000000,-1.647009,1.647009,0.0000,0.0000,0.0000,-0.002535,-1.672039,1.681243,0.9473,0.8389,-0.1931,0.001534,0.585981,-0.555301,0.556835,-0.595185,0.558369,-0.559903
2.8369,0.020237,0.000000,-1.646303,1.646303,0.0000,0.0000,0.0000,-0.002537,-1.672039,1.678175,0.9519,0.8428,-0.1992,0.001534,0.585981,-0.555301,0.556835,-0.595185,0.558369,-0.559903
2.8570,0.020096,0.000000,-1.645601,1.645601,0.0000,0.0000,0.0000,-0.002537,-1.672039,1.673573,0.9519,0.8428,-0.1992,0.001534,0.585981,-0.555301,0.556835,-0.595185,0.558369,-0.559903
2.8771,0.020087,0.000000,-1.644900,1.644900,0.0000,0.0000,0.0000,-0.002537,-1.670505,1.670505,0.9519,0.8428,-0.1992,0.001534,0.585981,-0.555301,0.556835,-0.595185,0.558369,-0.559903
2.8972,0.020088,0.000000,-1.644199,1.644199,0.0000,0.0000,0.0000,-0.002537,-1.670505,1.670505,0.9519,0.8428,-0.1992,0.001534,0.585981,-0.555301,0.556835,-0.595185,0.558369,-0.559903
2.9173,0.020081,0.000000,-1.643498,1.643498,0.0000,0.0000,0.0000,-0.002537,-1.670505,1.668971,0.9519,0.8428,-0.1992,0.001534,0.585981,-0.555301,0.556835,-0.595185,0.558369,-0.559903
2.9375,0.020239,0.000000,-1.642791,1.642791,0.0000,0.0000,0.0000,-0.002537,-1.670505,1.668971,0.9519,0.8428,-0.1992,0.001534,0.585981,-0.555301,0.556835,-0.595185,0.558369,-0.559903
2.9578,0.020344,0.000000,-1.642081,1.642081,0.0000,0.0000,0.0000,-0.002537,-1.670505,1.668971,0.9519,0.8428,-0.1992,0.001534,0.585981,-0.555301,0.556835,-0.595185,0.558369,-0.559903
2.9779,0.020078,0.000000,-1.641380,1.641380,0.0000,0.0000,0.0000,-0.002537,-1.670505,1.668971,0.9519,0.8428,-0.1992,0.001534,0.585981,-0.555301,0.556835,-0.595185,0.558369,-0.559903
2.9980,0.020078,0.000000,-1.640680,1.640680,0.0000,0.0000,0.0000,-0.002537,-1.670505,1.668971,0.9519,0.8428,-0.1992,0.001534,0.585981,-0.555301,0.556835,-0.595185,0.558369,-0.559903
3.0181,0.020083,0.000000,-1.639979,1.639979,0.0000,0.0000,0.0000,-0.002537,-1.670505,1.667437,0.9519,0.8428,-0.1992,0.001534,0.585981,-0.555301,0.556835,-0.595185,0.558369,-0.559903
3.0383,0.020199,0.000000,-1.639273,1.639273,0.0000,0.0000,0.0000,-0.002537,-1.667437,1.667437,0.9519,0.8428,-0.1992,0.001534,0.585981,-0.555301,0.556835,-0.595185,0.558369,-0.559903
3.0584,0.020127,0.000000,-1.638571,1.638571,0.0000,0.0000,0.0000,-0.002537,-1.670505,1.667437,0.9519,0.8428,-0.1992,0.001534,0.585981,-0.555301,0.556835,-0.595185,0.558369,-0.559903
3.0785,0.020053,0.000000,-1.637871,1.637871,0.0000,0.0000,0.0000,-0.002537,-1.670505,1.667437,0.9519,0.8428,-0.1992,0.001534,0.585981,-0.555301,0.556835,-0.595185,0.558369,-0.559903
3.0986,0.020135,0.000000,-1.637168,1.637168,0.0000,0.0000,0.0000,-0.002537,-1.670505,1.667437,0.9519,0.8428,-0.1992,0.001534,0.585981,-0.555301,0.556835,-0.595185,0.558369,-0.559903
3.1188,0.020172,0.000000,-1.636464,1.636464,0.0000,0.0000,0.0000,-0.002537,-1.670505,1.667437,0.9519,0.8428,-0.1992,0.001534,0.585981,-0.555301,0.556835,-0.595185,0.558369,-0.559903
3.1388,0.020085,0.000000,-1.635763,1.635763,0.0000,0.0000,0.0000,-0.002537,-1.667437,1.667437,0.9519,0.8428,-0.1992,0.001534,0.585981,-0.555301,0.556835,-0.595185,0.558369,-0.559903
3.1589,0.020100,0.000000,-1.635061,1.635061,0.0000,0.0000,0.0000,-0.002537,-1.667437,1.665903,0.9519,0.8428,-0.1992,0.001534,0.585981,-0.555301,0.556835,-0.595185,0.558369,-0.559903
3.1790,0.020078,0.000000,-1.634360,1.634360,0.0000,0.0000,0.0000,-0.002537,-1.667437,1.665903,0.9519,0.8428,-0.1992,0.001534,0.585981,-0.555301,0.556835,-0.595185,0.558369,-0.559903
3.1992,0.020168,0.000000,-1.633656,1.633656,0.0000,0.0000,0.0000,-0.002537,-1.667437,1.665903,0.9519,0.8428,-0.1992,0.001534,0.585981,-0.555301,0.556835,-0.595185,0.558369,-0.559903
3.2193,0.020087,0.000000,-1.632955,1.632955,0.0000,0.0000,0.0000,-0.002537,-1.667437,1.664369,0.9519,0.8428,-0.1992,0.001534,0.585981,-0.555301,0.556835,-0.595185,0.558369,-0.559903
3.2394,0.020075,0.000000,-1.632255,1.632255,0.0000,0.0000,0.0000,-0.002537,-1.667437,1.664369,0.9519,0.8428,-0.1992,0.001534,0.585981,-0.555301,0.556835,-0.595185,0.558369,-0.559903
3.2599,0.020538,0.000000,-1.631538,1.631538,0.0000,0.0000,0.0000,-0.002550,-1.667437,1.664369,0.9920,0.8759,-0.2510,0.001534,0.585981,-0.555301,0.556835,-0.595185,0.556835,-0.559903
3.2800,0.020074,0.000000,-1.630837,1.630837,0.0000,0.0000,0.0000,-0.002535,-1.667437,1.664369,0.9473,0.8389,-0.1931,0.001534,0.585981,-0.555301,0.556835,-0.595185,0.558369,-0.559903
3.3001,0.020096,0.000000,-1.630135,1.630135,0.0000,0.0000,0.0000,-0.002537,-1.667437,1.664369,0.9519,0.8428,-0.1992,0.001534,0.585981,-0.555301,0.556835,-0.595185,0.558369,-0.559903
3.3201,0.020079,0.000000,-1.629434,1.629434,0.0000,0.0000,0.0000,-0.002537,-1.667437,1.664369,0.9519,0.8428,-0.1992,0.001534,0.585981,-0.555301,0.556835,-0.595185,0.558369,-0.559903
3.3402,0.020078,0.000000,-1.628734,1.628734,0.0000,0.0000,0.0000,-0.002537,-1.667437,1.664369,0.9519,0.8428,-0.1992,0.001534,0.585981,-0.555301,0.556835,-0.595185,0.558369,-0.559903
3.3603,0.020092,0.000000,-1.628032,1.628032,0.0000,0.0000,0.0000,-0.002537,-1.667437,1.664369,0.9519,0.8428,-0.1992,0.001534,0.585981,-0.555301,0.556835,-0.595185,0.558369,-0.559903
3.3808,0.020471,0.000000,-1.627318,1.627318,0.0000,0.0000,0.0000,-0.002537,-1.665903,1.664369,0.9519,0.8428,-0.1992,0.001534,0.585981,-0.555301,0.556835,-0.595185,0.558369,-0.559903
3.4018,0.020980,0.000000,-1.626585,1.626585,0.0000,0.0000,0.0000,-0.002537,-1.665903,1.664369,0.9519,0.8428,-0.1992,0.001534,0.585981,-0.555301,0.556835,-0.595185,0.558369,-0.559903
3.4218,0.020074,0.000000,-1.625885,1.625885,0.0000,0.0000,0.0000,-0.002537,-1.665903,1.662835,0.9519,0.8428,-0.1992,0.001534,0.585981,-0.555301,0.556835,-0.595185,0.558369,-0.559903
3.4419,0.020081,0.000000,-1.625184,1.625184,0.0000,0.0000,0.0000,-0.002537,-1.665903,1.662835,0.9519,0.8428,-0.1992,0.001534,0.585981,-0.555301,0.556835,-0.595185,0.558369,-0.559903
3.4620,0.020088,0.000000,-1.624483,1.624483,0.0000,0.0000,0.0000,-0.002537,-1.665903,1.662835,0.9519,0.8428,-0.1992,0.001534,0.585981,-0.555301,0.556835,-0.595185,0.558369,-0.559903
3.4821,0.020082,0.000000,-1.623782,1.623782,0.0000,0.0000,0.0000,-0.002537,-1.665903,1.662835,0.9519,0.8428,-0.1992,0.001534,0.585981,-0.555301,0.556835,-0.595185,0.558369,-0.559903
3.5023,0.020176,0.000000,-1.623077,1.623077,0.0000,0.0000,0.0000,-0.002537,-1.665903,1.662835,0.9519,0.8428,-0.1992,0.001534,0.585981,-0.555301,0.556835,-0.595185,0.558369,-0.559903
3.5223,0.020085,0.000000,-1.622376,1.622376,0.0000,0.0000,0.0000,-0.002537,-1.665903,1.662835,0.9519,0.8428,-0.1992,0.001534,0.585981,-0.555301,0.556835,-0.595185,0.558369,-0.559903
3.5424,0.020082,0.000000,-1.621675,1.621675,0.0000,0.0000,0.0000,-0.002550,-1.665903,1.662835,0.9920,0.8759,-0.2510,0.001534,0.585981,-0.555301,0.556835,-0.595185,0.556835,-0.559903
3.5625,0.020052,0.000000,-1.620975,1.620975,0.0000,0.0000,0.0000,-0.002535,-1.665903,1.662835,0.9473,0.8389,-0.1931,0.001534,0.585981,-0.555301,0.556835,-0.595185,0.558369,-0.559903
3.5826,0.020080,0.000000,-1.620274,1.620274,0.0000,0.0000,0.0000,-0.002537,-1.662835,1.661301,0.9519,0.8428,-0.1992,0.001534,0.585981,-0.555301,0.556835,-0.595185,0.558369,-0.559903
3.6032,0.020667,0.000000,-1.619553,1.619553,0.0000,0.0000,0.0000,-0.002537,-1.655165,1.661301,0.9519,0.8428,-0.1992,0.001534,0.585981,-0.555301,0.556835,-0.595185,0.558369,-0.559903
3.6234,0.020216,0.000000,-1.618847,1.618847,0.0000,0.0000,0.0000,-0.002537,-1.647495,1.661301,0.9519,0.8428,-0.1992,0.001534,0.585981,-0.555301,0.556835,-0.595185,0.558369,-0.559903
3.6435,0.020074,0.000000,-1.618147,1.618147,0.0000,0.0000,0.0000,-0.002537,-1.642893,1.661301,0.9519,0.8428,-0.1992,0.001534,0.585981,-0.555301,0.556835,-0.595185,0.558369,-0.559903
3.6638,0.020240,0.000000,-1.617440,1.617440,0.0000,0.0000,0.0000,-0.002537,-1.642893,1.661301,0.9519,0.8428,-0.1992,0.001534,0.585981,-0.555301,0.556835,-0.595185,0.558369,-0.559903
3.6839,0.020122,0.000000,-1.616738,1.616738,0.0000,0.0000,0.0000,-0.002537,-1.642893,1.661301,0.9519,0.8428,-0.1992,0.001534,0.585981,-0.555301,0.556835,-0.595185,0.558369,-0.559903
3.7044,0.020501,0.000000,-1.616022,1.616022,0.0000,0.0000,0.0000,-0.002537,-1.642893,1.661301,0.9519,0.8428,-0.1992,0.001534,0.585981,-0.555301,0.556835,-0.595185,0.558369,-0.559903
3.7245,0.020091,0.000000,-1.615321,1.615321,0.0000,0.0000,0.0000,-0.002537,-1.642893,1.661301,0.9519,0.8428,-0.1992,0.001534,0.585981,-0.555301,0.556835,-0.595185,0.558369,-0.559903
3.7445,0.020058,0.000000,-1.614621,1.614621,0.0000,0.0000,0.0000,-0.002537,-1.642893,1.661301,0.9519,0.8428,-0.1992,0.001534,0.585981,-0.555301,0.556835,-0.595185,0.558369,-0.559903
3.7646,0.020093,0.000000,-1.613919,1.613919,0.0000,0.0000,0.0000,-0.002537,-1.642893,1.661301,0.9519,0.8428,-0.1992,0.001534,0.585981,-0.555301,0.556835,-0.595185,0.558369,-0.559903
3.7847,0.020083,0.000000,-1.613218,1.613218,0.0000,0.0000,0.0000,-0.002537,-1.642893,1.661301,0.9519,0.8428,-0.1992,0.001534,0.585981,-0.555301,0.556835,-0.595185,0.558369,-0.559903
3.8048,0.020077,0.000000,-1.612517,1.612517,0.0000,0.0000,0.0000,-0.002537,-1.642893,1.661301,0.9519,0.8428,-0.1992,0.001534,0.585981,-0.555301,0.556835,-0.595185,0.558369,-0.559903
3.8249,0.020089,0.000000,-1.611816,1.611816,0.0000,0.0000,0.0000,-0.002537,-1.642893,1.661301,0.9519,0.8428,-0.1992,0.001534,0.585981,-0.555301,0.556835,-0.595185,0.558369,-0.559903
3.8449,0.020076,0.000000,-1.611115,1.611115,0.0000,0.0000,0.0000,-0.002537,-1.642893,1.659767,0.9519,0.8428,-0.1992,0.001534,0.585981,-0.555301,0.556835,-0.595185,0.558369,-0.559903
3.8650,0.020084,0.000000,-1.610414,1.610414,0.0000,0.0000,0.0000,-0.002537,-1.642893,1.658233,0.9519,0.8428,-0.1992,0.001534,0.585981,-0.555301,0.556835,-0.595185,0.558369,-0.559903
3.8851,0.020080,0.000000,-1.609713,1.609713,0.0000,0.0000,0.0000,-0.002537,-1.642893,1.655165,0.9519,0.8428,-0.1992,0.001534,0.585981,-0.555301,0.556835,-0.595185,0.558369,-0.559903
3.9052,0.020078,0.000000,-1.609012,1.609012,0.0000,0.0000,0.0000,-0.002537,-1.642893,1.647495,0.9519,0.8428,-0.1992,0.001534,0.585981,-0.555301,0.556835,-0.595185,0.558369,-0.559903
3.9252,0.020060,0.000000,-1.608312,1.608312,0.0000,0.0000,0.0000,-0.002537,-1.642893,1.641359,0.9519,0.8428,-0.1992,0.001534,0.585981,-0.555301,0.556835,-0.595185,0.558369,-0.559903
3.9454,0.020102,0.000000,-1.607611,1.607611,0.0000,0.0000,0.0000,-0.002537,-1.642893,1.636758,0.9519,0.8428,-0.1992,0.001534,0.585981,-0.555301,0.556835,-0.595185,0.558369,-0.559903
3.9654,0.020083,0.000000,-1.606910,1.606910,0.0000,0.0000,0.0000,-0.002537,-1.642893,1.635224,0.9519,0.8428,-0.1992,0.001534,0.585981,-0.555301,0.556835,-0.595185,0.558369,-0.559903
3.9855,0.020075,0.000000,-1.606209,1.606209,0.0000,0.0000,0.0000,-0.002537,-1.642893,1.635224,0.9519,0.8428,-0.1992,0.001534,0.585981,-0.555301,0.556835,-0.595185,0.558369,-0.559903
4.0056,0.020076,0.000000,-1.605508,1.605508,0.0000,0.0000,0.0000,-0.002537,-1.641359,1.635224,0.9519,0.8428,-0.1992,0.001534,0.585981,-0.555301,0.556835,-0.595185,0.558369,-0.559903
4.0257,0.020085,0.000000,-1.604807,1.604807,0.0000,0.0000,0.0000,-0.002537,-1.641359,1.635224,0.9519,0.8428,-0.1992,0.001534,0.585981,-0.555301,0.556835,-0.595185,0.558369,-0.559903
4.0457,0.020077,0.000000,-1.604106,1.604106,0.0000,0.0000,0.0000,-0.002537,-1.639825,1.635224,0.9519,0.8428,-0.1992,0.001534,0.585981,-0.555301,0.556835,-0.595185,0.558369,-0.559903
4.0662,0.020487,0.000000,-1.603391,1.603391,0.0000,0.0000,0.0000,-0.002537,-1.639825,1.635224,0.9519,0.8428,-0.1992,0.001534,0.585981,-0.555301,0.556835,-0.595185,0.558369,-0.559903
4.0863,0.020080,0.000000,-1.602690,1.602690,0.0000,0.0000,0.0000,-0.002537,-1.639825,1.635224,0.9519,0.8428,-0.1992,0.001534,0.585981,-0.555301,0.556835,-0.595185,0.558369,-0.559903
4.1064,0.020079,0.000000,-1.601989,1.601989,0.0000,0.0000,0.0000,-0.002537,-1.639825,1.635224,0.9519,0.8428,-0.1992,0.001534,0.585981,-0.555301,0.556835,-0.595185,0.558369,-0.559903
4.1267,0.020273,0.000000,-1.601281,1.601281,0.0000,0.0000,0.0000,-0.002537,-1.639825,1.635224,0.9519,0.8428,-0.1992,0.001534,0.585981,-0.555301,0.556835,-0.595185,0.558369,-0.559903
4.1467,0.020069,0.000000,-1.600581,1.600581,0.0000,0.0000,0.0000,-0.002537,-1.639825,1.635224,0.9519,0.8428,-0.1992,0.001534,0.585981,-0.555301,0.556835,-0.595185,0.558369,-0.559903
4.1672,0.020439,0.000000,-1.599867,1.599867,0.0000,0.0000,0.0000,-0.002537,-1.639825,1.635224,0.9519,0.8428,-0.1992,0.001534,0.585981,-0.555301,0.556835,-0.595185,0.558369,-0.559903
4.1873,0.020081,0.000000,-1.599166,1.599166,0.0000,0.0000,0.0000,-0.002537,-1.639825,1.635224,0.9519,0.8428,-0.1992,0.001534,0.585981,-0.555301,0.556835,-0.595185,0.558369,-0.559903
4.2073,0.020075,0.000000,-1.598466,1.598466,0.0000,0.0000,0.0000,-0.002537,-1.639825,1.635224,0.9519,0.8428,-0.1992,0.001534,0.585981,-0.555301,0.556835,-0.595185,0.558369,-0.559903
4.2274,0.020079,0.000000,-1.597765,1.597765,0.0000,0.0000,0.0000,-0.002537,-1.639825,1.635224,0.9519,0.8428,-0.1992,0.001534,0.585981,-0.555301,0.556835,-0.595185,0.558369,-0.559903
4.2475,0.020075,0.000000,-1.597064,1.597064,0.0000,0.0000,0.0000,-0.002537,-1.639825,1.635224,0.9519,0.8428,-0.1992,0.001534,0.585981,-0.555301,0.556835,-0.595185,0.558369,-0.559903
4.2677,0.020251,0.000000,-1.596357,1.596357,0.0000,0.0000,0.0000,-0.002537,-1.639825,1.635224,0.9519,0.8428,-0.1992,0.001534,0.585981,-0.555301,0.556835,-0.595185,0.558369,-0.559903
4.2878,0.020078,0.000000,-1.595656,1.595656,0.0000,0.0000,0.0000,-0.002537,-1.639825,1.635224,0.9519,0.8428,-0.1992,0.001534,0.585981,-0.555301,0.556835,-0.595185,0.558369,-0.559903
4.3079,0.020079,0.000000,-1.594955,1.594955,0.0000,0.0000,0.0000,-0.002537,-1.639825,1.635224,0.9519,0.8428,-0.1992,0.001534,0.585981,-0.555301,0.556835,-0.595185,0.558369,-0.559903
4.3280,0.020090,0.000000,-1.594254,1.594254,0.0000,0.0000,0.0000,-0.002537,-1.639825,1.635224,0.9519,0.8428,-0.1992,0.001534,0.585981,-0.555301,0.556835,-0.595185,0.558369,-0.559903
4.3481,0.020073,0.000000,-1.593554,1.593554,0.0000,0.0000,0.0000,-0.002537,-1.639825,1.635224,0.9519,0.8428,-0.1992,0.001534,0.585981,-0.555301,0.556835,-0.595185,0.558369,-0.559903
4.3687,0.020623,0.000000,-1.592834,1.592834,0.0000,0.0000,0.0000,-0.002537,-1.638291,1.635224,0.9519,0.8428,-0.1992,0.001534,0.585981,-0.555301,0.556835,-0.595185,0.558369,-0.559903
4.3888,0.020080,0.000000,-1.592133,1.592133,0.0000,0.0000,0.0000,-0.002537,-1.633690,1.635224,0.9519,0.8428,-0.1992,0.001534,0.585981,-0.555301,0.556835,-0.595185,0.558369,-0.559903
4.4088,0.020083,0.000000,-1.591432,1.591432,0.0000,0.0000,0.0000,-0.002537,-1.626020,1.635224,0.9519,0.8428,-0.1992,0.001534,0.585981,-0.555301,0.556835,-0.595185,0.558369,-0.559903
4.4289,0.020082,0.000000,-1.590731,1.590731,0.0000,0.0000,0.0000,-0.002537,-1.619884,1.635224,0.9519,0.8428,-0.1992,0.001534,0.585981,-0.555301,0.556835,-0.595185,0.558369,-0.559903
4.4490,0.020084,0.000000,-1.590030,1.590030,0.0000,0.0000,0.0000,-0.002537,-1.615282,1.635224,0.9519,0.8428,-0.1992,0.001534,0.585981,-0.555301,0.556835,-0.595185,0.558369,-0.559903
4.4691,0.020085,0.000000,-1.589329,1.589329,0.0000,0.0000,0.0000,-0.002550,-1.615282,1.635224,0.9625,0.7903,-0.2520,0.001534,0.585981,-0.555301,0.555301,-0.595185,0.558369,-0.559903
4.4892,0.020075,0.000000,-1.588628,1.588628,0.0000,0.0000,0.0000,-0.002535,-1.615282,1.635224,0.9504,0.8478,-0.1930,0.001534,0.585981,-0.555301,0.556835,-0.595185,0.558369,-0.559903
4.5093,0.020087,0.000000,-1.587927,1.587927,0.0000,0.0000,0.0000,-0.002537,-1.615282,1.633690,0.9516,0.8418,-0.1992,0.001534,0.585981,-0.555301,0.556835,-0.595185,0.558369,-0.559903
4.5295,0.020232,0.000000,-1.587220,1.587220,0.0000,0.0000,0.0000,-0.002537,-1.615282,1.633690,0.9516,0.8418,-0.1992,0.001534,0.585981,-0.555301,0.556835,-0.595185,0.558369,-0.559903
4.5496,0.020085,0.000000,-1.586519,1.586519,0.0000,0.0000,0.0000,-0.002537,-1.615282,1.633690,0.9516,0.8418,-0.1992,0.001534,0.585981,-0.555301,0.556835,-0.595185,0.558369,-0.559903
4.5697,0.020082,0.000000,-1.585818,1.585818,0.0000,0.0000,0.0000,-0.002550,-1.615282,1.633690,0.9920,0.8760,-0.2510,0.001534,0.585981,-0.555301,0.556835,-0.595185,0.556835,-0.559903
4.5897,0.020081,0.000000,-1.585117,1.585117,0.0000,0.0000,0.0000,-0.002535,-1.615282,1.633690,0.9472,0.8389,-0.1931,0.001534,0.585981,-0.555301,0.556835,-0.595185,0.558369,-0.559903
4.6098,0.020079,0.000000,-1.584416,1.584416,0.0000,0.0000,0.0000,-0.002537,-1.615282,1.632156,0.9519,0.8428,-0.1992,0.001534,0.585981,-0.555301,0.556835,-0.595185,0.558369,-0.559903
4.6299,0.020084,0.000000,-1.583715,1.583715,0.0000,0.0000,0.0000,-0.002537,-1.615282,1.627554,0.9519,0.8428,-0.1992,0.001534,0.585981,-0.555301,0.556835,-0.595185,0.558369,-0.559903
4.6500,0.020077,0.000000,-1.583015,1.583015,0.0000,0.0000,0.0000,-0.002537,-1.615282,1.621418,0.9519,0.8428,-0.1992,0.001534,0.585981,-0.555301,0.556835,-0.595185,0.558369,-0.559903
4.6702,0.020194,0.000000,-1.582310,1.582310,0.0000,0.0000,0.0000,-0.002537,-1.615282,1.613748,0.9519,0.8428,-0.1992,0.001534,0.585981,-0.555301,0.556835,-0.595185,0.558369,-0.559903
4.6902,0.020082,0.000000,-1.581609,1.581609,0.0000,0.0000,0.0000,-0.002537,-1.615282,1.609146,0.9519,0.8428,-0.1992,0.001534,0.585981,-0.555301,0.556835,-0.595185,0.558369,-0.559903
4.7103,0.020077,0.000000,-1.580908,1.580908,0.0000,0.0000,0.0000,-0.002537,-1.615282,1.607612,0.9519,0.8428,-0.1992,0.001534,0.585981,-0.555301,0.556835,-0.595185,0.558369,-0.559903
4.7306,0.020233,0.000000,-1.580202,1.580202,0.0000,0.0000,0.0000,-0.002537,-1.613748,1.607612,0.9519,0.8428,-0.1992,0.001534,0.585981,-0.555301,0.556835,-0.595185,0.558369,-0.559903
4.7506,0.020080,0.000000,-1.579501,1.579501,0.0000,0.0000,0.0000,-0.002537,-1.613748,1.607612,0.9519,0.8428,-0.1992,0.001534,0.585981,-0.555301,0.556835,-0.595185,0.558369,-0.559903
4.7711,0.020482,0.000000,-1.578786,1.578786,0.0000,0.0000,0.0000,-0.002537,-1.613748,1.607612,0.9519,0.8428,-0.1992,0.001534,0.585981,-0.555301,0.556835,-0.595185,0.558369,-0.559903
4.7913,0.020185,0.000000,-1.578081,1.578081,0.0000,0.0000,0.0000,-0.002537,-1.613748,1.607612,0.9519,0.8428,-0.1992,0.001534,0.585981,-0.555301,0.556835,-0.595185,0.558369,-0.559903
4.8114,0.020080,0.000000,-1.577380,1.577380,0.0000,0.0000,0.0000,-0.002537,-1.613748,1.607612,0.9519,0.8428,-0.1992,0.001534,0.585981,-0.555301,0.556835,-0.595185,0.558369,-0.559903
4.8316,0.020238,0.000000,-1.576674,1.576674,0.0000,0.0000,0.0000,-0.002537,-1.613748,1.607612,0.9519,0.8428,-0.1992,0.001534,0.585981,-0.555301,0.556835,-0.595185,0.558369,-0.559903
4.8517,0.020085,0.000000,-1.575973,1.575973,0.0000,0.0000,0.0000,-0.002537,-1.613748,1.607612,0.9519,0.8428,-0.1992,0.001534,0.585981,-0.555301,0.556835,-0.595185,0.558369,-0.559903
4.8718,0.020133,0.000000,-1.575270,1.575270,0.0000,0.0000,0.0000,-0.002537,-1.613748,1.607612,0.9519,0.8428,-0.1992,0.001534,0.585981,-0.555301,0.556835,-0.595185,0.558369,-0.559903
4.8919,0.020097,0.000000,-1.574568,1.574568,0.0000,0.0000,0.0000,-0.002537,-1.613748,1.607612,0.9519,0.8428,-0.1992,0.001534,0.585981,-0.555301,0.556835,-0.595185,0.558369,-0.559903
4.9120,0.020074,0.000000,-1.573868,1.573868,0.0000,0.0000,0.0000,-0.002537,-1.613748,1.607612,0.9519,0.8428,-0.1992,0.001534,0.585981,-0.555301,0.556835,-0.595185,0.558369,-0.559903
4.9324,0.020382,0.000000,-1.573156,1.573156,0.0000,0.0000,0.0000,-0.002537,-1.613748,1.607612,0.9519,0.8428,-0.1992,0.001534,0.585981,-0.555301,0.556835,-0.595185,0.558369,-0.559903
4.9525,0.020091,0.000000,-1.572455,1.572455,0.0000,0.0000,0.0000,-0.002537,-1.613748,1.607612,0.9519,0.8428,-0.1992,0.001534,0.585981,-0.555301,0.556835,-0.595185,0.558369,-0.559903
4.9727,0.020181,0.000000,-1.571750,1.571750,0.0000,0.0000,0.0000,-0.002537,-1.613748,1.607612,0.9519,0.8428,-0.1992,0.001534,0.585981,-0.555301,0.556835,-0.595185,0.558369,-0.559903
4.9928,0.020090,0.000000,-1.571049,1.571049,0.0000,0.0000,0.0000,-0.002537,-1.612214,1.607612,0.9519,0.8428,-0.1992,0.001534,0.585981,-0.555301,0.556835,-0.595185,0.558369,-0.559903
5.0128,0.020078,0.000000,-1.570348,1.570348,0.0000,0.0000,0.0000,-0.002537,-1.612214,1.607612,0.9519,0.8428,-0.1992,0.001534,0.585981,-0.555301,0.556835,-0.595185,0.558369,-0.559903
5.0329,0.020101,0.000000,-1.569647,1.569647,0.0000,0.0000,0.0000,-0.002537,-1.612214,1.607612,0.9519,0.8428,-0.1992,0.001534,0.585981,-0.555301,0.556835,-0.595185,0.558369,-0.559903
5.0530,0.020076,0.000000,-1.568946,1.568946,0.0000,0.0000,0.0000,-0.002537,-1.612214,1.607612,0.9519,0.8428,-0.1992,0.001534,0.585981,-0.555301,0.556835,-0.595185,0.558369,-0.559903
5.0731,0.020077,0.000000,-1.568245,1.568245,0.0000,0.0000,0.0000,-0.002537,-1.612214,1.607612,0.9519,0.8428,-0.1992,0.001534,0.585981,-0.555301,0.556835,-0.595185,0.558369,-0.559903
5.0933,0.020196,0.000000,-1.567540,1.567540,0.0000,0.0000,0.0000,-0.002537,-1.612214,1.607612,0.9519,0.8428,-0.1992,0.001534,0.585981,-0.555301,0.556835,-0.595185,0.558369,-0.559903
5.1134,0.020081,0.000000,-1.566839,1.566839,0.0000,0.0000,0.0000,-0.002537,-1.612214,1.607612,0.9519,0.8428,-0.1992,0.001534,0.585981,-0.555301,0.556835,-0.595185,0.558369,-0.559903
5.1335,0.020108,0.000000,-1.566137,1.566137,0.0000,0.0000,0.0000,-0.002537,-1.612214,1.607612,0.9519,0.8428,-0.1992,0.001534,0.585981,-0.555301,0.556835,-0.595185,0.558369,-0.559903
5.1536,0.020080,0.000000,-1.565436,1.565436,0.0000,0.0000,0.0000,-0.002537,-1.612214,1.607612,0.9519,0.8428,-0.1992,0.001534,0.585981,-0.555301,0.556835,-0.595185,0.558369,-0.559903
5.1736,0.020080,0.000000,-1.564735,1.564735,0.0000,0.0000,0.0000,-0.002537,-1.612214,1.607612,0.9519,0.8428,-0.1992,0.001534,0.585981,-0.555301,0.556835,-0.595185,0.558369,-0.559903
5.1940,0.020402,0.000000,-1.564023,1.564023,0.0000,0.0000,0.0000,-0.002537,-1.612214,1.607612,0.9519,0.8428,-0.1992,0.001534,0.585981,-0.555301,0.556835,-0.595185,0.558369,-0.559903
5.2141,0.020084,0.000000,-1.563322,1.563322,0.0000,0.0000,0.0000,-0.002537,-1.612214,1.607612,0.9519,0.8428,-0.1992,0.001534,0.585981,-0.555301,0.556835,-0.595185,0.558369,-0.559903
5.2342,0.020108,0.000000,-1.562620,1.562620,0.0000,0.0000,0.0000,-0.002537,-1.612214,1.607612,0.9519,0.8428,-0.1992,0.001534,0.585981,-0.555301,0.556835,-0.595185,0.558369,-0.559903
5.2546,0.020353,0.000000,-1.561910,1.561910,0.0000,0.0000,0.0000,-0.002537,-1.612214,1.607612,0.9519,0.8428,-0.1992,0.001534,0.585981,-0.555301,0.556835,-0.595185,0.558369,-0.559903
5.2747,0.020078,0.000000,-1.561209,1.561209,0.0000,0.0000,0.0000,-0.002537,-1.610680,1.607612,0.9519,0.8428,-0.1992,0.001534,0.585981,-0.555301,0.556835,-0.595185,0.558369,-0.559903
5.2948,0.020168,0.000000,-1.560505,1.560505,0.0000,0.0000,0.0000,-0.002537,-1.606078,1.607612,0.9519,0.8428,-0.1992,0.001534,0.585981,-0.555301,0.556835,-0.595185,0.558369,-0.559903
5.3149,0.020087,0.000000,-1.559804,1.559804,0.0000,0.0000,0.0000,-0.002537,-1.596874,1.607612,0.9519,0.8428,-0.1992,0.001534,0.585981,-0.555301,0.556835,-0.595185,0.558369,-0.559903
5.3350,0.020097,0.000000,-1.559102,1.559102,0.0000,0.0000,0.0000,-0.002537,-1.589204,1.607612,0.9519,0.8428,-0.1992,0.001534,0.585981,-0.555301,0.556835,-0.595185,0.558369,-0.559903
5.3553,0.020275,0.000000,-1.558395,1.558395,0.0000,0.0000,0.0000,-0.002537,-1.586136,1.607612,0.9519,0.8428,-0.1992,0.001534,0.585981,-0.555301,0.556835,-0.595185,0.558369,-0.559903
5.3754,0.020122,0.000000,-1.557692,1.557692,0.0000,0.0000,0.0000,-0.002537,-1.586136,1.607612,0.9519,0.8428,-0.1992,0.001534,0.585981,-0.555301,0.556835,-0.595185,0.558369,-0.559903
5.3955,0.020113,0.000000,-1.556990,1.556990,0.0000,0.0000,0.0000,-0.002537,-1.586136,1.607612,0.9519,0.8428,-0.1992,0.001534,0.585981,-0.555301,0.556835,-0.595185,0.558369,-0.559903
5.4157,0.020136,0.000000,-1.556287,1.556287,0.0000,0.0000,0.0000,-0.002537,-1.586136,1.607612,0.9519,0.8428,-0.1992,0.001534,0.585981,-0.555301,0.556835,-0.595185,0.558369,-0.559903
5.4358,0.020115,0.000000,-1.555585,1.555585,0.0000,0.0000,0.0000,-0.002537,-1.586136,1.607612,0.9519,0.8428,-0.1992,0.001534,0.585981,-0.555301,0.556835,-0.595185,0.558369,-0.559903
5.4559,0.020100,0.000000,-1.554883,1.554883,0.0000,0.0000,0.0000,-0.002537,-1.586136,1.606078,0.9519,0.8428,-0.1992,0.001534,0.585981,-0.555301,0.556835,-0.595185,0.558369,-0.559903
5.4775,0.021661,0.000000,-1.554127,1.554127,0.0000,0.0000,0.0000,-0.002537,-1.586136,1.606078,0.9519,0.8428,-0.1992,0.001534,0.585981,-0.555301,0.556835,-0.595185,0.558369,-0.559903
5.4976,0.020099,0.000000,-1.553426,1.553426,0.0000,0.0000,0.0000,-0.002537,-1.586136,1.606078,0.9519,0.8428,-0.1992,0.001534,0.585981,-0.555301,0.556835,-0.595185,0.558369,-0.559903
5.5178,0.020143,0.000000,-1.552723,1.552723,0.0000,0.0000,0.0000,-0.002537,-1.586136,1.606078,0.9519,0.8428,-0.1992,0.001534,0.585981,-0.555301,0.556835,-0.595185,0.558369,-0.559903
5.5379,0.020110,0.000000,-1.552021,1.552021,0.0000,0.0000,0.0000,-0.002537,-1.586136,1.604544,0.9519,0.8428,-0.1992,0.001534,0.585981,-0.555301,0.556835,-0.595185,0.558369,-0.559903
5.5580,0.020092,0.000000,-1.551319,1.551319,0.0000,0.0000,0.0000,-0.002537,-1.586136,1.601476,0.9519,0.8428,-0.1992,0.001534,0.585981,-0.555301,0.556835,-0.595185,0.558369,-0.559903
5.5781,0.020090,0.000000,-1.550618,1.550618,0.0000,0.0000,0.0000,-0.002537,-1.586136,1.595340,0.9519,0.8428,-0.1992,0.001534,0.585981,-0.555301,0.556835,-0.595185,0.558369,-0.559903
5.5982,0.020111,0.000000,-1.549916,1.549916,0.0000,0.0000,0.0000,-0.002537,-1.586136,1.587670,0.9519,0.8428,-0.2870,0.000000,0.585981,-0.555301,0.556835,-0.595185,0.558369,-0.559903
5.6183,0.020095,0.000000,-1.549215,1.549215,0.0000,0.0000,0.0000,-0.002537,-1.586136,1.581534,0.9519,0.8428,-0.1992,0.001534,0.585981,-0.555301,0.556835,-0.595185,0.558369,-0.559903
5.6384,0.020109,0.000000,-1.548513,1.548513,0.0000,0.0000,0.0000,-0.002537,-1.586136,1.581534,0.9519,0.8428,-0.1992,0.001534,0.585981,-0.555301,0.556835,-0.595185,0.558369,-0.559903
5.6585,0.020094,0.000000,-1.547811,1.547811,0.0000,0.0000,0.0000,-0.002537,-1.586136,1.581534,0.9519,0.8428,-0.1992,0.001534,0.585981,-0.555301,0.556835,-0.595185,0.558369,-0.559903
5.6788,0.020349,0.000000,-1.547101,1.547101,0.0000,0.0000,0.0000,-0.002537,-1.586136,1.581534,0.9519,0.8428,-0.1992,0.001534,0.585981,-0.555301,0.556835,-0.595185,0.558369,-0.559903
5.6992,0.020360,0.000000,-1.546390,1.546390,0.0000,0.0000,0.0000,-0.002537,-1.586136,1.581534,0.9519,0.8428,-0.1992,0.001534,0.585981,-0.555301,0.556835,-0.595185,0.558369,-0.559903
5.7193,0.020100,0.000000,-1.545689,1.545689,0.0000,0.0000,0.0000,-0.002537,-1.586136,1.581534,0.9519,0.8428,-0.1992,0.001534,0.585981,-0.555301,0.556835,-0.595185,0.558369,-0.559903
5.7394,0.020103,0.000000,-1.544987,1.544987,0.0000,0.0000,0.0000,-0.002537,-1.586136,1.581534,0.9519,0.8428,-0.1992,0.001534,0.585981,-0.555301,0.556835,-0.595185,0.558369,-0.559903
5.7595,0.020108,0.000000,-1.544285,1.544285,0.0000,0.0000,0.0000,-0.002537,-1.586136,1.581534,0.9519,0.8428,-0.1992,0.001534,0.585981,-0.555301,0.556835,-0.595185,0.558369,-0.559903
5.7796,0.020094,0.000000,-1.543584,1.543584,0.0000,0.0000,0.0000,-0.002537,-1.586136,1.581534,0.9519,0.8428,-0.1992,0.001534,0.585981,-0.555301,0.556835,-0.595185,0.558369,-0.559903
5.7997,0.020107,0.000000,-1.542882,1.542882,0.0000,0.0000,0.0000,-0.002537,-1.586136,1.581534,0.9519,0.8428,-0.1992,0.001534,0.585981,-0.555301,0.556835,-0.595185,0.558369,-0.559903
5.8198,0.020099,0.000000,-1.542180,1.542180,0.0000,0.0000,0.0000,-0.002537,-1.586136,1.581534,0.9519,0.8428,-0.1992,0.001534,0.585981,-0.555301,0.556835,-0.595185,0.558369,-0.559903
5.8399,0.020102,0.000000,-1.541478,1.541478,0.0000,0.0000,0.0000,-0.002537,-1.586136,1.581534,0.9519,0.8428,-0.1992,0.001534,0.585981,-0.555301,0.556835,-0.595185,0.558369,-0.559903
5.8600,0.020115,0.000000,-1.540776,1.540776,0.0000,0.0000,0.0000,-0.002537,-1.586136,1.581534,0.9519,0.8428,-0.1992,0.001534,0.585981,-0.555301,0.556835,-0.595185,0.558369,-0.559903
5.8801,0.020102,0.000000,-1.540075,1.540075,0.0000,0.0000,0.0000,-0.002537,-1.586136,1.581534,0.9519,0.8428,-0.1992,0.001534,0.585981,-0.555301,0.556835,-0.595185,0.558369,-0.559903
5.9002,0.020098,0.000000,-1.539373,1.539373,0.0000,0.0000,0.0000,-0.002537,-1.586136,1.581534,0.9519,0.8428,-0.1992,0.001534,0.585981,-0.555301,0.556835,-0.595185,0.558369,-0.559903
5.9203,0.020104,0.000000,-1.538671,1.538671,0.0000,0.0000,0.0000,-0.002537,-1.586136,1.581534,0.9519,0.8428,-0.1992,0.001534,0.585981,-0.555301,0.556835,-0.595185,0.558369,-0.559903
5.9414,0.021127,0.000000,-1.537934,1.537934,0.0000,0.0000,0.0000,-0.002537,-1.583068,1.581534,0.9519,0.8428,-0.1992,0.001534,0.585981,-0.555301,0.556835,-0.595185,0.558369,-0.559903
5.9621,0.020618,0.000000,-1.537214,1.537214,0.0000,0.0000,0.0000,-0.002537,-1.575398,1.581534,0.9519,0.8428,-0.1992,0.001534,0.585981,-0.555301,0.556835,-0.595185,0.558369,-0.559903
5.9823,0.020201,0.000000,-1.536509,1.536509,0.0000,0.0000,0.0000,-0.002537,-1.566194,1.581534,0.9519,0.8428,-0.1992,0.001534,0.585981,-0.555301,0.556835,-0.595185,0.558369,-0.559903
6.0024,0.020103,0.000000,-1.535807,1.535807,0.0000,0.0000,0.0000,-0.002537,-1.566194,1.581534,0.9519,0.8428,-0.1992,0.001534,0.585981,-0.555301,0.556835,-0.595185,0.558369,-0.559903
6.0225,0.020097,0.000000,-1.535106,1.535106,0.0000,0.0000,0.0000,-0.002537,-1.560058,1.581534,0.9519,0.8428,-0.1992,0.001534,0.585981,-0.555301,0.556835,-0.595185,0.558369,-0.559903
6.0426,0.020106,0.000000,-1.534404,1.534404,0.0000,0.0000,0.0000,-0.002537,-1.560058,1.581534,0.9519,0.8428,-0.1992,0.001534,0.585981,-0.555301,0.556835,-0.595185,0.558369,-0.559903
6.0627,0.020108,0.000000,-1.533702,1.533702,0.0000,0.0000,0.0000,-0.002537,-1.560058,1.581534,0.9519,0.8428,-0.1992,0.001534,0.585981,-0.555301,0.556835,-0.595185,0.558369,-0.559903
6.0828,0.020110,0.000000,-1.533000,1.533000,0.0000,0.0000,0.0000,-0.002537,-1.560058,1.581534,0.9519,0.8428,-0.1992,0.001534,0.585981,-0.555301,0.556835,-0.595185,0.558369,-0.559903
6.1029,0.020107,0.000000,-1.532298,1.532298,0.0000,0.0000,0.0000,-0.002537,-1.560058,1.580000,0.9519,0.8428,-0.1992,0.001534,0.585981,-0.555301,0.556835,-0.595185,0.558369,-0.559903
6.1230,0.020105,0.000000,-1.531596,1.531596,0.0000,0.0000,0.0000,-0.002537,-1.560058,1.580000,0.9519,0.8428,-0.1992,0.001534,0.585981,-0.555301,0.556835,-0.595185,0.558369,-0.559903
6.1431,0.020097,0.000000,-1.530895,1.530895,0.0000,0.0000,0.0000,-0.002537,-1.560058,1.580000,0.9519,0.8428,-0.1992,0.001534,0.585981,-0.555301,0.556835,-0.595185,0.558369,-0.559903
6.1632,0.020097,0.000000,-1.530193,1.530193,0.0000,0.0000,0.0000,-0.002537,-1.560058,1.580000,0.9519,0.8428,-0.1992,0.001534,0.585981,-0.555301,0.556835,-0.595185,0.558369,-0.559903
6.1833,0.020095,0.000000,-1.529492,1.529492,0.0000,0.0000,0.0000,-0.002537,-1.560058,1.580000,0.9519,0.8428,-0.1992,0.001534,0.585981,-0.555301,0.556835,-0.595185,0.558369,-0.559903
6.2034,0.020106,0.000000,-1.528790,1.528790,0.0000,0.0000,0.0000,-0.002537,-1.560058,1.580000,0.9519,0.8428,-0.1992,0.001534,0.585981,-0.555301,0.556835,-0.595185,0.558369,-0.559903
6.2235,0.020112,0.000000,-1.528088,1.528088,0.0000,0.0000,0.0000,-0.002537,-1.560058,1.580000,0.9519,0.8428,-0.1992,0.001534,0.585981,-0.555301,0.556835,-0.595185,0.558369,-0.559903
6.2436,0.020096,0.000000,-1.527386,1.527386,0.0000,0.0000,0.0000,-0.002537,-1.560058,1.580000,0.9519,0.8428,-0.1992,0.001534,0.585981,-0.555301,0.556835,-0.595185,0.556835,-0.559903
6.2637,0.020123,0.000000,-1.526684,1.526684,0.0000,0.0000,0.0000,-0.002550,-1.560058,1.580000,0.9920,0.8759,-0.2510,0.001534,0.585981,-0.555301,0.556835,-0.595185,0.556835,-0.559903
6.2838,0.020098,0.000000,-1.525982,1.525982,0.0000,0.0000,0.0000,-0.002535,-1.560058,1.578466,0.9473,0.8389,-0.1931,0.001534,0.585981,-0.555301,0.556835,-0.595185,0.558369,-0.559903
6.3039,0.020098,0.000000,-1.525281,1.525281,0.0000,0.0000,0.0000,-0.002537,-1.560058,1.578466,0.9519,0.8428,-0.1992,0.001534,0.585981,-0.555301,0.556835,-0.595185,0.558369,-0.559903
6.3240,0.020091,0.000000,-1.524580,1.524580,0.0000,0.0000,0.0000,-0.002537,-1.561592,1.575398,0.9519,0.8428,-0.1992,0.001534,0.585981,-0.555301,0.556835,-0.595185,0.558369,-0.559903
6.3441,0.020096,0.000000,-1.523878,1.523878,0.0000,0.0000,0.0000,-0.002537,-1.561592,1.575398,0.9519,0.8428,-0.1992,0.001534,0.585981,-0.555301,0.556835,-0.595185,0.558369,-0.559903
6.3642,0.020094,0.000000,-1.523177,1.523177,0.0000,0.0000,0.0000,-0.002537,-1.560058,1.567728,0.9519,0.8428,-0.1992,0.001534,0.585981,-0.555301,0.556835,-0.595185,0.558369,-0.559903
6.3849,0.020716,0.000000,-1.522454,1.522454,0.0000,0.0000,0.0000,-0.002537,-1.560058,1.552389,0.9519,0.8428,-0.1992,0.001534,0.585981,-0.555301,0.556835,-0.595185,0.558369,-0.559903
6.4050,0.020101,0.000000,-1.521752,1.521752,0.0000,0.0000,0.0000,-0.002537,-1.560058,1.552389,0.9519,0.8428,-0.1992,0.001534,0.585981,-0.555301,0.556835,-0.595185,0.558369,-0.559903
6.4251,0.020092,0.000000,-1.521051,1.521051,0.0000,0.0000,0.0000,-0.002537,-1.560058,1.552389,0.9519,0.8428,-0.1992,0.001534,0.585981,-0.555301,0.556835,-0.595185,0.558369,-0.559903
6.4452,0.020088,0.000000,-1.520349,1.520349,0.0000,0.0000,0.0000,-0.002537,-1.560058,1.552389,0.9519,0.8428,-0.1992,0.001534,0.585981,-0.555301,0.556835,-0.595185,0.558369,-0.559903
6.4653,0.020098,0.000000,-1.519648,1.519648,0.0000,0.0000,0.0000,-0.002537,-1.560058,1.552389,0.9519,0.8428,-0.1992,0.001534,0.585981,-0.555301,0.556835,-0.595185,0.558369,-0.559903
6.4854,0.020095,0.000000,-1.518946,1.518946,0.0000,0.0000,0.0000,-0.002537,-1.560058,1.552389,0.9519,0.8428,-0.1992,0.001534,0.585981,-0.555301,0.556835,-0.595185,0.558369,-0.559903
6.5055,0.020092,0.000000,-1.518245,1.518245,0.0000,0.0000,0.0000,-0.002537,-1.560058,1.552389,0.9519,0.8428,-0.1992,0.001534,0.585981,-0.555301,0.556835,-0.595185,0.558369,-0.559903
6.5256,0.020087,0.000000,-1.517544,1.517544,0.0000,0.0000,0.0000,-0.002537,-1.560058,1.552389,0.9519,0.8428,-0.1992,0.001534,0.585981,-0.555301,0.556835,-0.595185,0.558369,-0.559903
6.5457,0.020089,0.000000,-1.516843,1.516843,0.0000,0.0000,0.0000,-0.002537,-1.560058,1.552389,0.9519,0.8428,-0.1992,0.001534,0.585981,-0.555301,0.556835,-0.595185,0.558369,-0.559903
