t,loop_dt,cmd_z,cmd_ant_l,cmd_ant_r,cmd_roll,cmd_pitch,cmd_yaw,pres_z,pres_ant_l,pres_ant_r,pres_roll,pres_pitch,pres_yaw,pres_j0,pres_j1,pres_j2,pres_j3,pres_j4,pres_j5,pres_j6
0.0000,0.000001,0.000000,-0.174533,0.174533,0.0000,0.0000,0.0000,-0.002673,-0.004602,0.007670,1.0917,1.0035,0.1883,0.001534,0.582913,-0.552233,0.556835,-0.593651,0.558369,-0.549165
0.0201,0.020092,0.000000,-0.172780,0.172780,0.0000,0.0000,0.0000,-0.002684,0.000000,0.006136,1.0805,0.9536,0.2411,0.001534,0.582913,-0.552233,0.556835,-0.592117,0.558369,-0.549165
0.0402,0.020091,0.000000,-0.171026,0.171026,0.0000,0.0000,0.0000,-0.002672,0.001534,0.004602,1.0929,1.0094,0.1821,0.001534,0.582913,-0.552233,0.556835,-0.593651,0.558369,-0.549165
0.0603,0.020086,0.000000,-0.169273,0.169273,0.0000,0.0000,0.0000,-0.002684,-0.003068,0.004602,1.0803,0.9530,0.2417,0.001534,0.582913,-0.552233,0.556835,-0.592117,0.558369,-0.549165
0.0804,0.020085,0.000000,-0.167521,0.167521,0.0000,0.0000,0.0000,-0.002670,-0.052155,0.050621,1.0323,0.9406,0.1820,0.001534,0.582913,-0.552233,0.556835,-0.592117,0.558369,-0.550699
0.1005,0.020100,0.000000,-0.165767,0.165767,0.0000,0.0000,0.0000,-0.002647,-0.118117,0.111981,1.1264,0.8909,0.1892,0.001534,0.584447,-0.553767,0.556835,-0.592117,0.558369,-0.550699
0.1205,0.020093,0.000000,-0.164013,0.164013,0.0000,0.0000,0.0000,-0.002599,-0.182544,0.179476,1.0687,0.8745,-0.0251,0.001534,0.584447,-0.555301,0.556835,-0.593651,0.558369,-0.553767
0.1406,0.020090,0.000000,-0.162260,0.162260,0.0000,0.0000,0.0000,-0.002580,-0.200951,0.196350,1.0752,0.8428,-0.0023,0.001534,0.585981,-0.555301,0.556835,-0.593651,0.558369,-0.555301
0.1607,0.020050,0.000000,-0.160510,0.160510,0.0000,0.0000,0.0000,-0.002580,-0.190214,0.188680,1.0138,0.7775,-0.0048,0.001534,0.585981,-0.555301,0.556835,-0.592117,0.558369,-0.556835
0.1808,0.020083,0.000000,-0.158758,0.158758,0.0000,0.0000,0.0000,-0.002567,-0.170272,0.173340,1.0596,0.7487,-0.0577,0.001534,0.585981,-0.556835,0.556835,-0.592117,0.558369,-0.556835
0.2009,0.020084,0.000000,-0.157005,0.157005,0.0000,0.0000,0.0000,-0.002546,-0.158000,0.164136,1.1160,0.7868,-0.0516,0.001534,0.587515,-0.556835,0.556835,-0.593651,0.558369,-0.556835
0.2209,0.020085,0.000000,-0.155252,0.155252,0.0000,0.0000,0.0000,-0.002522,-0.158000,0.158000,1.1003,0.7291,-0.1590,0.001534,0.587515,-0.558369,0.556835,-0.593651,0.558369,-0.558369
0.2410,0.020094,0.000000,-0.153499,0.153499,0.0000,0.0000,0.0000,-0.002511,-0.164136,0.158000,1.0527,0.7171,-0.2015,0.001534,0.587515,-0.558369,0.556835,-0.593651,0.558369,-0.559903
0.2611,0.020091,0.000000,-0.151745,0.151745,0.0000,0.0000,0.0000,-0.002499,-0.162602,0.158000,1.0969,0.6828,-0.2503,0.001534,0.587515,-0.559903,0.556835,-0.593651,0.558369,-0.559903
0.2812,0.020085,0.000000,-0.149993,0.149993,0.0000,0.0000,0.0000,-0.002501,-0.156466,0.158000,1.0923,0.6864,-0.2452,0.001534,0.587515,-0.559903,0.556835,-0.593651,0.558369,-0.559903
0.3013,0.020087,0.000000,-0.148240,0.148240,0.0000,0.0000,0.0000,-0.002501,-0.158000,0.158000,1.0923,0.6864,-0.2452,0.001534,0.587515,-0.559903,0.556835,-0.593651,0.558369,-0.559903
0.3214,0.020096,0.000000,-0.146486,0.146486,0.0000,0.0000,0.0000,-0.002501,-0.154932,0.158000,1.0923,0.6864,-0.2452,0.001534,0.587515,-0.559903,0.556835,-0.593651,0.558369,-0.559903
0.3415,0.020097,0.000000,-0.144732,0.144732,0.0000,0.0000,0.0000,-0.002487,-0.150330,0.156466,1.1320,0.6505,-0.2991,0.001534,0.587515,-0.561437,0.556835,-0.593651,0.558369,-0.559903
0.3616,0.020092,0.000000,-0.142979,0.142979,0.0000,0.0000,0.0000,-0.002489,-0.151864,0.156466,1.1278,0.6542,-0.2934,0.001534,0.587515,-0.561437,0.556835,-0.593651,0.558369,-0.559903
0.3817,0.020095,0.000000,-0.141225,0.141225,0.0000,0.0000,0.0000,-0.002489,-0.151864,0.156466,1.1278,0.6542,-0.2934,0.001534,0.587515,-0.561437,0.556835,-0.593651,0.558369,-0.559903
0.4018,0.020083,0.000000,-0.139473,0.139473,0.0000,0.0000,0.0000,-0.002489,-0.148796,0.153398,1.1278,0.6542,-0.2934,0.001534,0.587515,-0.561437,0.556835,-0.593651,0.558369,-0.559903
0.4218,0.020086,0.000000,-0.137720,0.137720,0.0000,0.0000,0.0000,-0.002475,-0.147262,0.147262,1.1674,0.6183,-0.3474,0.001534,0.587515,-0.562971,0.556835,-0.593651,0.558369,-0.559903
0.4419,0.020073,0.000000,-0.135968,0.135968,0.0000,0.0000,0.0000,-0.002490,-0.147262,0.144194,1.1242,0.6576,-0.2884,0.001534,0.587515,-0.561437,0.556835,-0.593651,0.558369,-0.559903
0.4620,0.020072,0.000000,-0.134217,0.134217,0.0000,0.0000,0.0000,-0.002488,-0.147262,0.142660,1.1287,0.6535,-0.2946,0.001534,0.587515,-0.561437,0.556835,-0.593651,0.558369,-0.559903
0.4821,0.020092,0.000000,-0.132463,0.132463,0.0000,0.0000,0.0000,-0.002499,-0.147262,0.142660,1.1167,0.6035,-0.2405,0.001534,0.587515,-0.561437,0.556835,-0.592117,0.558369,-0.559903
0.5022,0.020076,0.000000,-0.130711,0.130711,0.0000,0.0000,0.0000,-0.002487,-0.147262,0.142660,1.1294,0.6592,-0.2996,0.001534,0.587515,-0.561437,0.556835,-0.593651,0.558369,-0.559903
0.5222,0.020082,0.000000,-0.128959,0.128959,0.0000,0.0000,0.0000,-0.002489,-0.145728,0.142660,1.1281,0.6533,-0.2934,0.001534,0.587515,-0.561437,0.556835,-0.593651,0.558369,-0.559903
0.5423,0.020082,0.000000,-0.127206,0.127206,0.0000,0.0000,0.0000,-0.002489,-0.142660,0.142660,1.1281,0.6533,-0.2934,0.001534,0.587515,-0.561437,0.556835,-0.593651,0.558369,-0.559903
0.5624,0.020038,0.000000,-0.125458,0.125458,0.0000,0.0000,0.0000,-0.002489,-0.134990,0.141126,1.1281,0.6533,-0.2934,0.001534,0.587515,-0.561437,0.556835,-0.593651,0.558369,-0.559903
0.5825,0.020095,0.000000,-0.123704,0.123704,0.0000,0.0000,0.0000,-0.002489,-0.130388,0.138058,1.1281,0.6533,-0.2934,0.001534,0.587515,-0.561437,0.556835,-0.593651,0.558369,-0.559903
0.6025,0.020076,0.000000,-0.121952,0.121952,0.0000,0.0000,0.0000,-0.002489,-0.128854,0.133456,1.1281,0.6533,-0.2934,0.001534,0.587515,-0.561437,0.556835,-0.593651,0.558369,-0.559903
0.6226,0.020090,0.000000,-0.120199,0.120199,0.0000,0.0000,0.0000,-0.002489,-0.128854,0.127320,1.1281,0.6533,-0.2934,0.001534,0.587515,-0.561437,0.556835,-0.593651,0.558369,-0.559903
0.6427,0.020079,0.000000,-0.118447,0.118447,0.0000,0.0000,0.0000,-0.002489,-0.125786,0.122718,1.1281,0.6533,-0.2934,0.001534,0.587515,-0.561437,0.556835,-0.593651,0.558369,-0.559903
0.6628,0.020077,0.000000,-0.116695,0.116695,0.0000,0.0000,0.0000,-0.002475,-0.124252,0.122718,1.1674,0.6184,-0.3474,0.001534,0.587515,-0.562971,0.556835,-0.593651,0.558369,-0.559903
0.6829,0.020088,0.000000,-0.114942,0.114942,0.0000,0.0000,0.0000,-0.002477,-0.124252,0.121184,1.1633,0.6221,-0.3418,0.001534,0.587515,-0.562971,0.556835,-0.593651,0.558369,-0.559903
0.7029,0.020076,0.000000,-0.113190,0.113190,0.0000,0.0000,0.0000,-0.002490,-0.122718,0.121184,1.1246,0.6572,-0.2890,0.001534,0.587515,-0.561437,0.556835,-0.593651,0.558369,-0.559903
0.7230,0.020081,0.000000,-0.111437,0.111437,0.0000,0.0000,0.0000,-0.002488,-0.121184,0.119651,1.1286,0.6536,-0.2945,0.001534,0.587515,-0.561437,0.556835,-0.593651,0.558369,-0.559903
0.7431,0.020075,0.000000,-0.109685,0.109685,0.0000,0.0000,0.0000,-0.002488,-0.121184,0.118117,1.1286,0.6536,-0.2945,0.001534,0.587515,-0.561437,0.556835,-0.593651,0.558369,-0.559903
0.7632,0.020085,0.000000,-0.107933,0.107933,0.0000,0.0000,0.0000,-0.002488,-0.121184,0.116583,1.1286,0.6536,-0.2945,0.001534,0.587515,-0.561437,0.556835,-0.593651,0.558369,-0.559903
0.7833,0.020161,0.000000,-0.106173,0.106173,0.0000,0.0000,0.0000,-0.002475,-0.119651,0.115049,1.1673,0.6184,-0.3473,0.001534,0.587515,-0.562971,0.556835,-0.593651,0.558369,-0.559903
0.8034,0.020074,0.000000,-0.104421,0.104421,0.0000,0.0000,0.0000,-0.002490,-0.118117,0.115049,1.1242,0.6576,-0.2884,0.001534,0.587515,-0.561437,0.556835,-0.593651,0.558369,-0.559903
0.8235,0.020082,0.000000,-0.102669,0.102669,0.0000,0.0000,0.0000,-0.002488,-0.111981,0.113515,1.1287,0.6535,-0.2945,0.001534,0.587515,-0.561437,0.556835,-0.593651,0.558369,-0.559903
0.8436,0.020076,0.000000,-0.100917,0.100917,0.0000,0.0000,0.0000,-0.002488,-0.107379,0.113515,1.1287,0.6535,-0.2945,0.001534,0.587515,-0.561437,0.556835,-0.593651,0.558369,-0.559903
0.8637,0.020079,0.000000,-0.099165,0.099165,0.0000,0.0000,0.0000,-0.002488,-0.105845,0.110447,1.1287,0.6535,-0.2945,0.001534,0.587515,-0.561437,0.556835,-0.593651,0.558369,-0.559903
0.8837,0.020083,0.000000,-0.097412,0.097412,0.0000,0.0000,0.0000,-0.002488,-0.107379,0.107379,1.1287,0.6535,-0.2945,0.001534,0.587515,-0.561437,0.556835,-0.593651,0.558369,-0.559903
0.9038,0.020078,0.000000,-0.095660,0.095660,0.0000,0.0000,0.0000,-0.002488,-0.105845,0.101243,1.1287,0.6535,-0.2945,0.001534,0.587515,-0.561437,0.556835,-0.593651,0.558369,-0.559903
0.9239,0.020093,0.000000,-0.093907,0.093907,0.0000,0.0000,0.0000,-0.002488,-0.102777,0.096641,1.1287,0.6535,-0.2945,0.001534,0.587515,-0.561437,0.556835,-0.593651,0.558369,-0.559903
0.9440,0.020081,0.000000,-0.092154,0.092154,0.0000,0.0000,0.0000,-0.002488,-0.099709,0.096641,1.1287,0.6535,-0.2945,0.001534,0.587515,-0.561437,0.556835,-0.593651,0.558369,-0.559903
0.9641,0.020082,0.000000,-0.090402,0.090402,0.0000,0.0000,0.0000,-0.002488,-0.099709,0.096641,1.1287,0.6535,-0.2945,0.001534,0.587515,-0.561437,0.556835,-0.593651,0.558369,-0.559903
0.9842,0.020085,0.000000,-0.088649,0.088649,0.0000,0.0000,0.0000,-0.002488,-0.099709,0.095107,1.1287,0.6535,-0.2945,0.001534,0.587515,-0.561437,0.556835,-0.593651,0.558369,-0.559903
1.0042,0.020079,0.000000,-0.086897,0.086897,0.0000,0.0000,0.0000,-0.002488,-0.095107,0.092039,1.1287,0.6535,-0.2945,0.001534,0.587515,-0.561437,0.556835,-0.593651,0.558369,-0.559903
1.0243,0.020089,0.000000,-0.085144,0.085144,0.0000,0.0000,0.0000,-0.002488,-0.093573,0.090505,1.1287,0.6535,-0.2945,0.001534,0.587515,-0.561437,0.556835,-0.593651,0.558369,-0.559903
1.0444,0.020077,0.000000,-0.083392,0.083392,0.0000,0.0000,0.0000,-0.002488,-0.092039,0.090505,1.1287,0.6535,-0.2945,0.001534,0.587515,-0.561437,0.556835,-0.593651,0.558369,-0.559903
1.0645,0.020075,0.000000,-0.081640,0.081640,0.0000,0.0000,0.0000,-0.002499,-0.088971,0.088971,1.1167,0.6035,-0.2405,0.001534,0.587515,-0.561437,0.556835,-0.592117,0.558369,-0.559903
1.0846,0.020077,0.000000,-0.079888,0.079888,0.0000,0.0000,0.0000,-0.002487,-0.084369,0.088971,1.1294,0.6592,-0.2996,0.001534,0.587515,-0.561437,0.556835,-0.593651,0.558369,-0.559903
1.1046,0.020076,0.000000,-0.078136,0.078136,0.0000,0.0000,0.0000,-0.002489,-0.081301,0.088971,1.1281,0.6533,-0.2934,0.001534,0.587515,-0.561437,0.556835,-0.593651,0.558369,-0.559903
1.1247,0.020081,0.000000,-0.076383,0.076383,0.0000,0.0000,0.0000,-0.002475,-0.084369,0.087437,1.1674,0.6184,-0.3474,0.001534,0.587515,-0.562971,0.556835,-0.593651,0.558369,-0.559903
1.1448,0.020084,0.000000,-0.074631,0.074631,0.0000,0.0000,0.0000,-0.002490,-0.081301,0.087437,1.1242,0.6576,-0.2884,0.001534,0.587515,-0.561437,0.556835,-0.593651,0.558369,-0.559903
1.1649,0.020077,0.000000,-0.072879,0.072879,0.0000,0.0000,0.0000,-0.002488,-0.078233,0.085903,1.1287,0.6535,-0.2946,0.001534,0.587515,-0.561437,0.556835,-0.593651,0.558369,-0.559903
1.1850,0.020078,0.000000,-0.071126,0.071126,0.0000,0.0000,0.0000,-0.002488,-0.079767,0.081301,1.1287,0.6535,-0.2946,0.001534,0.587515,-0.561437,0.556835,-0.593651,0.558369,-0.559903
1.2050,0.020079,0.000000,-0.069374,0.069374,0.0000,0.0000,0.0000,-0.002488,-0.078233,0.075165,1.1287,0.6535,-0.2946,0.001534,0.587515,-0.561437,0.556835,-0.593651,0.558369,-0.559903
1.2251,0.020078,0.000000,-0.067622,0.067622,0.0000,0.0000,0.0000,-0.002488,-0.075165,0.072097,1.1287,0.6535,-0.2946,0.001534,0.587515,-0.561437,0.556835,-0.593651,0.558369,-0.559903
1.2452,0.020074,0.000000,-0.065870,0.065870,0.0000,0.0000,0.0000,-0.002488,-0.072097,0.070563,1.1287,0.6535,-0.2946,0.001534,0.587515,-0.561437,0.556835,-0.593651,0.558369,-0.559903
1.2653,0.020077,0.000000,-0.064118,0.064118,0.0000,0.0000,0.0000,-0.002488,-0.070563,0.069029,1.1287,0.6535,-0.2946,0.001534,0.587515,-0.561437,0.556835,-0.593651,0.558369,-0.559903
1.2853,0.020078,0.000000,-0.062366,0.062366,0.0000,0.0000,0.0000,-0.002488,-0.067495,0.067495,1.1287,0.6535,-0.2946,0.001534,0.587515,-0.561437,0.556835,-0.593651,0.558369,-0.559903
1.3054,0.020095,0.000000,-0.060612,0.060612,0.0000,0.0000,0.0000,-0.002488,-0.065961,0.065961,1.1287,0.6535,-0.2946,0.001534,0.587515,-0.561437,0.556835,-0.593651,0.558369,-0.559903
1.3256,0.020125,0.000000,-0.058856,0.058856,0.0000,0.0000,0.0000,-0.002488,-0.065961,0.065961,1.1287,0.6535,-0.2946,0.001534,0.587515,-0.561437,0.556835,-0.593651,0.558369,-0.559903
1.3458,0.020236,0.000000,-0.057090,0.057090,0.0000,0.0000,0.0000,-0.002488,-0.061359,0.062893,1.1287,0.6535,-0.2946,0.001534,0.587515,-0.561437,0.556835,-0.593651,0.558369,-0.559903
1.3659,0.020077,0.000000,-0.055338,0.055338,0.0000,0.0000,0.0000,-0.002488,-0.059825,0.062893,1.1287,0.6535,-0.2946,0.001534,0.587515,-0.561437,0.556835,-0.593651,0.558369,-0.559903
1.3860,0.020079,0.000000,-0.053586,0.053586,0.0000,0.0000,0.0000,-0.002488,-0.056757,0.062893,1.1287,0.6535,-0.2946,0.001534,0.587515,-0.561437,0.556835,-0.593651,0.558369,-0.559903
1.4060,0.020080,0.000000,-0.051834,0.051834,0.0000,0.0000,0.0000,-0.002488,-0.055223,0.062893,1.1287,0.6535,-0.2946,0.001534,0.587515,-0.561437,0.556835,-0.593651,0.558369,-0.559903
1.4261,0.020074,0.000000,-0.050082,0.050082,0.0000,0.0000,0.0000,-0.002488,-0.056757,0.061359,1.1287,0.6535,-0.2946,0.001534,0.587515,-0.561437,0.556835,-0.593651,0.558369,-0.559903
1.4462,0.020129,0.000000,-0.048325,0.048325,0.0000,0.0000,0.0000,-0.002488,-0.053689,0.058291,1.1287,0.6535,-0.2946,0.001534,0.587515,-0.561437,0.556835,-0.593651,0.558369,-0.559903
1.4663,0.020085,0.000000,-0.046573,0.046573,0.0000,0.0000,0.0000,-0.002475,-0.047553,0.055223,1.1673,0.6184,-0.3473,0.001534,0.587515,-0.562971,0.556835,-0.593651,0.558369,-0.559903
1.4864,0.020089,0.000000,-0.044819,0.044819,0.0000,0.0000,0.0000,-0.002490,-0.047553,0.049087,1.1242,0.6576,-0.2884,0.001534,0.587515,-0.561437,0.556835,-0.593651,0.558369,-0.559903
1.5065,0.020075,0.000000,-0.043068,0.043068,0.0000,0.0000,0.0000,-0.002488,-0.052155,0.046019,1.1287,0.6535,-0.2945,0.001534,0.587515,-0.561437,0.556835,-0.593651,0.558369,-0.559903
1.5267,0.020182,0.000000,-0.041306,0.041306,0.0000,0.0000,0.0000,-0.002475,-0.047553,0.046019,1.1673,0.6184,-0.3473,0.001534,0.587515,-0.562971,0.556835,-0.593651,0.558369,-0.559903
1.5469,0.020248,0.000000,-0.039539,0.039539,0.0000,0.0000,0.0000,-0.002490,-0.041417,0.044485,1.1242,0.6576,-0.2884,0.001534,0.587515,-0.561437,0.556835,-0.593651,0.558369,-0.559903
1.5670,0.020082,0.000000,-0.037787,0.037787,0.0000,0.0000,0.0000,-0.002488,-0.042951,0.042951,1.1287,0.6535,-0.2945,0.001534,0.587515,-0.561437,0.556835,-0.593651,0.558369,-0.559903
1.5873,0.020305,0.000000,-0.036015,0.036015,0.0000,0.0000,0.0000,-0.002488,-0.042951,0.041417,1.1287,0.6535,-0.2945,0.001534,0.587515,-0.561437,0.556835,-0.593651,0.558369,-0.559903
1.6074,0.020076,0.000000,-0.034263,0.034263,0.0000,0.0000,0.0000,-0.002488,-0.039884,0.038350,1.1287,0.6535,-0.2945,0.001534,0.587515,-0.561437,0.556835,-0.593651,0.558369,-0.559903
1.6275,0.020091,0.000000,-0.032510,0.032510,0.0000,0.0000,0.0000,-0.002475,-0.036816,0.036816,1.1673,0.6184,-0.3473,0.001534,0.587515,-0.562971,0.556835,-0.593651,0.558369,-0.559903
1.6476,0.020096,0.000000,-0.030756,0.030756,0.0000,0.0000,0.0000,-0.002490,-0.038350,0.036816,1.1242,0.6576,-0.2884,0.001534,0.587515,-0.561437,0.556835,-0.593651,0.558369,-0.559903
1.6676,0.020075,0.000000,-0.029004,0.029004,0.0000,0.0000,0.0000,-0.002488,-0.035282,0.035282,1.1287,0.6535,-0.2945,0.001534,0.587515,-0.561437,0.556835,-0.593651,0.558369,-0.559903
1.6878,0.020193,0.000000,-0.027242,0.027242,0.0000,0.0000,0.0000,-0.002488,-0.030680,0.035282,1.1287,0.6535,-0.2945,0.001534,0.587515,-0.561437,0.556835,-0.593651,0.558369,-0.559903
1.7079,0.020084,0.000000,-0.025489,0.025489,0.0000,0.0000,0.0000,-0.002475,-0.027612,0.035282,1.1673,0.6184,-0.3473,0.001534,0.587515,-0.562971,0.556835,-0.593651,0.558369,-0.559903
1.7280,0.020081,0.000000,-0.023737,0.023737,0.0000,0.0000,0.0000,-0.002490,-0.030680,0.033748,1.1242,0.6576,-0.2884,0.001534,0.587515,-0.561437,0.556835,-0.593651,0.558369,-0.559903
1.7484,0.020358,0.000000,-0.021960,0.021960,0.0000,0.0000,0.0000,-0.002488,-0.027612,0.033748,1.1287,0.6535,-0.2945,0.001534,0.587515,-0.561437,0.556835,-0.593651,0.558369,-0.559903
1.7684,0.020080,0.000000,-0.020208,0.020208,0.0000,0.0000,0.0000,-0.002488,-0.023010,0.030680,1.1287,0.6535,-0.2945,0.001534,0.587515,-0.561437,0.556835,-0.593651,0.558369,-0.559903
1.7885,0.020096,0.000000,-0.018454,0.018454,0.0000,0.0000,0.0000,-0.002475,-0.021476,0.027612,1.1673,0.6184,-0.3473,0.001534,0.587515,-0.562971,0.556835,-0.593651,0.558369,-0.559903
1.8086,0.020079,0.000000,-0.016702,0.016702,0.0000,0.0000,0.0000,-0.002477,-0.024544,0.021476,1.1633,0.6221,-0.4297,0.000000,0.587515,-0.562971,0.556835,-0.593651,0.558369,-0.559903
1.8287,0.020084,0.000000,-0.014949,0.014949,0.0000,0.0000,0.0000,-0.002490,-0.023010,0.018408,1.1246,0.6572,-0.2890,0.001534,0.587515,-0.561437,0.556835,-0.593651,0.558369,-0.559903
1.8488,0.020089,0.000000,-0.013196,0.013196,0.0000,0.0000,0.0000,-0.002475,-0.016874,0.016874,1.1678,0.6180,-0.3479,0.001534,0.587515,-0.562971,0.556835,-0.593651,0.558369,-0.559903
1.8689,0.020079,0.000000,-0.011444,0.011444,0.0000,0.0000,0.0000,-0.002477,-0.013806,0.013806,1.1632,0.6221,-0.3417,0.001534,0.587515,-0.562971,0.556835,-0.593651,0.558369,-0.559903
1.8890,0.020100,0.000000,-0.009690,0.009690,0.0000,0.0000,0.0000,-0.002490,-0.013806,0.013806,1.1246,0.6572,-0.2890,0.001534,0.587515,-0.561437,0.556835,-0.593651,0.558369,-0.559903
1.9092,0.020271,0.000000,-0.007921,0.007921,0.0000,0.0000,0.0000,-0.002488,-0.015340,0.012272,1.1286,0.6536,-0.2945,0.001534,0.587515,-0.561437,0.556835,-0.593651,0.558369,-0.559903
1.9293,0.020089,0.000000,-0.006168,0.006168,0.0000,0.0000,0.0000,-0.002488,-0.013806,0.010738,1.1286,0.6536,-0.2945,0.001534,0.587515,-0.561437,0.556835,-0.593651,0.558369,-0.559903
1.9494,0.020090,0.000000,-0.004415,0.004415,0.0000,0.0000,0.0000,-0.002475,-0.009204,0.009204,1.1673,0.6184,-0.3473,0.001534,0.587515,-0.562971,0.556835,-0.593651,0.558369,-0.559903
1.9695,0.020075,0.000000,-0.002663,0.002663,0.0000,0.0000,0.0000,-0.002490,-0.009204,0.007670,1.1242,0.6576,-0.2884,0.001534,0.587515,-0.561437,0.556835,-0.593651,0.558369,-0.559903
1.9896,0.020110,0.000000,-0.000908,0.000908,0.0000,0.0000,0.0000,-0.002488,-0.006136,0.007670,1.1287,0.6535,-0.2945,0.001534,0.587515,-0.561437,0.556835,-0.593651,0.558369,-0.559903
2.0097,0.020073,0.000000,0.000844,-0.000844,0.0000,0.0000,0.0000,-0.002488,-0.001534,0.007670,1.1287,0.6535,-0.2945,0.001534,0.587515,-0.561437,0.556835,-0.593651,0.558369,-0.559903
2.0298,0.020090,0.000000,0.002597,-0.002597,0.0000,0.0000,0.0000,-0.002488,0.001534,0.004602,1.1287,0.6535,-0.2945,0.001534,0.587515,-0.561437,0.556835,-0.593651,0.558369,-0.559903
2.0499,0.020101,0.000000,0.004351,-0.004351,0.0000,0.0000,0.0000,-0.002488,-0.003068,0.003068,1.1287,0.6535,-0.2945,0.001534,0.587515,-0.561437,0.556835,-0.593651,0.558369,-0.559903
2.0699,0.020081,0.000000,0.006103,-0.006103,0.0000,0.0000,0.0000,-0.002488,-0.001534,-0.001534,1.1287,0.6535,-0.2945,0.001534,0.587515,-0.561437,0.556835,-0.593651,0.558369,-0.559903
2.0901,0.020114,0.000000,0.007859,-0.007859,0.0000,0.0000,0.0000,-0.002488,0.004602,-0.003068,1.1287,0.6535,-0.2945,0.001534,0.587515,-0.561437,0.556835,-0.593651,0.558369,-0.559903
2.1102,0.020159,0.000000,0.009618,-0.009618,0.0000,0.0000,0.0000,-0.002488,0.006136,-0.003068,1.1287,0.6535,-0.2945,0.001534,0.587515,-0.561437,0.556835,-0.593651,0.558369,-0.559903
2.1303,0.020095,0.000000,0.011372,-0.011372,0.0000,0.0000,0.0000,-0.002488,0.000000,-0.003068,1.1287,0.6535,-0.3824,0.000000,0.587515,-0.561437,0.556835,-0.593651,0.558369,-0.559903
2.1504,0.020103,0.000000,0.013126,-0.013126,0.0000,0.0000,0.0000,-0.002488,0.001534,-0.004602,1.1287,0.6535,-0.2945,0.001534,0.587515,-0.561437,0.556835,-0.593651,0.558369,-0.559903
2.1705,0.020084,0.000000,0.014879,-0.014879,0.0000,0.0000,0.0000,-0.002488,0.009204,-0.009204,1.1287,0.6535,-0.2945,0.001534,0.587515,-0.561437,0.556835,-0.593651,0.558369,-0.559903
2.1906,0.020098,0.000000,0.016632,-0.016632,0.0000,0.0000,0.0000,-0.002488,0.013806,-0.013806,1.1287,0.6535,-0.2945,0.001534,0.587515,-0.561437,0.556835,-0.593651,0.558369,-0.559903
2.2109,0.020289,0.000000,0.018403,-0.018403,0.0000,0.0000,0.0000,-0.002488,0.010738,-0.012272,1.1287,0.6535,-0.2945,0.001534,0.587515,-0.561437,0.556835,-0.593651,0.558369,-0.559903
2.2310,0.020090,0.000000,0.020156,-0.020156,0.0000,0.0000,0.0000,-0.002488,0.007670,-0.012272,1.1287,0.6535,-0.2945,0.001534,0.587515,-0.561437,0.556835,-0.593651,0.558369,-0.559903
2.2511,0.020092,0.000000,0.021910,-0.021910,0.0000,0.0000,0.0000,-0.002488,0.012272,-0.013806,1.1287,0.6535,-0.2945,0.001534,0.587515,-0.561437,0.556835,-0.593651,0.558369,-0.559903
2.2712,0.020133,0.000000,0.023666,-0.023666,0.0000,0.0000,0.0000,-0.002488,0.019942,-0.016874,1.1287,0.6535,-0.2945,0.001534,0.587515,-0.561437,0.556835,-0.593651,0.558369,-0.559903
2.2913,0.020082,0.000000,0.025419,-0.025419,0.0000,0.0000,0.0000,-0.002488,0.019942,-0.018408,1.1287,0.6535,-0.2945,0.001534,0.587515,-0.561437,0.556835,-0.593651,0.558369,-0.559903
2.3114,0.020084,0.000000,0.027172,-0.027172,0.0000,0.0000,0.0000,-0.002475,0.018408,-0.019942,1.1673,0.6184,-0.3473,0.001534,0.587515,-0.562971,0.556835,-0.593651,0.558369,-0.559903
2.3314,0.020076,0.000000,0.028924,-0.028924,0.0000,0.0000,0.0000,-0.002490,0.019942,-0.021476,1.1242,0.6576,-0.2884,0.001534,0.587515,-0.561437,0.556835,-0.593651,0.558369,-0.559903
2.3515,0.020086,0.000000,0.030676,-0.030676,0.0000,0.0000,0.0000,-0.002475,0.029146,-0.023010,1.1678,0.6180,-0.3479,0.001534,0.587515,-0.562971,0.556835,-0.593651,0.558369,-0.559903
2.3716,0.020101,0.000000,0.032430,-0.032430,0.0000,0.0000,0.0000,-0.002477,0.030680,-0.026078,1.1632,0.6221,-0.3417,0.001534,0.587515,-0.562971,0.556835,-0.593651,0.558369,-0.559903
2.3917,0.020081,0.000000,0.034183,-0.034183,0.0000,0.0000,0.0000,-0.002490,0.024544,-0.029146,1.1246,0.6572,-0.2890,0.001534,0.587515,-0.561437,0.556835,-0.593651,0.558369,-0.559903
2.4118,0.020086,0.000000,0.035936,-0.035936,0.0000,0.0000,0.0000,-0.002488,0.026078,-0.029146,1.1286,0.6536,-0.2945,0.001534,0.587515,-0.561437,0.556835,-0.593651,0.558369,-0.559903
2.4319,0.020089,0.000000,0.037689,-0.037689,0.0000,0.0000,0.0000,-0.002488,0.035282,-0.030680,1.1286,0.6536,-0.2945,0.001534,0.587515,-0.561437,0.556835,-0.593651,0.558369,-0.559903
2.4520,0.020085,0.000000,0.039442,-0.039442,0.0000,0.0000,0.0000,-0.002488,0.036816,-0.035282,1.1286,0.6536,-0.2945,0.001534,0.587515,-0.561437,0.556835,-0.593651,0.558369,-0.559903
2.4721,0.020089,0.000000,0.041195,-0.041195,0.0000,0.0000,0.0000,-0.002488,0.029146,-0.035282,1.1286,0.6536,-0.2945,0.001534,0.587515,-0.561437,0.556835,-0.593651,0.558369,-0.559903
2.4921,0.020083,0.000000,0.042947,-0.042947,0.0000,0.0000,0.0000,-0.002488,0.030680,-0.036816,1.1286,0.6536,-0.2945,0.001534,0.587515,-0.561437,0.556835,-0.593651,0.558369,-0.559903
2.5122,0.020089,0.000000,0.044701,-0.044701,0.0000,0.0000,0.0000,-0.002488,0.038350,-0.038350,1.1286,0.6536,-0.2945,0.001534,0.587515,-0.561437,0.556835,-0.593651,0.558369,-0.559903
2.5323,0.020080,0.000000,0.046453,-0.046453,0.0000,0.0000,0.0000,-0.002475,0.044485,-0.039884,1.1673,0.6184,-0.3473,0.001534,0.587515,-0.562971,0.556835,-0.593651,0.558369,-0.559903
2.5524,0.020090,0.000000,0.048206,-0.048206,0.0000,0.0000,0.0000,-0.002477,0.039884,-0.041417,1.1633,0.6221,-0.3418,0.001534,0.587515,-0.562971,0.556835,-0.593651,0.558369,-0.559903
2.5725,0.020087,0.000000,0.049959,-0.049959,0.0000,0.0000,0.0000,-0.002490,0.038350,-0.042951,1.1246,0.6572,-0.2890,0.001534,0.587515,-0.561437,0.556835,-0.593651,0.558369,-0.559903
2.5926,0.020151,0.000000,0.051717,-0.051717,0.0000,0.0000,0.0000,-0.002488,0.044485,-0.046019,1.1286,0.6536,-0.2945,0.001534,0.587515,-0.561437,0.556835,-0.593651,0.558369,-0.559903
2.6127,0.020087,0.000000,0.053470,-0.053470,0.0000,0.0000,0.0000,-0.002488,0.050621,-0.047553,1.1286,0.6536,-0.2945,0.001534,0.587515,-0.561437,0.556835,-0.593651,0.558369,-0.559903
2.6328,0.020080,0.000000,0.055223,-0.055223,0.0000,0.0000,0.0000,-0.002488,0.047553,-0.047553,1.1286,0.6536,-0.2945,0.001534,0.587515,-0.561437,0.556835,-0.593651,0.558369,-0.559903
2.6529,0.020087,0.000000,0.056976,-0.056976,0.0000,0.0000,0.0000,-0.002488,0.042951,-0.049087,1.1286,0.6536,-0.2945,0.001534,0.587515,-0.561437,0.556835,-0.593651,0.558369,-0.559903
2.6730,0.020085,0.000000,0.058728,-0.058728,0.0000,0.0000,0.0000,-0.002475,0.047553,-0.050621,1.1673,0.6184,-0.3473,0.001534,0.587515,-0.562971,0.556835,-0.593651,0.558369,-0.559903
2.6931,0.020081,0.000000,0.060481,-0.060481,0.0000,0.0000,0.0000,-0.002477,0.056757,-0.053689,1.1633,0.6221,-0.3418,0.001534,0.587515,-0.562971,0.556835,-0.593651,0.558369,-0.559903
2.7131,0.020089,0.000000,0.062234,-0.062234,0.0000,0.0000,0.0000,-0.002490,0.059825,-0.056757,1.1246,0.6572,-0.2890,0.001534,0.587515,-0.561437,0.556835,-0.593651,0.558369,-0.559903
2.7332,0.020076,0.000000,0.063986,-0.063986,0.0000,0.0000,0.0000,-0.002488,0.053689,-0.059825,1.1286,0.6536,-0.2945,0.001534,0.587515,-0.561437,0.556835,-0.593651,0.558369,-0.559903
2.7533,0.020090,0.000000,0.065739,-0.065739,0.0000,0.0000,0.0000,-0.002475,0.055223,-0.059825,1.1673,0.6184,-0.3473,0.001534,0.587515,-0.562971,0.556835,-0.593651,0.558369,-0.559903
2.7734,0.020086,0.000000,0.067492,-0.067492,0.0000,0.0000,0.0000,-0.002490,0.061359,-0.059825,1.1242,0.6576,-0.2884,0.001534,0.587515,-0.561437,0.556835,-0.593651,0.558369,-0.559903
2.7935,0.020080,0.000000,0.069244,-0.069244,0.0000,0.0000,0.0000,-0.002488,0.065961,-0.061359,1.1287,0.6535,-0.2945,0.001534,0.587515,-0.561437,0.556835,-0.593651,0.558369,-0.559903
2.8137,0.020222,0.000000,0.071009,-0.071009,0.0000,0.0000,0.0000,-0.002488,0.061359,-0.062893,1.1287,0.6535,-0.2945,0.001534,0.587515,-0.561437,0.556835,-0.593651,0.558369,-0.559903
2.8338,0.020084,0.000000,0.072761,-0.072761,0.0000,0.0000,0.0000,-0.002475,0.059825,-0.067495,1.1673,0.6184,-0.3473,0.001534,0.587515,-0.562971,0.556835,-0.593651,0.558369,-0.559903
2.8539,0.020102,0.000000,0.074516,-0.074516,0.0000,0.0000,0.0000,-0.002490,0.065961,-0.069029,1.1242,0.6576,-0.2884,0.001534,0.587515,-0.561437,0.556835,-0.593651,0.558369,-0.559903
2.8740,0.020093,0.000000,0.076269,-0.076269,0.0000,0.0000,0.0000,-0.002488,0.073631,-0.070563,1.1287,0.6535,-0.2945,0.001534,0.587515,-0.561437,0.556835,-0.593651,0.558369,-0.559903
2.8941,0.020079,0.000000,0.078021,-0.078021,0.0000,0.0000,0.0000,-0.002488,0.072097,-0.072097,1.1287,0.6535,-0.2945,0.001534,0.587515,-0.561437,0.556835,-0.593651,0.558369,-0.559903
2.9141,0.020090,0.000000,0.079774,-0.079774,0.0000,0.0000,0.0000,-0.002488,0.067495,-0.072097,1.1287,0.6535,-0.2945,0.001534,0.587515,-0.561437,0.556835,-0.593651,0.558369,-0.559903
2.9342,0.020076,0.000000,0.081526,-0.081526,0.0000,0.0000,0.0000,-0.002488,0.070563,-0.073631,1.1287,0.6535,-0.2945,0.001534,0.587515,-0.561437,0.556835,-0.593651,0.558369,-0.559903
2.9543,0.020096,0.000000,0.083280,-0.083280,0.0000,0.0000,0.0000,-0.002475,0.079767,-0.073631,1.1673,0.6184,-0.3473,0.001534,0.587515,-0.562971,0.556835,-0.593651,0.558369,-0.559903
2.9744,0.020080,0.000000,0.085032,-0.085032,0.0000,0.0000,0.0000,-0.002490,0.081301,-0.073631,1.1242,0.6576,-0.2884,0.001534,0.587515,-0.561437,0.556835,-0.593651,0.558369,-0.559903
2.9945,0.020077,0.000000,0.086785,-0.086785,0.0000,0.0000,0.0000,-0.002488,0.078233,-0.073631,1.1287,0.6535,-0.2945,0.001534,0.587515,-0.561437,0.556835,-0.593651,0.558369,-0.559903
3.0146,0.020089,0.000000,0.088538,-0.088538,0.0000,0.0000,0.0000,-0.002488,0.081301,-0.073631,1.1287,0.6535,-0.2945,0.001534,0.587515,-0.561437,0.556835,-0.593651,0.558369,-0.559903
3.0346,0.020076,0.000000,0.090290,-0.090290,0.0000,0.0000,0.0000,-0.002475,0.087437,-0.075165,1.1673,0.6184,-0.3473,0.001534,0.587515,-0.562971,0.556835,-0.593651,0.558369,-0.559903
3.0547,0.020084,0.000000,0.092042,-0.092042,0.0000,0.0000,0.0000,-0.002490,0.087437,-0.075165,1.1242,0.6576,-0.2884,0.001534,0.587515,-0.561437,0.556835,-0.593651,0.558369,-0.559903
3.0748,0.020077,0.000000,0.093794,-0.093794,0.0000,0.0000,0.0000,-0.002488,0.082835,-0.078233,1.1287,0.6535,-0.2945,0.001534,0.587515,-0.561437,0.556835,-0.593651,0.558369,-0.559903
3.0948,0.020035,0.000000,0.095543,-0.095543,0.0000,0.0000,0.0000,-0.002488,0.084369,-0.081301,1.1287,0.6535,-0.2945,0.001534,0.587515,-0.561437,0.556835,-0.593651,0.558369,-0.559903
3.1149,0.020077,0.000000,0.097295,-0.097295,0.0000,0.0000,0.0000,-0.002488,0.092039,-0.084369,1.1287,0.6535,-0.2945,0.001534,0.587515,-0.561437,0.556835,-0.593651,0.558369,-0.559903
3.1350,0.020076,0.000000,0.099047,-0.099047,0.0000,0.0000,0.0000,-0.002488,0.096641,-0.090505,1.1287,0.6535,-0.2945,0.001534,0.587515,-0.561437,0.556835,-0.593651,0.558369,-0.559903
3.1551,0.020085,0.000000,0.100799,-0.100799,0.0000,0.0000,0.0000,-0.002488,0.093573,-0.096641,1.1287,0.6535,-0.2945,0.001534,0.587515,-0.561437,0.556835,-0.593651,0.558369,-0.559903
3.1752,0.020078,0.000000,0.102552,-0.102552,0.0000,0.0000,0.0000,-0.002488,0.092039,-0.096641,1.1287,0.6535,-0.2945,0.001534,0.587515,-0.561437,0.556835,-0.593651,0.558369,-0.559903
3.1952,0.020078,0.000000,0.104304,-0.104304,0.0000,0.0000,0.0000,-0.002475,0.098175,-0.096641,1.1673,0.6184,-0.3473,0.001534,0.587515,-0.562971,0.556835,-0.593651,0.558369,-0.559903
3.2154,0.020181,0.000000,0.106065,-0.106065,0.0000,0.0000,0.0000,-0.002477,0.102777,-0.098175,1.1633,0.6221,-0.3418,0.001534,0.587515,-0.562971,0.556835,-0.593651,0.558369,-0.559903
3.2355,0.020077,0.000000,0.107817,-0.107817,0.0000,0.0000,0.0000,-0.002490,0.099709,-0.101243,1.1246,0.6572,-0.2890,0.001534,0.587515,-0.561437,0.556835,-0.593651,0.558369,-0.559903
3.2556,0.020121,0.000000,0.109573,-0.109573,0.0000,0.0000,0.0000,-0.002475,0.096641,-0.101243,1.1678,0.6180,-0.3479,0.001534,0.587515,-0.562971,0.556835,-0.593651,0.558369,-0.559903
3.2757,0.020088,0.000000,0.111326,-0.111326,0.0000,0.0000,0.0000,-0.002490,0.101243,-0.102777,1.1241,0.6576,-0.2884,0.001534,0.587515,-0.561437,0.556835,-0.593651,0.558369,-0.559903
3.2958,0.020080,0.000000,0.113078,-0.113078,0.0000,0.0000,0.0000,-0.002475,0.110447,-0.102777,1.1678,0.6180,-0.3479,0.001534,0.587515,-0.562971,0.556835,-0.593651,0.558369,-0.559903
3.3159,0.020082,0.000000,0.114831,-0.114831,0.0000,0.0000,0.0000,-0.002490,0.113515,-0.102777,1.1241,0.6576,-0.2884,0.001534,0.587515,-0.561437,0.556835,-0.593651,0.558369,-0.559903
3.3359,0.020080,0.000000,0.116583,-0.116583,0.0000,0.0000,0.0000,-0.002488,0.108913,-0.104311,1.1287,0.6535,-0.2946,0.001534,0.587515,-0.561437,0.556835,-0.593651,0.558369,-0.559903
3.3560,0.020097,0.000000,0.118337,-0.118337,0.0000,0.0000,0.0000,-0.002488,0.107379,-0.105845,1.1287,0.6535,-0.2946,0.001534,0.587515,-0.561437,0.556835,-0.593651,0.558369,-0.559903
3.3761,0.020084,0.000000,0.120089,-0.120089,0.0000,0.0000,0.0000,-0.002488,0.116583,-0.108913,1.1287,0.6535,-0.2946,0.001534,0.587515,-0.561437,0.556835,-0.593651,0.558369,-0.559903
3.3962,0.020080,0.000000,0.121842,-0.121842,0.0000,0.0000,0.0000,-0.002488,0.118117,-0.113515,1.1287,0.6535,-0.2946,0.001534,0.587515,-0.561437,0.556835,-0.593651,0.558369,-0.559903
3.4168,0.020563,0.000000,0.123636,-0.123636,0.0000,0.0000,0.0000,-0.002488,0.115049,-0.121184,1.1287,0.6535,-0.2946,0.001534,0.587515,-0.561437,0.556835,-0.593651,0.558369,-0.559903
3.4368,0.020081,0.000000,0.125389,-0.125389,0.0000,0.0000,0.0000,-0.002488,0.115049,-0.122718,1.1287,0.6535,-0.2946,0.001534,0.587515,-0.561437,0.556835,-0.593651,0.558369,-0.559903
3.4571,0.020295,0.000000,0.127160,-0.127160,0.0000,0.0000,0.0000,-0.002488,0.122718,-0.121184,1.1287,0.6535,-0.2946,0.001534,0.587515,-0.561437,0.556835,-0.593651,0.558369,-0.559903
3.4772,0.020082,0.000000,0.128912,-0.128912,0.0000,0.0000,0.0000,-0.002488,0.125786,-0.124252,1.1287,0.6535,-0.2946,0.001534,0.587515,-0.561437,0.556835,-0.593651,0.558369,-0.559903
3.4973,0.020080,0.000000,0.130664,-0.130664,0.0000,0.0000,0.0000,-0.002488,0.122718,-0.125786,1.1287,0.6535,-0.2946,0.001534,0.587515,-0.561437,0.556835,-0.593651,0.558369,-0.559903
3.5174,0.020079,0.000000,0.132417,-0.132417,0.0000,0.0000,0.0000,-0.002488,0.119651,-0.125786,1.1287,0.6535,-0.2946,0.001534,0.587515,-0.561437,0.556835,-0.593651,0.558369,-0.559903
3.5375,0.020085,0.000000,0.134169,-0.134169,0.0000,0.0000,0.0000,-0.002488,0.125786,-0.127320,1.1287,0.6535,-0.2946,0.001534,0.587515,-0.561437,0.556835,-0.593651,0.558369,-0.559903
3.5578,0.020307,0.000000,0.135942,-0.135942,0.0000,0.0000,0.0000,-0.002488,0.134990,-0.130388,1.1287,0.6535,-0.2946,0.001534,0.587515,-0.561437,0.556835,-0.593651,0.558369,-0.559903
3.5779,0.020083,0.000000,0.137694,-0.137694,0.0000,0.0000,0.0000,-0.002488,0.133456,-0.131922,1.1287,0.6535,-0.2946,0.001534,0.587515,-0.561437,0.556835,-0.593651,0.558369,-0.559903
3.5979,0.020080,0.000000,0.139447,-0.139447,0.0000,0.0000,0.0000,-0.002488,0.125786,-0.131922,1.1287,0.6535,-0.2946,0.001534,0.587515,-0.561437,0.556835,-0.593651,0.558369,-0.559903
3.6180,0.020093,0.000000,0.141200,-0.141200,0.0000,0.0000,0.0000,-0.002488,0.128854,-0.133456,1.1287,0.6535,-0.2946,0.001534,0.587515,-0.561437,0.556835,-0.593651,0.558369,-0.559903
3.6381,0.020090,0.000000,0.142953,-0.142953,0.0000,0.0000,0.0000,-0.002488,0.138058,-0.133456,1.1287,0.6535,-0.2946,0.001534,0.587515,-0.561437,0.556835,-0.593651,0.558369,-0.559903
3.6584,0.020293,0.000000,0.144724,-0.144724,0.0000,0.0000,0.0000,-0.002488,0.142660,-0.136524,1.1287,0.6535,-0.3824,0.000000,0.587515,-0.561437,0.556835,-0.593651,0.558369,-0.559903
3.6785,0.020084,0.000000,0.146477,-0.146477,0.0000,0.0000,0.0000,-0.002488,0.141126,-0.142660,1.1287,0.6535,-0.2946,0.001534,0.587515,-0.561437,0.556835,-0.593651,0.558369,-0.559903
3.6986,0.020081,0.000000,0.148229,-0.148229,0.0000,0.0000,0.0000,-0.002488,0.138058,-0.144194,1.1287,0.6535,-0.2946,0.001534,0.587515,-0.561437,0.556835,-0.593651,0.558369,-0.559903
3.7187,0.020100,0.000000,0.149983,-0.149983,0.0000,0.0000,0.0000,-0.002475,0.145728,-0.144194,1.1673,0.6184,-0.3473,0.001534,0.587515,-0.562971,0.556835,-0.593651,0.558369,-0.559903
3.7388,0.020083,0.000000,0.151736,-0.151736,0.0000,0.0000,0.0000,-0.002490,0.147262,-0.147262,1.1242,0.6576,-0.2884,0.001534,0.587515,-0.561437,0.556835,-0.593651,0.558369,-0.559903
3.7588,0.020063,0.000000,0.153487,-0.153487,0.0000,0.0000,0.0000,-0.002488,0.144194,-0.148796,1.1287,0.6535,-0.2945,0.001534,0.587515,-0.561437,0.556835,-0.593651,0.558369,-0.559903
3.7790,0.020168,0.000000,0.155247,-0.155247,0.0000,0.0000,0.0000,-0.002488,0.148796,-0.151864,1.1287,0.6535,-0.2945,0.001534,0.587515,-0.561437,0.556835,-0.593651,0.558369,-0.559903
3.7991,0.020092,0.000000,0.157000,-0.157000,0.0000,0.0000,0.0000,-0.002488,0.156466,-0.153398,1.1287,0.6535,-0.2945,0.001534,0.587515,-0.562971,0.556835,-0.593651,0.558369,-0.559903
3.8192,0.020105,0.000000,0.158755,-0.158755,0.0000,0.0000,0.0000,-0.002490,0.156466,-0.156466,1.1242,0.6576,-0.2884,0.001534,0.587515,-0.561437,0.556835,-0.593651,0.558369,-0.559903
3.8393,0.020081,0.000000,0.160507,-0.160507,0.0000,0.0000,0.0000,-0.002488,0.150330,-0.158000,1.1287,0.6535,-0.2945,0.001534,0.587515,-0.561437,0.556835,-0.593651,0.558369,-0.559903
3.8594,0.020081,0.000000,0.162259,-0.162259,0.0000,0.0000,0.0000,-0.002488,0.153398,-0.158000,1.1287,0.6535,-0.2945,0.001534,0.587515,-0.561437,0.556835,-0.593651,0.558369,-0.559903
3.8799,0.020525,0.000000,0.164050,-0.164050,0.0000,0.0000,0.0000,-0.002488,0.164136,-0.159534,1.1287,0.6535,-0.2945,0.001534,0.587515,-0.561437,0.556835,-0.593651,0.558369,-0.559903
3.9000,0.020081,0.000000,0.165803,-0.165803,0.0000,0.0000,0.0000,-0.002488,0.164136,-0.162602,1.1287,0.6535,-0.2945,0.001534,0.587515,-0.561437,0.556835,-0.593651,0.558369,-0.559903
3.9200,0.020086,0.000000,0.167556,-0.167556,0.0000,0.0000,0.0000,-0.002488,0.158000,-0.164136,1.1287,0.6535,-0.2945,0.001534,0.587515,-0.561437,0.556835,-0.593651,0.558369,-0.559903
3.9401,0.020083,0.000000,0.169308,-0.169308,0.0000,0.0000,0.0000,-0.002488,0.161068,-0.165670,1.1287,0.6535,-0.2945,0.001534,0.587515,-0.561437,0.556835,-0.593651,0.558369,-0.559903
3.9602,0.020080,0.000000,0.171060,-0.171060,0.0000,0.0000,0.0000,-0.002475,0.171806,-0.168738,1.1673,0.6184,-0.3473,0.001534,0.587515,-0.562971,0.556835,-0.593651,0.558369,-0.559903
3.9803,0.020082,0.000000,0.172813,-0.172813,0.0000,0.0000,0.0000,-0.002490,0.173340,-0.170272,1.1242,0.6576,-0.2884,0.001534,0.587515,-0.561437,0.556835,-0.593651,0.558369,-0.559903
4.0004,0.020082,0.000000,0.174500,-0.174500,0.0000,0.0000,0.0000,-0.002488,0.167204,-0.170272,1.1287,0.6535,-0.3824,0.000000,0.587515,-0.561437,0.556835,-0.593651,0.558369,-0.559903
4.0204,0.020073,0.000000,0.172749,-0.172749,0.0000,0.0000,0.0000,-0.002488,0.167204,-0.171806,1.1287,0.6535,-0.2945,0.001534,0.587515,-0.561437,0.556835,-0.593651,0.558369,-0.559903
4.0405,0.020077,0.000000,0.170997,-0.170997,0.0000,0.0000,0.0000,-0.002488,0.177942,-0.174874,1.1287,0.6535,-0.2945,0.001534,0.587515,-0.561437,0.556835,-0.593651,0.558369,-0.559903
4.0606,0.020100,0.000000,0.169243,-0.169243,0.0000,0.0000,0.0000,-0.002488,0.176408,-0.174874,1.1287,0.6535,-0.2945,0.001534,0.587515,-0.561437,0.556835,-0.593651,0.558369,-0.559903
4.0807,0.020095,0.000000,0.167489,-0.167489,0.0000,0.0000,0.0000,-0.002488,0.176408,-0.174874,1.1287,0.6535,-0.2945,0.001534,0.587515,-0.561437,0.556835,-0.593651,0.558369,-0.559903
4.1008,0.020084,0.000000,0.165736,-0.165736,0.0000,0.0000,0.0000,-0.002488,0.167204,-0.174874,1.1287,0.6535,-0.2945,0.001534,0.587515,-0.561437,0.556835,-0.593651,0.558369,-0.559903
4.1209,0.020103,0.000000,0.163982,-0.163982,0.0000,0.0000,0.0000,-0.002488,0.167204,-0.171806,1.1287,0.6535,-0.2945,0.001534,0.587515,-0.561437,0.556835,-0.593651,0.558369,-0.559903
4.1410,0.020092,0.000000,0.162229,-0.162229,0.0000,0.0000,0.0000,-0.002488,0.171806,-0.171806,1.1287,0.6535,-0.2945,0.001534,0.587515,-0.561437,0.556835,-0.593651,0.558369,-0.559903
4.1611,0.020086,0.000000,0.160476,-0.160476,0.0000,0.0000,0.0000,-0.002475,0.170272,-0.170272,1.1673,0.6184,-0.3473,0.001534,0.587515,-0.562971,0.556835,-0.593651,0.558369,-0.559903
4.1812,0.020095,0.000000,0.158722,-0.158722,0.0000,0.0000,0.0000,-0.002490,0.165670,-0.170272,1.1242,0.6576,-0.2884,0.001534,0.587515,-0.561437,0.556835,-0.593651,0.558369,-0.559903
4.2013,0.020087,0.000000,0.156969,-0.156969,0.0000,0.0000,0.0000,-0.002475,0.162602,-0.170272,1.1678,0.6180,-0.3479,0.001534,0.587515,-0.562971,0.556835,-0.593651,0.558369,-0.559903
4.2214,0.020090,0.000000,0.155216,-0.155216,0.0000,0.0000,0.0000,-0.002490,0.159534,-0.170272,1.1241,0.6576,-0.2884,0.001534,0.587515,-0.561437,0.556835,-0.593651,0.558369,-0.559903
4.2414,0.020080,0.000000,0.153464,-0.153464,0.0000,0.0000,0.0000,-0.002464,0.158000,-0.170272,1.1793,0.6683,-0.4014,0.001534,0.587515,-0.562971,0.556835,-0.595185,0.558369,-0.559903
4.2615,0.020079,0.000000,0.151711,-0.151711,0.0000,0.0000,0.0000,-0.002491,0.159534,-0.168738,1.1229,0.6524,-0.2828,0.001534,0.587515,-0.561437,0.556835,-0.593651,0.558369,-0.559903
4.2816,0.020087,0.000000,0.149959,-0.149959,0.0000,0.0000,0.0000,-0.002477,0.158000,-0.168738,1.1403,0.7044,-0.3486,0.001534,0.587515,-0.561437,0.556835,-0.595185,0.558369,-0.559903
4.3017,0.020074,0.000000,0.148207,-0.148207,0.0000,0.0000,0.0000,-0.002490,0.156466,-0.165670,1.1270,0.6487,-0.2883,0.001534,0.587515,-0.561437,0.556835,-0.593651,0.558369,-0.559903
4.3218,0.020088,0.000000,0.146454,-0.146454,0.0000,0.0000,0.0000,-0.002488,0.150330,-0.158000,1.1284,0.6544,-0.3825,0.000000,0.587515,-0.561437,0.556835,-0.593651,0.558369,-0.559903
4.3418,0.020085,0.000000,0.144701,-0.144701,0.0000,0.0000,0.0000,-0.002464,0.145728,-0.150330,1.1788,0.6687,-0.4008,0.001534,0.587515,-0.562971,0.556835,-0.595185,0.558369,-0.559903
4.3619,0.020075,0.000000,0.142949,-0.142949,0.0000,0.0000,0.0000,-0.002491,0.147262,-0.150330,1.1230,0.6524,-0.2829,0.001534,0.587515,-0.561437,0.556835,-0.593651,0.558369,-0.559903
4.3820,0.020087,0.000000,0.141196,-0.141196,0.0000,0.0000,0.0000,-0.002477,0.145728,-0.150330,1.1403,0.7044,-0.3486,0.001534,0.587515,-0.561437,0.556835,-0.595185,0.558369,-0.559903
4.4021,0.020074,0.000000,0.139444,-0.139444,0.0000,0.0000,0.0000,-0.002479,0.145728,-0.148796,1.1385,0.6990,-0.3418,0.001534,0.587515,-0.561437,0.556835,-0.595185,0.558369,-0.559903
4.4222,0.020086,0.000000,0.137692,-0.137692,0.0000,0.0000,0.0000,-0.002489,0.142660,-0.148796,1.1272,0.6492,-0.2890,0.001534,0.587515,-0.561437,0.556835,-0.593651,0.558369,-0.559903
4.4423,0.020083,0.000000,0.135939,-0.135939,0.0000,0.0000,0.0000,-0.002475,0.142660,-0.148796,1.1675,0.6189,-0.3479,0.001534,0.587515,-0.562971,0.556835,-0.593651,0.558369,-0.559903
4.4623,0.020078,0.000000,0.134187,-0.134187,0.0000,0.0000,0.0000,-0.002490,0.139592,-0.148796,1.1242,0.6575,-0.2884,0.001534,0.587515,-0.561437,0.556835,-0.593651,0.558369,-0.559903
4.4826,0.020301,0.000000,0.132415,-0.132415,0.0000,0.0000,0.0000,-0.002464,0.138058,-0.147262,1.1793,0.6683,-0.4014,0.001534,0.587515,-0.562971,0.556835,-0.595185,0.558369,-0.559903
4.5027,0.020072,0.000000,0.130664,-0.130664,0.0000,0.0000,0.0000,-0.002467,0.134990,-0.144194,1.1735,0.6672,-0.3896,0.001534,0.587515,-0.562971,0.556835,-0.595185,0.558369,-0.559903
4.5228,0.020083,0.000000,0.128911,-0.128911,0.0000,0.0000,0.0000,-0.002480,0.133456,-0.141126,1.1350,0.7029,-0.3375,0.001534,0.587515,-0.561437,0.556835,-0.595185,0.558369,-0.559903
4.5429,0.020086,0.000000,0.127158,-0.127158,0.0000,0.0000,0.0000,-0.002489,0.131922,-0.136524,1.1275,0.6488,-0.2894,0.001534,0.587515,-0.561437,0.556835,-0.593651,0.558369,-0.559903
4.5630,0.020081,0.000000,0.125406,-0.125406,0.0000,0.0000,0.0000,-0.002477,0.130388,-0.131922,1.1398,0.7048,-0.3479,0.001534,0.587515,-0.561437,0.556835,-0.595185,0.558369,-0.559903
4.5830,0.020091,0.000000,0.123653,-0.123653,0.0000,0.0000,0.0000,-0.002479,0.128854,-0.131922,1.1385,0.6989,-0.3418,0.001534,0.587515,-0.561437,0.556835,-0.595185,0.558369,-0.559903
4.6031,0.020083,0.000000,0.121900,-0.121900,0.0000,0.0000,0.0000,-0.002489,0.125786,-0.131922,1.1272,0.6492,-0.2890,0.001534,0.587515,-0.561437,0.556835,-0.593651,0.558369,-0.559903
4.6232,0.020087,0.000000,0.120147,-0.120147,0.0000,0.0000,0.0000,-0.002488,0.122718,-0.128854,1.1284,0.6544,-0.2945,0.001534,0.587515,-0.561437,0.556835,-0.593651,0.558369,-0.559903
4.6433,0.020084,0.000000,0.118394,-0.118394,0.0000,0.0000,0.0000,-0.002478,0.124252,-0.125786,1.1397,0.7042,-0.3474,0.001534,0.587515,-0.561437,0.556835,-0.595185,0.558369,-0.559903
4.6634,0.020082,0.000000,0.116642,-0.116642,0.0000,0.0000,0.0000,-0.002479,0.121184,-0.124252,1.1385,0.6990,-0.3419,0.001534,0.587515,-0.561437,0.556835,-0.595185,0.558369,-0.559903
4.6835,0.020090,0.000000,0.114889,-0.114889,0.0000,0.0000,0.0000,-0.002465,0.119651,-0.124252,1.1778,0.6640,-0.3958,0.001534,0.587515,-0.562971,0.556835,-0.595185,0.558369,-0.559903
4.7036,0.020090,0.000000,0.113136,-0.113136,0.0000,0.0000,0.0000,-0.002480,0.119651,-0.124252,1.1346,0.7032,-0.3368,0.001534,0.587515,-0.561437,0.556835,-0.595185,0.558369,-0.559903
4.7236,0.020082,0.000000,0.111383,-0.111383,0.0000,0.0000,0.0000,-0.002465,0.118117,-0.122718,1.1782,0.6636,-0.3964,0.001534,0.587515,-0.562971,0.556835,-0.595185,0.558369,-0.559903
4.7437,0.020082,0.000000,0.109631,-0.109631,0.0000,0.0000,0.0000,-0.002480,0.115049,-0.122718,1.1345,0.7032,-0.3368,0.001534,0.587515,-0.561437,0.556835,-0.595185,0.558369,-0.559903
4.7638,0.020084,0.000000,0.107878,-0.107878,0.0000,0.0000,0.0000,-0.002465,0.111981,-0.122718,1.1782,0.6635,-0.3964,0.001534,0.587515,-0.562971,0.556835,-0.595185,0.558369,-0.559903
4.7839,0.020093,0.000000,0.106125,-0.106125,0.0000,0.0000,0.0000,-0.002467,0.110447,-0.121184,1.1736,0.6677,-0.3901,0.001534,0.587515,-0.562971,0.556835,-0.595185,0.558369,-0.559903
4.8040,0.020089,0.000000,0.104371,-0.104371,0.0000,0.0000,0.0000,-0.002480,0.108913,-0.118117,1.1350,0.7028,-0.3374,0.001534,0.587515,-0.561437,0.556835,-0.595185,0.558369,-0.559903
4.8241,0.020082,0.000000,0.102619,-0.102619,0.0000,0.0000,0.0000,-0.002478,0.107379,-0.116583,1.1390,0.6991,-0.3429,0.001534,0.587515,-0.561437,0.556835,-0.595185,0.558369,-0.559903
4.8442,0.020087,0.000000,0.100866,-0.100866,0.0000,0.0000,0.0000,-0.002478,0.105845,-0.115049,1.1390,0.6991,-0.3429,0.001534,0.587515,-0.561437,0.556835,-0.595185,0.558369,-0.559903
4.8642,0.020082,0.000000,0.099114,-0.099114,0.0000,0.0000,0.0000,-0.002478,0.104311,-0.115049,1.1390,0.6991,-0.3429,0.001534,0.587515,-0.561437,0.556835,-0.595185,0.558369,-0.559903
4.8843,0.020088,0.000000,0.097361,-0.097361,0.0000,0.0000,0.0000,-0.002478,0.102777,-0.108913,1.1390,0.6991,-0.3429,0.001534,0.587515,-0.561437,0.556835,-0.595185,0.558369,-0.559903
4.9044,0.020090,0.000000,0.095607,-0.095607,0.0000,0.0000,0.0000,-0.002465,0.099709,-0.102777,1.1777,0.6640,-0.3957,0.001534,0.587515,-0.562971,0.556835,-0.595185,0.558369,-0.559903
4.9245,0.020081,0.000000,0.093855,-0.093855,0.0000,0.0000,0.0000,-0.002480,0.096641,-0.101243,1.1346,0.7032,-0.3368,0.001534,0.587515,-0.561437,0.556835,-0.595185,0.558369,-0.559903
4.9446,0.020114,0.000000,0.092100,-0.092100,0.0000,0.0000,0.0000,-0.002478,0.098175,-0.099709,1.1391,0.6991,-0.3430,0.001534,0.587515,-0.561437,0.556835,-0.595185,0.558369,-0.559903
4.9647,0.020081,0.000000,0.090347,-0.090347,0.0000,0.0000,0.0000,-0.002489,0.095107,-0.096641,1.1271,0.6492,-0.2889,0.001534,0.587515,-0.561437,0.556835,-0.593651,0.558369,-0.559903
4.9848,0.020093,0.000000,0.088594,-0.088594,0.0000,0.0000,0.0000,-0.002477,0.092039,-0.095107,1.1398,0.7048,-0.3480,0.001534,0.587515,-0.561437,0.556835,-0.595185,0.558369,-0.559903
5.0049,0.020085,0.000000,0.086841,-0.086841,0.0000,0.0000,0.0000,-0.002479,0.092039,-0.096641,1.1385,0.6989,-0.3418,0.001534,0.587515,-0.561437,0.556835,-0.595185,0.558369,-0.559903
5.0250,0.020079,0.000000,0.085089,-0.085089,0.0000,0.0000,0.0000,-0.002465,0.092039,-0.093573,1.1778,0.6640,-0.3958,0.001534,0.587515,-0.562971,0.556835,-0.595185,0.558369,-0.559903
5.0451,0.020102,0.000000,0.083335,-0.083335,0.0000,0.0000,0.0000,-0.002480,0.087437,-0.090505,1.1346,0.7032,-0.3368,0.001534,0.587515,-0.561437,0.556835,-0.595185,0.558369,-0.559903
5.0651,0.020079,0.000000,0.081582,-0.081582,0.0000,0.0000,0.0000,-0.002478,0.085903,-0.087437,1.1391,0.6991,-0.3430,0.001534,0.587515,-0.561437,0.556835,-0.595185,0.558369,-0.559903
5.0852,0.020083,0.000000,0.079830,-0.079830,0.0000,0.0000,0.0000,-0.002478,0.085903,-0.085903,1.1391,0.6991,-0.3430,0.001534,0.587515,-0.561437,0.556835,-0.595185,0.558369,-0.559903
5.1053,0.020080,0.000000,0.078077,-0.078077,0.0000,0.0000,0.0000,-0.002478,0.084369,-0.084369,1.1391,0.6991,-0.3430,0.001534,0.587515,-0.561437,0.556835,-0.595185,0.558369,-0.559903
5.1254,0.020074,0.000000,0.076326,-0.076326,0.0000,0.0000,0.0000,-0.002478,0.081301,-0.082835,1.1391,0.6991,-0.3430,0.001534,0.587515,-0.561437,0.556835,-0.595185,0.558369,-0.559903
5.1455,0.020170,0.000000,0.074566,-0.074566,0.0000,0.0000,0.0000,-0.002489,0.079767,-0.081301,1.1271,0.6492,-0.2889,0.001534,0.587515,-0.561437,0.556835,-0.593651,0.558369,-0.559903
5.1656,0.020078,0.000000,0.072813,-0.072813,0.0000,0.0000,0.0000,-0.002488,0.076699,-0.076699,1.1284,0.6544,-0.2945,0.001534,0.587515,-0.561437,0.556835,-0.593651,0.558369,-0.559903
5.1857,0.020088,0.000000,0.071060,-0.071060,0.0000,0.0000,0.0000,-0.002478,0.073631,-0.075165,1.1397,0.7042,-0.3474,0.001534,0.587515,-0.561437,0.556835,-0.595185,0.558369,-0.559903
5.2058,0.020083,0.000000,0.069308,-0.069308,0.0000,0.0000,0.0000,-0.002479,0.073631,-0.076699,1.1385,0.6990,-0.3419,0.001534,0.587515,-0.561437,0.556835,-0.595185,0.558369,-0.559903
5.2259,0.020079,0.000000,0.067556,-0.067556,0.0000,0.0000,0.0000,-0.002479,0.073631,-0.075165,1.1385,0.6990,-0.3419,0.001534,0.587515,-0.561437,0.556835,-0.595185,0.558369,-0.559903
5.2460,0.020088,0.000000,0.065803,-0.065803,0.0000,0.0000,0.0000,-0.002479,0.070563,-0.072097,1.1385,0.6990,-0.3419,0.001534,0.587515,-0.561437,0.556835,-0.595185,0.558369,-0.559903
5.2660,0.020082,0.000000,0.064050,-0.064050,0.0000,0.0000,0.0000,-0.002479,0.067495,-0.070563,1.1385,0.6990,-0.3419,0.001534,0.587515,-0.561437,0.556835,-0.595185,0.558369,-0.559903
5.2861,0.020092,0.000000,0.062297,-0.062297,0.0000,0.0000,0.0000,-0.002465,0.069029,-0.070563,1.1778,0.6640,-0.3958,0.001534,0.587515,-0.562971,0.556835,-0.595185,0.558369,-0.559903
5.3062,0.020080,0.000000,0.060544,-0.060544,0.0000,0.0000,0.0000,-0.002491,0.067495,-0.069029,1.1231,0.6529,-0.2834,0.001534,0.587515,-0.561437,0.556835,-0.593651,0.558369,-0.559903
5.3263,0.020075,0.000000,0.058792,-0.058792,0.0000,0.0000,0.0000,-0.002477,0.062893,-0.065961,1.1403,0.7044,-0.3486,0.001534,0.587515,-0.561437,0.556835,-0.595185,0.558369,-0.559903
5.3464,0.020092,0.000000,0.057039,-0.057039,0.0000,0.0000,0.0000,-0.002479,0.056757,-0.062893,1.1385,0.6990,-0.3418,0.001534,0.587515,-0.561437,0.556835,-0.595185,0.558369,-0.559903
5.3665,0.020081,0.000000,0.055287,-0.055287,0.0000,0.0000,0.0000,-0.002479,0.058291,-0.061359,1.1385,0.6990,-0.3418,0.001534,0.587515,-0.561437,0.556835,-0.595185,0.558369,-0.559903
5.3866,0.020088,0.000000,0.053534,-0.053534,0.0000,0.0000,0.0000,-0.002479,0.061359,-0.061359,1.1385,0.6990,-0.3418,0.001534,0.587515,-0.561437,0.556835,-0.595185,0.558369,-0.559903
5.4066,0.020096,0.000000,0.051780,-0.051780,0.0000,0.0000,0.0000,-0.002479,0.059825,-0.059825,1.1385,0.6990,-0.3418,0.001534,0.587515,-0.561437,0.556835,-0.595185,0.558369,-0.559903
5.4267,0.020093,0.000000,0.050026,-0.050026,0.0000,0.0000,0.0000,-0.002479,0.053689,-0.056757,1.1385,0.6990,-0.3418,0.001534,0.587515,-0.561437,0.556835,-0.595185,0.558369,-0.559903
5.4468,0.020107,0.000000,0.048272,-0.048272,0.0000,0.0000,0.0000,-0.002479,0.052155,-0.053689,1.1385,0.6990,-0.3418,0.001534,0.587515,-0.561437,0.556835,-0.595185,0.558369,-0.559903
5.4669,0.020092,0.000000,0.046518,-0.046518,0.0000,0.0000,0.0000,-0.002479,0.049087,-0.050621,1.1385,0.6990,-0.3418,0.001534,0.587515,-0.561437,0.556835,-0.595185,0.558369,-0.559903
5.4883,0.021398,0.000000,0.044651,-0.044651,0.0000,0.0000,0.0000,-0.002479,0.044485,-0.050621,1.1385,0.6990,-0.3418,0.001534,0.587515,-0.561437,0.556835,-0.595185,0.558369,-0.559903
5.5084,0.020086,0.000000,0.042898,-0.042898,0.0000,0.0000,0.0000,-0.002479,0.044485,-0.047553,1.1385,0.6990,-0.3418,0.001534,0.587515,-0.561437,0.556835,-0.595185,0.558369,-0.559903
5.5285,0.020086,0.000000,0.041145,-0.041145,0.0000,0.0000,0.0000,-0.002465,0.046019,-0.046019,1.1778,0.6640,-0.3958,0.001534,0.587515,-0.562971,0.556835,-0.595185,0.558369,-0.559903
5.5486,0.020088,0.000000,0.039392,-0.039392,0.0000,0.0000,0.0000,-0.002480,0.046019,-0.046019,1.1346,0.7032,-0.3368,0.001534,0.587515,-0.561437,0.556835,-0.595185,0.558369,-0.559903
5.5687,0.020081,0.000000,0.037640,-0.037640,0.0000,0.0000,0.0000,-0.002478,0.039884,-0.041417,1.1391,0.6991,-0.3430,0.001534,0.587515,-0.561437,0.556835,-0.595185,0.558369,-0.559903
5.5888,0.020082,0.000000,0.035887,-0.035887,0.0000,0.0000,0.0000,-0.002478,0.033748,-0.038350,1.1391,0.6991,-0.3430,0.001534,0.587515,-0.561437,0.556835,-0.595185,0.558369,-0.559903
5.6088,0.020085,0.000000,0.034135,-0.034135,0.0000,0.0000,0.0000,-0.002478,0.035282,-0.039884,1.1391,0.6991,-0.3430,0.001534,0.587515,-0.561437,0.556835,-0.595185,0.558369,-0.559903
5.6289,0.020084,0.000000,0.032382,-0.032382,0.0000,0.0000,0.0000,-0.002465,0.039884,-0.038350,1.1777,0.6640,-0.3957,0.001534,0.587515,-0.562971,0.556835,-0.595185,0.558369,-0.559903
5.6490,0.020081,0.000000,0.030630,-0.030630,0.0000,0.0000,0.0000,-0.002480,0.035282,-0.036816,1.1346,0.7032,-0.3368,0.001534,0.587515,-0.561437,0.556835,-0.595185,0.558369,-0.559903
5.6691,0.020082,0.000000,0.028877,-0.028877,0.0000,0.0000,0.0000,-0.002478,0.027612,-0.033748,1.1391,0.6991,-0.3430,0.001534,0.587515,-0.561437,0.556835,-0.595185,0.558369,-0.559903
5.6892,0.020081,0.000000,0.027125,-0.027125,0.0000,0.0000,0.0000,-0.002478,0.029146,-0.032214,1.1391,0.6991,-0.3430,0.001534,0.587515,-0.561437,0.556835,-0.595185,0.558369,-0.559903
5.7093,0.020082,0.000000,0.025372,-0.025372,0.0000,0.0000,0.0000,-0.002465,0.032214,-0.032214,1.1777,0.6640,-0.3957,0.001534,0.587515,-0.562971,0.556835,-0.595185,0.558369,-0.559903
5.7293,0.020079,0.000000,0.023620,-0.023620,0.0000,0.0000,0.0000,-0.002480,0.029146,-0.030680,1.1346,0.7032,-0.3368,0.001534,0.587515,-0.561437,0.556835,-0.595185,0.558369,-0.559903
5.7494,0.020076,0.000000,0.021868,-0.021868,0.0000,0.0000,0.0000,-0.002478,0.023010,-0.024544,1.1391,0.6991,-0.3430,0.001534,0.587515,-0.561437,0.556835,-0.595185,0.558369,-0.559903
5.7695,0.020080,0.000000,0.020116,-0.020116,0.0000,0.0000,0.0000,-0.002478,0.019942,-0.021476,1.1391,0.6991,-0.3430,0.001534,0.587515,-0.561437,0.556835,-0.595185,0.558369,-0.559903
5.7896,0.020080,0.000000,0.018363,-0.018363,0.0000,0.0000,0.0000,-0.002478,0.019942,-0.021476,1.1391,0.6991,-0.3430,0.001534,0.587515,-0.561437,0.556835,-0.595185,0.558369,-0.559903
5.8096,0.020078,0.000000,0.016611,-0.016611,0.0000,0.0000,0.0000,-0.002465,0.021476,-0.023010,1.1777,0.6640,-0.3957,0.001534,0.587515,-0.562971,0.556835,-0.595185,0.558369,-0.559903
5.8298,0.020152,0.000000,0.014853,-0.014853,0.0000,0.0000,0.0000,-0.002467,0.021476,-0.018408,1.1737,0.6676,-0.3902,0.001534,0.587515,-0.562971,0.556835,-0.595185,0.558369,-0.559903
5.8499,0.020088,0.000000,0.013100,-0.013100,0.0000,0.0000,0.0000,-0.002480,0.013806,-0.015340,1.1350,0.7028,-0.3374,0.001534,0.587515,-0.561437,0.556835,-0.595185,0.558369,-0.559903
5.8700,0.020078,0.000000,0.011348,-0.011348,0.0000,0.0000,0.0000,-0.002465,0.009204,-0.015340,1.1781,0.6636,-0.3963,0.001534,0.587515,-0.562971,0.556835,-0.595185,0.558369,-0.559903
5.8900,0.020077,0.000000,0.009595,-0.009595,0.0000,0.0000,0.0000,-0.002467,0.012272,-0.015340,1.1736,0.6677,-0.3902,0.001534,0.587515,-0.562971,0.556835,-0.595185,0.558369,-0.559903
5.9101,0.020084,0.000000,0.007843,-0.007843,0.0000,0.0000,0.0000,-0.002467,0.016874,-0.013806,1.1736,0.6677,-0.3902,0.001534,0.587515,-0.562971,0.556835,-0.595185,0.558369,-0.559903
5.9302,0.020083,0.000000,0.006090,-0.006090,0.0000,0.0000,0.0000,-0.002480,0.009204,-0.010738,1.1350,0.7028,-0.3374,0.001534,0.587515,-0.561437,0.556835,-0.595185,0.558369,-0.559903
5.9503,0.020082,0.000000,0.004338,-0.004338,0.0000,0.0000,0.0000,-0.002478,0.001534,-0.009204,1.1390,0.6991,-0.3429,0.001534,0.587515,-0.561437,0.556835,-0.595185,0.558369,-0.559903
5.9704,0.020087,0.000000,0.002585,-0.002585,0.0000,0.0000,0.0000,-0.002478,0.004602,-0.010738,1.1390,0.6991,-0.3429,0.001534,0.587515,-0.561437,0.556835,-0.595185,0.558369,-0.559903
5.9905,0.020092,0.000000,0.000832,-0.000832,0.0000,0.0000,0.0000,-0.002478,0.007670,-0.007670,1.1390,0.6991,-0.3429,0.001534,0.587515,-0.561437,0.556835,-0.595185,0.558369,-0.559903
6.0106,0.020090,0.000000,-0.000922,0.000922,0.0000,0.0000,0.0000,-0.002478,0.003068,-0.003068,1.1390,0.6991,-0.3429,0.001534,0.587515,-0.561437,0.556835,-0.595185,0.558369,-0.559903
6.0306,0.020084,0.000000,-0.002674,0.002674,0.0000,0.0000,0.0000,-0.002478,-0.003068,-0.001534,1.1390,0.6991,-0.3429,0.001534,0.587515,-0.561437,0.556835,-0.595185,0.558369,-0.559903
6.0507,0.020092,0.000000,-0.004428,0.004428,0.0000,0.0000,0.0000,-0.002478,0.000000,-0.001534,1.1390,0.6991,-0.3429,0.001534,0.587515,-0.561437,0.556835,-0.595185,0.558369,-0.559903
6.0708,0.020083,0.000000,-0.006180,0.006180,0.0000,0.0000,0.0000,-0.002465,0.004602,-0.001534,1.1777,0.6640,-0.3957,0.001534,0.587515,-0.562971,0.556835,-0.595185,0.558369,-0.559903
6.0909,0.020102,0.000000,-0.007935,0.007935,0.0000,0.0000,0.0000,-0.002480,-0.001534,0.003068,1.1346,0.7032,-0.3368,0.001534,0.587515,-0.561437,0.556835,-0.595185,0.558369,-0.559903
6.1110,0.020093,0.000000,-0.009688,0.009688,0.0000,0.0000,0.0000,-0.002478,-0.007670,0.004602,1.1391,0.6991,-0.3430,0.001534,0.587515,-0.561437,0.556835,-0.595185,0.558369,-0.559903
6.1311,0.020083,0.000000,-0.011441,0.011441,0.0000,0.0000,0.0000,-0.002478,-0.009204,0.004602,1.1391,0.6991,-0.3430,0.001534,0.587515,-0.561437,0.556835,-0.595185,0.558369,-0.559903
6.1512,0.020085,0.000000,-0.013193,0.013193,0.0000,0.0000,0.0000,-0.002465,-0.007670,0.007670,1.1777,0.6640,-0.3957,0.001534,0.587515,-0.562971,0.556835,-0.595185,0.558369,-0.559903
6.1713,0.020085,0.000000,-0.014946,0.014946,0.0000,0.0000,0.0000,-0.002480,-0.009204,0.012272,1.1346,0.7032,-0.3368,0.001534,0.587515,-0.561437,0.556835,-0.595185,0.558369,-0.559903
6.1914,0.020084,0.000000,-0.016699,0.016699,0.0000,0.0000,0.0000,-0.002478,-0.012272,0.010738,1.1391,0.6991,-0.3430,0.001534,0.587515,-0.561437,0.556835,-0.595185,0.558369,-0.559903
6.2114,0.020092,0.000000,-0.018452,0.018452,0.0000,0.0000,0.0000,-0.002478,-0.015340,0.009204,1.1391,0.6991,-0.3430,0.001534,0.587515,-0.561437,0.556835,-0.595185,0.558369,-0.559903
6.2315,0.020081,0.000000,-0.020204,0.020204,0.0000,0.0000,0.0000,-0.002478,-0.015340,0.013806,1.1391,0.6991,-0.3430,0.001534,0.587515,-0.561437,0.556835,-0.595185,0.558369,-0.559903
6.2516,0.020086,0.000000,-0.021957,0.021957,0.0000,0.0000,0.0000,-0.002478,-0.015340,0.016874,1.1391,0.6991,-0.4309,0.000000,0.587515,-0.561437,0.556835,-0.595185,0.558369,-0.559903
6.2717,0.020087,0.000000,-0.023710,0.023710,0.0000,0.0000,0.0000,-0.002478,-0.019942,0.015340,1.1391,0.6991,-0.3430,0.001534,0.587515,-0.561437,0.556835,-0.595185,0.558369,-0.559903
6.2918,0.020091,0.000000,-0.025464,0.025464,0.0000,0.0000,0.0000,-0.002478,-0.026078,0.016874,1.1391,0.6991,-0.3430,0.001534,0.587515,-0.561437,0.556835,-0.595185,0.558369,-0.559903
6.3119,0.020105,0.000000,-0.027218,0.027218,0.0000,0.0000,0.0000,-0.002465,-0.026078,0.021476,1.1777,0.6640,-0.3957,0.001534,0.587515,-0.562971,0.556835,-0.595185,0.558369,-0.559903
6.3320,0.020076,0.000000,-0.028970,0.028970,0.0000,0.0000,0.0000,-0.002480,-0.021476,0.023010,1.1346,0.7032,-0.3368,0.001534,0.587515,-0.561437,0.556835,-0.595185,0.558369,-0.559903
6.3521,0.020079,0.000000,-0.030722,0.030722,0.0000,0.0000,0.0000,-0.002478,-0.023010,0.023010,1.1391,0.6991,-0.3430,0.001534,0.587515,-0.561437,0.556835,-0.595185,0.558369,-0.559903
6.3721,0.020080,0.000000,-0.032474,0.032474,0.0000,0.0000,0.0000,-0.002478,-0.029146,0.023010,1.1391,0.6991,-0.3430,0.001534,0.587515,-0.561437,0.556835,-0.595185,0.558369,-0.559903
6.3922,0.020081,0.000000,-0.034227,0.034227,0.0000,0.0000,0.0000,-0.002478,-0.032214,0.026078,1.1391,0.6991,-0.3430,0.001534,0.587515,-0.561437,0.556835,-0.595185,0.558369,-0.559903
6.4123,0.020090,0.000000,-0.035980,0.035980,0.0000,0.0000,0.0000,-0.002478,-0.029146,0.030680,1.1391,0.6991,-0.3430,0.001534,0.587515,-0.561437,0.556835,-0.595185,0.558369,-0.559903
6.4324,0.020082,0.000000,-0.037733,0.037733,0.0000,0.0000,0.0000,-0.002478,-0.029146,0.032214,1.1391,0.6991,-0.3430,0.001534,0.587515,-0.561437,0.556835,-0.595185,0.558369,-0.559903
6.4525,0.020115,0.000000,-0.039488,0.039488,0.0000,0.0000,0.0000,-0.002465,-0.036816,0.032214,1.1777,0.6640,-0.3957,0.001534,0.587515,-0.562971,0.556835,-0.595185,0.558369,-0.559903
6.4726,0.020076,0.000000,-0.041240,0.041240,0.0000,0.0000,0.0000,-0.002480,-0.041417,0.035282,1.1346,0.7032,-0.3368,0.001534,0.587515,-0.561437,0.556835,-0.595185,0.558369,-0.559903
6.4927,0.020103,0.000000,-0.042994,0.042994,0.0000,0.0000,0.0000,-0.002478,-0.039884,0.038350,1.1391,0.6991,-0.3430,0.001534,0.587515,-0.561437,0.556835,-0.595185,0.558369,-0.559903
6.5128,0.020079,0.000000,-0.044746,0.044746,0.0000,0.0000,0.0000,-0.002478,-0.036816,0.036816,1.1391,0.6991,-0.3430,0.001534,0.587515,-0.561437,0.556835,-0.595185,0.558369,-0.559903
6.5328,0.020082,0.000000,-0.046499,0.046499,0.0000,0.0000,0.0000,-0.002478,-0.039884,0.038350,1.1391,0.6991,-0.3430,0.001534,0.587515,-0.561437,0.556835,-0.595185,0.558369,-0.559903
