t,loop_dt,cmd_z,cmd_ant_l,cmd_ant_r,cmd_roll,cmd_pitch,cmd_yaw,pres_z,pres_ant_l,pres_ant_r,pres_roll,pres_pitch,pres_yaw,pres_j0,pres_j1,pres_j2,pres_j3,pres_j4,pres_j5,pres_j6
0.0000,0.000001,0.000000,-0.349066,0.349066,0.0000,0.0000,0.0000,-0.002639,-0.182544,0.194816,1.1738,0.9854,0.0427,0.001534,0.582913,-0.555301,0.556835,-0.595185,0.558369,-0.549165
0.0201,0.020094,0.000000,-0.346260,0.346260,0.0000,0.0000,0.0000,-0.002639,-0.179476,0.191748,1.1738,0.9854,0.0427,0.001534,0.582913,-0.555301,0.556835,-0.595185,0.558369,-0.549165
0.0402,0.020103,0.000000,-0.343453,0.343453,0.0000,0.0000,0.0000,-0.002639,-0.179476,0.184078,1.1738,0.9854,0.0427,0.001534,0.582913,-0.555301,0.556835,-0.595185,0.558369,-0.549165
0.0603,0.020099,0.000000,-0.340647,0.340647,0.0000,0.0000,0.0000,-0.002639,-0.191748,0.191748,1.1738,0.9854,0.0427,0.001534,0.582913,-0.555301,0.556835,-0.595185,0.558369,-0.549165
0.0804,0.020094,0.000000,-0.337841,0.337841,0.0000,0.0000,0.0000,-0.002626,-0.263845,0.256175,1.1240,0.9668,-0.0103,0.001534,0.582913,-0.555301,0.556835,-0.595185,0.558369,-0.550699
0.1005,0.020094,0.000000,-0.335036,0.335036,0.0000,0.0000,0.0000,-0.002627,-0.343612,0.331340,1.1292,0.9687,-0.0047,0.001534,0.582913,-0.555301,0.556835,-0.595185,0.558369,-0.550699
0.1206,0.020087,0.000000,-0.332231,0.332231,0.0000,0.0000,0.0000,-0.002627,-0.377359,0.368155,1.1292,0.9687,-0.0047,0.001534,0.582913,-0.555301,0.556835,-0.595185,0.558369,-0.550699
0.1407,0.020105,0.000000,-0.329424,0.329424,0.0000,0.0000,0.0000,-0.002614,-0.377359,0.369689,1.0794,0.9503,-0.0588,0.001534,0.582913,-0.555301,0.556835,-0.595185,0.558369,-0.552233
0.1608,0.020098,0.000000,-0.326617,0.326617,0.0000,0.0000,0.0000,-0.002616,-0.358952,0.355884,1.0846,0.9523,-0.0532,0.001534,0.582913,-0.555301,0.556835,-0.595185,0.558369,-0.552233
0.1809,0.020089,0.000000,-0.323813,0.323813,0.0000,0.0000,0.0000,-0.002616,-0.342078,0.346680,1.0846,0.9523,-0.0532,0.001534,0.582913,-0.555301,0.556835,-0.595185,0.558369,-0.552233
0.2010,0.020095,0.000000,-0.321007,0.321007,0.0000,0.0000,0.0000,-0.002602,-0.329806,0.335942,1.0348,0.9340,-0.1074,0.001534,0.582913,-0.555301,0.556835,-0.595185,0.558369,-0.553767
0.2210,0.020091,0.000000,-0.318202,0.318202,0.0000,0.0000,0.0000,-0.002593,-0.328272,0.329806,1.0897,0.9205,-0.0477,0.001534,0.584447,-0.555301,0.556835,-0.595185,0.558369,-0.553767
0.2411,0.020095,0.000000,-0.315396,0.315396,0.0000,0.0000,0.0000,-0.002557,-0.329806,0.328272,1.0353,0.8703,-0.1070,0.001534,0.585981,-0.555301,0.556835,-0.595185,0.558369,-0.556835
0.2612,0.020089,0.000000,-0.312591,0.312591,0.0000,0.0000,0.0000,-0.002560,-0.326738,0.325204,1.0410,0.8755,-0.1008,0.001534,0.585981,-0.555301,0.556835,-0.595185,0.558369,-0.556835
0.2813,0.020086,0.000000,-0.309786,0.309786,0.0000,0.0000,0.0000,-0.002536,-0.323670,0.322136,1.0409,0.8415,-0.1010,0.001534,0.587515,-0.555301,0.556835,-0.595185,0.558369,-0.558369
0.3014,0.020100,0.000000,-0.306980,0.306980,0.0000,0.0000,0.0000,-0.002539,-0.323670,0.322136,1.0409,0.8451,-0.1010,0.001534,0.587515,-0.555301,0.556835,-0.595185,0.558369,-0.558369
0.3215,0.020084,0.000000,-0.304175,0.304175,0.0000,0.0000,0.0000,-0.002526,-0.317534,0.320602,0.9918,0.8266,-0.1547,0.001534,0.587515,-0.555301,0.556835,-0.595185,0.558369,-0.559903
0.3416,0.020106,0.000000,-0.301368,0.301368,0.0000,0.0000,0.0000,-0.002527,-0.314466,0.319068,0.9970,0.8285,-0.1491,0.001534,0.587515,-0.555301,0.556835,-0.595185,0.558369,-0.559903
0.3617,0.020102,0.000000,-0.298561,0.298561,0.0000,0.0000,0.0000,-0.002527,-0.312932,0.316000,0.9970,0.8285,-0.1491,0.001534,0.587515,-0.555301,0.556835,-0.595185,0.558369,-0.559903
0.3818,0.020095,0.000000,-0.295755,0.295755,0.0000,0.0000,0.0000,-0.002527,-0.312932,0.309864,0.9970,0.8285,-0.1491,0.001534,0.587515,-0.555301,0.556835,-0.595185,0.558369,-0.559903
0.4022,0.020367,0.000000,-0.292911,0.292911,0.0000,0.0000,0.0000,-0.002527,-0.312932,0.308330,0.9970,0.8285,-0.1491,0.001534,0.587515,-0.555301,0.556835,-0.595185,0.558369,-0.559903
0.4223,0.020100,0.000000,-0.290105,0.290105,0.0000,0.0000,0.0000,-0.002527,-0.312932,0.306796,0.9970,0.8285,-0.1491,0.001534,0.587515,-0.555301,0.556835,-0.595185,0.558369,-0.559903
0.4424,0.020088,0.000000,-0.287300,0.287300,0.0000,0.0000,0.0000,-0.002527,-0.311398,0.305262,0.9970,0.8285,-0.1491,0.001534,0.587515,-0.555301,0.556835,-0.595185,0.558369,-0.559903
0.4625,0.020101,0.000000,-0.284494,0.284494,0.0000,0.0000,0.0000,-0.002527,-0.311398,0.303728,0.9970,0.8285,-0.1491,0.001534,0.587515,-0.555301,0.556835,-0.595185,0.558369,-0.559903
0.4826,0.020085,0.000000,-0.281689,0.281689,0.0000,0.0000,0.0000,-0.002527,-0.306796,0.300660,0.9970,0.8285,-0.1491,0.001534,0.587515,-0.555301,0.556835,-0.595185,0.558369,-0.559903
0.5026,0.020093,0.000000,-0.278884,0.278884,0.0000,0.0000,0.0000,-0.002527,-0.299126,0.296058,0.9970,0.8285,-0.1491,0.001534,0.587515,-0.555301,0.556835,-0.595185,0.558369,-0.559903
0.5227,0.020100,0.000000,-0.276077,0.276077,0.0000,0.0000,0.0000,-0.002527,-0.286854,0.291456,0.9970,0.8285,-0.1491,0.001534,0.587515,-0.555301,0.556835,-0.595185,0.558369,-0.559903
0.5429,0.020129,0.000000,-0.273267,0.273267,0.0000,0.0000,0.0000,-0.002527,-0.282252,0.286854,0.9970,0.8285,-0.1491,0.001534,0.587515,-0.555301,0.556835,-0.595185,0.558369,-0.559903
0.5630,0.020094,0.000000,-0.270461,0.270461,0.0000,0.0000,0.0000,-0.002527,-0.282252,0.285320,0.9970,0.8285,-0.1491,0.001534,0.587515,-0.555301,0.556835,-0.595185,0.558369,-0.559903
0.5831,0.020104,0.000000,-0.267654,0.267654,0.0000,0.0000,0.0000,-0.002527,-0.282252,0.282252,0.9970,0.8285,-0.1491,0.001534,0.587515,-0.555301,0.556835,-0.595185,0.558369,-0.559903
0.6032,0.020104,0.000000,-0.264847,0.264847,0.0000,0.0000,0.0000,-0.002527,-0.282252,0.282252,0.9970,0.8285,-0.1491,0.001534,0.587515,-0.555301,0.556835,-0.595185,0.558369,-0.559903
0.6233,0.020093,0.000000,-0.262041,0.262041,0.0000,0.0000,0.0000,-0.002527,-0.282252,0.282252,0.9970,0.8285,-0.1491,0.001534,0.587515,-0.555301,0.556835,-0.595185,0.558369,-0.559903
0.6434,0.020084,0.000000,-0.259237,0.259237,0.0000,0.0000,0.0000,-0.002527,-0.282252,0.282252,0.9970,0.8285,-0.1491,0.001534,0.587515,-0.555301,0.556835,-0.595185,0.558369,-0.559903
0.6634,0.020095,0.000000,-0.256431,0.256431,0.0000,0.0000,0.0000,-0.002527,-0.280718,0.282252,0.9970,0.8285,-0.1491,0.001534,0.587515,-0.555301,0.556835,-0.595185,0.558369,-0.559903
0.6835,0.020102,0.000000,-0.253625,0.253625,0.0000,0.0000,0.0000,-0.002527,-0.276117,0.280718,0.9970,0.8285,-0.1491,0.001534,0.587515,-0.555301,0.556835,-0.595185,0.558369,-0.559903
0.7036,0.020100,0.000000,-0.250818,0.250818,0.0000,0.0000,0.0000,-0.002527,-0.268447,0.279185,0.9970,0.8285,-0.1491,0.001534,0.587515,-0.555301,0.556835,-0.595185,0.558369,-0.559903
0.7238,0.020104,0.000000,-0.248011,0.248011,0.0000,0.0000,0.0000,-0.002527,-0.262311,0.276117,0.9970,0.8285,-0.1491,0.001534,0.587515,-0.555301,0.556835,-0.595185,0.558369,-0.559903
0.7439,0.020098,0.000000,-0.245205,0.245205,0.0000,0.0000,0.0000,-0.002527,-0.257709,0.271515,0.9970,0.8285,-0.1491,0.001534,0.587515,-0.555301,0.556835,-0.595185,0.558369,-0.559903
0.7639,0.020099,0.000000,-0.242398,0.242398,0.0000,0.0000,0.0000,-0.002527,-0.256175,0.262311,0.9970,0.8285,-0.1491,0.001534,0.587515,-0.555301,0.556835,-0.595185,0.558369,-0.559903
0.7841,0.020108,0.000000,-0.239591,0.239591,0.0000,0.0000,0.0000,-0.002527,-0.256175,0.254641,0.9970,0.8285,-0.1491,0.001534,0.587515,-0.555301,0.556835,-0.595185,0.558369,-0.559903
0.8042,0.020109,0.000000,-0.236783,0.236783,0.0000,0.0000,0.0000,-0.002527,-0.256175,0.251573,0.9970,0.8285,-0.1491,0.001534,0.587515,-0.555301,0.556835,-0.595185,0.558369,-0.559903
0.8243,0.020105,0.000000,-0.233976,0.233976,0.0000,0.0000,0.0000,-0.002527,-0.256175,0.251573,0.9970,0.8285,-0.1491,0.001534,0.587515,-0.555301,0.556835,-0.595185,0.558369,-0.559903
0.8445,0.020191,0.000000,-0.231157,0.231157,0.0000,0.0000,0.0000,-0.002527,-0.256175,0.251573,0.9970,0.8285,-0.1491,0.001534,0.587515,-0.555301,0.556835,-0.595185,0.558369,-0.559903
0.8651,0.020636,0.000000,-0.228275,0.228275,0.0000,0.0000,0.0000,-0.002527,-0.256175,0.251573,0.9970,0.8285,-0.1491,0.001534,0.587515,-0.555301,0.556835,-0.595185,0.558369,-0.559903
0.8852,0.020097,0.000000,-0.225469,0.225469,0.0000,0.0000,0.0000,-0.002527,-0.253107,0.250039,0.9970,0.8285,-0.1491,0.001534,0.587515,-0.555301,0.556835,-0.595185,0.558369,-0.559903
0.9059,0.020682,0.000000,-0.222581,0.222581,0.0000,0.0000,0.0000,-0.002527,-0.245437,0.246971,0.9970,0.8285,-0.1491,0.001534,0.587515,-0.555301,0.556835,-0.595185,0.558369,-0.559903
0.9260,0.020096,0.000000,-0.219775,0.219775,0.0000,0.0000,0.0000,-0.002527,-0.234699,0.242369,0.9970,0.8285,-0.1491,0.001534,0.587515,-0.555301,0.556835,-0.595185,0.558369,-0.559903
0.9461,0.020090,0.000000,-0.216970,0.216970,0.0000,0.0000,0.0000,-0.002527,-0.225495,0.231631,0.9970,0.8285,-0.1491,0.001534,0.587515,-0.555301,0.556835,-0.595185,0.558369,-0.559903
0.9662,0.020089,0.000000,-0.214165,0.214165,0.0000,0.0000,0.0000,-0.002527,-0.225495,0.231631,0.9970,0.8285,-0.1491,0.001534,0.587515,-0.555301,0.556835,-0.595185,0.558369,-0.559903
0.9862,0.020095,0.000000,-0.211360,0.211360,0.0000,0.0000,0.0000,-0.002527,-0.223961,0.228563,0.9970,0.8285,-0.1491,0.001534,0.587515,-0.555301,0.556835,-0.595185,0.558369,-0.559903
1.0069,0.020650,0.000000,-0.208476,0.208476,0.0000,0.0000,0.0000,-0.002527,-0.222427,0.227029,0.9970,0.8285,-0.1491,0.001534,0.587515,-0.555301,0.556835,-0.595185,0.558369,-0.559903
1.0270,0.020103,0.000000,-0.205669,0.205669,0.0000,0.0000,0.0000,-0.002527,-0.214757,0.227029,0.9970,0.8285,-0.1491,0.001534,0.587515,-0.555301,0.556835,-0.595185,0.558369,-0.559903
1.0471,0.020089,0.000000,-0.202864,0.202864,0.0000,0.0000,0.0000,-0.002527,-0.213223,0.227029,0.9970,0.8285,-0.1491,0.001534,0.587515,-0.555301,0.556835,-0.595185,0.558369,-0.559903
1.0672,0.020102,0.000000,-0.200058,0.200058,0.0000,0.0000,0.0000,-0.002527,-0.211689,0.227029,0.9970,0.8285,-0.1491,0.001534,0.587515,-0.555301,0.556835,-0.595185,0.558369,-0.559903
1.0873,0.020093,0.000000,-0.197252,0.197252,0.0000,0.0000,0.0000,-0.002527,-0.208621,0.223961,0.9970,0.8285,-0.1491,0.001534,0.587515,-0.555301,0.556835,-0.595185,0.558369,-0.559903
1.1074,0.020099,0.000000,-0.194446,0.194446,0.0000,0.0000,0.0000,-0.002527,-0.204019,0.219359,0.9970,0.8285,-0.1491,0.001534,0.587515,-0.555301,0.556835,-0.595185,0.558369,-0.559903
1.1275,0.020162,0.000000,-0.191631,0.191631,0.0000,0.0000,0.0000,-0.002527,-0.204019,0.219359,0.9970,0.8285,-0.1491,0.001534,0.587515,-0.555301,0.556835,-0.595185,0.558369,-0.559903
1.1477,0.020106,0.000000,-0.188823,0.188823,0.0000,0.0000,0.0000,-0.002527,-0.202485,0.211689,0.9970,0.8285,-0.1491,0.001534,0.587515,-0.555301,0.556835,-0.595185,0.558369,-0.559903
1.1678,0.020115,0.000000,-0.186015,0.186015,0.0000,0.0000,0.0000,-0.002527,-0.200951,0.204019,0.9970,0.8285,-0.1491,0.001534,0.587515,-0.555301,0.556835,-0.595185,0.558369,-0.559903
1.1879,0.020102,0.000000,-0.183208,0.183208,0.0000,0.0000,0.0000,-0.002527,-0.200951,0.199418,0.9970,0.8285,-0.1491,0.001534,0.587515,-0.555301,0.556835,-0.595185,0.558369,-0.559903
1.2080,0.020096,0.000000,-0.180402,0.180402,0.0000,0.0000,0.0000,-0.002527,-0.200951,0.196350,0.9970,0.8285,-0.1491,0.001534,0.587515,-0.555301,0.556835,-0.595185,0.558369,-0.559903
1.2281,0.020100,0.000000,-0.177596,0.177596,0.0000,0.0000,0.0000,-0.002527,-0.200951,0.196350,0.9970,0.8285,-0.1491,0.001534,0.587515,-0.555301,0.556835,-0.595185,0.558369,-0.559903
1.2483,0.020259,0.000000,-0.174767,0.174767,0.0000,0.0000,0.0000,-0.002527,-0.199418,0.196350,0.9970,0.8285,-0.1491,0.001534,0.587515,-0.555301,0.556835,-0.595185,0.558369,-0.559903
1.2684,0.020100,0.000000,-0.171960,0.171960,0.0000,0.0000,0.0000,-0.002527,-0.196350,0.196350,0.9970,0.8285,-0.1491,0.001534,0.587515,-0.555301,0.556835,-0.595185,0.558369,-0.559903
1.2885,0.020085,0.000000,-0.169156,0.169156,0.0000,0.0000,0.0000,-0.002527,-0.187146,0.193282,0.9970,0.8285,-0.1491,0.001534,0.587515,-0.555301,0.556835,-0.595185,0.558369,-0.559903
1.3086,0.020095,0.000000,-0.166350,0.166350,0.0000,0.0000,0.0000,-0.002527,-0.179476,0.190214,0.9970,0.8285,-0.1491,0.001534,0.587515,-0.555301,0.556835,-0.595185,0.558369,-0.559903
1.3287,0.020098,0.000000,-0.163544,0.163544,0.0000,0.0000,0.0000,-0.002527,-0.176408,0.182544,0.9970,0.8285,-0.1491,0.001534,0.587515,-0.555301,0.556835,-0.595185,0.558369,-0.559903
1.3488,0.020093,0.000000,-0.160739,0.160739,0.0000,0.0000,0.0000,-0.002527,-0.176408,0.176408,0.9970,0.8285,-0.1491,0.001534,0.587515,-0.555301,0.556835,-0.595185,0.558369,-0.559903
1.3689,0.020101,0.000000,-0.157932,0.157932,0.0000,0.0000,0.0000,-0.002527,-0.174874,0.170272,0.9970,0.8285,-0.1491,0.001534,0.587515,-0.555301,0.556835,-0.595185,0.558369,-0.559903
1.3890,0.020112,0.000000,-0.155124,0.155124,0.0000,0.0000,0.0000,-0.002527,-0.174874,0.168738,0.9970,0.8285,-0.1491,0.001534,0.587515,-0.555301,0.556835,-0.595185,0.558369,-0.559903
1.4091,0.020098,0.000000,-0.152317,0.152317,0.0000,0.0000,0.0000,-0.002527,-0.174874,0.168738,0.9970,0.8285,-0.1491,0.001534,0.587515,-0.555301,0.556835,-0.595185,0.558369,-0.559903
1.4292,0.020105,0.000000,-0.149510,0.149510,0.0000,0.0000,0.0000,-0.002527,-0.173340,0.168738,0.9970,0.8285,-0.1491,0.001534,0.587515,-0.555301,0.556835,-0.595185,0.558369,-0.559903
1.4493,0.020098,0.000000,-0.146704,0.146704,0.0000,0.0000,0.0000,-0.002527,-0.168738,0.168738,0.9970,0.8285,-0.1491,0.001534,0.587515,-0.555301,0.556835,-0.595185,0.558369,-0.559903
1.4709,0.021562,0.000000,-0.143693,0.143693,0.0000,0.0000,0.0000,-0.002527,-0.153398,0.161068,0.9970,0.8285,-0.1491,0.001534,0.587515,-0.555301,0.556835,-0.595185,0.558369,-0.559903
1.4910,0.020107,0.000000,-0.140886,0.140886,0.0000,0.0000,0.0000,-0.002527,-0.153398,0.161068,0.9970,0.8285,-0.1491,0.001534,0.587515,-0.555301,0.556835,-0.595185,0.558369,-0.559903
1.5111,0.020091,0.000000,-0.138081,0.138081,0.0000,0.0000,0.0000,-0.002527,-0.151864,0.147262,0.9970,0.8285,-0.1491,0.001534,0.587515,-0.555301,0.556835,-0.595185,0.558369,-0.559903
1.5312,0.020090,0.000000,-0.135276,0.135276,0.0000,0.0000,0.0000,-0.002527,-0.151864,0.147262,0.9970,0.8285,-0.1491,0.001534,0.587515,-0.555301,0.556835,-0.595185,0.558369,-0.559903
1.5512,0.020088,0.000000,-0.132471,0.132471,0.0000,0.0000,0.0000,-0.002527,-0.145728,0.142660,0.9970,0.8285,-0.1491,0.001534,0.587515,-0.555301,0.556835,-0.595185,0.558369,-0.559903
1.5713,0.020090,0.000000,-0.129666,0.129666,0.0000,0.0000,0.0000,-0.002527,-0.144194,0.142660,0.9970,0.8285,-0.1491,0.001534,0.587515,-0.555301,0.556835,-0.595185,0.558369,-0.559903
1.5914,0.020093,0.000000,-0.126860,0.126860,0.0000,0.0000,0.0000,-0.002527,-0.141126,0.142660,0.9970,0.8285,-0.1491,0.001534,0.587515,-0.555301,0.556835,-0.595185,0.558369,-0.559903
1.6115,0.020086,0.000000,-0.124055,0.124055,0.0000,0.0000,0.0000,-0.002527,-0.134990,0.142660,0.9970,0.8285,-0.1491,0.001534,0.587515,-0.555301,0.556835,-0.595185,0.558369,-0.559903
1.6316,0.020089,0.000000,-0.121251,0.121251,0.0000,0.0000,0.0000,-0.002527,-0.130388,0.139592,0.9970,0.8285,-0.1491,0.001534,0.587515,-0.555301,0.556835,-0.595185,0.558369,-0.559903
1.6517,0.020076,0.000000,-0.118447,0.118447,0.0000,0.0000,0.0000,-0.002527,-0.127320,0.133456,0.9970,0.8285,-0.1491,0.001534,0.587515,-0.555301,0.556835,-0.595185,0.558369,-0.559903
1.6718,0.020079,0.000000,-0.115644,0.115644,0.0000,0.0000,0.0000,-0.002527,-0.125786,0.125786,0.9970,0.8285,-0.1491,0.001534,0.587515,-0.555301,0.556835,-0.595185,0.558369,-0.559903
1.6918,0.020085,0.000000,-0.112839,0.112839,0.0000,0.0000,0.0000,-0.002527,-0.124252,0.121184,0.9970,0.8285,-0.1491,0.001534,0.587515,-0.555301,0.556835,-0.595185,0.558369,-0.559903
1.7119,0.020086,0.000000,-0.110035,0.110035,0.0000,0.0000,0.0000,-0.002527,-0.122718,0.116583,0.9970,0.8285,-0.1491,0.001534,0.587515,-0.555301,0.556835,-0.595185,0.558369,-0.559903
1.7320,0.020083,0.000000,-0.107231,0.107231,0.0000,0.0000,0.0000,-0.002527,-0.119651,0.116583,0.9970,0.8285,-0.1491,0.001534,0.587515,-0.555301,0.556835,-0.595185,0.558369,-0.559903
1.7532,0.021224,0.000000,-0.104267,0.104267,0.0000,0.0000,0.0000,-0.002527,-0.116583,0.116583,0.9970,0.8285,-0.1491,0.001534,0.587515,-0.555301,0.556835,-0.595185,0.558369,-0.559903
1.7733,0.020093,0.000000,-0.101462,0.101462,0.0000,0.0000,0.0000,-0.002527,-0.108913,0.116583,0.9970,0.8285,-0.1491,0.001534,0.587515,-0.555301,0.556835,-0.595185,0.558369,-0.559903
1.7934,0.020098,0.000000,-0.098656,0.098656,0.0000,0.0000,0.0000,-0.002527,-0.105845,0.115049,0.9970,0.8285,-0.1491,0.001534,0.587515,-0.555301,0.556835,-0.595185,0.558369,-0.559903
1.8135,0.020055,0.000000,-0.095856,0.095856,0.0000,0.0000,0.0000,-0.002527,-0.107379,0.113515,0.9970,0.8285,-0.1491,0.001534,0.587515,-0.555301,0.556835,-0.595185,0.558369,-0.559903
1.8336,0.020083,0.000000,-0.093051,0.093051,0.0000,0.0000,0.0000,-0.002527,-0.105845,0.107379,0.9970,0.8285,-0.1491,0.001534,0.587515,-0.555301,0.556835,-0.595185,0.558369,-0.559903
1.8536,0.020081,0.000000,-0.090248,0.090248,0.0000,0.0000,0.0000,-0.002527,-0.102777,0.101243,0.9970,0.8285,-0.1491,0.001534,0.587515,-0.555301,0.556835,-0.595185,0.558369,-0.559903
1.8737,0.020093,0.000000,-0.087442,0.087442,0.0000,0.0000,0.0000,-0.002527,-0.099709,0.093573,0.9970,0.8285,-0.1491,0.001534,0.587515,-0.555301,0.556835,-0.595185,0.558369,-0.559903
1.8938,0.020098,0.000000,-0.084636,0.084636,0.0000,0.0000,0.0000,-0.002527,-0.092039,0.090505,0.9970,0.8285,-0.1491,0.001534,0.587515,-0.555301,0.556835,-0.595185,0.558369,-0.559903
1.9139,0.020091,0.000000,-0.081831,0.081831,0.0000,0.0000,0.0000,-0.002527,-0.090505,0.090505,0.9970,0.8285,-0.1491,0.001534,0.587515,-0.555301,0.556835,-0.595185,0.558369,-0.559903
1.9340,0.020095,0.000000,-0.079025,0.079025,0.0000,0.0000,0.0000,-0.002527,-0.087437,0.090505,0.9970,0.8285,-0.1491,0.001534,0.587515,-0.555301,0.556835,-0.595185,0.558369,-0.559903
1.9541,0.020089,0.000000,-0.076220,0.076220,0.0000,0.0000,0.0000,-0.002527,-0.082835,0.088971,0.9970,0.8285,-0.1491,0.001534,0.587515,-0.555301,0.556835,-0.595185,0.558369,-0.559903
1.9742,0.020088,0.000000,-0.073415,0.073415,0.0000,0.0000,0.0000,-0.002527,-0.081301,0.087437,0.9970,0.8285,-0.1491,0.001534,0.587515,-0.555301,0.556835,-0.595185,0.558369,-0.559903
1.9943,0.020097,0.000000,-0.070609,0.070609,0.0000,0.0000,0.0000,-0.002527,-0.078233,0.084369,0.9970,0.8285,-0.1491,0.001534,0.587515,-0.555301,0.556835,-0.595185,0.558369,-0.559903
2.0144,0.020130,0.000000,-0.067798,0.067798,0.0000,0.0000,0.0000,-0.002527,-0.075165,0.078233,0.9970,0.8285,-0.1491,0.001534,0.587515,-0.555301,0.556835,-0.595185,0.558369,-0.559903
2.0345,0.020080,0.000000,-0.064995,0.064995,0.0000,0.0000,0.0000,-0.002527,-0.072097,0.072097,0.9970,0.8285,-0.1491,0.001534,0.587515,-0.555301,0.556835,-0.595185,0.558369,-0.559903
2.0546,0.020084,0.000000,-0.062190,0.062190,0.0000,0.0000,0.0000,-0.002527,-0.072097,0.069029,0.9970,0.8285,-0.1491,0.001534,0.587515,-0.555301,0.556835,-0.595185,0.558369,-0.559903
2.0747,0.020094,0.000000,-0.059385,0.059385,0.0000,0.0000,0.0000,-0.002527,-0.070563,0.067495,0.9970,0.8285,-0.1491,0.001534,0.587515,-0.555301,0.556835,-0.595185,0.558369,-0.559903
2.0948,0.020092,0.000000,-0.056579,0.056579,0.0000,0.0000,0.0000,-0.002527,-0.067495,0.065961,0.9970,0.8285,-0.1491,0.001534,0.587515,-0.555301,0.556835,-0.595185,0.558369,-0.559903
2.1149,0.020094,0.000000,-0.053774,0.053774,0.0000,0.0000,0.0000,-0.002527,-0.062893,0.062893,0.9970,0.8285,-0.1491,0.001534,0.587515,-0.555301,0.556835,-0.595185,0.558369,-0.559903
2.1350,0.020089,0.000000,-0.050969,0.050969,0.0000,0.0000,0.0000,-0.002527,-0.056757,0.062893,0.9970,0.8285,-0.1491,0.001534,0.587515,-0.555301,0.556835,-0.595185,0.558369,-0.559903
2.1550,0.020085,0.000000,-0.048164,0.048164,0.0000,0.0000,0.0000,-0.002527,-0.053689,0.061359,0.9970,0.8285,-0.1491,0.001534,0.587515,-0.555301,0.556835,-0.595185,0.558369,-0.559903
2.1751,0.020086,0.000000,-0.045360,0.045360,0.0000,0.0000,0.0000,-0.002527,-0.055223,0.059825,0.9970,0.8285,-0.1491,0.001534,0.587515,-0.555301,0.556835,-0.595185,0.558369,-0.559903
2.1952,0.020086,0.000000,-0.042555,0.042555,0.0000,0.0000,0.0000,-0.002527,-0.055223,0.056757,0.9970,0.8285,-0.1491,0.001534,0.587515,-0.555301,0.556835,-0.595185,0.558369,-0.559903
2.2153,0.020094,0.000000,-0.039750,0.039750,0.0000,0.0000,0.0000,-0.002527,-0.049087,0.050621,0.9970,0.8285,-0.1491,0.001534,0.587515,-0.555301,0.556835,-0.595185,0.558369,-0.559903
2.2354,0.020091,0.000000,-0.036944,0.036944,0.0000,0.0000,0.0000,-0.002527,-0.044485,0.044485,0.9970,0.8285,-0.1491,0.001534,0.587515,-0.555301,0.556835,-0.595185,0.558369,-0.559903
2.2555,0.020099,0.000000,-0.034138,0.034138,0.0000,0.0000,0.0000,-0.002527,-0.041417,0.039884,0.9970,0.8285,-0.1491,0.001534,0.587515,-0.555301,0.556835,-0.595185,0.558369,-0.559903
2.2756,0.020090,0.000000,-0.031333,0.031333,0.0000,0.0000,0.0000,-0.002527,-0.041417,0.038350,0.9970,0.8285,-0.1491,0.001534,0.587515,-0.555301,0.556835,-0.595185,0.558369,-0.559903
2.2957,0.020090,0.000000,-0.028528,0.028528,0.0000,0.0000,0.0000,-0.002527,-0.039884,0.036816,0.9970,0.8285,-0.1491,0.001534,0.587515,-0.555301,0.556835,-0.595185,0.558369,-0.559903
2.3158,0.020092,0.000000,-0.025722,0.025722,0.0000,0.0000,0.0000,-0.002527,-0.038350,0.035282,0.9970,0.8285,-0.1491,0.001534,0.587515,-0.555301,0.556835,-0.595185,0.558369,-0.559903
2.3359,0.020090,0.000000,-0.022917,0.022917,0.0000,0.0000,0.0000,-0.002527,-0.030680,0.035282,0.9970,0.8285,-0.1491,0.001534,0.587515,-0.555301,0.556835,-0.595185,0.558369,-0.559903
2.3560,0.020091,0.000000,-0.020112,0.020112,0.0000,0.0000,0.0000,-0.002527,-0.024544,0.033748,0.9970,0.8285,-0.1491,0.001534,0.587515,-0.555301,0.556835,-0.595185,0.558369,-0.559903
2.3760,0.020088,0.000000,-0.017307,0.017307,0.0000,0.0000,0.0000,-0.002527,-0.024544,0.032214,0.9970,0.8285,-0.1491,0.001534,0.587515,-0.555301,0.556835,-0.595185,0.558369,-0.559903
2.3961,0.020090,0.000000,-0.014502,0.014502,0.0000,0.0000,0.0000,-0.002527,-0.026078,0.029146,0.9970,0.8285,-0.1491,0.001534,0.587515,-0.555301,0.556835,-0.595185,0.558369,-0.559903
2.4162,0.020093,0.000000,-0.011697,0.011697,0.0000,0.0000,0.0000,-0.002527,-0.021476,0.023010,0.9970,0.8285,-0.1491,0.001534,0.587515,-0.555301,0.556835,-0.595185,0.558369,-0.559903
2.4363,0.020088,0.000000,-0.008892,0.008892,0.0000,0.0000,0.0000,-0.002527,-0.015340,0.016874,0.9970,0.8285,-0.1491,0.001534,0.587515,-0.555301,0.556835,-0.595185,0.558369,-0.559903
2.4564,0.020094,0.000000,-0.006086,0.006086,0.0000,0.0000,0.0000,-0.002527,-0.013806,0.012272,0.9970,0.8285,-0.1491,0.001534,0.587515,-0.555301,0.556835,-0.595185,0.558369,-0.559903
2.4765,0.020084,0.000000,-0.003282,0.003282,0.0000,0.0000,0.0000,-0.002527,-0.013806,0.010738,0.9970,0.8285,-0.1491,0.001534,0.587515,-0.555301,0.556835,-0.595185,0.558369,-0.559903
2.4966,0.020091,0.000000,-0.000477,0.000477,0.0000,0.0000,0.0000,-0.002527,-0.010738,0.009204,0.9970,0.8285,-0.1491,0.001534,0.587515,-0.555301,0.556835,-0.595185,0.558369,-0.559903
2.5167,0.020091,0.000000,-0.002329,0.002329,0.0000,0.0000,0.0000,-0.002527,-0.003068,0.007670,0.9970,0.8285,-0.1491,0.001534,0.587515,-0.555301,0.556835,-0.595185,0.558369,-0.559903
2.5368,0.020100,0.000000,-0.005135,0.005135,0.0000,0.0000,0.0000,-0.002527,0.000000,0.006136,0.9970,0.8285,-0.1491,0.001534,0.587515,-0.555301,0.556835,-0.595185,0.558369,-0.559903
2.5569,0.020097,0.000000,-0.007941,0.007941,0.0000,0.0000,0.0000,-0.002527,-0.001534,0.003068,0.9970,0.8285,-0.1491,0.001534,0.587515,-0.555301,0.556835,-0.595185,0.558369,-0.559903
2.5770,0.020094,0.000000,-0.010747,0.010747,0.0000,0.0000,0.0000,-0.002527,-0.004602,0.001534,0.9970,0.8285,-0.1491,0.001534,0.587515,-0.555301,0.556835,-0.595185,0.558369,-0.559903
2.5971,0.020110,0.000000,-0.013555,0.013555,0.0000,0.0000,0.0000,-0.002527,-0.004602,0.004602,0.9970,0.8285,-0.1491,0.001534,0.587515,-0.555301,0.556835,-0.595185,0.558369,-0.559903
2.6172,0.020099,0.000000,-0.016361,0.016361,0.0000,0.0000,0.0000,-0.002527,-0.003068,0.009204,0.9970,0.8285,-0.1491,0.001534,0.587515,-0.555301,0.556835,-0.595185,0.558369,-0.559903
2.6373,0.020106,0.000000,-0.019168,0.019168,0.0000,0.0000,0.0000,-0.002527,-0.007670,0.009204,0.9970,0.8285,-0.1491,0.001534,0.587515,-0.555301,0.556835,-0.595185,0.558369,-0.559903
2.6576,0.020313,0.000000,-0.022005,0.022005,0.0000,0.0000,0.0000,-0.002527,-0.015340,0.010738,0.9970,0.8285,-0.1491,0.001534,0.587515,-0.555301,0.556835,-0.595185,0.558369,-0.559903
2.6777,0.020090,0.000000,-0.024810,0.024810,0.0000,0.0000,0.0000,-0.002527,-0.018408,0.015340,0.9970,0.8285,-0.1491,0.001534,0.587515,-0.555301,0.556835,-0.595185,0.558369,-0.559903
2.6978,0.020093,0.000000,-0.027615,0.027615,0.0000,0.0000,0.0000,-0.002527,-0.018408,0.016874,0.9970,0.8285,-0.1491,0.001534,0.587515,-0.555301,0.556835,-0.595185,0.558369,-0.559903
2.7179,0.020094,0.000000,-0.030421,0.030421,0.0000,0.0000,0.0000,-0.002527,-0.016874,0.016874,0.9970,0.8285,-0.1491,0.001534,0.587515,-0.555301,0.556835,-0.595185,0.558369,-0.559903
2.7380,0.020102,0.000000,-0.033228,0.033228,0.0000,0.0000,0.0000,-0.002527,-0.026078,0.021476,0.9970,0.8285,-0.1491,0.001534,0.587515,-0.555301,0.556835,-0.595185,0.558369,-0.559903
2.7581,0.020123,0.000000,-0.036037,0.036037,0.0000,0.0000,0.0000,-0.002527,-0.030680,0.027612,0.9970,0.8285,-0.1491,0.001534,0.587515,-0.555301,0.556835,-0.595185,0.558369,-0.559903
2.7782,0.020088,0.000000,-0.038842,0.038842,0.0000,0.0000,0.0000,-0.002527,-0.029146,0.027612,0.9970,0.8285,-0.1491,0.001534,0.587515,-0.555301,0.556835,-0.595185,0.558369,-0.559903
2.7983,0.020090,0.000000,-0.041647,0.041647,0.0000,0.0000,0.0000,-0.002527,-0.026078,0.027612,0.9970,0.8285,-0.1491,0.001534,0.587515,-0.555301,0.556835,-0.595185,0.558369,-0.559903
2.8184,0.020094,0.000000,-0.044453,0.044453,0.0000,0.0000,0.0000,-0.002527,-0.032214,0.036816,0.9970,0.8285,-0.1491,0.001534,0.587515,-0.555301,0.556835,-0.595185,0.558369,-0.559903
2.8385,0.020103,0.000000,-0.047260,0.047260,0.0000,0.0000,0.0000,-0.002527,-0.041417,0.038350,0.9970,0.8285,-0.1491,0.001534,0.587515,-0.555301,0.556835,-0.595185,0.558369,-0.559903
2.8586,0.020107,0.000000,-0.050067,0.050067,0.0000,0.0000,0.0000,-0.002527,-0.044485,0.038350,0.9970,0.8285,-0.1491,0.001534,0.587515,-0.555301,0.556835,-0.595185,0.558369,-0.559903
2.8787,0.020097,0.000000,-0.052873,0.052873,0.0000,0.0000,0.0000,-0.002527,-0.042951,0.041417,0.9970,0.8285,-0.1491,0.001534,0.587515,-0.555301,0.556835,-0.595185,0.558369,-0.559903
2.8989,0.020200,0.000000,-0.055694,0.055694,0.0000,0.0000,0.0000,-0.002527,-0.041417,0.046019,0.9970,0.8285,-0.1491,0.001534,0.587515,-0.555301,0.556835,-0.595185,0.558369,-0.559903
2.9194,0.020483,0.000000,-0.058554,0.058554,0.0000,0.0000,0.0000,-0.002527,-0.047553,0.047553,0.9970,0.8285,-0.1491,0.001534,0.587515,-0.555301,0.556835,-0.595185,0.558369,-0.559903
2.9395,0.020090,0.000000,-0.061359,0.061359,0.0000,0.0000,0.0000,-0.002527,-0.056757,0.047553,0.9970,0.8285,-0.1491,0.001534,0.587515,-0.555301,0.556835,-0.595185,0.558369,-0.559903
2.9597,0.020204,0.000000,-0.064180,0.064180,0.0000,0.0000,0.0000,-0.002527,-0.056757,0.053689,0.9970,0.8285,-0.1491,0.001534,0.587515,-0.555301,0.556835,-0.595185,0.558369,-0.559903
2.9798,0.020098,0.000000,-0.066986,0.066986,0.0000,0.0000,0.0000,-0.002527,-0.050621,0.056757,0.9970,0.8285,-0.1491,0.001534,0.587515,-0.555301,0.556835,-0.595185,0.558369,-0.559903
2.9998,0.020087,0.000000,-0.069791,0.069791,0.0000,0.0000,0.0000,-0.002527,-0.055223,0.058291,0.9970,0.8285,-0.1491,0.001534,0.587515,-0.555301,0.556835,-0.595185,0.558369,-0.559903
3.0199,0.020092,0.000000,-0.072596,0.072596,0.0000,0.0000,0.0000,-0.002527,-0.065961,0.062893,0.9970,0.8285,-0.1491,0.001534,0.587515,-0.555301,0.556835,-0.595185,0.558369,-0.559903
3.0400,0.020101,0.000000,-0.075403,0.075403,0.0000,0.0000,0.0000,-0.002527,-0.069029,0.064427,0.9970,0.8285,-0.1491,0.001534,0.587515,-0.555301,0.556835,-0.595185,0.558369,-0.559903
3.0601,0.020099,0.000000,-0.078209,0.078209,0.0000,0.0000,0.0000,-0.002527,-0.065961,0.064427,0.9970,0.8285,-0.1491,0.001534,0.587515,-0.555301,0.556835,-0.595185,0.558369,-0.559903
3.0802,0.020092,0.000000,-0.081015,0.081015,0.0000,0.0000,0.0000,-0.002527,-0.069029,0.070563,0.9970,0.8285,-0.1491,0.001534,0.587515,-0.555301,0.556835,-0.595185,0.558369,-0.559903
3.1003,0.020087,0.000000,-0.083819,0.083819,0.0000,0.0000,0.0000,-0.002527,-0.078233,0.073631,0.9970,0.8285,-0.1491,0.001534,0.587515,-0.555301,0.556835,-0.595185,0.558369,-0.559903
3.1205,0.020148,0.000000,-0.086633,0.086633,0.0000,0.0000,0.0000,-0.002527,-0.081301,0.073631,0.9970,0.8285,-0.1491,0.001534,0.587515,-0.555301,0.556835,-0.595185,0.558369,-0.559903
3.1406,0.020097,0.000000,-0.089439,0.089439,0.0000,0.0000,0.0000,-0.002527,-0.076699,0.075165,0.9970,0.8285,-0.1491,0.001534,0.587515,-0.555301,0.556835,-0.595185,0.558369,-0.559903
3.1606,0.020091,0.000000,-0.092244,0.092244,0.0000,0.0000,0.0000,-0.002527,-0.078233,0.081301,0.9970,0.8285,-0.1491,0.001534,0.587515,-0.555301,0.556835,-0.595185,0.558369,-0.559903
3.1808,0.020106,0.000000,-0.095051,0.095051,0.0000,0.0000,0.0000,-0.002527,-0.088971,0.087437,0.9970,0.8285,-0.1491,0.001534,0.587515,-0.555301,0.556835,-0.595185,0.558369,-0.559903
3.2009,0.020102,0.000000,-0.097858,0.097858,0.0000,0.0000,0.0000,-0.002527,-0.087437,0.090505,0.9970,0.8285,-0.1491,0.001534,0.587515,-0.555301,0.556835,-0.595185,0.558369,-0.559903
3.2209,0.020092,0.000000,-0.100663,0.100663,0.0000,0.0000,0.0000,-0.002527,-0.092039,0.092039,0.9970,0.8285,-0.1491,0.001534,0.587515,-0.555301,0.556835,-0.595185,0.558369,-0.559903
3.2410,0.020089,0.000000,-0.103468,0.103468,0.0000,0.0000,0.0000,-0.002527,-0.101243,0.093573,0.9970,0.8285,-0.1491,0.001534,0.587515,-0.555301,0.556835,-0.595185,0.558369,-0.559903
3.2611,0.020042,0.000000,-0.106267,0.106267,0.0000,0.0000,0.0000,-0.002527,-0.101243,0.099709,0.9970,0.8285,-0.1491,0.001534,0.587515,-0.555301,0.556835,-0.595185,0.558369,-0.559903
3.2812,0.020082,0.000000,-0.109071,0.109071,0.0000,0.0000,0.0000,-0.002527,-0.099709,0.101243,0.9970,0.8285,-0.1491,0.001534,0.587515,-0.555301,0.556835,-0.595185,0.558369,-0.559903
3.3013,0.020093,0.000000,-0.111876,0.111876,0.0000,0.0000,0.0000,-0.002527,-0.107379,0.101243,0.9970,0.8285,-0.1491,0.001534,0.587515,-0.555301,0.556835,-0.595185,0.558369,-0.559903
3.3213,0.020073,0.000000,-0.114679,0.114679,0.0000,0.0000,0.0000,-0.002527,-0.111981,0.105845,0.9970,0.8285,-0.1491,0.001534,0.587515,-0.555301,0.556835,-0.595185,0.558369,-0.559903
3.3414,0.020084,0.000000,-0.117483,0.117483,0.0000,0.0000,0.0000,-0.002527,-0.111981,0.108913,0.9970,0.8285,-0.1491,0.001534,0.587515,-0.555301,0.556835,-0.595185,0.558369,-0.559903
3.3615,0.020092,0.000000,-0.120289,0.120289,0.0000,0.0000,0.0000,-0.002527,-0.111981,0.110447,0.9970,0.8285,-0.1491,0.001534,0.587515,-0.555301,0.556835,-0.595185,0.558369,-0.559903
3.3816,0.020085,0.000000,-0.123093,0.123093,0.0000,0.0000,0.0000,-0.002527,-0.118117,0.116583,0.9970,0.8285,-0.1491,0.001534,0.587515,-0.555301,0.556835,-0.595185,0.558369,-0.559903
3.4017,0.020065,0.000000,-0.125895,0.125895,0.0000,0.0000,0.0000,-0.002527,-0.122718,0.121184,0.9970,0.8285,-0.1491,0.001534,0.587515,-0.555301,0.556835,-0.595185,0.558369,-0.559903
3.4217,0.020087,0.000000,-0.128699,0.128699,0.0000,0.0000,0.0000,-0.002527,-0.124252,0.119651,0.9970,0.8285,-0.1491,0.001534,0.587515,-0.555301,0.556835,-0.595185,0.558369,-0.559903
3.4418,0.020087,0.000000,-0.131504,0.131504,0.0000,0.0000,0.0000,-0.002527,-0.124252,0.121184,0.9970,0.8285,-0.1491,0.001534,0.587515,-0.555301,0.556835,-0.595185,0.558369,-0.559903
3.4619,0.020104,0.000000,-0.134311,0.134311,0.0000,0.0000,0.0000,-0.002527,-0.131922,0.125786,0.9970,0.8285,-0.2370,0.000000,0.587515,-0.555301,0.556835,-0.595185,0.558369,-0.559903
3.4820,0.020091,0.000000,-0.137116,0.137116,0.0000,0.0000,0.0000,-0.002527,-0.131922,0.125786,0.9970,0.8285,-0.1491,0.001534,0.587515,-0.555301,0.556835,-0.595185,0.558369,-0.559903
3.5021,0.020089,0.000000,-0.139921,0.139921,0.0000,0.0000,0.0000,-0.002527,-0.130388,0.128854,0.9970,0.8285,-0.1491,0.001534,0.587515,-0.555301,0.556835,-0.595185,0.558369,-0.559903
3.5222,0.020091,0.000000,-0.142726,0.142726,0.0000,0.0000,0.0000,-0.002527,-0.136524,0.133456,0.9970,0.8285,-0.1491,0.001534,0.587515,-0.555301,0.556835,-0.595185,0.558369,-0.559903
3.5423,0.020090,0.000000,-0.145531,0.145531,0.0000,0.0000,0.0000,-0.002527,-0.141126,0.138058,0.9970,0.8285,-0.1491,0.001534,0.587515,-0.555301,0.556835,-0.595185,0.558369,-0.559903
3.5624,0.020111,0.000000,-0.148339,0.148339,0.0000,0.0000,0.0000,-0.002527,-0.141126,0.138058,0.9970,0.8285,-0.1491,0.001534,0.587515,-0.555301,0.556835,-0.595185,0.558369,-0.559903
3.5825,0.020105,0.000000,-0.151146,0.151146,0.0000,0.0000,0.0000,-0.002527,-0.141126,0.139592,0.9970,0.8285,-0.1491,0.001534,0.587515,-0.555301,0.556835,-0.595185,0.558369,-0.559903
3.6026,0.020108,0.000000,-0.153954,0.153954,0.0000,0.0000,0.0000,-0.002527,-0.144194,0.144194,0.9970,0.8285,-0.1491,0.001534,0.587515,-0.555301,0.556835,-0.595185,0.558369,-0.559903
3.6229,0.020247,0.000000,-0.156781,0.156781,0.0000,0.0000,0.0000,-0.002527,-0.150330,0.144194,0.9970,0.8285,-0.1491,0.001534,0.587515,-0.555301,0.556835,-0.595185,0.558369,-0.559903
3.6430,0.020089,0.000000,-0.159586,0.159586,0.0000,0.0000,0.0000,-0.002527,-0.150330,0.145728,0.9970,0.8285,-0.1491,0.001534,0.587515,-0.555301,0.556835,-0.595185,0.558369,-0.559903
3.6631,0.020105,0.000000,-0.162393,0.162393,0.0000,0.0000,0.0000,-0.002527,-0.151864,0.151864,0.9970,0.8285,-0.1491,0.001534,0.587515,-0.555301,0.556835,-0.595185,0.558369,-0.559903
3.6831,0.020092,0.000000,-0.165199,0.165199,0.0000,0.0000,0.0000,-0.002527,-0.159534,0.153398,0.9970,0.8285,-0.1491,0.001534,0.587515,-0.555301,0.556835,-0.595185,0.558369,-0.559903
3.7032,0.020096,0.000000,-0.168005,0.168005,0.0000,0.0000,0.0000,-0.002527,-0.159534,0.151864,0.9970,0.8285,-0.1491,0.001534,0.587515,-0.555301,0.556835,-0.595185,0.558369,-0.559903
3.7236,0.020325,0.000000,-0.170842,0.170842,0.0000,0.0000,0.0000,-0.002527,-0.159534,0.158000,0.9970,0.8285,-0.1491,0.001534,0.587515,-0.555301,0.556835,-0.595185,0.558369,-0.559903
3.7437,0.020089,0.000000,-0.173647,0.173647,0.0000,0.0000,0.0000,-0.002527,-0.165670,0.161068,0.9970,0.8285,-0.1491,0.001534,0.587515,-0.555301,0.556835,-0.595185,0.558369,-0.559903
3.7637,0.020089,0.000000,-0.176452,0.176452,0.0000,0.0000,0.0000,-0.002527,-0.165670,0.162602,0.9970,0.8285,-0.1491,0.001534,0.587515,-0.555301,0.556835,-0.595185,0.558369,-0.559903
3.7838,0.020092,0.000000,-0.179258,0.179258,0.0000,0.0000,0.0000,-0.002527,-0.165670,0.165670,0.9970,0.8285,-0.1491,0.001534,0.587515,-0.555301,0.556835,-0.595185,0.558369,-0.559903
3.8044,0.020570,0.000000,-0.182130,0.182130,0.0000,0.0000,0.0000,-0.002527,-0.173340,0.173340,0.9970,0.8285,-0.1491,0.001534,0.587515,-0.555301,0.556835,-0.595185,0.558369,-0.559903
3.8245,0.020103,0.000000,-0.184937,0.184937,0.0000,0.0000,0.0000,-0.002527,-0.177942,0.173340,0.9970,0.8285,-0.1491,0.001534,0.587515,-0.555301,0.556835,-0.595185,0.558369,-0.559903
3.8446,0.020086,0.000000,-0.187741,0.187741,0.0000,0.0000,0.0000,-0.002527,-0.177942,0.173340,0.9970,0.8285,-0.1491,0.001534,0.587515,-0.555301,0.556835,-0.595185,0.558369,-0.559903
3.8647,0.020090,0.000000,-0.190546,0.190546,0.0000,0.0000,0.0000,-0.002527,-0.181010,0.179476,0.9970,0.8285,-0.1491,0.001534,0.587515,-0.555301,0.556835,-0.595185,0.558369,-0.559903
3.8848,0.020090,0.000000,-0.193351,0.193351,0.0000,0.0000,0.0000,-0.002527,-0.185612,0.179476,0.9970,0.8285,-0.1491,0.001534,0.587515,-0.555301,0.556835,-0.595185,0.558369,-0.559903
3.9049,0.020090,0.000000,-0.196157,0.196157,0.0000,0.0000,0.0000,-0.002527,-0.187146,0.179476,0.9970,0.8285,-0.1491,0.001534,0.587515,-0.555301,0.556835,-0.595185,0.558369,-0.559903
3.9250,0.020104,0.000000,-0.198964,0.198964,0.0000,0.0000,0.0000,-0.002527,-0.191748,0.187146,0.9970,0.8285,-0.1491,0.001534,0.587515,-0.555301,0.556835,-0.595185,0.558369,-0.559903
3.9451,0.020083,0.000000,-0.201768,0.201768,0.0000,0.0000,0.0000,-0.002527,-0.197884,0.194816,0.9970,0.8285,-0.1491,0.001534,0.587515,-0.555301,0.556835,-0.595185,0.558369,-0.559903
3.9651,0.020083,0.000000,-0.204572,0.204572,0.0000,0.0000,0.0000,-0.002527,-0.196350,0.194816,0.9970,0.8285,-0.1491,0.001534,0.587515,-0.555301,0.556835,-0.595185,0.558369,-0.559903
3.9852,0.020086,0.000000,-0.207377,0.207377,0.0000,0.0000,0.0000,-0.002527,-0.196350,0.196350,0.9970,0.8285,-0.1491,0.001534,0.587515,-0.555301,0.556835,-0.595185,0.558369,-0.559903
4.0053,0.020089,0.000000,-0.210182,0.210182,0.0000,0.0000,0.0000,-0.002527,-0.204019,0.200951,0.9970,0.8285,-0.1491,0.001534,0.587515,-0.555301,0.556835,-0.595185,0.558369,-0.559903
4.0254,0.020094,0.000000,-0.212987,0.212987,0.0000,0.0000,0.0000,-0.002527,-0.205553,0.204019,0.9970,0.8285,-0.1491,0.001534,0.587515,-0.555301,0.556835,-0.595185,0.558369,-0.559903
4.0455,0.020093,0.000000,-0.215793,0.215793,0.0000,0.0000,0.0000,-0.002527,-0.205553,0.205553,0.9970,0.8285,-0.1491,0.001534,0.587515,-0.555301,0.556835,-0.595185,0.558369,-0.559903
4.0656,0.020094,0.000000,-0.218598,0.218598,0.0000,0.0000,0.0000,-0.002527,-0.213223,0.208621,0.9970,0.8285,-0.1491,0.001534,0.587515,-0.555301,0.556835,-0.595185,0.558369,-0.559903
4.0857,0.020084,0.000000,-0.221403,0.221403,0.0000,0.0000,0.0000,-0.002527,-0.216291,0.210155,0.9970,0.8285,-0.1491,0.001534,0.587515,-0.555301,0.556835,-0.595185,0.558369,-0.559903
4.1058,0.020091,0.000000,-0.224208,0.224208,0.0000,0.0000,0.0000,-0.002527,-0.213223,0.210155,0.9970,0.8285,-0.1491,0.001534,0.587515,-0.555301,0.556835,-0.595185,0.558369,-0.559903
4.1259,0.020104,0.000000,-0.227015,0.227015,0.0000,0.0000,0.0000,-0.002527,-0.216291,0.214757,0.9970,0.8285,-0.1491,0.001534,0.587515,-0.555301,0.556835,-0.595185,0.558369,-0.559903
4.1460,0.020142,0.000000,-0.229827,0.229827,0.0000,0.0000,0.0000,-0.002527,-0.220893,0.220893,0.9970,0.8285,-0.1491,0.001534,0.587515,-0.555301,0.556835,-0.595185,0.558369,-0.559903
4.1661,0.020089,0.000000,-0.232632,0.232632,0.0000,0.0000,0.0000,-0.002527,-0.222427,0.223961,0.9970,0.8285,-0.1491,0.001534,0.587515,-0.555301,0.556835,-0.595185,0.558369,-0.559903
4.1863,0.020207,0.000000,-0.235454,0.235454,0.0000,0.0000,0.0000,-0.002527,-0.227029,0.223961,0.9970,0.8285,-0.1491,0.001534,0.587515,-0.555301,0.556835,-0.595185,0.558369,-0.559903
4.2064,0.020077,0.000000,-0.238257,0.238257,0.0000,0.0000,0.0000,-0.002527,-0.230097,0.225495,0.9970,0.8285,-0.1491,0.001534,0.587515,-0.555301,0.556835,-0.595185,0.558369,-0.559903
4.2265,0.020088,0.000000,-0.241062,0.241062,0.0000,0.0000,0.0000,-0.002527,-0.230097,0.231631,0.9970,0.8285,-0.1491,0.001534,0.587515,-0.555301,0.556835,-0.595185,0.558369,-0.559903
4.2466,0.020081,0.000000,-0.243866,0.243866,0.0000,0.0000,0.0000,-0.002527,-0.234699,0.234699,0.9970,0.8285,-0.1491,0.001534,0.587515,-0.555301,0.556835,-0.595185,0.558369,-0.559903
4.2666,0.020078,0.000000,-0.246669,0.246669,0.0000,0.0000,0.0000,-0.002527,-0.239301,0.234699,0.9970,0.8285,-0.1491,0.001534,0.587515,-0.555301,0.556835,-0.595185,0.558369,-0.559903
4.2868,0.020150,0.000000,-0.249483,0.249483,0.0000,0.0000,0.0000,-0.002527,-0.243903,0.242369,0.9970,0.8285,-0.1491,0.001534,0.587515,-0.555301,0.556835,-0.595185,0.558369,-0.559903
4.3069,0.020083,0.000000,-0.252287,0.252287,0.0000,0.0000,0.0000,-0.002540,-0.245437,0.242369,1.0075,0.7763,-0.2031,0.001534,0.587515,-0.555301,0.555301,-0.595185,0.558369,-0.559903
4.3270,0.020082,0.000000,-0.255091,0.255091,0.0000,0.0000,0.0000,-0.002525,-0.245437,0.243903,0.9953,0.8338,-0.1440,0.001534,0.587515,-0.555301,0.556835,-0.595185,0.558369,-0.559903
4.3470,0.020084,0.000000,-0.257895,0.257895,0.0000,0.0000,0.0000,-0.002527,-0.250039,0.251573,0.9966,0.8278,-0.1502,0.001534,0.587515,-0.555301,0.556835,-0.595185,0.558369,-0.559903
4.3671,0.020078,0.000000,-0.260698,0.260698,0.0000,0.0000,0.0000,-0.002527,-0.256175,0.254641,0.9966,0.8278,-0.1502,0.001534,0.587515,-0.555301,0.556835,-0.595185,0.558369,-0.559903
4.3872,0.020089,0.000000,-0.263503,0.263503,0.0000,0.0000,0.0000,-0.002527,-0.257709,0.254641,0.9966,0.8278,-0.1502,0.001534,0.587515,-0.555301,0.556835,-0.595185,0.558369,-0.559903
4.4073,0.020075,0.000000,-0.266306,0.266306,0.0000,0.0000,0.0000,-0.002527,-0.257709,0.259243,0.9966,0.8278,-0.1502,0.001534,0.587515,-0.555301,0.556835,-0.595185,0.558369,-0.559903
4.4274,0.020079,0.000000,-0.269110,0.269110,0.0000,0.0000,0.0000,-0.002527,-0.263845,0.260777,0.9966,0.8278,-0.1502,0.001534,0.587515,-0.555301,0.556835,-0.595185,0.558369,-0.559903
4.4474,0.020084,0.000000,-0.271914,0.271914,0.0000,0.0000,0.0000,-0.002527,-0.265379,0.263845,0.9966,0.8278,-0.1502,0.001534,0.587515,-0.555301,0.556835,-0.595185,0.558369,-0.559903
4.4675,0.020075,0.000000,-0.274717,0.274717,0.0000,0.0000,0.0000,-0.002527,-0.265379,0.265379,0.9966,0.8278,-0.1502,0.001534,0.587515,-0.555301,0.556835,-0.595185,0.558369,-0.559903
4.4876,0.020082,0.000000,-0.277521,0.277521,0.0000,0.0000,0.0000,-0.002527,-0.271515,0.268447,0.9966,0.8278,-0.1502,0.001534,0.587515,-0.555301,0.556835,-0.595185,0.558369,-0.559903
4.5077,0.020076,0.000000,-0.280324,0.280324,0.0000,0.0000,0.0000,-0.002527,-0.276117,0.273049,0.9966,0.8278,-0.1502,0.001534,0.587515,-0.555301,0.556835,-0.595185,0.558369,-0.559903
4.5278,0.020079,0.000000,-0.283128,0.283128,0.0000,0.0000,0.0000,-0.002527,-0.274583,0.274583,0.9966,0.8278,-0.1502,0.001534,0.587515,-0.555301,0.556835,-0.595185,0.558369,-0.559903
4.5478,0.020081,0.000000,-0.285932,0.285932,0.0000,0.0000,0.0000,-0.002527,-0.277651,0.274583,0.9966,0.8278,-0.1502,0.001534,0.587515,-0.555301,0.556835,-0.595185,0.558369,-0.559903
4.5679,0.020079,0.000000,-0.288735,0.288735,0.0000,0.0000,0.0000,-0.002527,-0.285320,0.283786,0.9966,0.8278,-0.1502,0.001534,0.587515,-0.555301,0.556835,-0.595185,0.558369,-0.559903
4.5880,0.020081,0.000000,-0.291539,0.291539,0.0000,0.0000,0.0000,-0.002527,-0.285320,0.283786,0.9966,0.8278,-0.1502,0.001534,0.587515,-0.555301,0.556835,-0.595185,0.558369,-0.559903
4.6081,0.020076,0.000000,-0.294342,0.294342,0.0000,0.0000,0.0000,-0.002527,-0.285320,0.282252,0.9966,0.8278,-0.1502,0.001534,0.587515,-0.555301,0.556835,-0.595185,0.558369,-0.559903
4.6282,0.020083,0.000000,-0.297146,0.297146,0.0000,0.0000,0.0000,-0.002527,-0.292990,0.289922,0.9966,0.8278,-0.1502,0.001534,0.587515,-0.555301,0.556835,-0.595185,0.558369,-0.559903
4.6483,0.020120,0.000000,-0.299956,0.299956,0.0000,0.0000,0.0000,-0.002527,-0.297592,0.292990,0.9966,0.8278,-0.1502,0.001534,0.587515,-0.555301,0.556835,-0.595185,0.558369,-0.559903
4.6683,0.020074,0.000000,-0.302759,0.302759,0.0000,0.0000,0.0000,-0.002527,-0.296058,0.291456,0.9966,0.8278,-0.1502,0.001534,0.587515,-0.555301,0.556835,-0.595185,0.558369,-0.559903
4.6884,0.020092,0.000000,-0.305564,0.305564,0.0000,0.0000,0.0000,-0.002527,-0.300660,0.296058,0.9966,0.8278,-0.1502,0.001534,0.587515,-0.555301,0.556835,-0.595185,0.558369,-0.559903
4.7085,0.020073,0.000000,-0.308367,0.308367,0.0000,0.0000,0.0000,-0.002527,-0.303728,0.300660,0.9966,0.8278,-0.1502,0.001534,0.587515,-0.555301,0.556835,-0.595185,0.558369,-0.559903
4.7286,0.020082,0.000000,-0.311171,0.311171,0.0000,0.0000,0.0000,-0.002527,-0.303728,0.303728,0.9966,0.8278,-0.1502,0.001534,0.587515,-0.555301,0.556835,-0.595185,0.558369,-0.559903
4.7487,0.020081,0.000000,-0.313975,0.313975,0.0000,0.0000,0.0000,-0.002527,-0.308330,0.308330,0.9966,0.8278,-0.1502,0.001534,0.587515,-0.555301,0.556835,-0.595185,0.558369,-0.559903
4.7688,0.020078,0.000000,-0.316778,0.316778,0.0000,0.0000,0.0000,-0.002527,-0.314466,0.308330,0.9966,0.8278,-0.1502,0.001534,0.587515,-0.555301,0.556835,-0.595185,0.558369,-0.559903
4.7888,0.020078,0.000000,-0.319581,0.319581,0.0000,0.0000,0.0000,-0.002527,-0.314466,0.309864,0.9966,0.8278,-0.1502,0.001534,0.587515,-0.555301,0.556835,-0.595185,0.558369,-0.559903
4.8089,0.020081,0.000000,-0.322385,0.322385,0.0000,0.0000,0.0000,-0.002527,-0.314466,0.316000,0.9966,0.8278,-0.1502,0.001534,0.587515,-0.555301,0.556835,-0.595185,0.558369,-0.559903
4.8290,0.020084,0.000000,-0.325189,0.325189,0.0000,0.0000,0.0000,-0.002527,-0.322136,0.317534,0.9966,0.8278,-0.1502,0.001534,0.587515,-0.555301,0.556835,-0.595185,0.558369,-0.559903
4.8491,0.020076,0.000000,-0.327993,0.327993,0.0000,0.0000,0.0000,-0.002527,-0.323670,0.317534,0.9966,0.8278,-0.1502,0.001534,0.587515,-0.555301,0.556835,-0.595185,0.558369,-0.559903
4.8692,0.020084,0.000000,-0.330797,0.330797,0.0000,0.0000,0.0000,-0.002527,-0.323670,0.322136,0.9966,0.8278,-0.1502,0.001534,0.587515,-0.555301,0.556835,-0.595185,0.558369,-0.559903
4.8892,0.020082,0.000000,-0.333601,0.333601,0.0000,0.0000,0.0000,-0.002527,-0.328272,0.325204,0.9966,0.8278,-0.1502,0.001534,0.587515,-0.555301,0.556835,-0.595185,0.558369,-0.559903
4.9093,0.020081,0.000000,-0.336405,0.336405,0.0000,0.0000,0.0000,-0.002527,-0.329806,0.325204,0.9966,0.8278,-0.1502,0.001534,0.587515,-0.555301,0.556835,-0.595185,0.558369,-0.559903
4.9296,0.020237,0.000000,-0.339230,0.339230,0.0000,0.0000,0.0000,-0.002527,-0.331340,0.328272,0.9966,0.8278,-0.1502,0.001534,0.587515,-0.555301,0.556835,-0.595185,0.558369,-0.559903
4.9496,0.020081,0.000000,-0.342034,0.342034,0.0000,0.0000,0.0000,-0.002527,-0.335942,0.335942,0.9966,0.8278,-0.1502,0.001534,0.587515,-0.555301,0.556835,-0.595185,0.558369,-0.559903
4.9697,0.020083,0.000000,-0.344838,0.344838,0.0000,0.0000,0.0000,-0.002527,-0.340544,0.337476,0.9966,0.8278,-0.1502,0.001534,0.587515,-0.555301,0.556835,-0.595185,0.558369,-0.559903
4.9898,0.020084,0.000000,-0.347642,0.347642,0.0000,0.0000,0.0000,-0.002527,-0.342078,0.337476,0.9966,0.8278,-0.1502,0.001534,0.587515,-0.555301,0.556835,-0.595185,0.558369,-0.559903
5.0099,0.020077,0.000000,-0.347686,0.347686,0.0000,0.0000,0.0000,-0.002527,-0.342078,0.340544,0.9966,0.8278,-0.1502,0.001534,0.587515,-0.555301,0.556835,-0.595185,0.558369,-0.559903
5.0300,0.020145,0.000000,-0.344873,0.344873,0.0000,0.0000,0.0000,-0.002527,-0.348214,0.343612,0.9966,0.8278,-0.1502,0.001534,0.587515,-0.555301,0.556835,-0.595185,0.558369,-0.559903
5.0501,0.020077,0.000000,-0.342070,0.342070,0.0000,0.0000,0.0000,-0.002527,-0.352816,0.345146,0.9966,0.8278,-0.1502,0.001534,0.587515,-0.555301,0.556835,-0.595185,0.558369,-0.559903
5.0703,0.020146,0.000000,-0.339257,0.339257,0.0000,0.0000,0.0000,-0.002527,-0.351282,0.345146,0.9966,0.8278,-0.1502,0.001534,0.587515,-0.555301,0.556835,-0.595185,0.558369,-0.559903
5.0905,0.020228,0.000000,-0.336433,0.336433,0.0000,0.0000,0.0000,-0.002527,-0.346680,0.343612,0.9966,0.8278,-0.1502,0.001534,0.587515,-0.555301,0.556835,-0.595185,0.558369,-0.559903
5.1106,0.020079,0.000000,-0.333629,0.333629,0.0000,0.0000,0.0000,-0.002527,-0.345146,0.342078,0.9966,0.8278,-0.1502,0.001534,0.587515,-0.555301,0.556835,-0.595185,0.558369,-0.559903
5.1309,0.020337,0.000000,-0.330790,0.330790,0.0000,0.0000,0.0000,-0.002527,-0.343612,0.342078,0.9966,0.8278,-0.1502,0.001534,0.587515,-0.555301,0.556835,-0.595185,0.558369,-0.559903
5.1510,0.020074,0.000000,-0.327987,0.327987,0.0000,0.0000,0.0000,-0.002527,-0.343612,0.340544,0.9966,0.8278,-0.1502,0.001534,0.587515,-0.555301,0.556835,-0.595185,0.558369,-0.559903
5.1711,0.020177,0.000000,-0.325169,0.325169,0.0000,0.0000,0.0000,-0.002527,-0.342078,0.340544,0.9966,0.8278,-0.1502,0.001534,0.587515,-0.555301,0.556835,-0.595185,0.558369,-0.559903
5.1913,0.020127,0.000000,-0.322359,0.322359,0.0000,0.0000,0.0000,-0.002527,-0.340544,0.337476,0.9966,0.8278,-0.1502,0.001534,0.587515,-0.555301,0.556835,-0.595185,0.558369,-0.559903
5.2113,0.020075,0.000000,-0.319556,0.319556,0.0000,0.0000,0.0000,-0.002527,-0.340544,0.334408,0.9966,0.8278,-0.1502,0.001534,0.587515,-0.555301,0.556835,-0.595185,0.558369,-0.559903
5.2314,0.020083,0.000000,-0.316752,0.316752,0.0000,0.0000,0.0000,-0.002527,-0.340544,0.334408,0.9966,0.8278,-0.1502,0.001534,0.587515,-0.555301,0.556835,-0.595185,0.558369,-0.559903
5.2515,0.020077,0.000000,-0.313949,0.313949,0.0000,0.0000,0.0000,-0.002527,-0.339010,0.332874,0.9966,0.8278,-0.1502,0.001534,0.587515,-0.555301,0.556835,-0.595185,0.558369,-0.559903
5.2716,0.020078,0.000000,-0.311146,0.311146,0.0000,0.0000,0.0000,-0.002527,-0.335942,0.332874,0.9966,0.8278,-0.1502,0.001534,0.587515,-0.555301,0.556835,-0.595185,0.558369,-0.559903
5.2917,0.020083,0.000000,-0.308341,0.308341,0.0000,0.0000,0.0000,-0.002527,-0.328272,0.329806,0.9966,0.8278,-0.1502,0.001534,0.587515,-0.555301,0.556835,-0.595185,0.558369,-0.559903
5.3117,0.020079,0.000000,-0.305538,0.305538,0.0000,0.0000,0.0000,-0.002527,-0.320602,0.325204,0.9966,0.8278,-0.1502,0.001534,0.587515,-0.555301,0.556835,-0.595185,0.558369,-0.559903
5.3319,0.020180,0.000000,-0.302720,0.302720,0.0000,0.0000,0.0000,-0.002527,-0.312932,0.319068,0.9966,0.8278,-0.1502,0.001534,0.587515,-0.555301,0.556835,-0.595185,0.558369,-0.559903
5.3520,0.020090,0.000000,-0.299915,0.299915,0.0000,0.0000,0.0000,-0.002527,-0.311398,0.312932,0.9966,0.8278,-0.1502,0.001534,0.587515,-0.555301,0.556835,-0.595185,0.558369,-0.559903
5.3721,0.020076,0.000000,-0.297112,0.297112,0.0000,0.0000,0.0000,-0.002527,-0.312932,0.309864,0.9966,0.8278,-0.1502,0.001534,0.587515,-0.555301,0.556835,-0.595185,0.558369,-0.559903
5.3922,0.020106,0.000000,-0.294304,0.294304,0.0000,0.0000,0.0000,-0.002527,-0.311398,0.308330,0.9966,0.8278,-0.1502,0.001534,0.587515,-0.555301,0.556835,-0.595185,0.558369,-0.559903
5.4123,0.020086,0.000000,-0.291500,0.291500,0.0000,0.0000,0.0000,-0.002527,-0.311398,0.308330,0.9966,0.8278,-0.1502,0.001534,0.587515,-0.555301,0.556835,-0.595185,0.558369,-0.559903
5.4324,0.020106,0.000000,-0.288693,0.288693,0.0000,0.0000,0.0000,-0.002527,-0.311398,0.309864,0.9966,0.8278,-0.1502,0.001534,0.587515,-0.555301,0.556835,-0.595185,0.558369,-0.559903
5.4525,0.020078,0.000000,-0.285889,0.285889,0.0000,0.0000,0.0000,-0.002527,-0.311398,0.308330,0.9966,0.8278,-0.1502,0.001534,0.587515,-0.555301,0.556835,-0.595185,0.558369,-0.559903
5.4726,0.020081,0.000000,-0.283085,0.283085,0.0000,0.0000,0.0000,-0.002527,-0.309864,0.308330,0.9966,0.8278,-0.1502,0.001534,0.587515,-0.555301,0.556835,-0.595185,0.558369,-0.559903
5.4927,0.020108,0.000000,-0.280278,0.280278,0.0000,0.0000,0.0000,-0.002527,-0.302194,0.308330,0.9966,0.8278,-0.1502,0.001534,0.587515,-0.555301,0.556835,-0.595185,0.558369,-0.559903
5.5127,0.020081,0.000000,-0.277474,0.277474,0.0000,0.0000,0.0000,-0.002527,-0.292990,0.303728,0.9966,0.8278,-0.1502,0.001534,0.587515,-0.555301,0.556835,-0.595185,0.558369,-0.559903
5.5329,0.020192,0.000000,-0.274655,0.274655,0.0000,0.0000,0.0000,-0.002527,-0.285320,0.299126,0.9966,0.8278,-0.1502,0.001534,0.587515,-0.555301,0.556835,-0.595185,0.558369,-0.559903
5.5532,0.020268,0.000000,-0.271825,0.271825,0.0000,0.0000,0.0000,-0.002527,-0.282252,0.292990,0.9966,0.8278,-0.1502,0.001534,0.587515,-0.555301,0.556835,-0.595185,0.558369,-0.559903
5.5733,0.020074,0.000000,-0.269022,0.269022,0.0000,0.0000,0.0000,-0.002527,-0.282252,0.285320,0.9966,0.8278,-0.1502,0.001534,0.587515,-0.555301,0.556835,-0.595185,0.558369,-0.559903
5.5934,0.020088,0.000000,-0.266217,0.266217,0.0000,0.0000,0.0000,-0.002527,-0.282252,0.280718,0.9966,0.8278,-0.1502,0.001534,0.587515,-0.555301,0.556835,-0.595185,0.558369,-0.559903
5.6134,0.020086,0.000000,-0.263413,0.263413,0.0000,0.0000,0.0000,-0.002527,-0.282252,0.280718,0.9966,0.8278,-0.1502,0.001534,0.587515,-0.555301,0.556835,-0.595185,0.558369,-0.559903
5.6335,0.020072,0.000000,-0.260610,0.260610,0.0000,0.0000,0.0000,-0.002527,-0.282252,0.279185,0.9966,0.8278,-0.1502,0.001534,0.587515,-0.555301,0.556835,-0.595185,0.558369,-0.559903
5.6536,0.020099,0.000000,-0.257804,0.257804,0.0000,0.0000,0.0000,-0.002527,-0.282252,0.279185,0.9966,0.8278,-0.1502,0.001534,0.587515,-0.555301,0.556835,-0.595185,0.558369,-0.559903
5.6737,0.020089,0.000000,-0.254999,0.254999,0.0000,0.0000,0.0000,-0.002527,-0.277651,0.277651,0.9966,0.8278,-0.1502,0.001534,0.587515,-0.555301,0.556835,-0.595185,0.558369,-0.559903
5.6946,0.020865,0.000000,-0.252085,0.252085,0.0000,0.0000,0.0000,-0.002527,-0.269981,0.276117,0.9966,0.8278,-0.1502,0.001534,0.587515,-0.555301,0.556835,-0.595185,0.558369,-0.559903
5.7147,0.020080,0.000000,-0.249282,0.249282,0.0000,0.0000,0.0000,-0.002527,-0.262311,0.271515,0.9966,0.8278,-0.1502,0.001534,0.587515,-0.555301,0.556835,-0.595185,0.558369,-0.559903
5.7347,0.020080,0.000000,-0.246478,0.246478,0.0000,0.0000,0.0000,-0.002527,-0.257709,0.265379,0.9966,0.8278,-0.1502,0.001534,0.587515,-0.555301,0.556835,-0.595185,0.558369,-0.559903
5.7549,0.020125,0.000000,-0.243668,0.243668,0.0000,0.0000,0.0000,-0.002527,-0.256175,0.257709,0.9966,0.8278,-0.1502,0.001534,0.587515,-0.555301,0.556835,-0.595185,0.558369,-0.559903
5.7749,0.020080,0.000000,-0.240864,0.240864,0.0000,0.0000,0.0000,-0.002527,-0.256175,0.254641,0.9966,0.8278,-0.1502,0.001534,0.587515,-0.555301,0.556835,-0.595185,0.558369,-0.559903
5.7951,0.020196,0.000000,-0.238044,0.238044,0.0000,0.0000,0.0000,-0.002527,-0.256175,0.253107,0.9966,0.8278,-0.1502,0.001534,0.587515,-0.555301,0.556835,-0.595185,0.558369,-0.559903
5.8152,0.020083,0.000000,-0.235240,0.235240,0.0000,0.0000,0.0000,-0.002527,-0.254641,0.253107,0.9966,0.8278,-0.1502,0.001534,0.587515,-0.555301,0.556835,-0.595185,0.558369,-0.559903
5.8353,0.020085,0.000000,-0.232436,0.232436,0.0000,0.0000,0.0000,-0.002527,-0.254641,0.253107,0.9966,0.8278,-0.1502,0.001534,0.587515,-0.555301,0.556835,-0.595185,0.558369,-0.559903
5.8554,0.020086,0.000000,-0.229631,0.229631,0.0000,0.0000,0.0000,-0.002527,-0.248505,0.251573,0.9966,0.8278,-0.1502,0.001534,0.587515,-0.555301,0.556835,-0.595185,0.558369,-0.559903
5.8760,0.020583,0.000000,-0.226757,0.226757,0.0000,0.0000,0.0000,-0.002527,-0.240835,0.250039,0.9966,0.8278,-0.1502,0.001534,0.587515,-0.555301,0.556835,-0.595185,0.558369,-0.559903
5.8961,0.020105,0.000000,-0.223950,0.223950,0.0000,0.0000,0.0000,-0.002527,-0.233165,0.245437,0.9966,0.8278,-0.1502,0.001534,0.587515,-0.555301,0.556835,-0.595185,0.558369,-0.559903
5.9162,0.020076,0.000000,-0.221147,0.221147,0.0000,0.0000,0.0000,-0.002527,-0.230097,0.240835,0.9966,0.8278,-0.1502,0.001534,0.587515,-0.555301,0.556835,-0.595185,0.558369,-0.559903
5.9362,0.020080,0.000000,-0.218343,0.218343,0.0000,0.0000,0.0000,-0.002527,-0.230097,0.233165,0.9966,0.8278,-0.1502,0.001534,0.587515,-0.555301,0.556835,-0.595185,0.558369,-0.559903
5.9563,0.020084,0.000000,-0.215539,0.215539,0.0000,0.0000,0.0000,-0.002527,-0.230097,0.228563,0.9966,0.8278,-0.1502,0.001534,0.587515,-0.555301,0.556835,-0.595185,0.558369,-0.559903
5.9764,0.020083,0.000000,-0.212735,0.212735,0.0000,0.0000,0.0000,-0.002527,-0.228563,0.227029,0.9966,0.8278,-0.1502,0.001534,0.587515,-0.555301,0.556835,-0.595185,0.558369,-0.559903
5.9965,0.020128,0.000000,-0.209924,0.209924,0.0000,0.0000,0.0000,-0.002527,-0.230097,0.227029,0.9966,0.8278,-0.1502,0.001534,0.587515,-0.555301,0.556835,-0.595185,0.558369,-0.559903
6.0166,0.020083,0.000000,-0.207120,0.207120,0.0000,0.0000,0.0000,-0.002527,-0.228563,0.227029,0.9966,0.8278,-0.1502,0.001534,0.587515,-0.555301,0.556835,-0.595185,0.558369,-0.559903
6.0367,0.020092,0.000000,-0.204315,0.204315,0.0000,0.0000,0.0000,-0.002527,-0.227029,0.227029,0.9966,0.8278,-0.1502,0.001534,0.587515,-0.555301,0.556835,-0.595185,0.558369,-0.559903
6.0569,0.020150,0.000000,-0.201502,0.201502,0.0000,0.0000,0.0000,-0.002527,-0.220893,0.227029,0.9966,0.8278,-0.1502,0.001534,0.587515,-0.555301,0.556835,-0.595185,0.558369,-0.559903
6.0769,0.020083,0.000000,-0.198697,0.198697,0.0000,0.0000,0.0000,-0.002527,-0.211689,0.225495,0.9966,0.8278,-0.1502,0.001534,0.587515,-0.555301,0.556835,-0.595185,0.558369,-0.559903
6.0971,0.020119,0.000000,-0.195888,0.195888,0.0000,0.0000,0.0000,-0.002527,-0.204019,0.222427,0.9966,0.8278,-0.1502,0.001534,0.587515,-0.555301,0.556835,-0.595185,0.558369,-0.559903
6.1171,0.020082,0.000000,-0.193084,0.193084,0.0000,0.0000,0.0000,-0.002527,-0.202485,0.214757,0.9966,0.8278,-0.1502,0.001534,0.587515,-0.555301,0.556835,-0.595185,0.558369,-0.559903
6.1372,0.020090,0.000000,-0.190279,0.190279,0.0000,0.0000,0.0000,-0.002527,-0.202485,0.208621,0.9966,0.8278,-0.1502,0.001534,0.587515,-0.555301,0.556835,-0.595185,0.558369,-0.559903
6.1573,0.020091,0.000000,-0.187474,0.187474,0.0000,0.0000,0.0000,-0.002527,-0.200951,0.202485,0.9966,0.8278,-0.1502,0.001534,0.587515,-0.555301,0.556835,-0.595185,0.558369,-0.559903
6.1774,0.020083,0.000000,-0.184670,0.184670,0.0000,0.0000,0.0000,-0.002527,-0.200951,0.197884,0.9966,0.8278,-0.1502,0.001534,0.587515,-0.555301,0.556835,-0.595185,0.558369,-0.559903
6.1977,0.020277,0.000000,-0.181839,0.181839,0.0000,0.0000,0.0000,-0.002527,-0.200951,0.196350,0.9966,0.8278,-0.1502,0.001534,0.587515,-0.555301,0.556835,-0.595185,0.558369,-0.559903
6.2177,0.020072,0.000000,-0.179036,0.179036,0.0000,0.0000,0.0000,-0.002527,-0.200951,0.196350,0.9966,0.8278,-0.1502,0.001534,0.587515,-0.555301,0.556835,-0.595185,0.558369,-0.559903
6.2378,0.020087,0.000000,-0.176231,0.176231,0.0000,0.0000,0.0000,-0.002527,-0.199418,0.196350,0.9966,0.8278,-0.1502,0.001534,0.587515,-0.555301,0.556835,-0.595185,0.558369,-0.559903
6.2579,0.020095,0.000000,-0.173426,0.173426,0.0000,0.0000,0.0000,-0.002527,-0.191748,0.194816,0.9966,0.8278,-0.1502,0.001534,0.587515,-0.555301,0.556835,-0.595185,0.558369,-0.559903
6.2780,0.020078,0.000000,-0.170622,0.170622,0.0000,0.0000,0.0000,-0.002527,-0.182544,0.191748,0.9966,0.8278,-0.1502,0.001534,0.587515,-0.555301,0.556835,-0.595185,0.558369,-0.559903
6.2981,0.020082,0.000000,-0.167818,0.167818,0.0000,0.0000,0.0000,-0.002527,-0.176408,0.185612,0.9966,0.8278,-0.1502,0.001534,0.587515,-0.555301,0.556835,-0.595185,0.558369,-0.559903
6.3184,0.020297,0.000000,-0.164984,0.164984,0.0000,0.0000,0.0000,-0.002527,-0.176408,0.179476,0.9966,0.8278,-0.1502,0.001534,0.587515,-0.555301,0.556835,-0.595185,0.558369,-0.559903
6.3385,0.020094,0.000000,-0.162179,0.162179,0.0000,0.0000,0.0000,-0.002527,-0.176408,0.173340,0.9966,0.8278,-0.1502,0.001534,0.587515,-0.555301,0.556835,-0.595185,0.558369,-0.559903
6.3586,0.020091,0.000000,-0.159373,0.159373,0.0000,0.0000,0.0000,-0.002527,-0.174874,0.170272,0.9966,0.8278,-0.1502,0.001534,0.587515,-0.555301,0.556835,-0.595185,0.558369,-0.559903
6.3789,0.020279,0.000000,-0.156542,0.156542,0.0000,0.0000,0.0000,-0.002527,-0.174874,0.168738,0.9966,0.8278,-0.1502,0.001534,0.587515,-0.555301,0.556835,-0.595185,0.558369,-0.559903
6.3989,0.020084,0.000000,-0.153738,0.153738,0.0000,0.0000,0.0000,-0.002527,-0.173340,0.168738,0.9966,0.8278,-0.1502,0.001534,0.587515,-0.555301,0.556835,-0.595185,0.558369,-0.559903
6.4190,0.020079,0.000000,-0.150934,0.150934,0.0000,0.0000,0.0000,-0.002527,-0.168738,0.168738,0.9966,0.8278,-0.1502,0.001534,0.587515,-0.555301,0.556835,-0.595185,0.558369,-0.559903
6.4391,0.020079,0.000000,-0.148131,0.148131,0.0000,0.0000,0.0000,-0.002527,-0.159534,0.167204,0.9966,0.8278,-0.1502,0.001534,0.587515,-0.555301,0.556835,-0.595185,0.558369,-0.559903
6.4592,0.020081,0.000000,-0.145327,0.145327,0.0000,0.0000,0.0000,-0.002527,-0.154932,0.162602,0.9966,0.8278,-0.1502,0.001534,0.587515,-0.555301,0.556835,-0.595185,0.558369,-0.559903
6.4793,0.020078,0.000000,-0.142523,0.142523,0.0000,0.0000,0.0000,-0.002527,-0.153398,0.156466,0.9966,0.8278,-0.1502,0.001534,0.587515,-0.555301,0.556835,-0.595185,0.558369,-0.559903
6.4993,0.020079,0.000000,-0.139720,0.139720,0.0000,0.0000,0.0000,-0.002527,-0.151864,0.150330,0.9966,0.8278,-0.1502,0.001534,0.587515,-0.555301,0.556835,-0.595185,0.558369,-0.559903
6.5195,0.020151,0.000000,-0.136906,0.136906,0.0000,0.0000,0.0000,-0.002527,-0.148796,0.145728,0.9966,0.8278,-0.1502,0.001534,0.587515,-0.555301,0.556835,-0.595185,0.558369,-0.559903
6.5396,0.020078,0.000000,-0.134103,0.134103,0.0000,0.0000,0.0000,-0.002527,-0.147262,0.142660,0.9966,0.8278,-0.1502,0.001534,0.587515,-0.555301,0.556835,-0.595185,0.558369,-0.559903
