t,loop_dt,cmd_z,cmd_ant_l,cmd_ant_r,cmd_roll,cmd_pitch,cmd_yaw,pres_z,pres_ant_l,pres_ant_r,pres_roll,pres_pitch,pres_yaw,pres_j0,pres_j1,pres_j2,pres_j3,pres_j4,pres_j5,pres_j6
0.0000,0.000001,0.000000,0.000001,-0.000001,0.0000,0.0000,0.0000,-0.002401,-0.122718,0.119651,2.1189,2.5977,0.9807,0.001534,0.596719,-0.552233,0.578311,-0.621262,0.556835,-0.530757
0.0201,0.020097,0.000063,0.016519,-0.016519,0.0000,0.0000,0.0000,-0.002401,-0.122718,0.119651,2.1189,2.5977,0.9807,0.001534,0.596719,-0.552233,0.578311,-0.621262,0.556835,-0.530757
0.0402,0.020096,0.000126,0.032970,-0.032970,0.0000,0.0000,0.0000,-0.002391,-0.122718,0.119651,2.1302,2.6478,0.9265,0.001534,0.596719,-0.552233,0.578311,-0.622796,0.556835,-0.530757
0.0603,0.020075,0.000189,0.049274,-0.049274,0.0000,0.0000,0.0000,-0.002402,-0.115049,0.111981,2.1172,2.5923,0.9857,0.001534,0.596719,-0.552233,0.578311,-0.621262,0.556835,-0.530757
0.0804,0.020102,0.000252,0.065402,-0.065402,0.0000,0.0000,0.0000,-0.002377,-0.076699,0.075165,2.0807,2.6289,0.8721,0.001534,0.596719,-0.552233,0.578311,-0.622796,0.556835,-0.532291
0.1005,0.020173,0.000316,0.081326,-0.081326,0.0000,0.0000,0.0000,-0.002366,-0.019942,0.019942,2.0349,2.6057,0.8300,0.001534,0.596719,-0.552233,0.578311,-0.622796,0.556835,-0.533825
0.1206,0.020083,0.000379,0.096854,-0.096854,0.0000,0.0000,0.0000,-0.002339,0.035282,-0.030680,1.9405,2.5694,0.7264,0.001534,0.596719,-0.552233,0.578311,-0.622796,0.556835,-0.536893
0.1407,0.020096,0.000442,0.112007,-0.112007,0.0000,0.0000,0.0000,-0.002325,0.073631,-0.067495,1.8394,2.4846,0.6828,0.001534,0.596719,-0.552233,0.578311,-0.621262,0.556835,-0.539961
0.1608,0.020117,0.000504,0.126728,-0.126728,0.0000,0.0000,0.0000,-0.002300,0.082835,-0.084369,1.7511,2.4552,0.5792,0.001534,0.596719,-0.552233,0.578311,-0.621262,0.556835,-0.543029
0.1809,0.020099,0.000567,0.140931,-0.140931,0.0000,0.0000,0.0000,-0.002252,0.076699,-0.084369,1.6618,2.3868,0.4826,0.001534,0.598253,-0.552233,0.578311,-0.621262,0.556835,-0.547631
0.2010,0.020091,0.000630,0.154566,-0.154566,0.0000,0.0000,0.0000,-0.002211,0.084369,-0.088971,1.6715,2.3269,0.4944,0.001534,0.601320,-0.552233,0.578311,-0.621262,0.556835,-0.550699
0.2211,0.020086,0.000692,0.167583,-0.167583,0.0000,0.0000,0.0000,-0.002104,0.130388,-0.121184,1.6649,2.2064,0.2269,0.001534,0.604388,-0.555301,0.578311,-0.622796,0.556835,-0.556835
0.2412,0.020102,0.000755,0.179943,-0.179943,0.0000,0.0000,0.0000,-0.002098,0.150330,-0.136524,1.6441,2.1144,0.2014,0.001534,0.604388,-0.556835,0.578311,-0.621262,0.556835,-0.558369
0.2613,0.020088,0.000817,0.191577,-0.191577,0.0000,0.0000,0.0000,-0.002031,0.170272,-0.156466,1.6677,1.9793,-0.0635,0.001534,0.604388,-0.561437,0.578311,-0.621262,0.556835,-0.561437
0.2814,0.020087,0.000879,0.202448,-0.202448,0.0000,0.0000,0.0000,-0.002038,0.170272,-0.156466,1.6651,1.9935,-0.0358,0.001534,0.604388,-0.561437,0.578311,-0.621262,0.556835,-0.561437
0.3015,0.020079,0.000941,0.212509,-0.212509,0.0000,0.0000,0.0000,-0.001974,0.179476,-0.188680,1.6961,1.8687,-0.1987,0.001534,0.605922,-0.564505,0.578311,-0.621262,0.556835,-0.564505
0.3215,0.020077,0.001003,0.221725,-0.221725,0.0000,0.0000,0.0000,-0.001930,0.187146,-0.197884,1.7723,1.7771,-0.2876,0.001534,0.607456,-0.567573,0.578311,-0.621262,0.556835,-0.566039
0.3416,0.020086,0.001065,0.230061,-0.230061,0.0000,0.0000,0.0000,-0.001907,0.202485,-0.207087,1.8431,1.7154,-0.3852,0.001534,0.607456,-0.570641,0.578311,-0.621262,0.556835,-0.566039
0.3617,0.020100,0.001127,0.237487,-0.237487,0.0000,0.0000,0.0000,-0.001886,0.223961,-0.216291,1.8363,1.6885,-0.3744,0.001534,0.608990,-0.570641,0.578311,-0.621262,0.556835,-0.567573
0.3818,0.020091,0.001188,0.243964,-0.243964,0.0000,0.0000,0.0000,-0.001888,0.230097,-0.225495,1.8370,1.6913,-0.3755,0.001534,0.608990,-0.570641,0.578311,-0.621262,0.556835,-0.567573
0.4020,0.020143,0.001249,0.249482,-0.249482,0.0000,0.0000,0.0000,-0.001878,0.225495,-0.234699,1.8863,1.6759,-0.3205,0.001534,0.610524,-0.570641,0.578311,-0.621262,0.556835,-0.567573
0.4221,0.020086,0.001310,0.253990,-0.253990,0.0000,0.0000,0.0000,-0.001858,0.230097,-0.242369,1.9430,1.7123,-0.3250,0.001534,0.612058,-0.570641,0.578311,-0.622796,0.556835,-0.567573
0.4421,0.020079,0.001371,0.257485,-0.257485,0.0000,0.0000,0.0000,-0.001870,0.245437,-0.246971,1.9246,1.6587,-0.2708,0.001534,0.612058,-0.570641,0.578311,-0.621262,0.556835,-0.567573
0.4622,0.020085,0.001432,0.259958,-0.259958,0.0000,0.0000,0.0000,-0.001869,0.257709,-0.254641,1.9265,1.6642,-0.2765,0.001534,0.612058,-0.570641,0.578311,-0.621262,0.556835,-0.567573
0.4823,0.020076,0.001492,0.261395,-0.261395,0.0000,0.0000,0.0000,-0.001859,0.256175,-0.256175,1.9388,1.7135,-0.3296,0.001534,0.612058,-0.570641,0.578311,-0.622796,0.556835,-0.567573
0.5024,0.020098,0.001552,0.261792,-0.261792,0.0000,0.0000,0.0000,-0.001850,0.253107,-0.257709,1.9869,1.6934,-0.2691,0.001534,0.613592,-0.570641,0.578311,-0.622796,0.556835,-0.567573
0.5225,0.020084,0.001612,0.261147,-0.261147,0.0000,0.0000,0.0000,-0.001840,0.262311,-0.260777,2.0312,1.6805,-0.2204,0.001534,0.615126,-0.570641,0.578311,-0.622796,0.556835,-0.567573
0.5427,0.020207,0.001672,0.259449,-0.259449,0.0000,0.0000,0.0000,-0.001808,0.263845,-0.262311,2.0472,1.6837,-0.1722,0.001534,0.616660,-0.570641,0.578311,-0.624330,0.558369,-0.567573
0.5628,0.020097,0.001731,0.256724,-0.256724,0.0000,0.0000,0.0000,-0.001797,0.256175,-0.262311,2.0849,1.6476,-0.2308,0.001534,0.616660,-0.572175,0.578311,-0.624330,0.558369,-0.567573
0.5829,0.020093,0.001790,0.252976,-0.252976,0.0000,0.0000,0.0000,-0.001750,0.257709,-0.262311,2.2072,1.6380,-0.1137,0.001534,0.619728,-0.573709,0.579845,-0.624330,0.558369,-0.567573
0.6030,0.020091,0.001849,0.248221,-0.248221,0.0000,0.0000,0.0000,-0.001667,0.262311,-0.260777,2.3431,1.6855,-0.2828,0.001534,0.621262,-0.578311,0.582913,-0.625864,0.556835,-0.569107
0.6231,0.020086,0.001908,0.242480,-0.242480,0.0000,0.0000,0.0000,-0.001524,0.259243,-0.259243,2.3467,1.6090,-0.3724,0.001534,0.624330,-0.582913,0.585981,-0.627398,0.558369,-0.573709
0.6431,0.020089,0.001966,0.235772,-0.235772,0.0000,0.0000,0.0000,-0.001375,0.251573,-0.256175,2.3816,1.6830,-0.4129,0.001534,0.627398,-0.587515,0.592117,-0.628932,0.558369,-0.578311
0.6632,0.020074,0.002024,0.228131,-0.228131,0.0000,0.0000,0.0000,-0.001217,0.245437,-0.254641,2.5135,1.7739,-0.5116,0.001534,0.630466,-0.593651,0.598253,-0.632000,0.558369,-0.581379
0.6833,0.020079,0.002081,0.219581,-0.219581,0.0000,0.0000,0.0000,-0.001074,0.240835,-0.251573,2.5952,1.7639,-0.5509,0.001534,0.635068,-0.598253,0.602854,-0.633534,0.558369,-0.585981
0.7034,0.020086,0.002138,0.210154,-0.210154,0.0000,0.0000,0.0000,-0.000924,0.234699,-0.243903,2.6495,1.6443,-0.6032,0.001534,0.638136,-0.604388,0.605922,-0.635068,0.561437,-0.589049
0.7235,0.020078,0.002195,0.199895,-0.199895,0.0000,0.0000,0.0000,-0.000791,0.225495,-0.234699,2.5801,1.5885,-0.6002,0.001534,0.641204,-0.607456,0.608990,-0.636602,0.564505,-0.593651
0.7435,0.020087,0.002252,0.188836,-0.188836,0.0000,0.0000,0.0000,-0.000668,0.217825,-0.225495,2.5722,1.5439,-0.5478,0.001534,0.644272,-0.610524,0.612058,-0.638136,0.567573,-0.596719
0.7636,0.020091,0.002308,0.177022,-0.177022,0.0000,0.0000,0.0000,-0.000577,0.207087,-0.214757,2.4651,1.4827,-0.3401,0.001534,0.645806,-0.612058,0.615126,-0.638136,0.572175,-0.598253
0.7837,0.020076,0.002364,0.164513,-0.164513,0.0000,0.0000,0.0000,-0.000452,0.197884,-0.204019,2.3773,1.3535,-0.3141,0.001534,0.648874,-0.613592,0.615126,-0.641204,0.578311,-0.601320
0.8038,0.020094,0.002419,0.151338,-0.151338,0.0000,0.0000,0.0000,-0.000392,0.187146,-0.196350,2.2332,1.3636,-0.4303,0.001534,0.648874,-0.613592,0.615126,-0.644272,0.581379,-0.604388
0.8239,0.020079,0.002474,0.137571,-0.137571,0.0000,0.0000,0.0000,-0.000351,0.174874,-0.188680,2.2281,1.3302,-0.3114,0.001534,0.650408,-0.613592,0.615126,-0.645806,0.584447,-0.604388
0.8440,0.020092,0.002529,0.123247,-0.123247,0.0000,0.0000,0.0000,-0.000315,0.161068,-0.176408,2.0705,1.2979,-0.2755,0.001534,0.648874,-0.613592,0.615126,-0.647340,0.589049,-0.604388
0.8641,0.020080,0.002583,0.108441,-0.108441,0.0000,0.0000,0.0000,-0.000271,0.150330,-0.162602,2.0673,1.2693,-0.1722,0.001534,0.650408,-0.613592,0.615126,-0.648874,0.592117,-0.604388
0.8841,0.020080,0.002637,0.093203,-0.093203,0.0000,0.0000,0.0000,-0.000252,0.139592,-0.148796,2.0396,1.2885,-0.1844,0.001534,0.650408,-0.613592,0.615126,-0.650408,0.593651,-0.604388
0.9045,0.020388,0.002691,0.077353,-0.077353,0.0000,0.0000,0.0000,-0.000183,0.124252,-0.134990,2.0236,1.3555,-0.0749,0.001534,0.651942,-0.613592,0.616660,-0.653476,0.596719,-0.604388
0.9246,0.020082,0.002744,0.061430,-0.061430,0.0000,0.0000,0.0000,-0.000180,0.107379,-0.121184,2.0088,1.3136,-0.1431,0.001534,0.651942,-0.613592,0.615126,-0.655010,0.598253,-0.604388
0.9447,0.020093,0.002797,0.045254,-0.045254,0.0000,0.0000,0.0000,-0.000157,0.092039,-0.104311,1.9823,1.3342,-0.1375,0.001534,0.651942,-0.613592,0.615126,-0.656544,0.599786,-0.604388
0.9648,0.020084,0.002849,0.028905,-0.028905,0.0000,0.0000,0.0000,-0.000126,0.075165,-0.087437,2.0060,1.3339,-0.0837,0.001534,0.653476,-0.613592,0.615126,-0.658078,0.601320,-0.604388
0.9849,0.020077,0.002900,0.012446,-0.012446,0.0000,0.0000,0.0000,-0.000117,0.059825,-0.065961,1.9632,1.3009,-0.0362,0.001534,0.653476,-0.613592,0.615126,-0.658078,0.602854,-0.604388
1.0049,0.020078,0.002951,-0.004063,0.004063,0.0000,0.0000,0.0000,-0.000108,0.042951,-0.046019,1.9799,1.3536,-0.0958,0.001534,0.653476,-0.613592,0.615126,-0.659612,0.602854,-0.604388
1.0250,0.020080,0.003002,-0.020557,0.020557,0.0000,0.0000,0.0000,-0.000109,0.026078,-0.026078,1.9782,1.3481,-0.0896,0.001534,0.653476,-0.613592,0.615126,-0.659612,0.602854,-0.604388
1.0451,0.020080,0.003052,-0.036969,0.036969,0.0000,0.0000,0.0000,-0.000099,0.007670,-0.007670,1.9907,1.3979,-0.1449,0.001534,0.653476,-0.613592,0.615126,-0.661146,0.602854,-0.604388
1.0652,0.020076,0.003102,-0.053231,0.053231,0.0000,0.0000,0.0000,-0.000090,-0.009204,0.007670,2.0017,1.4418,-0.1938,0.001534,0.653476,-0.613592,0.615126,-0.662680,0.602854,-0.604388
1.0852,0.020073,0.003151,-0.069279,0.069279,0.0000,0.0000,0.0000,-0.000080,-0.027612,0.023010,2.0495,1.4230,-0.1328,0.001534,0.655010,-0.613592,0.615126,-0.662680,0.602854,-0.604388
1.1055,0.020278,0.003200,-0.085211,0.085211,0.0000,0.0000,0.0000,-0.000071,-0.041417,0.038350,2.0935,1.4108,-0.0833,0.001534,0.656544,-0.613592,0.615126,-0.662680,0.602854,-0.604388
1.1256,0.020078,0.003249,-0.100645,0.100645,0.0000,0.0000,0.0000,-0.000063,-0.059825,0.056757,2.1013,1.4612,-0.1431,0.001534,0.656544,-0.613592,0.615126,-0.664214,0.602854,-0.604388
1.1457,0.020083,0.003296,-0.115683,0.115683,0.0000,0.0000,0.0000,-0.000030,-0.073631,0.070563,2.1503,1.5422,-0.0803,0.001534,0.658078,-0.613592,0.616660,-0.665748,0.602854,-0.604388
1.1658,0.020078,0.003344,-0.130257,0.130257,0.0000,0.0000,0.0000,-0.000024,-0.087437,0.085903,2.1941,1.5197,-0.0308,0.001534,0.659612,-0.613592,0.616660,-0.665748,0.602854,-0.604388
1.1860,0.020213,0.003390,-0.144406,0.144406,0.0000,0.0000,0.0000,-0.000009,-0.102777,0.104311,2.3115,1.4921,-0.0340,0.001534,0.662680,-0.613592,0.615126,-0.667282,0.602854,-0.604388
1.2061,0.020151,0.003437,-0.157931,0.157931,0.0000,0.0000,0.0000,-0.000001,-0.119651,0.118117,2.3119,1.5439,-0.0883,0.001534,0.662680,-0.613592,0.615126,-0.668816,0.602854,-0.604388
1.2262,0.020084,0.003482,-0.170782,0.170782,0.0000,0.0000,0.0000,0.000067,-0.136524,0.131922,2.3138,1.5738,-0.0802,0.001534,0.665748,-0.613592,0.616660,-0.670350,0.602854,-0.607456
1.2463,0.020090,0.003527,-0.182958,0.182958,0.0000,0.0000,0.0000,0.000141,-0.151864,0.144194,2.2315,1.6501,-0.2451,0.001534,0.667282,-0.613592,0.618194,-0.673418,0.602854,-0.612058
1.2664,0.020104,0.003572,-0.194412,0.194412,0.0000,0.0000,0.0000,0.000242,-0.162602,0.158000,2.2569,1.7441,-0.1693,0.001534,0.670350,-0.615126,0.622796,-0.674952,0.602854,-0.615126
1.2865,0.020082,0.003616,-0.205080,0.205080,0.0000,0.0000,0.0000,0.000403,-0.173340,0.174874,2.2139,1.8635,-0.2838,0.001534,0.673418,-0.618194,0.628932,-0.678020,0.602854,-0.621262
1.3067,0.020220,0.003659,-0.214996,0.214996,0.0000,0.0000,0.0000,0.000534,-0.185612,0.187146,2.1843,1.8663,-0.2706,0.001534,0.676486,-0.621262,0.633534,-0.679553,0.604388,-0.625864
1.3268,0.020083,0.003702,-0.223987,0.223987,0.0000,0.0000,0.0000,0.000628,-0.200951,0.194816,2.2828,1.9650,-0.3206,0.001534,0.679553,-0.624330,0.638136,-0.681087,0.602854,-0.628932
1.3470,0.020227,0.003744,-0.232141,0.232141,0.0000,0.0000,0.0000,0.000718,-0.208621,0.204019,2.4121,1.9043,-0.3109,0.001534,0.682621,-0.628932,0.641204,-0.681087,0.602854,-0.630466
1.3671,0.020080,0.003786,-0.239310,0.239310,0.0000,0.0000,0.0000,0.000813,-0.214757,0.217825,2.4842,1.9106,-0.1993,0.001534,0.684155,-0.633534,0.645806,-0.681087,0.604388,-0.630466
1.3872,0.020081,0.003827,-0.245527,0.245527,0.0000,0.0000,0.0000,0.000894,-0.225495,0.228563,2.4599,1.7925,-0.1587,0.001534,0.685689,-0.636602,0.647340,-0.681087,0.607456,-0.632000
1.4073,0.020093,0.003867,-0.250769,0.250769,0.0000,0.0000,0.0000,0.000894,-0.239301,0.231631,2.4599,1.7925,-0.1587,0.001534,0.687223,-0.639670,0.650408,-0.681087,0.610524,-0.630466
1.4274,0.020090,0.003907,-0.255012,0.255012,0.0000,0.0000,0.0000,0.000964,-0.242369,0.236233,2.5297,1.7737,0.0578,0.001534,0.687223,-0.642738,0.653476,-0.682621,0.613592,-0.630466
1.4475,0.020106,0.003946,-0.258242,0.258242,0.0000,0.0000,0.0000,0.001047,-0.242369,0.245437,2.5071,1.7895,0.0885,0.001534,0.687223,-0.644272,0.653476,-0.684155,0.618194,-0.630466
1.4676,0.020092,0.003984,-0.260441,0.260441,0.0000,0.0000,0.0000,0.001102,-0.242369,0.245437,2.4399,1.7027,0.1345,0.001534,0.687223,-0.644272,0.653476,-0.684155,0.618194,-0.630466
1.4879,0.020327,0.004023,-0.261610,0.261610,0.0000,0.0000,0.0000,0.001169,-0.251573,0.253107,2.3683,1.8440,0.2390,0.001534,0.687223,-0.644272,0.656544,-0.687223,0.621262,-0.630466
1.5080,0.020094,0.004060,-0.261717,0.261717,0.0000,0.0000,0.0000,0.001224,-0.257709,0.256175,2.3264,1.8423,0.1713,0.001534,0.687223,-0.647340,0.659612,-0.693359,0.627398,-0.632000
1.5281,0.020095,0.004096,-0.260782,0.260782,0.0000,0.0000,0.0000,0.001364,-0.260777,0.259243,2.1776,1.9118,0.1142,0.001534,0.687223,-0.647340,0.659612,-0.696427,0.630466,-0.633534
1.5483,0.020242,0.004132,-0.258789,0.258789,0.0000,0.0000,0.0000,0.001385,-0.262311,0.259243,2.1080,1.8455,0.2278,0.001534,0.687223,-0.647340,0.659612,-0.696427,0.633534,-0.633534
1.5684,0.020108,0.004168,-0.255774,0.255774,0.0000,0.0000,0.0000,0.001383,-0.260777,0.259243,2.1153,1.8524,0.2160,0.001534,0.687223,-0.647340,0.659612,-0.696427,0.633534,-0.633534
1.5885,0.020094,0.004202,-0.251741,0.251741,0.0000,0.0000,0.0000,0.001419,-0.262311,0.259243,2.0475,1.8347,0.2693,0.001534,0.687223,-0.647340,0.659612,-0.697961,0.636602,-0.633534
1.6086,0.020088,0.004236,-0.246708,0.246708,0.0000,0.0000,0.0000,0.001419,-0.259243,0.257709,2.0475,1.8347,0.2693,0.001534,0.688757,-0.647340,0.659612,-0.697961,0.636602,-0.633534
1.6287,0.020092,0.004269,-0.240691,0.240691,0.0000,0.0000,0.0000,0.001425,-0.259243,0.257709,2.1029,1.8229,0.3205,0.001534,0.688757,-0.647340,0.659612,-0.697961,0.636602,-0.633534
1.6488,0.020100,0.004302,-0.233712,0.233712,0.0000,0.0000,0.0000,0.001444,-0.257709,0.257709,2.1578,1.8592,0.3166,0.001534,0.690291,-0.647340,0.659612,-0.699495,0.636602,-0.633534
1.6689,0.020081,0.004334,-0.225809,0.225809,0.0000,0.0000,0.0000,0.001474,-0.256175,0.254641,2.2088,1.7958,0.4846,0.001534,0.693359,-0.647340,0.659612,-0.699495,0.639670,-0.633534
1.6890,0.020094,0.004365,-0.217002,0.217002,0.0000,0.0000,0.0000,0.001483,-0.256175,0.254641,2.1639,1.7699,0.5209,0.001534,0.693359,-0.647340,0.659612,-0.699495,0.639670,-0.633534
1.7094,0.020438,0.004396,-0.207158,0.207158,0.0000,0.0000,0.0000,0.001501,-0.256175,0.253107,2.2593,1.7472,0.6254,0.001534,0.696427,-0.647340,0.659612,-0.699495,0.639670,-0.633534
1.7295,0.020094,0.004425,-0.196647,0.196647,0.0000,0.0000,0.0000,0.001501,-0.251573,0.248505,2.2593,1.7472,0.6254,0.001534,0.697961,-0.647340,0.659612,-0.699495,0.639670,-0.633534
1.7496,0.020114,0.004454,-0.185341,0.185341,0.0000,0.0000,0.0000,0.001509,-0.237767,0.239301,2.3030,1.7352,0.6771,0.001534,0.697961,-0.647340,0.659612,-0.699495,0.639670,-0.633534
1.7704,0.020806,0.004484,-0.172868,0.172868,0.0000,0.0000,0.0000,0.001508,-0.222427,0.227029,2.2984,1.7365,0.6717,0.001534,0.697961,-0.648874,0.659612,-0.699495,0.639670,-0.633534
1.7905,0.020087,0.004511,-0.160125,0.160125,0.0000,0.0000,0.0000,0.001544,-0.207087,0.216291,2.4192,1.6559,0.6239,0.001534,0.699495,-0.650408,0.659612,-0.699495,0.639670,-0.633534
1.8106,0.020106,0.004538,-0.146731,0.146731,0.0000,0.0000,0.0000,0.001551,-0.193282,0.205553,2.4587,1.6475,0.6802,0.001534,0.701029,-0.650408,0.659612,-0.699495,0.639670,-0.633534
1.8307,0.020084,0.004564,-0.132768,0.132768,0.0000,0.0000,0.0000,0.001550,-0.181010,0.191748,2.4546,1.6484,0.6743,0.001534,0.701029,-0.650408,0.659612,-0.699495,0.639670,-0.633534
1.8508,0.020087,0.004590,-0.118275,0.118275,0.0000,0.0000,0.0000,0.001550,-0.171806,0.179476,2.4546,1.6484,0.6743,0.001534,0.701029,-0.650408,0.659612,-0.699495,0.639670,-0.633534
1.8710,0.020232,0.004615,-0.103200,0.103200,0.0000,0.0000,0.0000,0.001550,-0.159534,0.162602,2.4546,1.6484,0.6743,0.001534,0.701029,-0.650408,0.659612,-0.699495,0.639670,-0.633534
1.8911,0.020120,0.004639,-0.087796,0.087796,0.0000,0.0000,0.0000,0.001550,-0.159534,0.162602,2.4546,1.6484,0.6743,0.001534,0.701029,-0.650408,0.659612,-0.699495,0.639670,-0.633534
1.9112,0.020103,0.004662,-0.072055,0.072055,0.0000,0.0000,0.0000,0.001550,-0.144194,0.145728,2.4546,1.6484,0.6743,0.001534,0.701029,-0.650408,0.659612,-0.699495,0.639670,-0.633534
1.9313,0.020089,0.004684,-0.056038,0.056038,0.0000,0.0000,0.0000,0.001560,-0.131922,0.133456,2.4676,1.6969,0.6196,0.001534,0.701029,-0.650408,0.659612,-0.701029,0.639670,-0.633534
1.9514,0.020079,0.004706,-0.039805,0.039805,0.0000,0.0000,0.0000,0.001569,-0.119651,0.118117,2.4789,1.7404,0.5699,0.001534,0.701029,-0.650408,0.659612,-0.702563,0.639670,-0.633534
1.9715,0.020089,0.004727,-0.023407,0.023407,0.0000,0.0000,0.0000,0.001577,-0.102777,0.099709,2.4903,1.7844,0.5196,0.001534,0.701029,-0.650408,0.659612,-0.704097,0.639670,-0.633534
1.9916,0.020087,0.004747,-0.006917,0.006917,0.0000,0.0000,0.0000,0.001576,-0.088971,0.087437,2.4891,1.7798,0.5248,0.001534,0.701029,-0.650408,0.659612,-0.704097,0.639670,-0.633534
2.0117,0.020095,0.004766,0.009608,-0.009608,0.0000,0.0000,0.0000,0.001576,-0.069029,0.069029,2.4891,1.7798,0.5248,0.001534,0.701029,-0.650408,0.659612,-0.704097,0.639670,-0.633534
2.0318,0.020086,0.004785,0.026087,-0.026087,0.0000,0.0000,0.0000,0.001576,-0.050621,0.052155,2.4891,1.7798,0.5248,0.001534,0.701029,-0.650408,0.659612,-0.704097,0.639670,-0.633534
2.0518,0.020075,0.004803,0.042453,-0.042453,0.0000,0.0000,0.0000,0.001586,-0.036816,0.036816,2.5019,1.8287,0.4688,0.001534,0.701029,-0.650408,0.659612,-0.705631,0.639670,-0.633534
2.0719,0.020060,0.004820,0.058638,-0.058638,0.0000,0.0000,0.0000,0.001594,-0.016874,0.021476,2.5133,1.8720,0.4192,0.001534,0.701029,-0.650408,0.659612,-0.707165,0.639670,-0.633534
2.0920,0.020143,0.004837,0.074656,-0.074656,0.0000,0.0000,0.0000,0.001593,0.000000,0.004602,2.5121,1.8675,0.4244,0.001534,0.701029,-0.650408,0.659612,-0.707165,0.639670,-0.633534
2.1121,0.020095,0.004852,0.090338,-0.090338,0.0000,0.0000,0.0000,0.001593,0.016874,-0.012272,2.5121,1.8675,0.4244,0.001534,0.701029,-0.650408,0.659612,-0.707165,0.639670,-0.633534
2.1322,0.020080,0.004867,0.105649,-0.105649,0.0000,0.0000,0.0000,0.001593,0.032214,-0.027612,2.5121,1.8675,0.4244,0.001534,0.701029,-0.650408,0.659612,-0.707165,0.639670,-0.633534
2.1523,0.020081,0.004881,0.120540,-0.120540,0.0000,0.0000,0.0000,0.001593,0.047553,-0.046019,2.5121,1.8675,0.4244,0.001534,0.701029,-0.650408,0.659612,-0.707165,0.639670,-0.633534
2.1724,0.020089,0.004894,0.134957,-0.134957,0.0000,0.0000,0.0000,0.001603,0.065961,-0.065961,2.5605,1.8549,0.4809,0.001534,0.702563,-0.650408,0.659612,-0.707165,0.639670,-0.633534
2.1925,0.020077,0.004907,0.148829,-0.148829,0.0000,0.0000,0.0000,0.001620,0.082835,-0.079767,2.6517,1.8305,0.5894,0.001534,0.705631,-0.650408,0.659612,-0.707165,0.639670,-0.633534
2.2126,0.020090,0.004919,0.162117,-0.162117,0.0000,0.0000,0.0000,0.001654,0.098175,-0.092039,2.5938,1.7828,0.5230,0.001534,0.707165,-0.650408,0.659612,-0.707165,0.639670,-0.636602
2.2326,0.020088,0.004930,0.174758,-0.174758,0.0000,0.0000,0.0000,0.001703,0.111981,-0.105845,2.6126,1.7730,0.4765,0.001534,0.710233,-0.650408,0.659612,-0.708699,0.639670,-0.639670
2.2527,0.020092,0.004940,0.186706,-0.186706,0.0000,0.0000,0.0000,0.001817,0.144194,-0.136524,2.5891,1.7254,0.3181,0.001534,0.716369,-0.650408,0.659612,-0.711767,0.639670,-0.647340
2.2728,0.020086,0.004949,0.197907,-0.197907,0.0000,0.0000,0.0000,0.001805,0.144194,-0.136524,2.5917,1.7304,0.3346,0.001534,0.716369,-0.650408,0.659612,-0.711767,0.639670,-0.647340
2.2929,0.020076,0.004958,0.208316,-0.208316,0.0000,0.0000,0.0000,0.001892,0.168738,-0.165670,2.5576,1.6645,0.2240,0.001534,0.720971,-0.650408,0.659612,-0.713301,0.639670,-0.653476
2.3130,0.020088,0.004966,0.217902,-0.217902,0.0000,0.0000,0.0000,0.001916,0.184078,-0.181010,2.5139,1.6212,0.1800,0.001534,0.722505,-0.650408,0.659612,-0.713301,0.639670,-0.656544
2.3331,0.020084,0.004973,0.226618,-0.226618,0.0000,0.0000,0.0000,0.001956,0.191748,-0.193282,2.4851,1.6235,0.0734,0.001534,0.724039,-0.650408,0.659612,-0.714835,0.639670,-0.659612
2.3532,0.020076,0.004979,0.234430,-0.234430,0.0000,0.0000,0.0000,0.001965,0.200951,-0.207087,2.4408,1.6047,0.0279,0.001534,0.724039,-0.650408,0.659612,-0.714835,0.639670,-0.661146
2.3732,0.020087,0.004984,0.241313,-0.241313,0.0000,0.0000,0.0000,0.001964,0.216291,-0.216291,2.4455,1.6067,0.0327,0.001534,0.724039,-0.650408,0.659612,-0.714835,0.639670,-0.661146
2.3933,0.020077,0.004989,0.247232,-0.247232,0.0000,0.0000,0.0000,0.001976,0.228563,-0.222427,2.3977,1.5880,-0.0244,0.001534,0.724039,-0.650408,0.659612,-0.714835,0.639670,-0.662680
2.4134,0.020081,0.004993,0.252169,-0.252169,0.0000,0.0000,0.0000,0.001975,0.228563,-0.230097,2.4027,1.5900,-0.0185,0.001534,0.724039,-0.650408,0.659612,-0.714835,0.639670,-0.662680
2.4335,0.020080,0.004996,0.256103,-0.256103,0.0000,0.0000,0.0000,0.001975,0.227029,-0.239301,2.4027,1.5900,-0.0185,0.001534,0.724039,-0.650408,0.659612,-0.714835,0.639670,-0.662680
2.4536,0.020080,0.004998,0.259017,-0.259017,0.0000,0.0000,0.0000,0.001975,0.239301,-0.243903,2.4027,1.5900,-0.0185,0.001534,0.724039,-0.650408,0.659612,-0.714835,0.639670,-0.662680
2.4736,0.020089,0.004999,0.260902,-0.260902,0.0000,0.0000,0.0000,0.001975,0.254641,-0.248505,2.4027,1.5900,-0.0185,0.001534,0.724039,-0.650408,0.659612,-0.714835,0.639670,-0.662680
2.4937,0.020083,0.005000,0.261749,-0.261749,0.0000,0.0000,0.0000,0.001975,0.256175,-0.254641,2.4027,1.5900,-0.0185,0.001534,0.724039,-0.650408,0.659612,-0.714835,0.639670,-0.662680
2.5138,0.020083,0.005000,0.261553,-0.261553,0.0000,0.0000,0.0000,0.001975,0.253107,-0.262311,2.4027,1.5900,-0.0185,0.001534,0.724039,-0.650408,0.659612,-0.714835,0.639670,-0.662680
2.5339,0.020074,0.004999,0.260317,-0.260317,0.0000,0.0000,0.0000,0.001975,0.259243,-0.262311,2.4027,1.5900,-0.0185,0.001534,0.724039,-0.650408,0.659612,-0.714835,0.639670,-0.662680
2.5540,0.020074,0.004997,0.258047,-0.258047,0.0000,0.0000,0.0000,0.001975,0.265379,-0.260777,2.4027,1.5900,-0.0185,0.001534,0.724039,-0.650408,0.659612,-0.714835,0.639670,-0.662680
2.5740,0.020090,0.004995,0.254747,-0.254747,0.0000,0.0000,0.0000,0.001975,0.262311,-0.260777,2.4027,1.5900,-0.0185,0.001534,0.724039,-0.650408,0.659612,-0.714835,0.639670,-0.662680
2.5941,0.020080,0.004991,0.250436,-0.250436,0.0000,0.0000,0.0000,0.001975,0.256175,-0.260777,2.4027,1.5900,-0.0185,0.001534,0.724039,-0.650408,0.659612,-0.714835,0.639670,-0.662680
2.6142,0.020073,0.004987,0.245130,-0.245130,0.0000,0.0000,0.0000,0.001975,0.259243,-0.259243,2.4027,1.5900,-0.0185,0.001534,0.724039,-0.650408,0.659612,-0.714835,0.639670,-0.662680
2.6343,0.020078,0.004982,0.238848,-0.238848,0.0000,0.0000,0.0000,0.001975,0.256175,-0.259243,2.4027,1.5900,-0.0185,0.001534,0.724039,-0.650408,0.659612,-0.714835,0.639670,-0.662680
2.6544,0.020076,0.004977,0.231617,-0.231617,0.0000,0.0000,0.0000,0.001998,0.253107,-0.256175,2.3755,1.6058,-0.0210,0.001534,0.724039,-0.650408,0.659612,-0.716369,0.641204,-0.662680
2.6744,0.020062,0.004970,0.223471,-0.223471,0.0000,0.0000,0.0000,0.001995,0.246971,-0.253107,2.3783,1.6042,-0.0207,0.001534,0.724039,-0.650408,0.659612,-0.716369,0.641204,-0.662680
2.6945,0.020089,0.004963,0.214425,-0.214425,0.0000,0.0000,0.0000,0.002004,0.242369,-0.248505,2.3919,1.6522,-0.0765,0.001534,0.724039,-0.650408,0.659612,-0.717903,0.641204,-0.662680
2.7146,0.020089,0.004955,0.204525,-0.204525,0.0000,0.0000,0.0000,0.002031,0.234699,-0.239301,2.3094,1.5835,0.0371,0.001534,0.724039,-0.650408,0.659612,-0.717903,0.644272,-0.662680
2.7347,0.020073,0.004946,0.193820,-0.193820,0.0000,0.0000,0.0000,0.002042,0.223961,-0.228563,2.2777,1.5588,0.0792,0.001534,0.724039,-0.650408,0.659612,-0.717903,0.645806,-0.662680
2.7547,0.020077,0.004936,0.182341,-0.182341,0.0000,0.0000,0.0000,0.002054,0.214757,-0.219359,2.2407,1.5296,0.1288,0.001534,0.724039,-0.650408,0.659612,-0.717903,0.647340,-0.662680
2.7748,0.020081,0.004926,0.170135,-0.170135,0.0000,0.0000,0.0000,0.002066,0.204019,-0.207087,2.2043,1.5008,0.1777,0.001534,0.724039,-0.650408,0.659612,-0.717903,0.648874,-0.662680
2.7949,0.020085,0.004914,0.157250,-0.157250,0.0000,0.0000,0.0000,0.002078,0.193282,-0.199418,2.1679,1.4721,0.2267,0.001534,0.724039,-0.650408,0.659612,-0.717903,0.650408,-0.662680
2.8150,0.020076,0.004902,0.143744,-0.143744,0.0000,0.0000,0.0000,0.002091,0.181010,-0.193282,2.1316,1.4433,0.2758,0.001534,0.724039,-0.650408,0.659612,-0.717903,0.651942,-0.662680
2.8351,0.020087,0.004890,0.129659,-0.129659,0.0000,0.0000,0.0000,0.002089,0.168738,-0.182544,2.1354,1.4463,0.2706,0.001534,0.724039,-0.650408,0.659612,-0.717903,0.651942,-0.662680
2.8552,0.020078,0.004876,0.115065,-0.115065,0.0000,0.0000,0.0000,0.002089,0.156466,-0.168738,2.1354,1.4463,0.2706,0.001534,0.724039,-0.650408,0.659612,-0.717903,0.651942,-0.662680
2.8752,0.020093,0.004862,0.100002,-0.100002,0.0000,0.0000,0.0000,0.002103,0.142660,-0.154932,2.0950,1.4142,0.3254,0.001534,0.724039,-0.650408,0.659612,-0.717903,0.653476,-0.662680
2.8953,0.020086,0.004847,0.084546,-0.084546,0.0000,0.0000,0.0000,0.002115,0.128854,-0.139592,2.0593,1.3858,0.3740,0.001534,0.724039,-0.650408,0.659612,-0.717903,0.655010,-0.662680
2.9154,0.020078,0.004831,0.068759,-0.068759,0.0000,0.0000,0.0000,0.002122,0.115049,-0.124252,2.0764,1.4368,0.3130,0.001534,0.724039,-0.650408,0.659612,-0.719437,0.655010,-0.662680
2.9355,0.020094,0.004814,0.052687,-0.052687,0.0000,0.0000,0.0000,0.002136,0.101243,-0.111981,2.1126,1.3960,0.2638,0.001534,0.724039,-0.651942,0.659612,-0.719437,0.655010,-0.662680
2.9556,0.020081,0.004797,0.036415,-0.036415,0.0000,0.0000,0.0000,0.002140,0.084369,-0.095107,2.1333,1.3167,0.2692,0.001534,0.724039,-0.653476,0.659612,-0.717903,0.655010,-0.662680
2.9757,0.020086,0.004778,0.019994,-0.019994,0.0000,0.0000,0.0000,0.002153,0.069029,-0.078233,2.1690,1.2895,0.2129,0.001534,0.724039,-0.655010,0.659612,-0.717903,0.655010,-0.662680
2.9958,0.020084,0.004759,0.003494,-0.003494,0.0000,0.0000,0.0000,0.002152,0.053689,-0.058291,2.1653,1.2923,0.2187,0.001534,0.724039,-0.655010,0.659612,-0.717903,0.655010,-0.662680
3.0158,0.020082,0.004740,-0.013017,0.013017,0.0000,0.0000,0.0000,0.002180,0.036816,-0.038350,2.2412,1.2210,0.1065,0.001534,0.724039,-0.658078,0.659612,-0.717903,0.655010,-0.662680
3.0359,0.020092,0.004719,-0.029485,0.029485,0.0000,0.0000,0.0000,0.002205,0.019942,-0.021476,2.3084,1.1576,0.0064,0.001534,0.724039,-0.661146,0.659612,-0.717903,0.655010,-0.662680
3.0560,0.020094,0.004698,-0.045837,0.045837,0.0000,0.0000,0.0000,0.002216,0.001534,-0.003068,2.3388,1.1288,-0.0392,0.001534,0.724039,-0.662680,0.659612,-0.717903,0.655010,-0.662680
3.0761,0.020089,0.004676,-0.062002,0.062002,0.0000,0.0000,0.0000,0.002229,-0.013806,0.010738,2.3731,1.0963,-0.0905,0.001534,0.724039,-0.664214,0.659612,-0.717903,0.655010,-0.662680
3.0962,0.020082,0.004653,-0.077915,0.077915,0.0000,0.0000,0.0000,0.002255,-0.033748,0.029146,2.4442,1.0289,-0.1975,0.001534,0.724039,-0.667282,0.659612,-0.717903,0.655010,-0.662680
3.1163,0.020082,0.004630,-0.093517,0.093517,0.0000,0.0000,0.0000,0.002266,-0.049087,0.044485,2.4739,1.0006,-0.2426,0.001534,0.724039,-0.668816,0.659612,-0.717903,0.655010,-0.662680
3.1364,0.020093,0.004606,-0.108757,0.108757,0.0000,0.0000,0.0000,0.002278,-0.062893,0.061359,2.5079,0.9682,-0.2942,0.001534,0.724039,-0.670350,0.659612,-0.717903,0.655010,-0.662680
3.1564,0.020082,0.004581,-0.123554,0.123554,0.0000,0.0000,0.0000,0.002290,-0.075165,0.078233,2.5415,0.9362,-0.3452,0.001534,0.724039,-0.671884,0.659612,-0.717903,0.655010,-0.662680
3.1765,0.020086,0.004555,-0.137863,0.137863,0.0000,0.0000,0.0000,0.002289,-0.090505,0.093573,2.5379,0.9395,-0.3398,0.001534,0.724039,-0.671884,0.659612,-0.717903,0.655010,-0.662680
3.1966,0.020088,0.004529,-0.151625,0.151625,0.0000,0.0000,0.0000,0.002289,-0.108913,0.107379,2.5379,0.9395,-0.3398,0.001534,0.724039,-0.671884,0.659612,-0.717903,0.655010,-0.662680
3.2167,0.020078,0.004502,-0.164777,0.164777,0.0000,0.0000,0.0000,0.002289,-0.128854,0.122718,2.5379,0.9395,-0.3398,0.001534,0.724039,-0.671884,0.659612,-0.717903,0.655010,-0.662680
3.2368,0.020089,0.004474,-0.177280,0.177280,0.0000,0.0000,0.0000,0.002289,-0.142660,0.138058,2.5379,0.9395,-0.3398,0.001534,0.724039,-0.671884,0.659612,-0.717903,0.655010,-0.662680
3.2569,0.020077,0.004445,-0.189070,0.189070,0.0000,0.0000,0.0000,0.002289,-0.151864,0.151864,2.5379,0.9395,-0.3398,0.001534,0.724039,-0.671884,0.659612,-0.717903,0.655010,-0.662680
3.2770,0.020091,0.004416,-0.200115,0.200115,0.0000,0.0000,0.0000,0.002289,-0.164136,0.164136,2.5379,0.9395,-0.3398,0.001534,0.724039,-0.671884,0.659612,-0.717903,0.655010,-0.662680
3.2970,0.020080,0.004386,-0.210359,0.210359,0.0000,0.0000,0.0000,0.002289,-0.182544,0.176408,2.5379,0.9395,-0.3398,0.001534,0.724039,-0.671884,0.659612,-0.717903,0.655010,-0.662680
3.3171,0.020080,0.004355,-0.219765,0.219765,0.0000,0.0000,0.0000,0.002298,-0.196350,0.188680,2.5513,0.9869,-0.3962,0.001534,0.724039,-0.671884,0.659612,-0.719437,0.655010,-0.662680
3.3372,0.020093,0.004324,-0.228302,0.228302,0.0000,0.0000,0.0000,0.002288,-0.200951,0.200951,2.5369,0.9343,-0.3345,0.001534,0.724039,-0.671884,0.659612,-0.717903,0.655010,-0.662680
3.3573,0.020082,0.004292,-0.235926,0.235926,0.0000,0.0000,0.0000,0.002289,-0.207087,0.211689,2.5384,0.9397,-0.3410,0.001534,0.724039,-0.671884,0.659612,-0.717903,0.655010,-0.662680
3.3774,0.020095,0.004259,-0.242615,0.242615,0.0000,0.0000,0.0000,0.002298,-0.220893,0.220893,2.5513,0.9869,-0.3961,0.001534,0.724039,-0.671884,0.659612,-0.719437,0.655010,-0.662680
3.3975,0.020084,0.004226,-0.248335,0.248335,0.0000,0.0000,0.0000,0.002288,-0.233165,0.228563,2.5369,0.9343,-0.3345,0.001534,0.724039,-0.671884,0.659612,-0.717903,0.655010,-0.662680
3.4176,0.020083,0.004192,-0.253066,0.253066,0.0000,0.0000,0.0000,0.002289,-0.236233,0.236233,2.5384,0.9397,-0.3409,0.001534,0.724039,-0.671884,0.659612,-0.717903,0.655010,-0.662680
3.4376,0.020093,0.004157,-0.256792,0.256792,0.0000,0.0000,0.0000,0.002289,-0.237767,0.239301,2.5384,0.9397,-0.3409,0.001534,0.724039,-0.671884,0.659612,-0.717903,0.655010,-0.662680
3.4577,0.020081,0.004122,-0.259494,0.259494,0.0000,0.0000,0.0000,0.002289,-0.248505,0.243903,2.5384,0.9397,-0.3409,0.001534,0.724039,-0.671884,0.659612,-0.717903,0.655010,-0.662680
3.4778,0.020083,0.004086,-0.261164,0.261164,0.0000,0.0000,0.0000,0.002280,-0.254641,0.254641,2.4903,0.9522,-0.3975,0.001534,0.722505,-0.671884,0.659612,-0.717903,0.655010,-0.662680
3.4979,0.020076,0.004049,-0.261794,0.261794,0.0000,0.0000,0.0000,0.002281,-0.256175,0.256175,2.4953,0.9509,-0.3916,0.001534,0.722505,-0.671884,0.659612,-0.717903,0.655010,-0.662680
3.5180,0.020105,0.004012,-0.261381,0.261381,0.0000,0.0000,0.0000,0.002272,-0.259243,0.254641,2.4468,0.9641,-0.4494,0.001534,0.720971,-0.671884,0.659612,-0.717903,0.655010,-0.662680
3.5381,0.020088,0.003974,-0.259928,0.259928,0.0000,0.0000,0.0000,0.002272,-0.263845,0.262311,2.4167,1.0235,-0.5565,0.001534,0.719437,-0.671884,0.659612,-0.719437,0.655010,-0.662680
3.5582,0.020083,0.003935,-0.257441,0.257441,0.0000,0.0000,0.0000,0.002263,-0.262311,0.262311,2.4069,0.9697,-0.4894,0.001534,0.719437,-0.671884,0.659612,-0.717903,0.655010,-0.662680
3.5783,0.020092,0.003896,-0.253928,0.253928,0.0000,0.0000,0.0000,0.002255,-0.260777,0.259243,2.3598,0.9884,-0.5536,0.001534,0.717903,-0.671884,0.659612,-0.717903,0.655010,-0.662680
3.5983,0.020084,0.003856,-0.249405,0.249405,0.0000,0.0000,0.0000,0.002246,-0.262311,0.260777,2.3166,0.9997,-0.6040,0.001534,0.716369,-0.671884,0.659612,-0.717903,0.655010,-0.662680
3.6184,0.020070,0.003815,-0.243894,0.243894,0.0000,0.0000,0.0000,0.002247,-0.260777,0.259243,2.3211,0.9986,-0.5987,0.001534,0.716369,-0.671884,0.659612,-0.717903,0.655010,-0.662680
3.6385,0.020078,0.003774,-0.237411,0.237411,0.0000,0.0000,0.0000,0.002247,-0.257709,0.256175,2.3211,0.9986,-0.5987,0.001534,0.716369,-0.671884,0.659612,-0.717903,0.655010,-0.662680
3.6586,0.020076,0.003733,-0.229984,0.229984,0.0000,0.0000,0.0000,0.002238,-0.256175,0.254641,2.2725,1.0120,-0.6564,0.001534,0.714835,-0.671884,0.659612,-0.717903,0.655010,-0.662680
3.6786,0.020086,0.003690,-0.221639,0.221639,0.0000,0.0000,0.0000,0.002229,-0.256175,0.254641,2.2293,1.0239,-0.7074,0.001534,0.713301,-0.671884,0.659612,-0.717903,0.655010,-0.662680
3.6987,0.020076,0.003648,-0.212415,0.212415,0.0000,0.0000,0.0000,0.002220,-0.256175,0.253107,2.1856,1.0361,-0.7592,0.001534,0.711767,-0.671884,0.659612,-0.717903,0.655010,-0.662680
3.7188,0.020076,0.003604,-0.202347,0.202347,0.0000,0.0000,0.0000,0.002221,-0.253107,0.246971,2.1902,1.0349,-0.7538,0.001534,0.711767,-0.671884,0.659612,-0.717903,0.655010,-0.662680
3.7391,0.020332,0.003560,-0.191331,0.191331,0.0000,0.0000,0.0000,0.002202,-0.240835,0.240835,2.1287,1.0008,-0.7554,0.001534,0.710233,-0.671884,0.659612,-0.716369,0.655010,-0.662680
3.7592,0.020078,0.003515,-0.179687,0.179687,0.0000,0.0000,0.0000,0.002185,-0.227029,0.230097,2.0741,0.9702,-0.7562,0.001534,0.708699,-0.671884,0.659612,-0.714835,0.655010,-0.662680
3.7793,0.020086,0.003470,-0.167323,0.167323,0.0000,0.0000,0.0000,0.002177,-0.211689,0.220893,2.0671,0.9257,-0.7002,0.001534,0.708699,-0.671884,0.659612,-0.713301,0.655010,-0.662680
3.7994,0.020078,0.003424,-0.154298,0.154298,0.0000,0.0000,0.0000,0.002168,-0.197884,0.210155,2.0196,0.9439,-0.7630,0.001534,0.707165,-0.671884,0.659612,-0.713301,0.655010,-0.662680
3.8194,0.020075,0.003378,-0.140661,0.140661,0.0000,0.0000,0.0000,0.002159,-0.187146,0.197884,1.9762,0.9557,-0.8133,0.001534,0.705631,-0.671884,0.659612,-0.713301,0.655010,-0.662680
3.8395,0.020080,0.003331,-0.126462,0.126462,0.0000,0.0000,0.0000,0.002151,-0.176408,0.184078,1.9682,0.9067,-0.7521,0.001534,0.705631,-0.671884,0.659612,-0.711767,0.655010,-0.662680
3.8596,0.020079,0.003284,-0.111760,0.111760,0.0000,0.0000,0.0000,0.002132,-0.164136,0.170272,1.9082,0.8778,-0.7594,0.001534,0.704097,-0.671884,0.659612,-0.710233,0.655010,-0.662680
3.8798,0.020206,0.003236,-0.096517,0.096517,0.0000,0.0000,0.0000,0.002124,-0.150330,0.156466,1.9020,0.8329,-0.7028,0.001534,0.704097,-0.671884,0.659612,-0.708699,0.655010,-0.662680
3.8999,0.020081,0.003187,-0.080983,0.080983,0.0000,0.0000,0.0000,0.002105,-0.138058,0.141126,1.8419,0.8035,-0.7096,0.001534,0.702563,-0.671884,0.659612,-0.707165,0.655010,-0.662680
3.9200,0.020084,0.003139,-0.065124,0.065124,0.0000,0.0000,0.0000,0.002097,-0.124252,0.122718,1.7999,0.8204,-0.7656,0.001534,0.701029,-0.671884,0.659612,-0.707165,0.655010,-0.662680
3.9401,0.020085,0.003089,-0.049005,0.049005,0.0000,0.0000,0.0000,0.002068,-0.110447,0.105845,1.6952,0.7987,-0.8172,0.001534,0.697961,-0.671884,0.659612,-0.705631,0.655010,-0.662680
3.9601,0.020081,0.003039,-0.032694,0.032694,0.0000,0.0000,0.0000,0.002050,-0.092039,0.090505,1.6454,0.7671,-0.8126,0.001534,0.696427,-0.671884,0.659612,-0.704097,0.655010,-0.662680
3.9804,0.020229,0.002989,-0.016131,0.016131,0.0000,0.0000,0.0000,0.002052,-0.076699,0.078233,1.6506,0.7704,-0.8131,0.001534,0.696427,-0.671884,0.659612,-0.704097,0.655010,-0.662680
4.0004,0.020075,0.002938,0.000369,-0.000369,0.0000,0.0000,0.0000,0.002042,-0.058291,0.059825,1.6379,0.7220,-0.7572,0.001534,0.696427,-0.671884,0.659612,-0.702563,0.655010,-0.662680
4.0205,0.020089,0.002886,0.016881,-0.016881,0.0000,0.0000,0.0000,0.002033,-0.042951,0.047553,1.6270,0.6789,-0.7072,0.001534,0.696427,-0.671884,0.659612,-0.701029,0.655010,-0.662680
4.0407,0.020176,0.002834,0.033396,-0.033396,0.0000,0.0000,0.0000,0.002013,-0.027612,0.030680,1.5677,0.6495,-0.7131,0.001534,0.694893,-0.671884,0.659612,-0.699495,0.655010,-0.662680
4.0608,0.020078,0.002782,0.049697,-0.049697,0.0000,0.0000,0.0000,0.001984,-0.007670,0.010738,1.4651,0.6329,-0.7696,0.001534,0.691825,-0.671884,0.659612,-0.697961,0.655010,-0.662680
4.0809,0.020094,0.002730,0.065814,-0.065814,0.0000,0.0000,0.0000,0.001987,0.007670,-0.001534,1.4757,0.6347,-0.7637,0.001534,0.691825,-0.671884,0.659612,-0.697961,0.655010,-0.662680
4.1010,0.020080,0.002677,0.081657,-0.081657,0.0000,0.0000,0.0000,0.001966,0.023010,-0.019942,1.4142,0.6006,-0.7650,0.001534,0.690291,-0.671884,0.659612,-0.696427,0.655010,-0.662680
4.1210,0.020080,0.002623,0.097176,-0.097176,0.0000,0.0000,0.0000,0.001936,0.039884,-0.036816,1.3484,0.5220,-0.7096,0.001534,0.688757,-0.671884,0.659612,-0.693359,0.655010,-0.662680
4.1411,0.020093,0.002569,0.112317,-0.112317,0.0000,0.0000,0.0000,0.001928,0.059825,-0.055223,1.3068,0.5447,-0.7717,0.001534,0.687223,-0.671884,0.659612,-0.693359,0.655010,-0.662680
4.1612,0.020082,0.002515,0.127003,-0.127003,0.0000,0.0000,0.0000,0.001919,0.075165,-0.070563,1.2993,0.4940,-0.7095,0.001534,0.687223,-0.671884,0.659612,-0.691825,0.655010,-0.662680
4.1813,0.020087,0.002460,0.141187,-0.141187,0.0000,0.0000,0.0000,0.001920,0.085903,-0.084369,1.3001,0.4993,-0.7160,0.001534,0.687223,-0.671884,0.659612,-0.691825,0.655010,-0.662680
4.2014,0.020099,0.002405,0.154817,-0.154817,0.0000,0.0000,0.0000,0.001887,0.101243,-0.099709,1.1914,0.4796,-0.7720,0.001534,0.684155,-0.671884,0.659612,-0.690291,0.655010,-0.662680
4.2216,0.020148,0.002349,0.167862,-0.167862,0.0000,0.0000,0.0000,0.001836,0.138058,-0.128854,1.0338,0.4291,-0.8232,0.001534,0.679553,-0.671884,0.659612,-0.687223,0.655010,-0.662680
4.2417,0.020103,0.002293,0.180206,-0.180206,0.0000,0.0000,0.0000,0.001841,0.138058,-0.128854,1.0502,0.4344,-0.8179,0.001534,0.679553,-0.671884,0.659612,-0.687223,0.655010,-0.662680
4.2619,0.020194,0.002237,0.191884,-0.191884,0.0000,0.0000,0.0000,0.001830,0.154932,-0.141126,1.0369,0.3852,-0.7627,0.001534,0.679553,-0.671884,0.659612,-0.685689,0.655010,-0.662680
4.2819,0.020083,0.002180,0.202731,-0.202731,0.0000,0.0000,0.0000,0.001820,0.161068,-0.173340,1.0267,0.3417,-0.7127,0.001534,0.679553,-0.671884,0.659612,-0.684155,0.655010,-0.662680
4.3044,0.022492,0.002116,0.213921,-0.213921,0.0000,0.0000,0.0000,0.001776,0.174874,-0.187146,0.9078,0.2788,-0.7186,0.001534,0.676486,-0.671884,0.659612,-0.681087,0.655010,-0.662680
4.3245,0.020076,0.002059,0.223007,-0.223007,0.0000,0.0000,0.0000,0.001747,0.197884,-0.200951,0.8117,0.2669,-0.7742,0.001534,0.673418,-0.671884,0.659612,-0.679553,0.655010,-0.662680
4.3446,0.020080,0.002001,0.231209,-0.231209,0.0000,0.0000,0.0000,0.001738,0.219359,-0.211689,0.7731,0.2834,-0.8244,0.001534,0.671884,-0.671884,0.659612,-0.679553,0.655010,-0.662680
4.3647,0.020075,0.001943,0.238489,-0.238489,0.0000,0.0000,0.0000,0.001728,0.220893,-0.217825,0.7658,0.2328,-0.7634,0.001534,0.671884,-0.671884,0.659612,-0.678020,0.655010,-0.662680
4.3847,0.020043,0.001885,0.244812,-0.244812,0.0000,0.0000,0.0000,0.001706,0.214757,-0.225495,0.7066,0.2045,-0.7699,0.001534,0.670350,-0.671884,0.659612,-0.676486,0.655010,-0.662680
4.4048,0.020074,0.001827,0.250172,-0.250172,0.0000,0.0000,0.0000,0.001674,0.227029,-0.236233,0.6418,0.1250,-0.7138,0.001534,0.668816,-0.671884,0.659612,-0.673418,0.655010,-0.662680
4.4249,0.020076,0.001768,0.254537,-0.254537,0.0000,0.0000,0.0000,0.001653,0.246971,-0.243903,0.6003,0.1184,-0.6079,0.001534,0.668816,-0.670350,0.659612,-0.671884,0.655010,-0.662680
4.4451,0.020226,0.001708,0.257912,-0.257912,0.0000,0.0000,0.0000,0.001644,0.251573,-0.245437,0.5560,0.1345,-0.6747,0.001534,0.667282,-0.670350,0.659612,-0.671884,0.655010,-0.662680
4.4652,0.020075,0.001649,0.260232,-0.260232,0.0000,0.0000,0.0000,0.001621,0.246971,-0.251573,0.4863,0.2013,-0.5559,0.001534,0.667282,-0.667282,0.659612,-0.671884,0.655010,-0.662680
4.4852,0.020077,0.001589,0.261518,-0.261518,0.0000,0.0000,0.0000,0.001564,0.253107,-0.260777,0.3585,0.2907,-0.6240,0.001534,0.662680,-0.665748,0.659612,-0.671884,0.655010,-0.661146
4.5053,0.020074,0.001529,0.261763,-0.261763,0.0000,0.0000,0.0000,0.001510,0.263845,-0.260777,0.3118,0.2485,-0.4497,0.001534,0.661146,-0.664214,0.659612,-0.668816,0.655010,-0.659612
4.5254,0.020076,0.001469,0.260968,-0.260968,0.0000,0.0000,0.0000,0.001469,0.263845,-0.259243,0.3055,0.2039,-0.2452,0.001534,0.661146,-0.662680,0.659612,-0.665748,0.655010,-0.658078
4.5455,0.020078,0.001409,0.259134,-0.259134,0.0000,0.0000,0.0000,0.001461,0.256175,-0.262311,0.3546,0.2242,-0.2108,0.001534,0.661146,-0.662680,0.659612,-0.665748,0.655010,-0.656544
4.5655,0.020075,0.001348,0.256271,-0.256271,0.0000,0.0000,0.0000,0.001402,0.260777,-0.262311,0.3494,0.2537,-0.0475,0.001534,0.659612,-0.661146,0.659612,-0.664214,0.655010,-0.653476
4.5856,0.020073,0.001287,0.252389,-0.252389,0.0000,0.0000,0.0000,0.001348,0.263845,-0.262311,0.1666,0.3006,-0.0091,0.001534,0.656544,-0.658078,0.659612,-0.662680,0.655010,-0.653476
4.6058,0.020165,0.001226,0.247479,-0.247479,0.0000,0.0000,0.0000,0.001270,0.259243,-0.260777,0.0614,0.3116,0.0422,0.001534,0.653476,-0.655010,0.658078,-0.661146,0.655010,-0.651942
4.6259,0.020083,0.001165,0.241601,-0.241601,0.0000,0.0000,0.0000,0.001193,0.254641,-0.254641,0.0073,0.2610,0.0921,0.001534,0.651942,-0.651942,0.655010,-0.659612,0.655010,-0.650408
4.6460,0.020096,0.001103,0.234758,-0.234758,0.0000,0.0000,0.0000,0.001177,0.251573,-0.253107,0.0129,0.1666,0.0870,0.001534,0.651942,-0.651942,0.653476,-0.658078,0.655010,-0.650408
4.6660,0.020074,0.001042,0.226989,-0.226989,0.0000,0.0000,0.0000,0.001118,0.250039,-0.250039,0.0124,0.2081,0.2538,0.001534,0.650408,-0.650408,0.653476,-0.656544,0.655010,-0.647340
4.6861,0.020083,0.000980,0.218313,-0.218313,0.0000,0.0000,0.0000,0.001112,0.248505,-0.243903,0.0612,0.2197,0.2918,0.001534,0.650408,-0.650408,0.653476,-0.656544,0.655010,-0.645806
4.7062,0.020086,0.000918,0.208766,-0.208766,0.0000,0.0000,0.0000,0.001065,0.242369,-0.237767,0.1318,0.1871,0.1771,0.001534,0.650408,-0.650408,0.651942,-0.655010,0.651942,-0.645806
4.7263,0.020085,0.000856,0.198390,-0.198390,0.0000,0.0000,0.0000,0.000997,0.231631,-0.231631,0.1730,0.1062,0.0782,0.001534,0.648874,-0.650408,0.648874,-0.653476,0.650408,-0.644272
4.7464,0.020078,0.000793,0.187227,-0.187227,0.0000,0.0000,0.0000,0.000919,0.219359,-0.225495,0.0332,0.1115,0.0332,0.001534,0.644272,-0.648874,0.647340,-0.651942,0.650408,-0.642738
4.7664,0.020086,0.000731,0.175315,-0.175315,0.0000,0.0000,0.0000,0.000856,0.208621,-0.217825,-0.0116,0.2142,0.0379,0.001534,0.642738,-0.645806,0.647340,-0.650408,0.647340,-0.642738
4.7865,0.020080,0.000669,0.162709,-0.162709,0.0000,0.0000,0.0000,0.000802,0.200951,-0.204019,0.0419,0.1880,0.0927,0.001534,0.642738,-0.644272,0.645806,-0.648874,0.645806,-0.641204
4.8066,0.020085,0.000606,0.149453,-0.149453,0.0000,0.0000,0.0000,0.000722,0.190214,-0.191748,0.1554,0.1227,0.2525,0.001534,0.642738,-0.642738,0.642738,-0.647340,0.645806,-0.636602
4.8267,0.020089,0.000543,0.135598,-0.135598,0.0000,0.0000,0.0000,0.000669,0.177942,-0.181010,0.1817,0.0952,0.1806,0.001534,0.641204,-0.642738,0.641204,-0.645806,0.644272,-0.635068
4.8468,0.020077,0.000481,0.121213,-0.121213,0.0000,0.0000,0.0000,0.000591,0.161068,-0.173340,0.0597,0.1978,0.0228,0.001534,0.636602,-0.641204,0.641204,-0.644272,0.641204,-0.635068
4.8669,0.020079,0.000418,0.106344,-0.106344,0.0000,0.0000,0.0000,0.000514,0.147262,-0.161068,0.0236,0.2404,-0.0158,0.001534,0.635068,-0.638136,0.639670,-0.642738,0.638136,-0.635068
4.8869,0.020089,0.000355,0.091044,-0.091044,0.0000,0.0000,0.0000,0.000473,0.136524,-0.147262,0.0977,0.2521,0.0104,0.000000,0.635068,-0.636602,0.638136,-0.642738,0.638136,-0.632000
4.9070,0.020086,0.000292,0.075385,-0.075385,0.0000,0.0000,0.0000,0.000392,0.124252,-0.131922,0.1983,0.0320,0.0534,0.000000,0.635068,-0.636602,0.633534,-0.639670,0.638136,-0.628932
4.9271,0.020086,0.000229,0.059425,-0.059425,0.0000,0.0000,0.0000,0.000315,0.110447,-0.118117,0.1112,-0.0142,-0.0060,0.000000,0.632000,-0.635068,0.630466,-0.638136,0.638136,-0.627398
4.9472,0.020080,0.000166,0.043233,-0.043233,0.0000,0.0000,0.0000,0.000263,0.093573,-0.101243,-0.0477,0.1440,0.0332,0.001534,0.628932,-0.632000,0.632000,-0.636602,0.635068,-0.628932
4.9673,0.020089,0.000103,0.026862,-0.026862,0.0000,0.0000,0.0000,0.000183,0.078233,-0.084369,0.0455,0.2285,0.0932,0.001534,0.627398,-0.630466,0.632000,-0.635068,0.632000,-0.625864
4.9874,0.020078,0.000040,0.010393,-0.010393,0.0000,0.0000,0.0000,0.000130,0.061359,-0.062893,0.1932,0.1855,0.0320,0.001534,0.627398,-0.630466,0.628932,-0.635068,0.630466,-0.622796
5.0074,0.020085,-0.000023,-0.006123,0.006123,0.0000,0.0000,0.0000,0.000075,0.044485,-0.044485,0.1781,0.0898,0.1150,0.000000,0.627398,-0.628932,0.627398,-0.632000,0.630466,-0.621262
5.0275,0.020086,-0.000086,-0.022616,0.022616,0.0000,0.0000,0.0000,-0.000004,0.026078,-0.029146,-0.0163,0.2002,0.0424,0.000000,0.622796,-0.625864,0.627398,-0.630466,0.628932,-0.621262
5.0476,0.020081,-0.000150,-0.039014,0.039014,0.0000,0.0000,0.0000,-0.000045,0.007670,-0.010738,-0.0070,0.1383,0.0284,0.001534,0.621262,-0.625864,0.625864,-0.628932,0.627398,-0.621262
5.0680,0.020366,-0.000213,-0.055487,0.055487,0.0000,0.0000,0.0000,-0.000089,-0.006136,0.009204,0.0517,0.1793,0.0389,0.001534,0.621262,-0.624330,0.624330,-0.628932,0.625864,-0.619728
5.0881,0.020081,-0.000277,-0.071507,0.071507,0.0000,0.0000,0.0000,-0.000110,-0.023010,0.026078,0.1052,0.1407,0.0378,0.001534,0.621262,-0.624330,0.622796,-0.628932,0.625864,-0.618194
5.1082,0.020092,-0.000340,-0.087250,0.087250,0.0000,0.0000,0.0000,-0.000180,-0.038350,0.039884,0.1663,0.1636,0.0596,0.000000,0.621262,-0.622796,0.622796,-0.625864,0.622796,-0.616660
5.1282,0.020080,-0.000402,-0.102637,0.102637,0.0000,0.0000,0.0000,-0.000271,-0.058291,0.056757,0.0724,0.2118,0.0481,0.000000,0.618194,-0.619728,0.621262,-0.624330,0.621262,-0.615126
5.1483,0.020116,-0.000465,-0.117643,0.117643,0.0000,0.0000,0.0000,-0.000310,-0.078233,0.072097,0.0821,0.1379,0.0492,0.000000,0.616660,-0.619728,0.619728,-0.622796,0.621262,-0.613592
5.1685,0.020127,-0.000528,-0.132186,0.132186,0.0000,0.0000,0.0000,-0.000367,-0.090505,0.085903,0.0535,0.1301,0.3007,0.001534,0.616660,-0.616660,0.618194,-0.621262,0.621262,-0.612058
5.1886,0.020074,-0.000591,-0.146166,0.146166,0.0000,0.0000,0.0000,-0.000472,-0.105845,0.104311,0.1438,0.1123,0.0319,0.000000,0.613592,-0.616660,0.615126,-0.619728,0.618194,-0.608990
5.2090,0.020451,-0.000655,-0.159809,0.159809,0.0000,0.0000,0.0000,-0.000547,-0.115049,0.118117,0.2220,0.2337,-0.1127,0.000000,0.612058,-0.615126,0.613592,-0.619728,0.613592,-0.607456
5.2291,0.020083,-0.000717,-0.172565,0.172565,0.0000,0.0000,0.0000,-0.000563,-0.131922,0.133456,0.1650,0.2053,0.0114,0.000000,0.612058,-0.613592,0.613592,-0.618194,0.613592,-0.607456
5.2492,0.020081,-0.000780,-0.184634,0.184634,0.0000,0.0000,0.0000,-0.000647,-0.151864,0.147262,0.0127,0.0724,0.0530,0.000000,0.608990,-0.612058,0.612058,-0.613592,0.613592,-0.607456
5.2701,0.020895,-0.000844,-0.196411,0.196411,0.0000,0.0000,0.0000,-0.000737,-0.167204,0.161068,0.0285,0.1186,0.0486,0.000000,0.605922,-0.610524,0.610524,-0.612058,0.612058,-0.604388
5.2901,0.020076,-0.000906,-0.206931,0.206931,0.0000,0.0000,0.0000,-0.000801,-0.173340,0.173340,0.1855,0.2180,0.1577,0.000000,0.607456,-0.607456,0.608990,-0.612058,0.608990,-0.601320
5.3102,0.020088,-0.000968,-0.216633,0.216633,0.0000,0.0000,0.0000,-0.000856,-0.185612,0.184078,0.1797,0.2587,0.0918,0.000000,0.605922,-0.605922,0.607456,-0.612058,0.607456,-0.599786
5.3303,0.020079,-0.001030,-0.225469,0.225469,0.0000,0.0000,0.0000,-0.000911,-0.204019,0.194816,0.0710,0.1342,0.0443,0.000000,0.602854,-0.605922,0.605922,-0.608990,0.607456,-0.599786
5.3504,0.020104,-0.001092,-0.233417,0.233417,0.0000,0.0000,0.0000,-0.000992,-0.208621,0.208621,-0.0270,0.0963,-0.0049,0.000000,0.599786,-0.604388,0.604388,-0.605922,0.605922,-0.599786
5.3706,0.020144,-0.001154,-0.240447,0.240447,0.0000,0.0000,0.0000,-0.001069,-0.208621,0.217825,0.0817,0.2021,-0.0540,0.000000,0.598253,-0.602854,0.602854,-0.605922,0.602854,-0.596719
5.3906,0.020079,-0.001215,-0.246497,0.246497,0.0000,0.0000,0.0000,-0.001098,-0.217825,0.225495,0.1800,0.2097,0.0053,0.000000,0.599786,-0.601320,0.601320,-0.605922,0.601320,-0.595185
5.4108,0.020198,-0.001276,-0.251593,0.251593,0.0000,0.0000,0.0000,-0.001182,-0.237767,0.234699,0.1027,0.1585,0.0531,0.000000,0.598253,-0.598253,0.598253,-0.604388,0.601320,-0.593651
5.4309,0.020094,-0.001337,-0.255659,0.255659,0.0000,0.0000,0.0000,-0.001198,-0.246971,0.239301,-0.0583,0.1107,0.2445,0.001534,0.595185,-0.598253,0.599786,-0.601320,0.602854,-0.593651
5.4510,0.020079,-0.001398,-0.258704,0.258704,0.0000,0.0000,0.0000,-0.001233,-0.242369,0.243903,0.0571,0.1158,0.1794,0.001534,0.595185,-0.598253,0.598253,-0.601320,0.601320,-0.592117
5.4711,0.020085,-0.001458,-0.260720,0.260720,0.0000,0.0000,0.0000,-0.001315,-0.242369,0.254641,0.1330,0.2353,-0.0640,0.000000,0.593651,-0.596719,0.596719,-0.601320,0.596719,-0.590583
5.4912,0.020075,-0.001519,-0.261698,0.261698,0.0000,0.0000,0.0000,-0.001418,-0.254641,0.256175,0.2240,0.2230,-0.1017,0.000000,0.592117,-0.595185,0.593651,-0.599786,0.593651,-0.587515
5.5114,0.020254,-0.001579,-0.261631,0.261631,0.0000,0.0000,0.0000,-0.001456,-0.263845,0.256175,0.1053,0.1737,0.0102,0.000000,0.590583,-0.593651,0.593651,-0.596719,0.593651,-0.587515
5.5315,0.020077,-0.001639,-0.260519,0.260519,0.0000,0.0000,0.0000,-0.001527,-0.260777,0.259243,0.0292,0.1605,-0.0014,0.000000,0.587515,-0.592117,0.592117,-0.595185,0.593651,-0.585981
5.5516,0.020077,-0.001698,-0.258371,0.258371,0.0000,0.0000,0.0000,-0.001557,-0.259243,0.259243,0.0375,0.1622,0.1616,0.000000,0.587515,-0.590583,0.592117,-0.593651,0.593651,-0.584447
5.5719,0.020352,-0.001758,-0.255145,0.255145,0.0000,0.0000,0.0000,-0.001653,-0.266913,0.259243,0.0181,0.1273,0.0168,0.001534,0.584447,-0.589049,0.587515,-0.593651,0.592117,-0.582913
5.5920,0.020079,-0.001817,-0.250941,0.250941,0.0000,0.0000,0.0000,-0.001741,-0.266913,0.259243,0.0772,0.2004,0.0411,0.001534,0.582913,-0.587515,0.587515,-0.590583,0.587515,-0.581379
5.6123,0.020342,-0.001877,-0.245663,0.245663,0.0000,0.0000,0.0000,-0.001831,-0.260777,0.257709,-0.0175,0.2441,-0.0493,0.000000,0.579845,-0.584447,0.585981,-0.589049,0.585981,-0.579845
5.6324,0.020077,-0.001935,-0.239471,0.239471,0.0000,0.0000,0.0000,-0.001920,-0.257709,0.256175,-0.0392,0.2910,-0.0488,0.000000,0.576777,-0.582913,0.585981,-0.585981,0.582913,-0.578311
5.6525,0.020083,-0.001993,-0.232324,0.232324,0.0000,0.0000,0.0000,-0.001924,-0.256175,0.256175,-0.0474,0.2350,0.0049,0.000000,0.576777,-0.582913,0.585981,-0.584447,0.582913,-0.578311
5.6726,0.020077,-0.002051,-0.224255,0.224255,0.0000,0.0000,0.0000,-0.001923,-0.256175,0.254641,-0.0644,0.1732,0.1945,0.001534,0.578311,-0.581379,0.584447,-0.584447,0.584447,-0.578311
5.6927,0.020157,-0.002108,-0.215256,0.215256,0.0000,0.0000,0.0000,-0.001998,-0.254641,0.253107,-0.0519,0.1616,0.2033,0.000000,0.576777,-0.579845,0.582913,-0.582913,0.584447,-0.575243
5.7134,0.020644,-0.002167,-0.205146,0.205146,0.0000,0.0000,0.0000,-0.002052,-0.251573,0.253107,0.0172,0.1468,0.1394,0.000000,0.576777,-0.578311,0.579845,-0.582913,0.582913,-0.573709
5.7335,0.020076,-0.002224,-0.194487,0.194487,0.0000,0.0000,0.0000,-0.002096,-0.242369,0.246971,-0.0393,0.1649,0.2532,0.000000,0.575243,-0.576777,0.579845,-0.581379,0.582913,-0.572175
5.7535,0.020082,-0.002280,-0.183051,0.183051,0.0000,0.0000,0.0000,-0.002216,-0.228563,0.237767,-0.1249,0.1791,0.2413,0.000000,0.570641,-0.575243,0.579845,-0.576777,0.579845,-0.570641
5.7746,0.021024,-0.002338,-0.170299,0.170299,0.0000,0.0000,0.0000,-0.002302,-0.213223,0.225495,-0.0668,0.1615,0.1352,0.000000,0.569107,-0.573709,0.576777,-0.575243,0.576777,-0.569107
5.7946,0.020077,-0.002394,-0.157427,0.157427,0.0000,0.0000,0.0000,-0.002281,-0.199418,0.216291,-0.0231,0.1467,0.1998,0.000000,0.570641,-0.573709,0.576777,-0.575243,0.576777,-0.569107
5.8147,0.020077,-0.002449,-0.143929,0.143929,0.0000,0.0000,0.0000,-0.002308,-0.188680,0.202485,-0.0565,0.1319,0.1929,0.000000,0.570641,-0.572175,0.575243,-0.575243,0.576777,-0.569107
5.8348,0.020083,-0.002504,-0.129855,0.129855,0.0000,0.0000,0.0000,-0.002380,-0.177942,0.188680,0.0071,0.2016,0.1934,0.000000,0.569107,-0.570641,0.573709,-0.575243,0.575243,-0.566039
5.8549,0.020078,-0.002558,-0.115267,0.115267,0.0000,0.0000,0.0000,-0.002459,-0.165670,0.174874,-0.0388,0.2294,0.2465,0.000000,0.567573,-0.567573,0.572175,-0.573709,0.573709,-0.564505
5.8750,0.020090,-0.002612,-0.100212,0.100212,0.0000,0.0000,0.0000,-0.002563,-0.153398,0.159534,-0.1044,0.1403,0.2943,0.000000,0.564505,-0.566039,0.570641,-0.569107,0.572175,-0.562971
5.8950,0.020079,-0.002666,-0.084766,0.084766,0.0000,0.0000,0.0000,-0.002602,-0.139592,0.144194,-0.0481,0.1663,0.2703,0.001534,0.562971,-0.566039,0.569107,-0.569107,0.570641,-0.561437
5.9151,0.020074,-0.002719,-0.068987,0.068987,0.0000,0.0000,0.0000,-0.002635,-0.125786,0.128854,-0.0148,0.2315,0.1407,0.000000,0.561437,-0.566039,0.569107,-0.569107,0.569107,-0.559903
5.9353,0.020204,-0.002772,-0.052829,0.052829,0.0000,0.0000,0.0000,-0.002644,-0.111981,0.113515,-0.0285,0.1733,0.1984,0.000000,0.561437,-0.566039,0.569107,-0.567573,0.569107,-0.559903
5.9554,0.020101,-0.002824,-0.036542,0.036542,0.0000,0.0000,0.0000,-0.002644,-0.111981,0.113515,-0.0285,0.1733,0.1984,0.000000,0.561437,-0.566039,0.569107,-0.567573,0.569107,-0.559903
5.9755,0.020098,-0.002876,-0.020112,0.020112,0.0000,0.0000,0.0000,-0.002830,-0.079767,0.079767,-0.0748,0.1982,0.1385,0.000000,0.558369,-0.559903,0.562971,-0.566039,0.566039,-0.556835
5.9956,0.020098,-0.002928,-0.003602,0.003602,0.0000,0.0000,0.0000,-0.002848,-0.064427,0.064427,0.0088,0.1957,0.2859,0.001534,0.558369,-0.559903,0.562971,-0.564505,0.564505,-0.555301
6.0172,0.021548,-0.002982,0.014114,-0.014114,0.0000,0.0000,0.0000,-0.002884,-0.049087,0.053689,-0.0209,0.1957,0.1386,0.000000,0.556835,-0.559903,0.562971,-0.562971,0.562971,-0.555301
6.0373,0.020115,-0.003033,0.030595,-0.030595,0.0000,0.0000,0.0000,-0.002892,-0.013806,0.023010,-0.0281,0.1442,0.1980,0.000000,0.555301,-0.558369,0.561437,-0.561437,0.561437,-0.552233
6.0574,0.020093,-0.003083,0.046936,-0.046936,0.0000,0.0000,0.0000,-0.003071,0.001534,0.004602,-0.0524,0.2106,0.1389,0.000000,0.552233,-0.555301,0.558369,-0.559903,0.559903,-0.550699
6.0775,0.020077,-0.003132,0.063077,-0.063077,0.0000,0.0000,0.0000,-0.003097,0.015340,-0.010738,-0.1327,0.2297,0.3034,0.000000,0.552233,-0.552233,0.558369,-0.558369,0.559903,-0.550699
6.0976,0.020120,-0.003181,0.079001,-0.079001,0.0000,0.0000,0.0000,-0.003097,0.015340,-0.010738,-0.1327,0.2297,0.3034,0.000000,0.552233,-0.552233,0.558369,-0.558369,0.559903,-0.550699
6.1177,0.020096,-0.003230,0.094591,-0.094591,0.0000,0.0000,0.0000,-0.003170,0.035282,-0.029146,-0.0746,0.1415,0.2681,0.001534,0.550699,-0.552233,0.555301,-0.556835,0.558369,-0.549165
6.1377,0.020079,-0.003278,0.109791,-0.109791,0.0000,0.0000,0.0000,-0.003162,0.035282,-0.029146,-0.0807,0.1506,0.2809,0.001534,0.550699,-0.552233,0.555301,-0.556835,0.558369,-0.549165
6.1579,0.020150,-0.003325,0.124606,-0.124606,0.0000,0.0000,0.0000,-0.003213,0.069029,-0.064427,-0.0509,0.1663,0.1916,0.000000,0.549165,-0.552233,0.555301,-0.555301,0.556835,-0.547631
6.1780,0.020105,-0.003372,0.138890,-0.138890,0.0000,0.0000,0.0000,-0.003295,0.081301,-0.081301,-0.0253,0.1814,0.0328,0.000000,0.546097,-0.552233,0.553767,-0.553767,0.553767,-0.546097
6.1981,0.020109,-0.003418,0.152623,-0.152623,0.0000,0.0000,0.0000,-0.003349,0.116583,-0.108913,-0.0072,0.2497,0.1020,0.000000,0.546097,-0.547631,0.552233,-0.552233,0.552233,-0.543029
6.2182,0.020115,-0.003464,0.165751,-0.165751,0.0000,0.0000,0.0000,-0.003381,0.116583,-0.108913,-0.0088,0.2428,0.2535,0.000000,0.546097,-0.547631,0.552233,-0.552233,0.552233,-0.543029
6.2383,0.020109,-0.003510,0.178214,-0.178214,0.0000,0.0000,0.0000,-0.003440,0.134990,-0.122718,-0.0480,0.2089,0.3783,0.001534,0.544563,-0.546097,0.550699,-0.550699,0.552233,-0.541495
6.2584,0.020096,-0.003554,0.189959,-0.189959,0.0000,0.0000,0.0000,-0.003522,0.145728,-0.136524,-0.0441,0.0060,0.2160,0.001534,0.543029,-0.546097,0.546097,-0.547631,0.550699,-0.541495
6.2785,0.020097,-0.003598,0.200947,-0.200947,0.0000,0.0000,0.0000,-0.003538,0.154932,-0.150330,-0.0553,0.0785,0.1272,0.001534,0.541495,-0.546097,0.546097,-0.547631,0.549165,-0.541495
6.2986,0.020093,-0.003642,0.211132,-0.211132,0.0000,0.0000,0.0000,-0.003561,0.165670,-0.167204,-0.0045,0.0542,-0.0572,0.000000,0.541495,-0.546097,0.544563,-0.547631,0.547631,-0.541495
6.3187,0.020100,-0.003685,0.220480,-0.220480,0.0000,0.0000,0.0000,-0.003647,0.181010,-0.182544,0.0012,0.1423,0.2166,0.000000,0.539961,-0.543029,0.544563,-0.546097,0.547631,-0.536893
6.3388,0.020104,-0.003727,0.228950,-0.228950,0.0000,0.0000,0.0000,-0.003651,0.196350,-0.194816,-0.0389,0.1682,0.2408,0.000000,0.539961,-0.541495,0.544563,-0.546097,0.547631,-0.536893
6.3589,0.020088,-0.003769,0.236501,-0.236501,0.0000,0.0000,0.0000,-0.003688,0.202485,-0.204019,-0.0742,0.2342,0.3787,0.001534,0.538427,-0.539961,0.544563,-0.546097,0.547631,-0.535359
6.3790,0.020091,-0.003810,0.243112,-0.243112,0.0000,0.0000,0.0000,-0.003772,0.208621,-0.213223,-0.0018,0.1755,0.3207,0.001534,0.536893,-0.539961,0.543029,-0.543029,0.544563,-0.533825
6.3991,0.020091,-0.003851,0.248755,-0.248755,0.0000,0.0000,0.0000,-0.003850,0.222427,-0.223961,-0.0303,0.1478,0.2740,0.001534,0.535359,-0.538427,0.541495,-0.539961,0.541495,-0.533825
6.4192,0.020093,-0.003891,0.253408,-0.253408,0.0000,0.0000,0.0000,-0.003867,0.242369,-0.236233,0.0224,0.1339,0.1735,0.001534,0.535359,-0.538427,0.539961,-0.539961,0.539961,-0.533825
6.4393,0.020103,-0.003930,0.257052,-0.257052,0.0000,0.0000,0.0000,-0.003878,0.246971,-0.246971,-0.0331,0.1521,0.1314,0.001534,0.533825,-0.538427,0.539961,-0.539961,0.539961,-0.533825
6.4594,0.020088,-0.003969,0.259671,-0.259671,0.0000,0.0000,0.0000,-0.003965,0.243903,-0.250039,-0.0459,0.1855,0.3984,0.001534,0.533825,-0.533825,0.538427,-0.538427,0.539961,-0.530757
6.4795,0.020090,-0.004007,0.261255,-0.261255,0.0000,0.0000,0.0000,-0.004006,0.250039,-0.253107,-0.1035,0.2862,0.3701,0.001534,0.532291,-0.530757,0.536893,-0.539961,0.539961,-0.529223
6.4996,0.020082,-0.004044,0.261799,-0.261799,0.0000,0.0000,0.0000,-0.004040,0.262311,-0.259243,-0.0973,0.2761,0.5305,0.001534,0.532291,-0.529223,0.536893,-0.538427,0.539961,-0.527689
6.5196,0.020086,-0.004081,0.261301,-0.261301,0.0000,0.0000,0.0000,-0.004074,0.260777,-0.260777,-0.1078,0.2591,0.5663,0.001534,0.530757,-0.529223,0.536893,-0.536893,0.539961,-0.526155
6.5397,0.020082,-0.004117,0.259764,-0.259764,0.0000,0.0000,0.0000,-0.004120,0.256175,-0.259243,-0.0882,0.2950,0.4575,0.001534,0.529223,-0.529223,0.536893,-0.535359,0.536893,-0.526155
6.5598,0.020085,-0.004153,0.257192,-0.257192,0.0000,0.0000,0.0000,-0.004190,0.262311,-0.262311,0.0387,0.2407,0.2589,0.001534,0.529223,-0.529223,0.533825,-0.533825,0.532291,-0.526155
6.5799,0.020086,-0.004187,0.253597,-0.253597,0.0000,0.0000,0.0000,-0.004233,0.262311,-0.262311,0.0755,0.1258,0.1747,0.001534,0.529223,-0.529223,0.530757,-0.532291,0.530757,-0.526155
