t,loop_dt,cmd_z,cmd_ant_l,cmd_ant_r,cmd_roll,cmd_pitch,cmd_yaw,pres_z,pres_ant_l,pres_ant_r,pres_roll,pres_pitch,pres_yaw,pres_j0,pres_j1,pres_j2,pres_j3,pres_j4,pres_j5,pres_j6
0.0000,0.000001,-0.005000,-1.566194,1.566194,0.0000,0.0000,0.0000,-0.002662,-1.566194,1.566194,1.0978,1.0463,0.1448,0.001534,0.582913,-0.552233,0.556835,-0.595185,0.558369,-0.549165
0.0201,0.020096,-0.004990,-1.566194,1.566194,0.0000,0.0000,0.0000,-0.002676,-1.567728,1.566194,1.1428,1.0837,0.0863,0.001534,0.582913,-0.552233,0.556835,-0.595185,0.556835,-0.549165
0.0402,0.020096,-0.004980,-1.566194,1.566194,0.0000,0.0000,0.0000,-0.002662,-1.566194,1.566194,1.0978,1.0463,0.1448,0.001534,0.582913,-0.552233,0.556835,-0.595185,0.558369,-0.549165
0.0603,0.020094,-0.004970,-1.566194,1.566194,0.0000,0.0000,0.0000,-0.002736,-1.567728,1.566194,1.0035,1.0475,0.0312,0.001534,0.579845,-0.550699,0.555301,-0.593651,0.556835,-0.549165
0.0804,0.020092,-0.004960,-1.566194,1.566194,0.0000,0.0000,0.0000,-0.003335,-1.567728,1.566194,0.9123,0.9812,0.0949,0.001534,0.566039,-0.538427,0.543029,-0.579845,0.546097,-0.536893
0.1005,0.020092,-0.004950,-1.566194,1.566194,0.0000,0.0000,0.0000,-0.004177,-1.567728,1.566194,0.7667,0.9047,0.2449,0.001534,0.544563,-0.521553,0.527689,-0.556835,0.529223,-0.518486
0.1206,0.020091,-0.004940,-1.566194,1.566194,0.0000,0.0000,0.0000,-0.004987,-1.567728,1.566194,0.5386,0.7395,0.2273,0.001534,0.523087,-0.504680,0.510816,-0.533825,0.512350,-0.503146
0.1407,0.020093,-0.004930,-1.566194,1.566194,0.0000,0.0000,0.0000,-0.005502,-1.567728,1.566194,0.2975,0.5475,0.3310,0.001534,0.506214,-0.495476,0.501612,-0.515418,0.503146,-0.492408
0.1608,0.020099,-0.004920,-1.566194,1.566194,0.0000,0.0000,0.0000,-0.005684,-1.567728,1.566194,-0.0610,0.3208,0.2683,0.001534,0.495476,-0.493942,0.500078,-0.503146,0.500078,-0.492408
0.1833,0.022544,-0.004908,-1.566194,1.566194,0.0000,0.0000,0.0000,-0.005691,-1.567728,1.566194,-0.1448,0.3783,0.2748,0.001534,0.492408,-0.493942,0.501612,-0.501612,0.500078,-0.492408
0.2035,0.020164,-0.004898,-1.566194,1.566194,0.0000,0.0000,0.0000,-0.005678,-1.567728,1.566194,-0.0859,0.3552,0.3258,0.001534,0.493942,-0.493942,0.501612,-0.501612,0.500078,-0.492408
0.2235,0.020085,-0.004888,-1.566194,1.566194,0.0000,0.0000,0.0000,-0.005679,-1.567728,1.566194,-0.0717,0.3578,0.2171,0.001534,0.493942,-0.493942,0.500078,-0.503146,0.500078,-0.492408
0.2436,0.020086,-0.004878,-1.566194,1.566194,0.0000,0.0000,0.0000,-0.005692,-1.567728,1.566194,-0.0833,0.3054,0.2802,0.001534,0.493942,-0.493942,0.500078,-0.501612,0.500078,-0.492408
0.2637,0.020092,-0.004868,-1.566194,1.566194,0.0000,0.0000,0.0000,-0.005678,-1.567728,1.566194,-0.0923,0.3629,0.3253,0.001534,0.493942,-0.493942,0.501612,-0.501612,0.500078,-0.492408
0.2838,0.020090,-0.004858,-1.566194,1.566194,0.0000,0.0000,0.0000,-0.005679,-1.567728,1.566194,-0.0710,0.3570,0.2172,0.001534,0.493942,-0.493942,0.500078,-0.503146,0.500078,-0.492408
0.3039,0.020098,-0.004848,-1.566194,1.566194,0.0000,0.0000,0.0000,-0.005679,-1.567728,1.566194,-0.0732,0.3576,0.2284,0.001534,0.493942,-0.493942,0.500078,-0.503146,0.500078,-0.492408
0.3240,0.020091,-0.004838,-1.566194,1.566194,0.0000,0.0000,0.0000,-0.005692,-1.567728,1.566194,-0.0831,0.3054,0.2790,0.001534,0.493942,-0.493942,0.500078,-0.501612,0.500078,-0.492408
0.3441,0.020095,-0.004828,-1.566194,1.566194,0.0000,0.0000,0.0000,-0.005678,-1.569262,1.566194,-0.0923,0.3629,0.3254,0.001534,0.493942,-0.493942,0.501612,-0.501612,0.500078,-0.492408
0.3642,0.020093,-0.004818,-1.566194,1.566194,0.0000,0.0000,0.0000,-0.005679,-1.567728,1.566194,-0.0710,0.3570,0.2172,0.001534,0.493942,-0.493942,0.500078,-0.503146,0.500078,-0.492408
0.3843,0.020093,-0.004808,-1.566194,1.566194,0.0000,0.0000,0.0000,-0.005679,-1.569262,1.566194,-0.0732,0.3576,0.2284,0.001534,0.493942,-0.493942,0.500078,-0.503146,0.500078,-0.492408
0.4044,0.020096,-0.004798,-1.566194,1.566194,0.0000,0.0000,0.0000,-0.005692,-1.569262,1.566194,-0.0831,0.3054,0.2790,0.001534,0.493942,-0.493942,0.500078,-0.501612,0.500078,-0.492408
0.4245,0.020089,-0.004788,-1.566194,1.566194,0.0000,0.0000,0.0000,-0.005691,-1.567728,1.566194,-0.0821,0.3109,0.2737,0.001534,0.493942,-0.493942,0.500078,-0.501612,0.500078,-0.492408
0.4446,0.020097,-0.004778,-1.566194,1.566194,0.0000,0.0000,0.0000,-0.005678,-1.567728,1.566194,-0.0721,0.3624,0.2225,0.001534,0.493942,-0.493942,0.500078,-0.503146,0.500078,-0.492408
0.4647,0.020092,-0.004768,-1.566194,1.566194,0.0000,0.0000,0.0000,-0.005679,-1.567728,1.566194,-0.0731,0.3570,0.1400,0.000000,0.493942,-0.493942,0.500078,-0.503146,0.500078,-0.492408
0.4848,0.020093,-0.004758,-1.566194,1.566194,0.0000,0.0000,0.0000,-0.005692,-1.569262,1.566194,-0.0831,0.3055,0.2791,0.001534,0.493942,-0.493942,0.500078,-0.501612,0.500078,-0.492408
0.5048,0.020097,-0.004748,-1.566194,1.566194,0.0000,0.0000,0.0000,-0.005691,-1.567728,1.566194,-0.0821,0.3109,0.2737,0.001534,0.493942,-0.493942,0.500078,-0.501612,0.500078,-0.492408
0.5249,0.020097,-0.004738,-1.566194,1.566194,0.0000,0.0000,0.0000,-0.005691,-1.569262,1.566194,-0.0821,0.3109,0.2737,0.001534,0.493942,-0.493942,0.500078,-0.501612,0.500078,-0.492408
0.5453,0.020352,-0.004727,-1.566194,1.566194,0.0000,0.0000,0.0000,-0.005691,-1.567728,1.566194,-0.0821,0.3109,0.2737,0.001534,0.493942,-0.493942,0.500078,-0.501612,0.500078,-0.492408
0.5654,0.020080,-0.004717,-1.566194,1.566194,0.0000,0.0000,0.0000,-0.005691,-1.567728,1.566194,-0.0821,0.3109,0.2737,0.001534,0.493942,-0.493942,0.500078,-0.501612,0.500078,-0.492408
0.5855,0.020090,-0.004707,-1.566194,1.566194,0.0000,0.0000,0.0000,-0.005691,-1.567728,1.566194,-0.0821,0.3109,0.2737,0.001534,0.493942,-0.493942,0.500078,-0.501612,0.500078,-0.492408
0.6056,0.020084,-0.004697,-1.566194,1.566194,0.0000,0.0000,0.0000,-0.005691,-1.567728,1.566194,-0.0821,0.3109,0.2737,0.001534,0.493942,-0.493942,0.500078,-0.501612,0.500078,-0.492408
0.6259,0.020400,-0.004687,-1.566194,1.566194,0.0000,0.0000,0.0000,-0.005691,-1.567728,1.566194,-0.0821,0.3109,0.2737,0.001534,0.493942,-0.493942,0.500078,-0.501612,0.500078,-0.492408
0.6460,0.020092,-0.004677,-1.566194,1.566194,0.0000,0.0000,0.0000,-0.005665,-1.567728,1.566194,-0.0823,0.4144,0.2742,0.001534,0.493942,-0.493942,0.501612,-0.503146,0.500078,-0.492408
0.6661,0.020082,-0.004667,-1.566194,1.566194,0.0000,0.0000,0.0000,-0.005693,-1.567728,1.566194,-0.0822,0.2995,0.2742,0.001534,0.493942,-0.493942,0.500078,-0.501612,0.500078,-0.492408
0.6862,0.020089,-0.004657,-1.566194,1.566194,0.0000,0.0000,0.0000,-0.005678,-1.567728,1.566194,-0.0924,0.3635,0.3259,0.001534,0.493942,-0.493942,0.501612,-0.501612,0.500078,-0.492408
0.7063,0.020104,-0.004647,-1.566194,1.566194,0.0000,0.0000,0.0000,-0.005692,-1.567728,1.566194,-0.0811,0.3048,0.2689,0.001534,0.493942,-0.493942,0.500078,-0.501612,0.500078,-0.492408
0.7264,0.020104,-0.004637,-1.566194,1.566194,0.0000,0.0000,0.0000,-0.005691,-1.569262,1.566194,-0.0823,0.3109,0.2748,0.001534,0.493942,-0.493942,0.500078,-0.501612,0.500078,-0.492408
0.7465,0.020094,-0.004627,-1.566194,1.566194,0.0000,0.0000,0.0000,-0.005678,-1.567728,1.566194,-0.0924,0.3623,0.3258,0.001534,0.493942,-0.493942,0.501612,-0.501612,0.500078,-0.492408
0.7666,0.020096,-0.004617,-1.566194,1.566194,0.0000,0.0000,0.0000,-0.005692,-1.567728,1.566194,-0.0811,0.3050,0.2689,0.001534,0.493942,-0.493942,0.500078,-0.501612,0.500078,-0.492408
0.7870,0.020434,-0.004606,-1.566194,1.566194,0.0000,0.0000,0.0000,-0.005678,-1.567728,1.566194,-0.0925,0.3629,0.3264,0.001534,0.493942,-0.493942,0.501612,-0.501612,0.500078,-0.492408
0.8071,0.020088,-0.004596,-1.566194,1.566194,0.0000,0.0000,0.0000,-0.005692,-1.567728,1.566194,-0.0811,0.3049,0.2688,0.001534,0.493942,-0.493942,0.500078,-0.501612,0.500078,-0.492408
0.8273,0.020188,-0.004586,-1.566194,1.566194,0.0000,0.0000,0.0000,-0.005691,-1.567728,1.566194,-0.0823,0.3109,0.2748,0.001534,0.493942,-0.493942,0.500078,-0.501612,0.500078,-0.492408
0.8476,0.020254,-0.004576,-1.566194,1.566194,0.0000,0.0000,0.0000,-0.005691,-1.567728,1.566194,-0.0823,0.3109,0.2748,0.001534,0.493942,-0.493942,0.500078,-0.501612,0.500078,-0.492408
0.8678,0.020229,-0.004566,-1.566194,1.566194,0.0000,0.0000,0.0000,-0.005678,-1.567728,1.566194,-0.0720,0.3624,0.2224,0.001534,0.493942,-0.493942,0.500078,-0.503146,0.500078,-0.492408
0.8879,0.020098,-0.004556,-1.566194,1.566194,0.0000,0.0000,0.0000,-0.005667,-1.569262,1.566194,-0.0833,0.4091,0.2795,0.001534,0.493942,-0.493942,0.501612,-0.503146,0.500078,-0.492408
0.9080,0.020087,-0.004546,-1.566194,1.566194,0.0000,0.0000,0.0000,-0.005693,-1.567728,1.566194,-0.0821,0.3001,0.2737,0.001534,0.493942,-0.493942,0.500078,-0.501612,0.500078,-0.492408
0.9283,0.020346,-0.004536,-1.566194,1.566194,0.0000,0.0000,0.0000,-0.005678,-1.567728,1.566194,-0.0721,0.3636,0.2225,0.001534,0.493942,-0.493942,0.500078,-0.503146,0.500078,-0.492408
0.9487,0.020340,-0.004526,-1.566194,1.566194,0.0000,0.0000,0.0000,-0.005679,-1.569262,1.566194,-0.0731,0.3569,0.2279,0.001534,0.493942,-0.493942,0.500078,-0.503146,0.500078,-0.492408
0.9689,0.020176,-0.004516,-1.566194,1.566194,0.0000,0.0000,0.0000,-0.005692,-1.567728,1.566194,-0.0831,0.3055,0.2791,0.001534,0.493942,-0.493942,0.500078,-0.501612,0.500078,-0.492408
0.9892,0.020396,-0.004505,-1.566194,1.566194,0.0000,0.0000,0.0000,-0.005691,-1.567728,1.566194,-0.0821,0.3109,0.2737,0.001534,0.493942,-0.493942,0.500078,-0.501612,0.500078,-0.492408
1.0093,0.020104,-0.004495,-1.566194,1.566194,0.0000,0.0000,0.0000,-0.005691,-1.567728,1.566194,-0.0821,0.3109,0.2737,0.001534,0.493942,-0.493942,0.500078,-0.501612,0.500078,-0.492408
1.0295,0.020114,-0.004485,-1.566194,1.566194,0.0000,0.0000,0.0000,-0.005691,-1.567728,1.566194,-0.0821,0.3109,0.2737,0.001534,0.493942,-0.493942,0.500078,-0.501612,0.500078,-0.492408
1.0496,0.020114,-0.004475,-1.566194,1.566194,0.0000,0.0000,0.0000,-0.005678,-1.569262,1.566194,-0.0721,0.3624,0.2225,0.001534,0.493942,-0.493942,0.500078,-0.503146,0.500078,-0.492408
1.0698,0.020201,-0.004465,-1.566194,1.566194,0.0000,0.0000,0.0000,-0.005692,-1.567728,1.566194,-0.0833,0.3050,0.2796,0.001534,0.493942,-0.493942,0.500078,-0.501612,0.500078,-0.492408
1.0901,0.020339,-0.004455,-1.566194,1.566194,0.0000,0.0000,0.0000,-0.005678,-1.567728,1.566194,-0.0923,0.3629,0.3253,0.001534,0.493942,-0.493942,0.501612,-0.501612,0.500078,-0.492408
1.1102,0.020091,-0.004445,-1.566194,1.566194,0.0000,0.0000,0.0000,-0.005679,-1.567728,1.566194,-0.0710,0.3570,0.2172,0.001534,0.493942,-0.493942,0.500078,-0.503146,0.500078,-0.492408
1.1304,0.020172,-0.004435,-1.566194,1.566194,0.0000,0.0000,0.0000,-0.005692,-1.567728,1.566194,-0.0834,0.3055,0.2802,0.001534,0.493942,-0.493942,0.500078,-0.501612,0.500078,-0.492408
1.1505,0.020096,-0.004425,-1.566194,1.566194,0.0000,0.0000,0.0000,-0.005691,-1.569262,1.566194,-0.0821,0.3109,0.2736,0.001534,0.493942,-0.493942,0.500078,-0.501612,0.500078,-0.492408
1.1706,0.020091,-0.004415,-1.566194,1.566194,0.0000,0.0000,0.0000,-0.005691,-1.567728,1.566194,-0.0821,0.3109,0.2736,0.001534,0.493942,-0.493942,0.500078,-0.501612,0.500078,-0.492408
1.1909,0.020323,-0.004405,-1.566194,1.566194,0.0000,0.0000,0.0000,-0.005678,-1.569262,1.566194,-0.0721,0.3624,0.2225,0.001534,0.493942,-0.493942,0.500078,-0.503146,0.500078,-0.492408
1.2110,0.020093,-0.004395,-1.566194,1.566194,0.0000,0.0000,0.0000,-0.005667,-1.567728,1.566194,-0.0833,0.4091,0.1916,0.000000,0.493942,-0.493942,0.501612,-0.503146,0.500078,-0.492408
1.2311,0.020094,-0.004384,-1.566194,1.566194,0.0000,0.0000,0.0000,-0.005693,-1.569262,1.566194,-0.0821,0.3001,0.2737,0.001534,0.493942,-0.493942,0.500078,-0.501612,0.500078,-0.492408
1.2512,0.020097,-0.004374,-1.566194,1.566194,0.0000,0.0000,0.0000,-0.005690,-1.567728,1.566194,-0.0822,0.3114,0.2743,0.001534,0.493942,-0.493942,0.500078,-0.501612,0.500078,-0.492408
1.2713,0.020162,-0.004364,-1.566194,1.566194,0.0000,0.0000,0.0000,-0.005678,-1.567728,1.566194,-0.0924,0.3622,0.3259,0.001534,0.493942,-0.493942,0.501612,-0.501612,0.500078,-0.492408
1.2916,0.020271,-0.004354,-1.566194,1.566194,0.0000,0.0000,0.0000,-0.005679,-1.567728,1.566194,-0.0913,0.3569,0.3205,0.001534,0.493942,-0.493942,0.501612,-0.501612,0.500078,-0.492408
1.3117,0.020134,-0.004344,-1.566194,1.566194,0.0000,0.0000,0.0000,-0.005692,-1.567728,1.566194,-0.0812,0.3055,0.2694,0.001534,0.493942,-0.493942,0.500078,-0.501612,0.500078,-0.492408
1.3318,0.020091,-0.004334,-1.566194,1.566194,0.0000,0.0000,0.0000,-0.005678,-1.567728,1.566194,-0.0925,0.3629,0.3264,0.001534,0.493942,-0.493942,0.501612,-0.501612,0.500078,-0.492408
1.3519,0.020100,-0.004324,-1.566194,1.566194,0.0000,0.0000,0.0000,-0.005692,-1.569262,1.566194,-0.0811,0.3049,0.2688,0.001534,0.493942,-0.493942,0.500078,-0.501612,0.500078,-0.492408
1.3723,0.020342,-0.004314,-1.566194,1.566194,0.0000,0.0000,0.0000,-0.005678,-1.567728,1.566194,-0.0722,0.3631,0.2230,0.001534,0.493942,-0.493942,0.500078,-0.503146,0.500078,-0.492408
1.3924,0.020152,-0.004304,-1.566194,1.566194,0.0000,0.0000,0.0000,-0.005692,-1.567728,1.566194,-0.0832,0.3049,0.2796,0.001534,0.493942,-0.493942,0.500078,-0.501612,0.500078,-0.492408
1.4125,0.020091,-0.004294,-1.566194,1.566194,0.0000,0.0000,0.0000,-0.005678,-1.567728,1.566194,-0.0719,0.3631,0.2219,0.001534,0.493942,-0.493942,0.500078,-0.503146,0.500078,-0.492408
1.4328,0.020254,-0.004284,-1.566194,1.566194,0.0000,0.0000,0.0000,-0.005692,-1.569262,1.566194,-0.0833,0.3049,0.2797,0.001534,0.493942,-0.493942,0.500078,-0.501612,0.500078,-0.492408
1.4529,0.020097,-0.004274,-1.566194,1.566194,0.0000,0.0000,0.0000,-0.005678,-1.569262,1.566194,-0.0719,0.3631,0.2219,0.001534,0.493942,-0.493942,0.500078,-0.503146,0.500078,-0.492408
1.4731,0.020194,-0.004263,-1.566194,1.566194,0.0000,0.0000,0.0000,-0.005679,-1.567728,1.566194,-0.0731,0.3570,0.2279,0.001534,0.493942,-0.493942,0.500078,-0.503146,0.500078,-0.492408
1.4934,0.020339,-0.004253,-1.566194,1.566194,0.0000,0.0000,0.0000,-0.005692,-1.567728,1.566194,-0.0831,0.3055,0.2791,0.001534,0.493942,-0.493942,0.500078,-0.501612,0.500078,-0.492408
1.5135,0.020115,-0.004243,-1.566194,1.566194,0.0000,0.0000,0.0000,-0.005678,-1.567728,1.566194,-0.0720,0.3630,0.2220,0.001534,0.493942,-0.493942,0.500078,-0.503146,0.500078,-0.492408
1.5338,0.020281,-0.004233,-1.566194,1.566194,0.0000,0.0000,0.0000,-0.005679,-1.569262,1.566194,-0.0731,0.3570,0.2279,0.001534,0.493942,-0.493942,0.500078,-0.503146,0.500078,-0.492408
1.5539,0.020142,-0.004223,-1.566194,1.566194,0.0000,0.0000,0.0000,-0.005667,-1.569262,1.566194,-0.0832,0.4096,0.2790,0.001534,0.493942,-0.493942,0.501612,-0.503146,0.500078,-0.492408
1.5740,0.020080,-0.004213,-1.566194,1.566194,0.0000,0.0000,0.0000,-0.005668,-1.567728,1.566194,-0.0822,0.4041,0.2736,0.001534,0.493942,-0.493942,0.501612,-0.503146,0.500078,-0.492408
1.5942,0.020209,-0.004203,-1.566194,1.566194,0.0000,0.0000,0.0000,-0.005668,-1.567728,1.566194,-0.0822,0.4041,0.2736,0.001534,0.493942,-0.493942,0.501612,-0.503146,0.500078,-0.492408
1.6143,0.020111,-0.004193,-1.566194,1.566194,0.0000,0.0000,0.0000,-0.005680,-1.567728,1.566194,-0.0720,0.3527,0.2225,0.001534,0.493942,-0.493942,0.500078,-0.503146,0.500078,-0.492408
1.6346,0.020221,-0.004183,-1.566194,1.566194,0.0000,0.0000,0.0000,-0.005679,-1.569262,1.566194,-0.0731,0.3581,0.2279,0.001534,0.493942,-0.493942,0.500078,-0.503146,0.500078,-0.492408
1.6548,0.020251,-0.004173,-1.566194,1.566194,0.0000,0.0000,0.0000,-0.005667,-1.567728,1.566194,-0.0832,0.4095,0.2790,0.001534,0.493942,-0.493942,0.501612,-0.503146,0.500078,-0.492408
1.6749,0.020086,-0.004163,-1.566194,1.566194,0.0000,0.0000,0.0000,-0.005668,-1.567728,1.566194,-0.0822,0.4041,0.2736,0.001534,0.493942,-0.493942,0.501612,-0.503146,0.500078,-0.492408
1.6950,0.020095,-0.004153,-1.566194,1.566194,0.0000,0.0000,0.0000,-0.005680,-1.569262,1.566194,-0.0720,0.3527,0.2225,0.001534,0.493942,-0.493942,0.500078,-0.503146,0.500078,-0.492408
1.7151,0.020116,-0.004142,-1.566194,1.566194,0.0000,0.0000,0.0000,-0.005679,-1.567728,1.566194,-0.0731,0.3581,0.2279,0.001534,0.493942,-0.493942,0.500078,-0.503146,0.500078,-0.492408
1.7352,0.020087,-0.004132,-1.566194,1.566194,0.0000,0.0000,0.0000,-0.005667,-1.569262,1.566194,-0.0832,0.4095,0.2790,0.001534,0.493942,-0.493942,0.501612,-0.503146,0.500078,-0.492408
1.7553,0.020107,-0.004122,-1.566194,1.566194,0.0000,0.0000,0.0000,-0.005681,-1.567728,1.566194,-0.0719,0.3522,0.2220,0.001534,0.493942,-0.493942,0.500078,-0.503146,0.500078,-0.492408
1.7754,0.020089,-0.004112,-1.566194,1.566194,0.0000,0.0000,0.0000,-0.005666,-1.569262,1.566194,-0.0833,0.4101,0.2796,0.001534,0.493942,-0.493942,0.501612,-0.503146,0.500078,-0.492408
1.7955,0.020099,-0.004102,-1.566194,1.566194,0.0000,0.0000,0.0000,-0.005668,-1.567728,1.566194,-0.0821,0.4041,0.2736,0.001534,0.493942,-0.493942,0.501612,-0.503146,0.500078,-0.492408
1.8156,0.020098,-0.004092,-1.566194,1.566194,0.0000,0.0000,0.0000,-0.005680,-1.569262,1.566194,-0.0720,0.3527,0.2226,0.001534,0.493942,-0.493942,0.500078,-0.503146,0.500078,-0.492408
1.8357,0.020094,-0.004082,-1.566194,1.566194,0.0000,0.0000,0.0000,-0.005679,-1.567728,1.566194,-0.0731,0.3581,0.2279,0.001534,0.493942,-0.493942,0.500078,-0.503146,0.500078,-0.492408
1.8558,0.020094,-0.004072,-1.566194,1.566194,0.0000,0.0000,0.0000,-0.005667,-1.567728,1.566194,-0.0832,0.4095,0.2790,0.001534,0.493942,-0.493942,0.501612,-0.503146,0.500078,-0.492408
1.8759,0.020142,-0.004062,-1.566194,1.566194,0.0000,0.0000,0.0000,-0.005668,-1.567728,1.566194,-0.0822,0.4041,0.2736,0.001534,0.493942,-0.493942,0.501612,-0.503146,0.500078,-0.492408
1.8960,0.020100,-0.004052,-1.566194,1.566194,0.0000,0.0000,0.0000,-0.005668,-1.567728,1.566194,-0.0822,0.4041,0.2736,0.001534,0.493942,-0.493942,0.501612,-0.503146,0.500078,-0.492408
1.9161,0.020099,-0.004042,-1.566194,1.566194,0.0000,0.0000,0.0000,-0.005680,-1.569262,1.566194,-0.0720,0.3527,0.2225,0.001534,0.493942,-0.493942,0.500078,-0.503146,0.500078,-0.492408
1.9362,0.020097,-0.004032,-1.566194,1.566194,0.0000,0.0000,0.0000,-0.005666,-1.569262,1.566194,-0.0833,0.4101,0.2795,0.001534,0.493942,-0.493942,0.501612,-0.503146,0.500078,-0.492408
1.9563,0.020113,-0.004022,-1.566194,1.566194,0.0000,0.0000,0.0000,-0.005681,-1.567728,1.566194,-0.0719,0.3521,0.2219,0.001534,0.493942,-0.493942,0.500078,-0.503146,0.500078,-0.492408
1.9764,0.020103,-0.004012,-1.566194,1.566194,0.0000,0.0000,0.0000,-0.005679,-1.567728,1.566194,-0.0731,0.3581,0.2279,0.001534,0.493942,-0.493942,0.500078,-0.503146,0.500078,-0.492408
1.9965,0.020114,-0.004002,-1.566194,1.566194,0.0000,0.0000,0.0000,-0.005667,-1.567728,1.566194,-0.0832,0.4095,0.2790,0.001534,0.493942,-0.493942,0.501612,-0.503146,0.500078,-0.492408
2.0166,0.020098,-0.003992,-1.566194,1.566194,0.0000,0.0000,0.0000,-0.005668,-1.567728,1.566194,-0.0822,0.4041,0.2736,0.001534,0.493942,-0.493942,0.501612,-0.503146,0.500078,-0.492408
2.0367,0.020092,-0.003982,-1.566194,1.566194,0.0000,0.0000,0.0000,-0.005668,-1.569262,1.566194,-0.0822,0.4041,0.2736,0.001534,0.493942,-0.493942,0.501612,-0.503146,0.500078,-0.492408
2.0568,0.020099,-0.003972,-1.566194,1.566194,0.0000,0.0000,0.0000,-0.005668,-1.567728,1.566194,-0.0822,0.4041,0.2736,0.001534,0.493942,-0.493942,0.501612,-0.503146,0.500078,-0.492408
2.0769,0.020096,-0.003962,-1.566194,1.566194,0.0000,0.0000,0.0000,-0.005680,-1.569262,1.566194,-0.0720,0.3527,0.2225,0.001534,0.493942,-0.493942,0.500078,-0.503146,0.500078,-0.492408
2.0970,0.020088,-0.003951,-1.566194,1.566194,0.0000,0.0000,0.0000,-0.005666,-1.567728,1.566194,-0.0833,0.4101,0.2795,0.001534,0.493942,-0.493942,0.501612,-0.503146,0.500078,-0.492408
2.1171,0.020100,-0.003941,-1.566194,1.566194,0.0000,0.0000,0.0000,-0.005681,-1.567728,1.566194,-0.0719,0.3521,0.2219,0.001534,0.493942,-0.493942,0.500078,-0.503146,0.500078,-0.492408
2.1372,0.020097,-0.003931,-1.566194,1.566194,0.0000,0.0000,0.0000,-0.005666,-1.569262,1.566194,-0.0833,0.4101,0.2796,0.001534,0.493942,-0.493942,0.501612,-0.503146,0.500078,-0.492408
2.1573,0.020090,-0.003921,-1.566194,1.566194,0.0000,0.0000,0.0000,-0.005668,-1.569262,1.566194,-0.0821,0.4041,0.2736,0.001534,0.493942,-0.493942,0.501612,-0.503146,0.500078,-0.492408
2.1774,0.020093,-0.003911,-1.566194,1.566194,0.0000,0.0000,0.0000,-0.005668,-1.567728,1.566194,-0.0821,0.4041,0.2736,0.001534,0.493942,-0.493942,0.501612,-0.503146,0.500078,-0.492408
2.1975,0.020099,-0.003901,-1.566194,1.566194,0.0000,0.0000,0.0000,-0.005668,-1.569262,1.566194,-0.0821,0.4041,0.2736,0.001534,0.493942,-0.493942,0.501612,-0.503146,0.500078,-0.492408
2.2176,0.020096,-0.003891,-1.566194,1.566194,0.0000,0.0000,0.0000,-0.005668,-1.569262,1.566194,-0.0821,0.4041,0.2736,0.001534,0.493942,-0.493942,0.501612,-0.503146,0.500078,-0.492408
2.2377,0.020101,-0.003881,-1.566194,1.566194,0.0000,0.0000,0.0000,-0.005668,-1.569262,1.566194,-0.0821,0.4041,0.2736,0.001534,0.493942,-0.493942,0.501612,-0.503146,0.500078,-0.492408
2.2578,0.020110,-0.003871,-1.566194,1.566194,0.0000,0.0000,0.0000,-0.005680,-1.567728,1.566194,-0.0720,0.3527,0.2226,0.001534,0.493942,-0.493942,0.500078,-0.503146,0.500078,-0.492408
2.2779,0.020099,-0.003861,-1.566194,1.566194,0.0000,0.0000,0.0000,-0.005666,-1.567728,1.566194,-0.0833,0.4101,0.2795,0.001534,0.493942,-0.493942,0.501612,-0.503146,0.500078,-0.492408
2.2980,0.020092,-0.003851,-1.566194,1.566194,0.0000,0.0000,0.0000,-0.005668,-1.567728,1.566194,-0.0821,0.4041,0.2736,0.001534,0.493942,-0.493942,0.501612,-0.503146,0.500078,-0.492408
2.3181,0.020094,-0.003841,-1.566194,1.566194,0.0000,0.0000,0.0000,-0.005680,-1.569262,1.566194,-0.0720,0.3527,0.2226,0.001534,0.493942,-0.493942,0.500078,-0.503146,0.500078,-0.492408
2.3382,0.020093,-0.003831,-1.566194,1.566194,0.0000,0.0000,0.0000,-0.005666,-1.567728,1.566194,-0.0833,0.4101,0.2795,0.001534,0.493942,-0.493942,0.501612,-0.503146,0.500078,-0.492408
2.3583,0.020097,-0.003821,-1.566194,1.566194,0.0000,0.0000,0.0000,-0.005668,-1.567728,1.566194,-0.0821,0.4041,0.2736,0.001534,0.493942,-0.493942,0.501612,-0.503146,0.500078,-0.492408
2.3784,0.020107,-0.003811,-1.566194,1.566194,0.0000,0.0000,0.0000,-0.005668,-1.569262,1.566194,-0.0821,0.4041,0.2736,0.001534,0.493942,-0.493942,0.501612,-0.503146,0.500078,-0.492408
2.3985,0.020090,-0.003801,-1.566194,1.566194,0.0000,0.0000,0.0000,-0.005668,-1.567728,1.566194,-0.0821,0.4041,0.2736,0.001534,0.493942,-0.493942,0.501612,-0.503146,0.500078,-0.492408
2.4186,0.020088,-0.003791,-1.566194,1.566194,0.0000,0.0000,0.0000,-0.005668,-1.567728,1.566194,-0.0821,0.4041,0.2736,0.001534,0.493942,-0.493942,0.501612,-0.503146,0.500078,-0.492408
2.4387,0.020090,-0.003781,-1.566194,1.566194,0.0000,0.0000,0.0000,-0.005668,-1.569262,1.566194,-0.0821,0.4041,0.2736,0.001534,0.493942,-0.493942,0.501612,-0.503146,0.500078,-0.492408
2.4587,0.020089,-0.003771,-1.566194,1.566194,0.0000,0.0000,0.0000,-0.005668,-1.567728,1.566194,-0.0821,0.4041,0.2736,0.001534,0.493942,-0.493942,0.501612,-0.503146,0.500078,-0.492408
2.4788,0.020094,-0.003761,-1.566194,1.566194,0.0000,0.0000,0.0000,-0.005668,-1.569262,1.566194,-0.0821,0.4041,0.2736,0.001534,0.493942,-0.493942,0.501612,-0.503146,0.500078,-0.492408
2.4989,0.020088,-0.003751,-1.566194,1.566194,0.0000,0.0000,0.0000,-0.005668,-1.567728,1.566194,-0.0821,0.4041,0.2736,0.001534,0.493942,-0.493942,0.501612,-0.503146,0.500078,-0.492408
2.5190,0.020092,-0.003740,-1.566194,1.566194,0.0000,0.0000,0.0000,-0.005668,-1.569262,1.566194,-0.0821,0.4041,0.2736,0.001534,0.493942,-0.493942,0.501612,-0.503146,0.500078,-0.492408
2.5391,0.020088,-0.003730,-1.566194,1.566194,0.0000,0.0000,0.0000,-0.005668,-1.567728,1.566194,-0.0821,0.4041,0.2736,0.001534,0.493942,-0.493942,0.501612,-0.503146,0.500078,-0.492408
2.5593,0.020154,-0.003720,-1.566194,1.566194,0.0000,0.0000,0.0000,-0.005668,-1.567728,1.566194,-0.0821,0.4041,0.2736,0.001534,0.493942,-0.493942,0.501612,-0.503146,0.500078,-0.492408
2.5793,0.020089,-0.003710,-1.566194,1.566194,0.0000,0.0000,0.0000,-0.005668,-1.567728,1.566194,-0.0821,0.4041,0.2736,0.001534,0.493942,-0.493942,0.501612,-0.503146,0.500078,-0.492408
2.5994,0.020087,-0.003700,-1.566194,1.566194,0.0000,0.0000,0.0000,-0.005668,-1.567728,1.566194,-0.0821,0.4041,0.2736,0.001534,0.493942,-0.493942,0.501612,-0.503146,0.500078,-0.492408
2.6195,0.020093,-0.003690,-1.566194,1.566194,0.0000,0.0000,0.0000,-0.005668,-1.567728,1.566194,-0.0821,0.4041,0.2736,0.001534,0.493942,-0.493942,0.501612,-0.503146,0.500078,-0.492408
2.6396,0.020092,-0.003680,-1.566194,1.566194,0.0000,0.0000,0.0000,-0.005668,-1.567728,1.566194,-0.0821,0.4041,0.2736,0.001534,0.493942,-0.493942,0.501612,-0.503146,0.500078,-0.492408
2.6600,0.020382,-0.003670,-1.566194,1.566194,0.0000,0.0000,0.0000,-0.005668,-1.567728,1.566194,-0.0821,0.4041,0.2736,0.001534,0.493942,-0.493942,0.501612,-0.503146,0.500078,-0.492408
2.6806,0.020612,-0.003660,-1.566194,1.566194,0.0000,0.0000,0.0000,-0.005668,-1.567728,1.566194,-0.0821,0.4041,0.2736,0.001534,0.493942,-0.493942,0.501612,-0.503146,0.500078,-0.492408
2.7007,0.020091,-0.003650,-1.566194,1.566194,0.0000,0.0000,0.0000,-0.005668,-1.567728,1.566194,-0.0821,0.4041,0.2736,0.001534,0.493942,-0.493942,0.501612,-0.503146,0.500078,-0.492408
2.7208,0.020091,-0.003640,-1.566194,1.566194,0.0000,0.0000,0.0000,-0.005668,-1.569262,1.566194,-0.0821,0.4041,0.2736,0.001534,0.493942,-0.493942,0.501612,-0.503146,0.500078,-0.492408
2.7409,0.020086,-0.003630,-1.566194,1.566194,0.0000,0.0000,0.0000,-0.005668,-1.569262,1.566194,-0.0821,0.4041,0.2736,0.001534,0.493942,-0.493942,0.501612,-0.503146,0.500078,-0.492408
2.7612,0.020329,-0.003619,-1.566194,1.566194,0.0000,0.0000,0.0000,-0.005668,-1.567728,1.566194,-0.0821,0.4041,0.2736,0.001534,0.493942,-0.493942,0.501612,-0.503146,0.500078,-0.492408
2.7813,0.020094,-0.003609,-1.566194,1.566194,0.0000,0.0000,0.0000,-0.005668,-1.567728,1.566194,-0.0821,0.4041,0.2736,0.001534,0.493942,-0.493942,0.501612,-0.503146,0.500078,-0.492408
2.8014,0.020096,-0.003599,-1.566194,1.566194,0.0000,0.0000,0.0000,-0.005668,-1.569262,1.566194,-0.0821,0.4041,0.2736,0.001534,0.493942,-0.493942,0.501612,-0.503146,0.500078,-0.492408
2.8215,0.020102,-0.003589,-1.566194,1.566194,0.0000,0.0000,0.0000,-0.005668,-1.567728,1.566194,-0.0821,0.4041,0.2736,0.001534,0.493942,-0.493942,0.501612,-0.503146,0.500078,-0.492408
2.8416,0.020089,-0.003579,-1.566194,1.566194,0.0000,0.0000,0.0000,-0.005668,-1.567728,1.566194,-0.0821,0.4041,0.2736,0.001534,0.493942,-0.493942,0.501612,-0.503146,0.500078,-0.492408
2.8619,0.020330,-0.003569,-1.566194,1.566194,0.0000,0.0000,0.0000,-0.005668,-1.567728,1.566194,-0.0821,0.4041,0.2736,0.001534,0.493942,-0.493942,0.501612,-0.503146,0.500078,-0.492408
2.8822,0.020238,-0.003559,-1.566194,1.566194,0.0000,0.0000,0.0000,-0.005668,-1.567728,1.566194,-0.0821,0.4041,0.2736,0.001534,0.493942,-0.493942,0.501612,-0.503146,0.500078,-0.492408
2.9023,0.020099,-0.003549,-1.566194,1.566194,0.0000,0.0000,0.0000,-0.005668,-1.569262,1.566194,-0.0821,0.4041,0.2736,0.001534,0.493942,-0.493942,0.501612,-0.503146,0.500078,-0.492408
2.9224,0.020092,-0.003539,-1.566194,1.566194,0.0000,0.0000,0.0000,-0.005668,-1.567728,1.566194,-0.0821,0.4041,0.2736,0.001534,0.493942,-0.493942,0.501612,-0.503146,0.500078,-0.492408
2.9424,0.020095,-0.003529,-1.566194,1.566194,0.0000,0.0000,0.0000,-0.005668,-1.567728,1.566194,-0.0821,0.4041,0.2736,0.001534,0.493942,-0.493942,0.501612,-0.503146,0.500078,-0.492408
2.9628,0.020392,-0.003519,-1.566194,1.566194,0.0000,0.0000,0.0000,-0.005668,-1.569262,1.566194,-0.0821,0.4041,0.2736,0.001534,0.493942,-0.493942,0.501612,-0.503146,0.500078,-0.492408
2.9831,0.020253,-0.003508,-1.566194,1.566194,0.0000,0.0000,0.0000,-0.005668,-1.567728,1.566194,-0.0821,0.4041,0.2736,0.001534,0.493942,-0.493942,0.501612,-0.503146,0.500078,-0.492408
3.0032,0.020085,-0.003498,-1.566194,1.566194,0.0000,0.0000,0.0000,-0.005668,-1.569262,1.566194,-0.0821,0.4041,0.2736,0.001534,0.493942,-0.493942,0.501612,-0.503146,0.500078,-0.492408
3.0233,0.020097,-0.003488,-1.566194,1.566194,0.0000,0.0000,0.0000,-0.005668,-1.567728,1.566194,-0.0821,0.4041,0.2736,0.001534,0.493942,-0.493942,0.501612,-0.503146,0.500078,-0.492408
3.0435,0.020201,-0.003478,-1.566194,1.566194,0.0000,0.0000,0.0000,-0.005668,-1.569262,1.566194,-0.0821,0.4041,0.2736,0.001534,0.493942,-0.493942,0.501612,-0.503146,0.500078,-0.492408
3.0636,0.020089,-0.003468,-1.566194,1.566194,0.0000,0.0000,0.0000,-0.005668,-1.567728,1.566194,-0.0821,0.4041,0.2736,0.001534,0.493942,-0.493942,0.501612,-0.503146,0.500078,-0.492408
3.0837,0.020089,-0.003458,-1.566194,1.566194,0.0000,0.0000,0.0000,-0.005668,-1.567728,1.566194,-0.0821,0.4041,0.2736,0.001534,0.493942,-0.493942,0.501612,-0.503146,0.500078,-0.492408
3.1037,0.020097,-0.003448,-1.566194,1.566194,0.0000,0.0000,0.0000,-0.005668,-1.567728,1.566194,-0.0821,0.4041,0.2736,0.001534,0.493942,-0.493942,0.501612,-0.503146,0.500078,-0.492408
3.1239,0.020115,-0.003438,-1.566194,1.566194,0.0000,0.0000,0.0000,-0.005668,-1.567728,1.566194,-0.0821,0.4041,0.2736,0.001534,0.493942,-0.493942,0.501612,-0.503146,0.500078,-0.492408
3.1440,0.020110,-0.003428,-1.566194,1.566194,0.0000,0.0000,0.0000,-0.005668,-1.567728,1.566194,-0.0821,0.4041,0.2736,0.001534,0.493942,-0.493942,0.501612,-0.503146,0.500078,-0.492408
3.1641,0.020141,-0.003418,-1.566194,1.566194,0.0000,0.0000,0.0000,-0.005668,-1.567728,1.566194,-0.0821,0.4041,0.2736,0.001534,0.493942,-0.493942,0.501612,-0.503146,0.500078,-0.492408
3.1844,0.020269,-0.003408,-1.566194,1.566194,0.0000,0.0000,0.0000,-0.005668,-1.567728,1.566194,-0.0821,0.4041,0.2736,0.001534,0.493942,-0.493942,0.501612,-0.503146,0.500078,-0.492408
3.2046,0.020176,-0.003398,-1.566194,1.566194,0.0000,0.0000,0.0000,-0.005668,-1.569262,1.566194,-0.0821,0.4041,0.2736,0.001534,0.493942,-0.493942,0.501612,-0.503146,0.500078,-0.492408
3.2248,0.020240,-0.003388,-1.566194,1.566194,0.0000,0.0000,0.0000,-0.005668,-1.567728,1.566194,-0.0821,0.4041,0.2736,0.001534,0.493942,-0.493942,0.501612,-0.503146,0.500078,-0.492408
3.2455,0.020734,-0.003377,-1.566194,1.566194,0.0000,0.0000,0.0000,-0.005668,-1.569262,1.566194,-0.0821,0.4041,0.2736,0.001534,0.493942,-0.493942,0.501612,-0.503146,0.500078,-0.492408
3.2656,0.020052,-0.003367,-1.566194,1.566194,0.0000,0.0000,0.0000,-0.005668,-1.569262,1.566194,-0.0821,0.4041,0.2736,0.001534,0.493942,-0.493942,0.501612,-0.503146,0.500078,-0.492408
3.2857,0.020091,-0.003357,-1.566194,1.566194,0.0000,0.0000,0.0000,-0.005668,-1.569262,1.566194,-0.0821,0.4041,0.2736,0.001534,0.493942,-0.493942,0.501612,-0.503146,0.500078,-0.492408
3.3058,0.020090,-0.003347,-1.566194,1.566194,0.0000,0.0000,0.0000,-0.005668,-1.567728,1.566194,-0.0821,0.4041,0.2736,0.001534,0.493942,-0.493942,0.501612,-0.503146,0.500078,-0.492408
3.3259,0.020164,-0.003337,-1.566194,1.566194,0.0000,0.0000,0.0000,-0.005668,-1.569262,1.566194,-0.0821,0.4041,0.2736,0.001534,0.493942,-0.493942,0.501612,-0.503146,0.500078,-0.492408
3.3462,0.020249,-0.003327,-1.566194,1.566194,0.0000,0.0000,0.0000,-0.005668,-1.569262,1.566194,-0.0821,0.4041,0.2736,0.001534,0.493942,-0.493942,0.501612,-0.503146,0.500078,-0.492408
3.3663,0.020117,-0.003317,-1.566194,1.566194,0.0000,0.0000,0.0000,-0.005668,-1.567728,1.566194,-0.0821,0.4041,0.2736,0.001534,0.493942,-0.493942,0.501612,-0.503146,0.500078,-0.492408
3.3864,0.020123,-0.003307,-1.566194,1.566194,0.0000,0.0000,0.0000,-0.005668,-1.567728,1.566194,-0.0821,0.4041,0.2736,0.001534,0.493942,-0.493942,0.501612,-0.503146,0.500078,-0.492408
3.4065,0.020098,-0.003297,-1.566194,1.566194,0.0000,0.0000,0.0000,-0.005668,-1.567728,1.566194,-0.0821,0.4041,0.2736,0.001534,0.493942,-0.493942,0.501612,-0.503146,0.500078,-0.492408
3.4266,0.020114,-0.003287,-1.566194,1.566194,0.0000,0.0000,0.0000,-0.005668,-1.567728,1.566194,-0.0821,0.4041,0.2736,0.001534,0.493942,-0.493942,0.501612,-0.503146,0.500078,-0.492408
3.4467,0.020107,-0.003277,-1.566194,1.566194,0.0000,0.0000,0.0000,-0.005668,-1.569262,1.566194,-0.0821,0.4041,0.2736,0.001534,0.493942,-0.493942,0.501612,-0.503146,0.500078,-0.492408
3.4668,0.020102,-0.003267,-1.566194,1.566194,0.0000,0.0000,0.0000,-0.005668,-1.567728,1.566194,-0.0821,0.4041,0.2736,0.001534,0.493942,-0.493942,0.501612,-0.503146,0.500078,-0.492408
3.4869,0.020106,-0.003257,-1.566194,1.566194,0.0000,0.0000,0.0000,-0.005668,-1.569262,1.566194,-0.0821,0.4041,0.2736,0.001534,0.493942,-0.493942,0.501612,-0.503146,0.500078,-0.492408
3.5070,0.020102,-0.003246,-1.566194,1.566194,0.0000,0.0000,0.0000,-0.005668,-1.569262,1.566194,-0.0821,0.4041,0.2736,0.001534,0.493942,-0.493942,0.501612,-0.503146,0.500078,-0.492408
3.5272,0.020108,-0.003236,-1.566194,1.566194,0.0000,0.0000,0.0000,-0.005668,-1.569262,1.566194,-0.0821,0.4041,0.2736,0.001534,0.493942,-0.493942,0.501612,-0.503146,0.500078,-0.492408
3.5473,0.020104,-0.003226,-1.566194,1.566194,0.0000,0.0000,0.0000,-0.005668,-1.567728,1.566194,-0.0821,0.4041,0.2736,0.001534,0.493942,-0.493942,0.501612,-0.503146,0.500078,-0.492408
3.5674,0.020096,-0.003216,-1.566194,1.566194,0.0000,0.0000,0.0000,-0.005668,-1.567728,1.566194,-0.0821,0.4041,0.2736,0.001534,0.493942,-0.493942,0.501612,-0.503146,0.500078,-0.492408
3.5874,0.020090,-0.003206,-1.566194,1.566194,0.0000,0.0000,0.0000,-0.005668,-1.569262,1.566194,-0.0821,0.4041,0.2736,0.001534,0.493942,-0.493942,0.501612,-0.503146,0.500078,-0.492408
3.6076,0.020109,-0.003196,-1.566194,1.566194,0.0000,0.0000,0.0000,-0.005668,-1.567728,1.566194,-0.0821,0.4041,0.2736,0.001534,0.493942,-0.493942,0.501612,-0.503146,0.500078,-0.492408
3.6278,0.020244,-0.003186,-1.566194,1.566194,0.0000,0.0000,0.0000,-0.005668,-1.567728,1.566194,-0.0821,0.4041,0.2736,0.001534,0.493942,-0.493942,0.501612,-0.503146,0.500078,-0.492408
3.6479,0.020107,-0.003176,-1.566194,1.566194,0.0000,0.0000,0.0000,-0.005668,-1.567728,1.566194,-0.0821,0.4041,0.2736,0.001534,0.493942,-0.493942,0.501612,-0.503146,0.500078,-0.492408
3.6680,0.020107,-0.003166,-1.566194,1.566194,0.0000,0.0000,0.0000,-0.005668,-1.569262,1.566194,-0.0821,0.4041,0.1857,0.000000,0.493942,-0.493942,0.501612,-0.503146,0.500078,-0.492408
3.6881,0.020104,-0.003156,-1.566194,1.566194,0.0000,0.0000,0.0000,-0.005655,-1.567728,1.566194,-0.0721,0.4568,0.2224,0.001534,0.493942,-0.493942,0.501612,-0.504680,0.500078,-0.492408
3.7082,0.020103,-0.003146,-1.566194,1.566194,0.0000,0.0000,0.0000,-0.005669,-1.567728,1.566194,-0.0833,0.3992,0.2795,0.001534,0.493942,-0.493942,0.501612,-0.503146,0.500078,-0.492408
3.7299,0.021685,-0.003135,-1.566194,1.566194,0.0000,0.0000,0.0000,-0.005655,-1.567728,1.566194,-0.0720,0.4573,0.2218,0.001534,0.493942,-0.493942,0.501612,-0.504680,0.500078,-0.492408
3.7500,0.020100,-0.003125,-1.566194,1.566194,0.0000,0.0000,0.0000,-0.005657,-1.567728,1.566194,-0.0731,0.4513,0.2278,0.001534,0.493942,-0.493942,0.501612,-0.504680,0.500078,-0.492408
3.7701,0.020110,-0.003115,-1.566194,1.566194,0.0000,0.0000,0.0000,-0.005657,-1.567728,1.566194,-0.0731,0.4513,0.2278,0.001534,0.493942,-0.493942,0.501612,-0.506214,0.500078,-0.492408
3.7902,0.020094,-0.003105,-1.566194,1.566194,0.0000,0.0000,0.0000,-0.005644,-1.567728,1.566194,-0.0628,0.5039,0.1754,0.001534,0.493942,-0.493942,0.501612,-0.507748,0.500078,-0.492408
3.8104,0.020156,-0.003095,-1.566194,1.566194,0.0000,0.0000,0.0000,-0.005633,-1.567728,1.566194,-0.0537,0.5504,0.1290,0.001534,0.493942,-0.493942,0.501612,-0.507748,0.500078,-0.492408
3.8305,0.020104,-0.003085,-1.566194,1.566194,0.0000,0.0000,0.0000,-0.005610,-1.567728,1.566194,-0.0351,0.6445,0.0349,0.001534,0.493942,-0.493942,0.501612,-0.510816,0.500078,-0.492408
3.8506,0.020107,-0.003075,-1.566194,1.566194,0.0000,0.0000,0.0000,-0.005610,-1.567728,1.566194,-0.0351,0.6445,0.0349,0.001534,0.493942,-0.493942,0.501612,-0.510816,0.500078,-0.492408
3.8707,0.020102,-0.003065,-1.566194,1.566194,0.0000,0.0000,0.0000,-0.005586,-1.567728,1.566194,-0.0360,0.7436,0.0395,0.001534,0.493942,-0.493942,0.503146,-0.512350,0.500078,-0.492408
3.8908,0.020102,-0.003055,-1.566194,1.566194,0.0000,0.0000,0.0000,-0.005576,-1.567728,1.566194,-0.0256,0.7851,-0.0129,0.001534,0.493942,-0.493942,0.503146,-0.513884,0.500078,-0.492408
3.9109,0.020096,-0.003045,-1.566194,1.566194,0.0000,0.0000,0.0000,-0.005566,-1.567728,1.566194,0.0443,0.7634,-0.0592,0.001534,0.495476,-0.493942,0.501612,-0.515418,0.500078,-0.492408
3.9310,0.020082,-0.003035,-1.566194,1.566194,0.0000,0.0000,0.0000,-0.005566,-1.567728,1.566194,-0.0236,0.8348,-0.0546,0.001534,0.493942,-0.493942,0.503146,-0.515418,0.500078,-0.492408
3.9511,0.020095,-0.003024,-1.566194,1.566194,0.0000,0.0000,0.0000,-0.005554,-1.567728,1.566194,-0.0062,0.8791,-0.1071,0.001534,0.493942,-0.493942,0.503146,-0.516952,0.500078,-0.492408
3.9712,0.020094,-0.003014,-1.566194,1.566194,0.0000,0.0000,0.0000,-0.005556,-1.569262,1.566194,0.0527,0.8053,-0.1014,0.001534,0.495476,-0.493942,0.501612,-0.516952,0.500078,-0.492408
3.9912,0.020094,-0.003004,-1.566194,1.566194,0.0000,0.0000,0.0000,-0.005543,-1.567728,1.566194,-0.0037,0.9338,-0.1543,0.001534,0.493942,-0.493942,0.503146,-0.518486,0.500078,-0.492408
4.0114,0.020182,-0.002994,-1.566194,1.566194,0.0000,0.0000,0.0000,-0.005532,-1.567728,1.566194,0.0526,0.9035,-0.0968,0.001534,0.495476,-0.493942,0.503146,-0.518486,0.500078,-0.492408
4.0315,0.020095,-0.002984,-1.566194,1.566194,0.0000,0.0000,0.0000,-0.005558,-1.567728,1.566194,0.0066,0.8712,-0.2065,0.001534,0.493942,-0.493942,0.501612,-0.518486,0.500078,-0.492408
4.0516,0.020107,-0.002974,-1.566194,1.566194,0.0000,0.0000,0.0000,-0.005543,-1.567728,1.566194,0.0011,0.9269,-0.1434,0.001534,0.493942,-0.493942,0.503146,-0.518486,0.500078,-0.492408
4.0717,0.020093,-0.002964,-1.566194,1.566194,0.0000,0.0000,0.0000,-0.005545,-1.567728,1.566194,0.0623,0.8519,-0.1497,0.001534,0.495476,-0.493942,0.501612,-0.518486,0.500078,-0.492408
4.0918,0.020099,-0.002954,-1.566194,1.566194,0.0000,0.0000,0.0000,-0.005519,-1.567728,1.566194,0.0053,0.8775,-0.0459,0.001534,0.495476,-0.493942,0.503146,-0.518486,0.501612,-0.492408
4.1119,0.020103,-0.002944,-1.566194,1.566194,0.0000,0.0000,0.0000,-0.005534,-1.567728,1.566194,0.0516,0.9094,-0.1081,0.001534,0.495476,-0.493942,0.503146,-0.518486,0.500078,-0.492408
4.1320,0.020088,-0.002934,-1.566194,1.566194,0.0000,0.0000,0.0000,-0.005533,-1.567728,1.566194,0.0468,0.9060,-0.1017,0.001534,0.495476,-0.493942,0.503146,-0.518486,0.500078,-0.492408
4.1521,0.020093,-0.002924,-1.566194,1.566194,0.0000,0.0000,0.0000,-0.005558,-1.567728,1.566194,0.0072,0.8710,-0.2060,0.001534,0.493942,-0.493942,0.501612,-0.518486,0.500078,-0.492408
4.1722,0.020092,-0.002914,-1.566194,1.566194,0.0000,0.0000,0.0000,-0.005530,-1.569262,1.566194,0.0515,0.9100,-0.0915,0.001534,0.495476,-0.493942,0.503146,-0.518486,0.500078,-0.492408
4.1923,0.020096,-0.002904,-1.566194,1.566194,0.0000,0.0000,0.0000,-0.005546,-1.567728,1.566194,-0.0036,0.9229,-0.1553,0.001534,0.493942,-0.493942,0.503146,-0.518486,0.500078,-0.492408
4.2124,0.020099,-0.002894,-1.566194,1.566194,0.0000,0.0000,0.0000,-0.005545,-1.567728,1.566194,0.0628,0.8523,-0.1484,0.001534,0.495476,-0.493942,0.501612,-0.518486,0.500078,-0.492408
4.2325,0.020086,-0.002884,-1.566194,1.566194,0.0000,0.0000,0.0000,-0.005532,-1.567728,1.566194,0.0456,0.9120,-0.0975,0.001534,0.495476,-0.493942,0.503146,-0.518486,0.500078,-0.492408
4.2526,0.020091,-0.002874,-1.566194,1.566194,0.0000,0.0000,0.0000,-0.005545,-1.569262,1.566194,-0.0030,0.9227,-0.1547,0.001534,0.493942,-0.493942,0.503146,-0.518486,0.500078,-0.492408
4.2727,0.020085,-0.002864,-1.566194,1.566194,0.0000,0.0000,0.0000,-0.005532,-1.567728,1.566194,0.0525,0.9046,-0.0968,0.001534,0.495476,-0.493942,0.503146,-0.518486,0.500078,-0.492408
4.2927,0.020096,-0.002854,-1.566194,1.566194,0.0000,0.0000,0.0000,-0.005533,-1.567728,1.566194,0.0166,0.8197,-0.1031,0.001534,0.495476,-0.493942,0.501612,-0.518486,0.501612,-0.492408
4.3128,0.020100,-0.002844,-1.566194,1.566194,0.0000,0.0000,0.0000,-0.005558,-1.569262,1.566194,0.0102,0.8800,-0.2058,0.001534,0.493942,-0.493942,0.501612,-0.518486,0.500078,-0.492408
4.3329,0.020084,-0.002834,-1.566194,1.566194,0.0000,0.0000,0.0000,-0.005543,-1.569262,1.566194,0.0007,0.9260,-0.1434,0.001534,0.493942,-0.493942,0.503146,-0.518486,0.500078,-0.492408
4.3530,0.020089,-0.002823,-1.566194,1.566194,0.0000,0.0000,0.0000,-0.005545,-1.567728,1.566194,0.0624,0.8520,-0.1497,0.001534,0.495476,-0.493942,0.501612,-0.518486,0.500078,-0.492408
4.3731,0.020084,-0.002813,-1.566194,1.566194,0.0000,0.0000,0.0000,-0.005545,-1.567728,1.566194,0.0559,0.8597,-0.1490,0.001534,0.495476,-0.493942,0.501612,-0.518486,0.500078,-0.492408
4.3932,0.020089,-0.002803,-1.566194,1.566194,0.0000,0.0000,0.0000,-0.005532,-1.569262,1.566194,0.0463,0.9112,-0.0974,0.001534,0.495476,-0.493942,0.503146,-0.518486,0.500078,-0.492408
4.4133,0.020093,-0.002793,-1.566194,1.566194,0.0000,0.0000,0.0000,-0.005558,-1.567728,1.566194,0.0072,0.8704,-0.2064,0.001534,0.493942,-0.493942,0.501612,-0.518486,0.500078,-0.492408
4.4334,0.020089,-0.002783,-1.566194,1.566194,0.0000,0.0000,0.0000,-0.005530,-1.567728,1.566194,0.0514,0.9101,-0.0914,0.001534,0.495476,-0.493942,0.503146,-0.518486,0.500078,-0.492408
4.4535,0.020086,-0.002773,-1.566194,1.566194,0.0000,0.0000,0.0000,-0.005533,-1.569262,1.566194,0.0468,0.9060,-0.1034,0.001534,0.495476,-0.493942,0.503146,-0.518486,0.500078,-0.492408
4.4736,0.020087,-0.002763,-1.566194,1.566194,0.0000,0.0000,0.0000,-0.005533,-1.569262,1.566194,0.0474,0.9065,-0.1017,0.001534,0.495476,-0.493942,0.503146,-0.518486,0.500078,-0.492408
4.4936,0.020087,-0.002753,-1.566194,1.566194,0.0000,0.0000,0.0000,-0.005520,-1.567728,1.566194,0.0069,0.8718,-0.0509,0.001534,0.495476,-0.493942,0.503146,-0.518486,0.501612,-0.492408
4.5137,0.020088,-0.002743,-1.566194,1.566194,0.0000,0.0000,0.0000,-0.005547,-1.567728,1.566194,0.0617,0.8577,-0.1593,0.001534,0.495476,-0.493942,0.501612,-0.518486,0.500078,-0.492408
4.5338,0.020092,-0.002733,-1.566194,1.566194,0.0000,0.0000,0.0000,-0.005507,-1.567728,1.566194,0.1465,0.8777,0.0077,0.001534,0.498544,-0.493942,0.503146,-0.518486,0.500078,-0.492408
4.5539,0.020086,-0.002723,-1.566194,1.566194,0.0000,0.0000,0.0000,-0.005511,-1.569262,1.566194,0.1376,0.8756,-0.0097,0.001534,0.498544,-0.493942,0.503146,-0.518486,0.500078,-0.492408
4.5740,0.020086,-0.002713,-1.566194,1.566194,0.0000,0.0000,0.0000,-0.005498,-1.569262,1.566194,0.0982,0.8413,0.0435,0.001534,0.498544,-0.493942,0.503146,-0.518486,0.501612,-0.492408
4.5942,0.020199,-0.002703,-1.566194,1.566194,0.0000,0.0000,0.0000,-0.005500,-1.567728,1.566194,0.1929,0.8626,0.0386,0.001534,0.500078,-0.493942,0.503146,-0.518486,0.500078,-0.492408
4.6143,0.020100,-0.002693,-1.566194,1.566194,0.0000,0.0000,0.0000,-0.005487,-1.567728,1.566194,0.2333,0.8437,0.0911,0.001534,0.501612,-0.493942,0.503146,-0.518486,0.500078,-0.492408
4.6344,0.020145,-0.002683,-1.566194,1.566194,0.0000,0.0000,0.0000,-0.005476,-1.567728,1.566194,0.2794,0.8290,0.1377,0.001534,0.503146,-0.493942,0.503146,-0.518486,0.500078,-0.492408
4.6546,0.020154,-0.002673,-1.566194,1.566194,0.0000,0.0000,0.0000,-0.005453,-1.567728,1.566194,0.3353,0.8656,0.1330,0.001534,0.504680,-0.493942,0.503146,-0.520019,0.500078,-0.492408
4.6747,0.020089,-0.002663,-1.566194,1.566194,0.0000,0.0000,0.0000,-0.005432,-1.567728,1.566194,0.3903,0.8969,0.1337,0.001534,0.506214,-0.493942,0.503146,-0.521553,0.500078,-0.492408
4.6948,0.020091,-0.002653,-1.566194,1.566194,0.0000,0.0000,0.0000,-0.005397,-1.569262,1.566194,0.4445,0.8263,0.2893,0.001534,0.509282,-0.493942,0.503146,-0.521553,0.501612,-0.492408
4.7149,0.020104,-0.002643,-1.566194,1.566194,0.0000,0.0000,0.0000,-0.005390,-1.567728,1.566194,0.5400,0.9032,0.2221,0.001534,0.510816,-0.493942,0.503146,-0.523087,0.500078,-0.492408
4.7350,0.020102,-0.002633,-1.566194,1.566194,0.0000,0.0000,0.0000,-0.005366,-1.567728,1.566194,0.5398,0.8446,0.3326,0.001534,0.512350,-0.493942,0.503146,-0.523087,0.501612,-0.492408
4.7551,0.020105,-0.002622,-1.566194,1.566194,0.0000,0.0000,0.0000,-0.005345,-1.569262,1.566194,0.5612,0.9540,0.2171,0.001534,0.512350,-0.493942,0.503146,-0.526155,0.501612,-0.492408
4.7752,0.020091,-0.002612,-1.566194,1.566194,0.0000,0.0000,0.0000,-0.005336,-1.567728,1.566194,0.6092,0.9263,0.2815,0.001534,0.513884,-0.493942,0.503146,-0.526155,0.501612,-0.492408
4.7953,0.020093,-0.002602,-1.566194,1.566194,0.0000,0.0000,0.0000,-0.005337,-1.569262,1.566194,0.6042,0.9292,0.2748,0.001534,0.513884,-0.493942,0.503146,-0.526155,0.501612,-0.492408
4.8155,0.020259,-0.002592,-1.566194,1.566194,0.0000,0.0000,0.0000,-0.005312,-1.569262,1.566194,0.6556,0.9449,0.1721,0.001534,0.513884,-0.495476,0.503146,-0.527689,0.501612,-0.492408
4.8356,0.020095,-0.002582,-1.566194,1.566194,0.0000,0.0000,0.0000,-0.005327,-1.569262,1.566194,0.6101,0.9788,0.2342,0.001534,0.513884,-0.493942,0.503146,-0.527689,0.501612,-0.492408
4.8558,0.020209,-0.002572,-1.566194,1.566194,0.0000,0.0000,0.0000,-0.005314,-1.567728,1.566194,0.6650,0.9590,0.2801,0.001534,0.515418,-0.493942,0.503146,-0.527689,0.501612,-0.492408
4.8759,0.020098,-0.002562,-1.566194,1.566194,0.0000,0.0000,0.0000,-0.005305,-1.567728,1.566194,0.7607,1.0305,0.2246,0.001534,0.516952,-0.493942,0.503146,-0.529223,0.500078,-0.492408
4.8960,0.020083,-0.002552,-1.566194,1.566194,0.0000,0.0000,0.0000,-0.005293,-1.569262,1.566194,0.7102,0.9890,0.2815,0.001534,0.516952,-0.493942,0.503146,-0.529223,0.501612,-0.492408
4.9161,0.020088,-0.002542,-1.566194,1.566194,0.0000,0.0000,0.0000,-0.005294,-1.567728,1.566194,0.7155,0.9933,0.2756,0.001534,0.516952,-0.493942,0.503146,-0.529223,0.501612,-0.492408
4.9362,0.020085,-0.002532,-1.566194,1.566194,0.0000,0.0000,0.0000,-0.005294,-1.569262,1.566194,0.7155,0.9933,0.2756,0.001534,0.516952,-0.493942,0.503146,-0.529223,0.501612,-0.492408
4.9563,0.020092,-0.002522,-1.566194,1.566194,0.0000,0.0000,0.0000,-0.005294,-1.567728,1.566194,0.7155,0.9933,0.2756,0.001534,0.516952,-0.493942,0.503146,-0.529223,0.501612,-0.492408
4.9764,0.020091,-0.002512,-1.566194,1.566194,0.0000,0.0000,0.0000,-0.005294,-1.567728,1.566194,0.7155,0.9933,0.2756,0.001534,0.516952,-0.493942,0.503146,-0.529223,0.501612,-0.492408
4.9965,0.020132,-0.002502,-1.566194,1.566194,0.0000,0.0000,0.0000,-0.005294,-1.569262,1.566194,0.7155,0.9933,0.2756,0.001534,0.516952,-0.493942,0.503146,-0.529223,0.501612,-0.492408
5.0166,0.020101,-0.002492,-1.566194,1.566194,0.0000,0.0000,0.0000,-0.005268,-1.567728,1.566194,0.7445,1.0096,0.2768,0.001534,0.516952,-0.495476,0.504680,-0.529223,0.501612,-0.492408
5.0367,0.020097,-0.002482,-1.566194,1.566194,0.0000,0.0000,0.0000,-0.005247,-1.569262,1.566194,0.7907,1.0636,0.4852,0.001534,0.520019,-0.493942,0.506214,-0.529223,0.501612,-0.492408
5.0568,0.020101,-0.002472,-1.566194,1.566194,0.0000,0.0000,0.0000,-0.005236,-1.569262,1.566194,0.8261,1.0224,0.4120,0.001534,0.520019,-0.495476,0.506214,-0.529223,0.501612,-0.492408
5.0769,0.020106,-0.002462,-1.566194,1.566194,0.0000,0.0000,0.0000,-0.005237,-1.569262,1.566194,0.8224,1.0267,0.4197,0.001534,0.520019,-0.495476,0.506214,-0.529223,0.501612,-0.492408
5.0970,0.020098,-0.002452,-1.566194,1.566194,0.0000,0.0000,0.0000,-0.005250,-1.567728,1.566194,0.8633,1.0602,0.3678,0.001534,0.520019,-0.495476,0.506214,-0.529223,0.500078,-0.492408
5.1171,0.020098,-0.002441,-1.566194,1.566194,0.0000,0.0000,0.0000,-0.005236,-1.567728,1.566194,0.8185,1.0228,0.4243,0.001534,0.520019,-0.495476,0.506214,-0.529223,0.501612,-0.492408
5.1372,0.020100,-0.002431,-1.566194,1.566194,0.0000,0.0000,0.0000,-0.005237,-1.569262,1.566194,0.8232,1.0267,0.4184,0.001534,0.520019,-0.495476,0.506214,-0.529223,0.501612,-0.492408
5.1575,0.020281,-0.002421,-1.566194,1.566194,0.0000,0.0000,0.0000,-0.005250,-1.567728,1.566194,0.8632,1.0602,0.3679,0.001534,0.520019,-0.495476,0.506214,-0.529223,0.500078,-0.492408
5.1776,0.020172,-0.002411,-1.566194,1.566194,0.0000,0.0000,0.0000,-0.005236,-1.567728,1.566194,0.8185,1.0228,0.4243,0.001534,0.520019,-0.495476,0.506214,-0.529223,0.501612,-0.492408
5.1978,0.020103,-0.002401,-1.566194,1.566194,0.0000,0.0000,0.0000,-0.005237,-1.567728,1.566194,0.8232,1.0267,0.4184,0.001534,0.520019,-0.495476,0.506214,-0.529223,0.501612,-0.492408
5.2179,0.020101,-0.002391,-1.566194,1.566194,0.0000,0.0000,0.0000,-0.005237,-1.567728,1.566194,0.8232,1.0267,0.4184,0.001534,0.520019,-0.495476,0.506214,-0.529223,0.501612,-0.492408
5.2380,0.020104,-0.002381,-1.566194,1.566194,0.0000,0.0000,0.0000,-0.005237,-1.567728,1.566194,0.8232,1.0267,0.4184,0.001534,0.520019,-0.495476,0.506214,-0.529223,0.501612,-0.492408
5.2581,0.020159,-0.002371,-1.566194,1.566194,0.0000,0.0000,0.0000,-0.005237,-1.567728,1.566194,0.8232,1.0267,0.4184,0.001534,0.520019,-0.495476,0.506214,-0.529223,0.501612,-0.492408
5.2782,0.020108,-0.002361,-1.566194,1.566194,0.0000,0.0000,0.0000,-0.005237,-1.569262,1.566194,0.8232,1.0267,0.4184,0.001534,0.520019,-0.495476,0.506214,-0.529223,0.501612,-0.492408
5.2983,0.020089,-0.002351,-1.566194,1.566194,0.0000,0.0000,0.0000,-0.005237,-1.567728,1.566194,0.8232,1.0267,0.4184,0.001534,0.520019,-0.495476,0.506214,-0.529223,0.501612,-0.492408
5.3184,0.020120,-0.002341,-1.566194,1.566194,0.0000,0.0000,0.0000,-0.005237,-1.567728,1.566194,0.8232,1.0267,0.4184,0.001534,0.520019,-0.495476,0.506214,-0.529223,0.501612,-0.492408
5.3385,0.020097,-0.002331,-1.566194,1.566194,0.0000,0.0000,0.0000,-0.005237,-1.569262,1.566194,0.8232,1.0267,0.4184,0.001534,0.520019,-0.495476,0.506214,-0.529223,0.501612,-0.492408
5.3586,0.020114,-0.002321,-1.566194,1.566194,0.0000,0.0000,0.0000,-0.005237,-1.569262,1.566194,0.8232,1.0267,0.4184,0.001534,0.520019,-0.495476,0.506214,-0.529223,0.501612,-0.492408
5.3788,0.020110,-0.002311,-1.566194,1.566194,0.0000,0.0000,0.0000,-0.005250,-1.567728,1.566194,0.8632,1.0602,0.3679,0.001534,0.520019,-0.495476,0.506214,-0.529223,0.500078,-0.492408
5.3993,0.020556,-0.002300,-1.566194,1.566194,0.0000,0.0000,0.0000,-0.005249,-1.569262,1.566194,0.8590,1.0567,0.3732,0.001534,0.520019,-0.495476,0.506214,-0.529223,0.500078,-0.492408
5.4195,0.020163,-0.002290,-1.566194,1.566194,0.0000,0.0000,0.0000,-0.005249,-1.567728,1.566194,0.8590,1.0567,0.3732,0.001534,0.520019,-0.495476,0.506214,-0.529223,0.500078,-0.492408
5.4396,0.020089,-0.002280,-1.566194,1.566194,0.0000,0.0000,0.0000,-0.005236,-1.569262,1.566194,0.8189,1.0231,0.4237,0.001534,0.520019,-0.495476,0.506214,-0.529223,0.501612,-0.492408
5.4597,0.020101,-0.002270,-1.566194,1.566194,0.0000,0.0000,0.0000,-0.005236,-1.567728,1.566194,0.8189,1.0231,0.4237,0.001534,0.520019,-0.493942,0.506214,-0.529223,0.500078,-0.492408
5.4798,0.020098,-0.002260,-1.566194,1.566194,0.0000,0.0000,0.0000,-0.005234,-1.567728,1.566194,0.8227,1.0190,0.4190,0.001534,0.520019,-0.495476,0.506214,-0.529223,0.501612,-0.492408
5.5001,0.020309,-0.002250,-1.566194,1.566194,0.0000,0.0000,0.0000,-0.005238,-1.567728,1.566194,0.8227,1.0271,0.4189,0.001534,0.520019,-0.495476,0.506214,-0.529223,0.501612,-0.492408
5.5203,0.020250,-0.002240,-1.566194,1.566194,0.0000,0.0000,0.0000,-0.005250,-1.569262,1.566194,0.8632,1.0602,0.3679,0.001534,0.520019,-0.495476,0.506214,-0.529223,0.500078,-0.492408
5.5404,0.020085,-0.002230,-1.566194,1.566194,0.0000,0.0000,0.0000,-0.005236,-1.569262,1.566194,0.8185,1.0228,0.4243,0.001534,0.520019,-0.495476,0.506214,-0.529223,0.501612,-0.492408
5.5605,0.020112,-0.002220,-1.566194,1.566194,0.0000,0.0000,0.0000,-0.005250,-1.567728,1.566194,0.8637,1.0606,0.3673,0.001534,0.520019,-0.495476,0.506214,-0.529223,0.500078,-0.492408
5.5806,0.020102,-0.002210,-1.566194,1.566194,0.0000,0.0000,0.0000,-0.005236,-1.567728,1.566194,0.8184,1.0227,0.4243,0.001534,0.520019,-0.495476,0.506214,-0.529223,0.501612,-0.492408
5.6008,0.020230,-0.002200,-1.566194,1.566194,0.0000,0.0000,0.0000,-0.005251,-1.569262,1.566194,0.7829,1.0623,0.4698,0.001534,0.520019,-0.493942,0.506214,-0.529223,0.501612,-0.492408
5.6210,0.020107,-0.002190,-1.566194,1.566194,0.0000,0.0000,0.0000,-0.005236,-1.569262,1.566194,0.8269,1.0225,0.4136,0.001534,0.520019,-0.495476,0.506214,-0.529223,0.501612,-0.492408
5.6411,0.020106,-0.002179,-1.566194,1.566194,0.0000,0.0000,0.0000,-0.005237,-1.567728,1.566194,0.8223,1.0267,0.4195,0.001534,0.520019,-0.495476,0.506214,-0.529223,0.501612,-0.492408
5.6616,0.020555,-0.002169,-1.566194,1.566194,0.0000,0.0000,0.0000,-0.005237,-1.569262,1.566194,0.8223,1.0267,0.4195,0.001534,0.520019,-0.495476,0.506214,-0.529223,0.501612,-0.492408
5.6817,0.020091,-0.002159,-1.566194,1.566194,0.0000,0.0000,0.0000,-0.005237,-1.567728,1.566194,0.8223,1.0267,0.4195,0.001534,0.520019,-0.495476,0.506214,-0.529223,0.501612,-0.492408
5.7020,0.020253,-0.002149,-1.566194,1.566194,0.0000,0.0000,0.0000,-0.005237,-1.567728,1.566194,0.8223,1.0267,0.4195,0.001534,0.520019,-0.495476,0.506214,-0.529223,0.501612,-0.492408
5.7221,0.020100,-0.002139,-1.566194,1.566194,0.0000,0.0000,0.0000,-0.005250,-1.569262,1.566194,0.8633,1.0602,0.3678,0.001534,0.520019,-0.495476,0.506214,-0.529223,0.500078,-0.492408
5.7424,0.020289,-0.002129,-1.566194,1.566194,0.0000,0.0000,0.0000,-0.005236,-1.567728,1.566194,0.8185,1.0228,0.4243,0.001534,0.520019,-0.495476,0.506214,-0.529223,0.501612,-0.492408
5.7626,0.020206,-0.002119,-1.566194,1.566194,0.0000,0.0000,0.0000,-0.005237,-1.567728,1.566194,0.8232,1.0267,0.4184,0.001534,0.520019,-0.495476,0.506214,-0.529223,0.501612,-0.492408
5.7827,0.020099,-0.002109,-1.566194,1.566194,0.0000,0.0000,0.0000,-0.005237,-1.567728,1.566194,0.8232,1.0267,0.4184,0.001534,0.520019,-0.495476,0.506214,-0.529223,0.501612,-0.492408
5.8028,0.020181,-0.002099,-1.566194,1.566194,0.0000,0.0000,0.0000,-0.005237,-1.567728,1.566194,0.8232,1.0267,0.4184,0.001534,0.520019,-0.495476,0.506214,-0.529223,0.501612,-0.492408
5.8229,0.020103,-0.002089,-1.566194,1.566194,0.0000,0.0000,0.0000,-0.005237,-1.569262,1.566194,0.8232,1.0267,0.4184,0.001534,0.520019,-0.495476,0.506214,-0.529223,0.501612,-0.492408
5.8436,0.020689,-0.002078,-1.566194,1.566194,0.0000,0.0000,0.0000,-0.005237,-1.567728,1.566194,0.8232,1.0267,0.4184,0.001534,0.520019,-0.495476,0.506214,-0.529223,0.501612,-0.492408
5.8638,0.020121,-0.002068,-1.566194,1.566194,0.0000,0.0000,0.0000,-0.005251,-1.567728,1.566194,0.7824,1.0619,0.4704,0.001534,0.520019,-0.493942,0.506214,-0.529223,0.501612,-0.492408
5.8840,0.020206,-0.002058,-1.566194,1.566194,0.0000,0.0000,0.0000,-0.005249,-1.569262,1.566194,0.8674,1.0566,0.3625,0.001534,0.520019,-0.495476,0.506214,-0.529223,0.500078,-0.492408
5.9041,0.020124,-0.002048,-1.566194,1.566194,0.0000,0.0000,0.0000,-0.005249,-1.567728,1.566194,0.7777,1.0588,0.4763,0.001534,0.520019,-0.493942,0.506214,-0.529223,0.501612,-0.492408
5.9246,0.020535,-0.002038,-1.566194,1.566194,0.0000,0.0000,0.0000,-0.005223,-1.567728,1.566194,0.7775,1.0046,0.3609,0.001534,0.520019,-0.495476,0.506214,-0.529223,0.501612,-0.493942
5.9453,0.020645,-0.002027,-1.566194,1.566194,0.0000,0.0000,0.0000,-0.005213,-1.567728,1.566194,0.7276,0.9919,0.3208,0.001534,0.520019,-0.495476,0.506214,-0.529223,0.501612,-0.495476
5.9654,0.020166,-0.002017,-1.566194,1.566194,0.0000,0.0000,0.0000,-0.005201,-1.567728,1.566194,0.6829,0.9750,0.2729,0.001534,0.520019,-0.495476,0.506214,-0.529223,0.501612,-0.497010
5.9855,0.020093,-0.002007,-1.566194,1.566194,0.0000,0.0000,0.0000,-0.005179,-1.567728,1.566194,0.7003,1.0956,0.0704,0.001534,0.520019,-0.495476,0.506214,-0.532291,0.500078,-0.498544
6.0056,0.020110,-0.001997,-1.566194,1.566194,0.0000,0.0000,0.0000,-0.005119,-1.567728,1.566194,0.6196,1.0477,0.0386,0.001534,0.521553,-0.495476,0.506214,-0.533825,0.501612,-0.501612
6.0263,0.020673,-0.001987,-1.566194,1.566194,0.0000,0.0000,0.0000,-0.005090,-1.569262,1.566194,0.6007,1.1372,-0.1148,0.001534,0.521553,-0.495476,0.506214,-0.536893,0.501612,-0.503146
6.0465,0.020184,-0.001977,-1.566194,1.566194,0.0000,0.0000,0.0000,-0.005020,-1.569262,1.566194,0.5268,1.1595,-0.3079,0.001534,0.523087,-0.495476,0.506214,-0.539961,0.501612,-0.507748
6.0666,0.020095,-0.001967,-1.566194,1.566194,0.0000,0.0000,0.0000,-0.004981,-1.567728,1.566194,0.5582,1.2249,-0.3922,0.001534,0.524621,-0.495476,0.506214,-0.543029,0.501612,-0.509282
6.0867,0.020091,-0.001957,-1.566194,1.566194,0.0000,0.0000,0.0000,-0.004915,-1.567728,1.566194,0.5797,1.2511,-0.4877,0.001534,0.527689,-0.495476,0.506214,-0.546097,0.501612,-0.512350
6.1068,0.020096,-0.001947,-1.566194,1.566194,0.0000,0.0000,0.0000,-0.004899,-1.567728,1.566194,0.5323,1.2968,-0.6866,0.001534,0.527689,-0.495476,0.506214,-0.547631,0.500078,-0.515418
6.1270,0.020204,-0.001937,-1.566194,1.566194,0.0000,0.0000,0.0000,-0.004863,-1.567728,1.566194,0.4968,1.2238,-0.6146,0.001534,0.529223,-0.495476,0.506214,-0.547631,0.501612,-0.516952
6.1471,0.020097,-0.001926,-1.566194,1.566194,0.0000,0.0000,0.0000,-0.004843,-1.569262,1.566194,0.5015,1.1969,-0.6219,0.001534,0.530757,-0.495476,0.506214,-0.547631,0.501612,-0.518486
6.1677,0.020657,-0.001916,-1.566194,1.566194,0.0000,0.0000,0.0000,-0.004822,-1.567728,1.566194,0.5020,1.1652,-0.6209,0.001534,0.532291,-0.495476,0.506214,-0.547631,0.501612,-0.520019
6.1878,0.020097,-0.001906,-1.566194,1.566194,0.0000,0.0000,0.0000,-0.004824,-1.569262,1.566194,0.5019,1.1685,-0.6210,0.001534,0.532291,-0.495476,0.506214,-0.547631,0.501612,-0.520019
6.2079,0.020091,-0.001896,-1.566194,1.566194,0.0000,0.0000,0.0000,-0.004813,-1.567728,1.566194,0.5519,1.1518,-0.5680,0.001534,0.533825,-0.495476,0.506214,-0.547631,0.501612,-0.520019
6.2282,0.020246,-0.001886,-1.566194,1.566194,0.0000,0.0000,0.0000,-0.004814,-1.569262,1.566194,0.5467,1.1535,-0.5735,0.001534,0.533825,-0.495476,0.506214,-0.547631,0.501612,-0.520019
6.2482,0.020087,-0.001876,-1.566194,1.566194,0.0000,0.0000,0.0000,-0.004814,-1.567728,1.566194,0.5467,1.1535,-0.5735,0.001534,0.533825,-0.495476,0.506214,-0.547631,0.501612,-0.520019
6.2685,0.020220,-0.001866,-1.566194,1.566194,0.0000,0.0000,0.0000,-0.004803,-1.569262,1.566194,0.5971,1.1370,-0.5200,0.001534,0.535359,-0.495476,0.506214,-0.547631,0.501612,-0.520019
6.2886,0.020101,-0.001856,-1.566194,1.566194,0.0000,0.0000,0.0000,-0.004815,-1.567728,1.566194,0.5420,1.1551,-0.5785,0.001534,0.533825,-0.495476,0.506214,-0.547631,0.501612,-0.520019
6.3095,0.020915,-0.001845,-1.566194,1.566194,0.0000,0.0000,0.0000,-0.004802,-1.567728,1.566194,0.5976,1.1368,-0.5194,0.001534,0.535359,-0.495476,0.506214,-0.547631,0.501612,-0.520019
6.3296,0.020151,-0.001835,-1.566194,1.566194,0.0000,0.0000,0.0000,-0.004815,-1.569262,1.566194,0.5419,1.1551,-0.5786,0.001534,0.533825,-0.495476,0.506214,-0.547631,0.501612,-0.520019
6.3497,0.020102,-0.001825,-1.566194,1.566194,0.0000,0.0000,0.0000,-0.004814,-1.567728,1.566194,0.5477,1.1532,-0.5724,0.001534,0.533825,-0.495476,0.506214,-0.547631,0.501612,-0.520019
6.3698,0.020096,-0.001815,-1.566194,1.566194,0.0000,0.0000,0.0000,-0.004814,-1.567728,1.566194,0.5477,1.1532,-0.5724,0.001534,0.533825,-0.495476,0.506214,-0.547631,0.501612,-0.520019
6.3899,0.020095,-0.001805,-1.566194,1.566194,0.0000,0.0000,0.0000,-0.004814,-1.569262,1.566194,0.5477,1.1532,-0.5724,0.001534,0.533825,-0.495476,0.506214,-0.547631,0.501612,-0.520019
6.4100,0.020092,-0.001795,-1.566194,1.566194,0.0000,0.0000,0.0000,-0.004814,-1.567728,1.566194,0.5477,1.1532,-0.5724,0.001534,0.533825,-0.495476,0.506214,-0.547631,0.501612,-0.520019
6.4302,0.020193,-0.001785,-1.566194,1.566194,0.0000,0.0000,0.0000,-0.004800,-1.567728,1.566194,0.5056,1.1196,-0.5219,0.001534,0.533825,-0.495476,0.506214,-0.547631,0.503146,-0.520019
6.4503,0.020093,-0.001775,-1.566194,1.566194,0.0000,0.0000,0.0000,-0.004788,-1.567728,1.566194,0.4685,1.0894,-0.4760,0.001534,0.533825,-0.495476,0.506214,-0.547631,0.504680,-0.520019
6.4704,0.020095,-0.001765,-1.566194,1.566194,0.0000,0.0000,0.0000,-0.004751,-1.569262,1.566194,0.4396,1.0088,-0.3252,0.001534,0.535359,-0.495476,0.506214,-0.547631,0.507748,-0.520019
6.4905,0.020098,-0.001755,-1.566194,1.566194,0.0000,0.0000,0.0000,-0.004728,-1.569262,1.566194,0.3601,0.9499,-0.2381,0.001534,0.535359,-0.495476,0.506214,-0.547631,0.510816,-0.520019
6.5106,0.020103,-0.001745,-1.566194,1.566194,0.0000,0.0000,0.0000,-0.004703,-1.567728,1.566194,0.2862,0.8887,-0.1441,0.001534,0.535359,-0.495476,0.506214,-0.547631,0.513884,-0.520019
6.5307,0.020093,-0.001735,-1.566194,1.566194,0.0000,0.0000,0.0000,-0.004693,-1.567728,1.566194,0.2530,0.8615,-0.1023,0.001534,0.535359,-0.495476,0.506214,-0.547631,0.515418,-0.520019
