t,loop_dt,cmd_z,cmd_ant_l,cmd_ant_r,cmd_roll,cmd_pitch,cmd_yaw,pres_z,pres_ant_l,pres_ant_r,pres_roll,pres_pitch,pres_yaw,pres_j0,pres_j1,pres_j2,pres_j3,pres_j4,pres_j5,pres_j6
0.0000,0.000001,-0.005000,-1.573864,1.566194,0.0000,0.0000,0.0000,-0.000332,-1.573864,1.566194,0.2275,0.2625,0.2358,0.001534,0.615126,-0.619728,0.618194,-0.627398,0.624330,-0.605922
0.0201,0.020105,-0.004970,-1.573864,1.566194,0.0000,0.0000,0.0000,-0.000332,-1.573864,1.566194,0.2275,0.2625,0.2358,0.001534,0.615126,-0.619728,0.618194,-0.627398,0.624330,-0.605922
0.0402,0.020097,-0.004940,-1.573864,1.566194,0.0000,0.0000,0.0000,-0.000344,-1.573864,1.566194,0.1897,0.2971,0.2897,0.001534,0.615126,-0.618194,0.618194,-0.627398,0.624330,-0.605922
0.0603,0.020087,-0.004910,-1.573864,1.566194,0.0000,0.0000,0.0000,-0.000331,-1.573864,1.566194,0.2319,0.2585,0.2295,0.001534,0.615126,-0.619728,0.618194,-0.627398,0.624330,-0.605922
0.0804,0.020084,-0.004879,-1.573864,1.566194,0.0000,0.0000,0.0000,-0.000344,-1.573864,1.566194,0.1893,0.2975,0.2904,0.001534,0.615126,-0.618194,0.618194,-0.627398,0.624330,-0.605922
0.1005,0.020091,-0.004849,-1.573864,1.566194,0.0000,0.0000,0.0000,-0.001017,-1.573864,1.566194,0.2038,0.2453,0.2285,0.001534,0.601320,-0.604388,0.602854,-0.613592,0.610524,-0.592117
0.1206,0.020087,-0.004819,-1.573864,1.566194,0.0000,0.0000,0.0000,-0.002438,-1.573864,1.566194,0.2122,0.3751,0.1790,0.001534,0.570641,-0.572175,0.572175,-0.584447,0.578311,-0.561437
0.1406,0.020095,-0.004789,-1.573864,1.566194,0.0000,0.0000,0.0000,-0.003651,-1.573864,1.566194,0.2609,0.4200,0.2354,0.001534,0.544563,-0.543029,0.544563,-0.556835,0.549165,-0.533825
0.1607,0.020083,-0.004759,-1.573864,1.566194,0.0000,0.0000,0.0000,-0.004842,-1.573864,1.566194,0.1357,0.4193,0.3839,0.001534,0.516952,-0.515418,0.520019,-0.527689,0.523087,-0.507748
0.1808,0.020091,-0.004729,-1.573864,1.566194,0.0000,0.0000,0.0000,-0.005614,-1.575398,1.566194,0.0666,0.4208,0.3148,0.001534,0.498544,-0.497010,0.503146,-0.507748,0.503146,-0.492408
0.2009,0.020092,-0.004699,-1.573864,1.566194,0.0000,0.0000,0.0000,-0.005749,-1.575398,1.566194,-0.1277,0.3517,0.2695,0.001534,0.493942,-0.490874,0.498544,-0.501612,0.498544,-0.492408
0.2210,0.020088,-0.004668,-1.573864,1.566194,0.0000,0.0000,0.0000,-0.005773,-1.575398,1.566194,0.0330,0.4285,0.3260,0.001534,0.493942,-0.490874,0.498544,-0.501612,0.497010,-0.489340
0.2411,0.020144,-0.004638,-1.573864,1.566194,0.0000,0.0000,0.0000,-0.005771,-1.575398,1.566194,0.0163,0.4205,0.3201,0.001534,0.493942,-0.490874,0.498544,-0.501612,0.497010,-0.489340
0.2612,0.020087,-0.004608,-1.573864,1.566194,0.0000,0.0000,0.0000,-0.005771,-1.575398,1.566194,0.0186,0.4216,0.3209,0.001534,0.493942,-0.490874,0.498544,-0.501612,0.497010,-0.489340
0.2813,0.020088,-0.004578,-1.573864,1.566194,0.0000,0.0000,0.0000,-0.005771,-1.575398,1.566194,0.0186,0.4216,0.3209,0.001534,0.493942,-0.490874,0.498544,-0.501612,0.497010,-0.489340
0.3014,0.020084,-0.004548,-1.573864,1.566194,0.0000,0.0000,0.0000,-0.005771,-1.575398,1.566194,0.0186,0.4216,0.3209,0.001534,0.493942,-0.490874,0.498544,-0.501612,0.497010,-0.489340
0.3215,0.020087,-0.004518,-1.573864,1.566194,0.0000,0.0000,0.0000,-0.005771,-1.575398,1.566194,0.0186,0.4216,0.3209,0.001534,0.493942,-0.490874,0.498544,-0.501612,0.497010,-0.489340
0.3416,0.020096,-0.004488,-1.573864,1.566194,0.0000,0.0000,0.0000,-0.005771,-1.573864,1.566194,0.0186,0.4216,0.3209,0.001534,0.493942,-0.490874,0.498544,-0.501612,0.497010,-0.489340
0.3617,0.020145,-0.004457,-1.573864,1.566194,0.0000,0.0000,0.0000,-0.005771,-1.575398,1.566194,0.0186,0.4216,0.3209,0.001534,0.493942,-0.490874,0.498544,-0.501612,0.497010,-0.489340
0.3818,0.020089,-0.004427,-1.573864,1.566194,0.0000,0.0000,0.0000,-0.005771,-1.575398,1.566194,0.0186,0.4216,0.3209,0.001534,0.493942,-0.490874,0.498544,-0.501612,0.497010,-0.489340
0.4019,0.020088,-0.004397,-1.573864,1.566194,0.0000,0.0000,0.0000,-0.005771,-1.575398,1.566194,0.0186,0.4216,0.3209,0.001534,0.493942,-0.490874,0.498544,-0.501612,0.497010,-0.489340
0.4220,0.020091,-0.004367,-1.573864,1.566194,0.0000,0.0000,0.0000,-0.005771,-1.575398,1.566194,0.0186,0.4216,0.3209,0.001534,0.493942,-0.490874,0.498544,-0.501612,0.497010,-0.489340
0.4421,0.020128,-0.004337,-1.573864,1.566194,0.0000,0.0000,0.0000,-0.005771,-1.575398,1.566194,0.0186,0.4216,0.3209,0.001534,0.493942,-0.490874,0.498544,-0.501612,0.497010,-0.489340
0.4623,0.020147,-0.004307,-1.573864,1.566194,0.0000,0.0000,0.0000,-0.005771,-1.575398,1.566194,0.0186,0.4216,0.3209,0.001534,0.493942,-0.490874,0.498544,-0.501612,0.497010,-0.489340
0.4824,0.020084,-0.004276,-1.573864,1.566194,0.0000,0.0000,0.0000,-0.005771,-1.575398,1.566194,0.0186,0.4216,0.3209,0.001534,0.493942,-0.490874,0.498544,-0.501612,0.497010,-0.489340
0.5024,0.020083,-0.004246,-1.573864,1.566194,0.0000,0.0000,0.0000,-0.005771,-1.575398,1.566194,0.0186,0.4216,0.3209,0.001534,0.493942,-0.490874,0.498544,-0.501612,0.497010,-0.489340
0.5225,0.020087,-0.004216,-1.573864,1.566194,0.0000,0.0000,0.0000,-0.005771,-1.575398,1.566194,0.0186,0.4216,0.3209,0.001534,0.493942,-0.490874,0.498544,-0.501612,0.497010,-0.489340
0.5426,0.020090,-0.004186,-1.573864,1.566194,0.0000,0.0000,0.0000,-0.005771,-1.575398,1.566194,0.0186,0.4216,0.3209,0.001534,0.493942,-0.490874,0.498544,-0.501612,0.497010,-0.489340
0.5627,0.020091,-0.004156,-1.573864,1.566194,0.0000,0.0000,0.0000,-0.005771,-1.575398,1.566194,0.0186,0.4216,0.3209,0.001534,0.493942,-0.490874,0.498544,-0.501612,0.497010,-0.489340
0.5828,0.020092,-0.004126,-1.573864,1.566194,0.0000,0.0000,0.0000,-0.005771,-1.575398,1.566194,0.0186,0.4216,0.3209,0.001534,0.493942,-0.490874,0.498544,-0.501612,0.497010,-0.489340
0.6029,0.020096,-0.004096,-1.573864,1.566194,0.0000,0.0000,0.0000,-0.005771,-1.575398,1.566194,0.0186,0.4216,0.3209,0.001534,0.493942,-0.490874,0.498544,-0.501612,0.497010,-0.489340
0.6230,0.020097,-0.004066,-1.573864,1.566194,0.0000,0.0000,0.0000,-0.005759,-1.575398,1.566194,0.0280,0.4733,0.2689,0.001534,0.493942,-0.490874,0.498544,-0.503146,0.497010,-0.489340
0.6457,0.022671,-0.004032,-1.573864,1.566194,0.0000,0.0000,0.0000,-0.005772,-1.575398,1.566194,0.0168,0.4159,0.3260,0.001534,0.493942,-0.490874,0.498544,-0.501612,0.497010,-0.489340
0.6658,0.020085,-0.004001,-1.573864,1.566194,0.0000,0.0000,0.0000,-0.005758,-1.575398,1.566194,0.0282,0.4739,0.2684,0.001534,0.493942,-0.490874,0.498544,-0.503146,0.497010,-0.489340
0.6858,0.020083,-0.003971,-1.573864,1.566194,0.0000,0.0000,0.0000,-0.005760,-1.575398,1.566194,0.0270,0.4679,0.2744,0.001534,0.493942,-0.490874,0.498544,-0.503146,0.497010,-0.489340
0.7060,0.020146,-0.003941,-1.573864,1.566194,0.0000,0.0000,0.0000,-0.005760,-1.575398,1.566194,0.0270,0.4679,0.2744,0.001534,0.493942,-0.490874,0.498544,-0.503146,0.497010,-0.489340
0.7261,0.020078,-0.003911,-1.573864,1.566194,0.0000,0.0000,0.0000,-0.005760,-1.575398,1.566194,0.0270,0.4679,0.2744,0.001534,0.493942,-0.490874,0.498544,-0.503146,0.497010,-0.489340
0.7461,0.020084,-0.003881,-1.573864,1.566194,0.0000,0.0000,0.0000,-0.005772,-1.575398,1.566194,0.0169,0.4164,0.3255,0.001534,0.493942,-0.490874,0.498544,-0.501612,0.497010,-0.489340
0.7662,0.020077,-0.003851,-1.573864,1.566194,0.0000,0.0000,0.0000,-0.005758,-1.575398,1.566194,0.0282,0.4739,0.2684,0.001534,0.493942,-0.490874,0.498544,-0.503146,0.497010,-0.489340
0.7863,0.020074,-0.003821,-1.573864,1.566194,0.0000,0.0000,0.0000,-0.005760,-1.575398,1.566194,0.0270,0.4679,0.2744,0.001534,0.493942,-0.490874,0.498544,-0.503146,0.497010,-0.489340
0.8064,0.020085,-0.003790,-1.573864,1.566194,0.0000,0.0000,0.0000,-0.005760,-1.575398,1.566194,0.0270,0.4679,0.2744,0.001534,0.493942,-0.490874,0.498544,-0.503146,0.497010,-0.489340
0.8265,0.020080,-0.003760,-1.573864,1.566194,0.0000,0.0000,0.0000,-0.005760,-1.575398,1.566194,0.0270,0.4679,0.2744,0.001534,0.493942,-0.490874,0.498544,-0.503146,0.497010,-0.489340
0.8465,0.020081,-0.003730,-1.573864,1.566194,0.0000,0.0000,0.0000,-0.005760,-1.575398,1.566194,0.0270,0.4679,0.2744,0.001534,0.493942,-0.490874,0.498544,-0.503146,0.497010,-0.489340
0.8666,0.020086,-0.003700,-1.573864,1.566194,0.0000,0.0000,0.0000,-0.005760,-1.575398,1.566194,0.0270,0.4679,0.2744,0.001534,0.493942,-0.490874,0.498544,-0.503146,0.497010,-0.489340
0.8867,0.020082,-0.003670,-1.573864,1.566194,0.0000,0.0000,0.0000,-0.005760,-1.575398,1.566194,0.0270,0.4679,0.2744,0.001534,0.493942,-0.490874,0.498544,-0.503146,0.497010,-0.489340
0.9068,0.020090,-0.003640,-1.573864,1.566194,0.0000,0.0000,0.0000,-0.005760,-1.575398,1.566194,0.0270,0.4679,0.2744,0.001534,0.493942,-0.490874,0.498544,-0.503146,0.497010,-0.489340
0.9269,0.020072,-0.003610,-1.573864,1.566194,0.0000,0.0000,0.0000,-0.005760,-1.575398,1.566194,0.0270,0.4679,0.1865,0.000000,0.493942,-0.490874,0.498544,-0.503146,0.497010,-0.489340
0.9469,0.020078,-0.003580,-1.573864,1.566194,0.0000,0.0000,0.0000,-0.005760,-1.575398,1.566194,0.0270,0.4679,0.2744,0.001534,0.493942,-0.490874,0.498544,-0.503146,0.497010,-0.489340
0.9670,0.020074,-0.003549,-1.573864,1.566194,0.0000,0.0000,0.0000,-0.005760,-1.575398,1.566194,0.0270,0.4679,0.2744,0.001534,0.493942,-0.490874,0.498544,-0.503146,0.497010,-0.489340
0.9871,0.020074,-0.003519,-1.573864,1.566194,0.0000,0.0000,0.0000,-0.005760,-1.575398,1.566194,0.0270,0.4679,0.2744,0.001534,0.493942,-0.490874,0.498544,-0.503146,0.497010,-0.489340
1.0072,0.020093,-0.003489,-1.573864,1.566194,0.0000,0.0000,0.0000,-0.005760,-1.575398,1.566194,0.0270,0.4679,0.2744,0.001534,0.493942,-0.490874,0.498544,-0.503146,0.497010,-0.489340
1.0273,0.020074,-0.003459,-1.573864,1.566194,0.0000,0.0000,0.0000,-0.005760,-1.575398,1.566194,0.0270,0.4679,0.2744,0.001534,0.493942,-0.490874,0.498544,-0.503146,0.497010,-0.489340
1.0473,0.020079,-0.003429,-1.573864,1.566194,0.0000,0.0000,0.0000,-0.005760,-1.575398,1.566194,0.0270,0.4679,0.2744,0.001534,0.493942,-0.490874,0.498544,-0.503146,0.497010,-0.489340
1.0674,0.020078,-0.003399,-1.573864,1.566194,0.0000,0.0000,0.0000,-0.005760,-1.575398,1.566194,0.0270,0.4679,0.2744,0.001534,0.493942,-0.490874,0.498544,-0.503146,0.497010,-0.489340
1.0875,0.020076,-0.003369,-1.573864,1.566194,0.0000,0.0000,0.0000,-0.005760,-1.575398,1.566194,0.0270,0.4679,0.2744,0.001534,0.493942,-0.490874,0.498544,-0.503146,0.497010,-0.489340
1.1076,0.020076,-0.003339,-1.573864,1.566194,0.0000,0.0000,0.0000,-0.005760,-1.575398,1.566194,0.0270,0.4679,0.2744,0.001534,0.493942,-0.490874,0.498544,-0.503146,0.497010,-0.489340
1.1276,0.020075,-0.003309,-1.573864,1.566194,0.0000,0.0000,0.0000,-0.005760,-1.575398,1.566194,0.0270,0.4679,0.2744,0.001534,0.493942,-0.490874,0.498544,-0.503146,0.497010,-0.489340
1.1477,0.020095,-0.003278,-1.573864,1.566194,0.0000,0.0000,0.0000,-0.005760,-1.575398,1.566194,0.0270,0.4679,0.2744,0.001534,0.493942,-0.490874,0.498544,-0.503146,0.497010,-0.489340
1.1678,0.020080,-0.003248,-1.573864,1.566194,0.0000,0.0000,0.0000,-0.005760,-1.575398,1.566194,0.0270,0.4679,0.2744,0.001534,0.493942,-0.490874,0.498544,-0.503146,0.497010,-0.489340
1.1879,0.020077,-0.003218,-1.573864,1.566194,0.0000,0.0000,0.0000,-0.005760,-1.573864,1.566194,0.0270,0.4679,0.2744,0.001534,0.493942,-0.490874,0.498544,-0.503146,0.497010,-0.489340
1.2080,0.020077,-0.003188,-1.573864,1.566194,0.0000,0.0000,0.0000,-0.005760,-1.575398,1.566194,0.0270,0.4679,0.2744,0.001534,0.493942,-0.490874,0.498544,-0.503146,0.497010,-0.489340
1.2281,0.020078,-0.003158,-1.573864,1.566194,0.0000,0.0000,0.0000,-0.005734,-1.575398,1.566194,-0.0734,0.4335,0.1704,0.001534,0.493942,-0.490874,0.498544,-0.503146,0.497010,-0.492408
1.2482,0.020113,-0.003128,-1.573864,1.566194,0.0000,0.0000,0.0000,-0.005737,-1.575398,1.566194,-0.0629,0.4372,0.1813,0.001534,0.493942,-0.490874,0.498544,-0.503146,0.497010,-0.492408
1.2682,0.020081,-0.003098,-1.573864,1.566194,0.0000,0.0000,0.0000,-0.005724,-1.575398,1.566194,-0.0537,0.4888,0.1284,0.001534,0.493942,-0.490874,0.498544,-0.504680,0.497010,-0.492408
1.2885,0.020298,-0.003067,-1.573864,1.566194,0.0000,0.0000,0.0000,-0.005725,-1.573864,1.566194,-0.0546,0.4834,0.1339,0.001534,0.493942,-0.490874,0.498544,-0.504680,0.497010,-0.492408
1.3086,0.020091,-0.003037,-1.573864,1.566194,0.0000,0.0000,0.0000,-0.005700,-1.575398,1.566194,-0.0444,0.4323,0.2366,0.001534,0.495476,-0.490874,0.498544,-0.504680,0.498544,-0.492408
1.3287,0.020072,-0.003007,-1.573864,1.566194,0.0000,0.0000,0.0000,-0.005690,-1.575398,1.566194,-0.0352,0.4896,0.1741,0.001534,0.495476,-0.490874,0.498544,-0.506214,0.498544,-0.492408
1.3488,0.020084,-0.002977,-1.573864,1.566194,0.0000,0.0000,0.0000,-0.005679,-1.575398,1.566194,-0.0258,0.5356,0.1287,0.001534,0.495476,-0.490874,0.498544,-0.507748,0.498544,-0.492408
1.3689,0.020076,-0.002947,-1.573864,1.566194,0.0000,0.0000,0.0000,-0.005655,-1.573864,1.566194,-0.0566,0.5481,0.1331,0.001534,0.495476,-0.490874,0.498544,-0.509282,0.500078,-0.492408
1.3889,0.020081,-0.002917,-1.573864,1.566194,0.0000,0.0000,0.0000,-0.005633,-1.575398,1.566194,-0.0832,0.5641,0.1322,0.001534,0.495476,-0.490874,0.498544,-0.510816,0.501612,-0.492408
1.4090,0.020092,-0.002886,-1.573864,1.566194,0.0000,0.0000,0.0000,-0.005611,-1.575398,1.566194,-0.0598,0.6661,0.0284,0.001534,0.495476,-0.490874,0.498544,-0.513884,0.501612,-0.492408
1.4291,0.020073,-0.002856,-1.573864,1.566194,0.0000,0.0000,0.0000,-0.005601,-1.575398,1.566194,-0.0518,0.7071,-0.0128,0.001534,0.495476,-0.490874,0.498544,-0.515418,0.501612,-0.492408
1.4492,0.020086,-0.002826,-1.573864,1.566194,0.0000,0.0000,0.0000,-0.005590,-1.575398,1.566194,-0.0423,0.7545,-0.0606,0.001534,0.495476,-0.490874,0.498544,-0.516952,0.501612,-0.492408
1.4693,0.020077,-0.002796,-1.573864,1.566194,0.0000,0.0000,0.0000,-0.005567,-1.575398,1.566194,-0.0224,0.8528,-0.1598,0.001534,0.495476,-0.490874,0.498544,-0.520019,0.501612,-0.492408
1.4894,0.020082,-0.002766,-1.573864,1.566194,0.0000,0.0000,0.0000,-0.005557,-1.575398,1.566194,0.0259,0.8258,-0.0975,0.001534,0.497010,-0.490874,0.498544,-0.520019,0.501612,-0.492408
1.5094,0.020076,-0.002736,-1.573864,1.566194,0.0000,0.0000,0.0000,-0.005534,-1.575398,1.566194,0.0818,0.8634,-0.1041,0.001534,0.498544,-0.490874,0.498544,-0.521553,0.501612,-0.492408
1.5295,0.020084,-0.002706,-1.573864,1.566194,0.0000,0.0000,0.0000,-0.005525,-1.575398,1.566194,0.0865,0.9110,-0.1556,0.001534,0.498544,-0.490874,0.498544,-0.523087,0.501612,-0.492408
1.5496,0.020116,-0.002676,-1.573864,1.566194,0.0000,0.0000,0.0000,-0.005502,-1.575398,1.566194,0.1470,0.9409,-0.1503,0.001534,0.500078,-0.490874,0.498544,-0.524621,0.501612,-0.492408
1.5697,0.020082,-0.002645,-1.573864,1.566194,0.0000,0.0000,0.0000,-0.005480,-1.575398,1.566194,0.2017,0.9726,-0.1509,0.001534,0.501612,-0.490874,0.498544,-0.526155,0.501612,-0.492408
1.5898,0.020075,-0.002615,-1.573864,1.566194,0.0000,0.0000,0.0000,-0.005471,-1.575398,1.566194,0.2464,0.9527,-0.0987,0.001534,0.503146,-0.490874,0.498544,-0.526155,0.501612,-0.492408
1.6099,0.020080,-0.002585,-1.573864,1.566194,0.0000,0.0000,0.0000,-0.005460,-1.575398,1.566194,0.2920,0.9383,-0.0520,0.001534,0.504680,-0.490874,0.498544,-0.526155,0.501612,-0.492408
1.6300,0.020137,-0.002555,-1.573864,1.566194,0.0000,0.0000,0.0000,-0.005449,-1.575398,1.566194,0.3376,0.9234,-0.0047,0.001534,0.506214,-0.490874,0.498544,-0.526155,0.501612,-0.492408
1.6501,0.020084,-0.002525,-1.573864,1.566194,0.0000,0.0000,0.0000,-0.005438,-1.575398,1.566194,0.3831,0.9086,0.0426,0.001534,0.507748,-0.490874,0.498544,-0.526155,0.501612,-0.492408
1.6702,0.020080,-0.002495,-1.573864,1.566194,0.0000,0.0000,0.0000,-0.005427,-1.575398,1.566194,0.4286,0.8938,0.0899,0.001534,0.509282,-0.490874,0.498544,-0.526155,0.501612,-0.492408
1.6902,0.020075,-0.002465,-1.573864,1.566194,0.0000,0.0000,0.0000,-0.005405,-1.575398,1.566194,0.4849,0.9305,0.0851,0.001534,0.510816,-0.490874,0.498544,-0.527689,0.501612,-0.492408
1.7103,0.020083,-0.002435,-1.573864,1.566194,0.0000,0.0000,0.0000,-0.005382,-1.575398,1.566194,0.5186,0.9629,0.1898,0.001534,0.512350,-0.490874,0.500078,-0.527689,0.501612,-0.492408
1.7304,0.020086,-0.002404,-1.573864,1.566194,0.0000,0.0000,0.0000,-0.005362,-1.575398,1.566194,0.5761,0.9948,0.1792,0.001534,0.513884,-0.490874,0.500078,-0.529223,0.501612,-0.492408
1.7505,0.020076,-0.002374,-1.573864,1.566194,0.0000,0.0000,0.0000,-0.005364,-1.575398,1.566194,0.5701,0.9915,0.1803,0.001534,0.513884,-0.490874,0.500078,-0.529223,0.501612,-0.492408
1.7705,0.020050,-0.002344,-1.573864,1.566194,0.0000,0.0000,0.0000,-0.005339,-1.575398,1.566194,0.6102,1.0281,0.2845,0.001534,0.515418,-0.490874,0.501612,-0.529223,0.501612,-0.492408
1.7906,0.020076,-0.002314,-1.573864,1.566194,0.0000,0.0000,0.0000,-0.005292,-1.575398,1.566194,0.6456,1.1644,0.3779,0.001534,0.516952,-0.490874,0.504680,-0.530757,0.501612,-0.492408
1.8107,0.020077,-0.002284,-1.573864,1.566194,0.0000,0.0000,0.0000,-0.005237,-1.575398,1.566194,0.7530,1.2734,0.4212,0.001534,0.520019,-0.490874,0.506214,-0.533825,0.501612,-0.492408
1.8308,0.020086,-0.002254,-1.573864,1.566194,0.0000,0.0000,0.0000,-0.005192,-1.575398,1.566194,0.7201,1.3321,0.5214,0.001534,0.521553,-0.490874,0.509282,-0.533825,0.501612,-0.493942
1.8509,0.020080,-0.002224,-1.573864,1.566194,0.0000,0.0000,0.0000,-0.005135,-1.575398,1.566194,0.7126,1.4474,0.5637,0.001534,0.523087,-0.490874,0.512350,-0.535359,0.501612,-0.495476
1.8710,0.020101,-0.002194,-1.573864,1.566194,0.0000,0.0000,0.0000,-0.005078,-1.575398,1.566194,0.7023,1.5567,0.6121,0.001534,0.524621,-0.490874,0.515418,-0.536893,0.501612,-0.497010
1.8910,0.020079,-0.002163,-1.573864,1.566194,0.0000,0.0000,0.0000,-0.005035,-1.575398,1.566194,0.7420,1.6849,0.7124,0.001534,0.526155,-0.490874,0.518486,-0.538427,0.501612,-0.497010
1.9111,0.020095,-0.002133,-1.573864,1.566194,0.0000,0.0000,0.0000,-0.005035,-1.575398,1.566194,0.7420,1.6849,0.7124,0.001534,0.526155,-0.490874,0.518486,-0.538427,0.501612,-0.497010
1.9312,0.020085,-0.002103,-1.573864,1.566194,0.0000,0.0000,0.0000,-0.004978,-1.575398,1.566194,0.6879,1.7222,0.6501,0.001534,0.527689,-0.490874,0.520019,-0.539961,0.501612,-0.500078
1.9513,0.020084,-0.002073,-1.573864,1.566194,0.0000,0.0000,0.0000,-0.004947,-1.575398,1.566194,0.6439,1.8034,0.6041,0.001534,0.527689,-0.490874,0.521553,-0.541495,0.501612,-0.501612
1.9714,0.020091,-0.002043,-1.573864,1.566194,0.0000,0.0000,0.0000,-0.004925,-1.575398,1.566194,0.5874,1.8285,0.6087,0.001534,0.527689,-0.490874,0.523087,-0.541495,0.501612,-0.503146
1.9915,0.020082,-0.002013,-1.573864,1.566194,0.0000,0.0000,0.0000,-0.004914,-1.575398,1.566194,0.5818,1.8778,0.6606,0.001534,0.527689,-0.490874,0.524621,-0.541495,0.501612,-0.503146
2.0116,0.020097,-0.001983,-1.573864,1.566194,0.0000,0.0000,0.0000,-0.004915,-1.575398,1.566194,0.5824,1.8726,0.6552,0.001534,0.527689,-0.490874,0.524621,-0.541495,0.501612,-0.503146
2.0317,0.020092,-0.001952,-1.573864,1.566194,0.0000,0.0000,0.0000,-0.004904,-1.575398,1.566194,0.5938,1.9248,0.6034,0.001534,0.527689,-0.490874,0.524621,-0.544563,0.501612,-0.503146
2.0519,0.020247,-0.001922,-1.573864,1.566194,0.0000,0.0000,0.0000,-0.004893,-1.575398,1.566194,0.6041,1.9709,0.5565,0.001534,0.527689,-0.490874,0.524621,-0.544563,0.501612,-0.503146
2.0721,0.020198,-0.001892,-1.573864,1.566194,0.0000,0.0000,0.0000,-0.004894,-1.575398,1.566194,0.6031,1.9660,0.5614,0.001534,0.527689,-0.490874,0.524621,-0.544563,0.501612,-0.503146
2.0922,0.020090,-0.001862,-1.573864,1.566194,0.0000,0.0000,0.0000,-0.004869,-1.575398,1.566194,0.5738,1.9841,0.5594,0.001534,0.527689,-0.490874,0.524621,-0.546097,0.503146,-0.503146
2.1123,0.020097,-0.001832,-1.573864,1.566194,0.0000,0.0000,0.0000,-0.004869,-1.575398,1.566194,0.5738,1.9841,0.5594,0.001534,0.527689,-0.490874,0.524621,-0.546097,0.503146,-0.503146
2.1324,0.020086,-0.001801,-1.573864,1.566194,0.0000,0.0000,0.0000,-0.004847,-1.575398,1.566194,0.5476,1.9998,0.5581,0.001534,0.527689,-0.490874,0.524621,-0.547631,0.504680,-0.503146
2.1525,0.020088,-0.001771,-1.573864,1.566194,0.0000,0.0000,0.0000,-0.004810,-1.575398,1.566194,0.4190,1.9120,0.6075,0.001534,0.527689,-0.490874,0.524621,-0.549165,0.509282,-0.506214
2.1737,0.021180,-0.001740,-1.573864,1.566194,0.0000,0.0000,0.0000,-0.004777,-1.575398,1.566194,0.3534,1.9204,0.5482,0.001534,0.527689,-0.490874,0.524621,-0.549165,0.509282,-0.506214
2.1937,0.020082,-0.001709,-1.573864,1.566194,0.0000,0.0000,0.0000,-0.004707,-1.575398,1.566194,0.1713,1.8279,0.6374,0.001534,0.527689,-0.490874,0.524621,-0.550699,0.515418,-0.507748
2.2138,0.020104,-0.001679,-1.573864,1.566194,0.0000,0.0000,0.0000,-0.004660,-1.575398,1.566194,0.0496,1.8077,0.5380,0.001534,0.527689,-0.490874,0.524621,-0.552233,0.516952,-0.510816
2.2339,0.020086,-0.001649,-1.573864,1.566194,0.0000,0.0000,0.0000,-0.004660,-1.575398,1.566194,0.0496,1.8077,0.5380,0.001534,0.530757,-0.490874,0.524621,-0.552233,0.520019,-0.515418
2.2540,0.020088,-0.001619,-1.573864,1.566194,0.0000,0.0000,0.0000,-0.004587,-1.575398,1.566194,-0.0560,1.6711,0.5931,0.001534,0.530757,-0.490874,0.524621,-0.552233,0.520019,-0.515418
2.2741,0.020098,-0.001589,-1.573864,1.566194,0.0000,0.0000,0.0000,-0.004587,-1.575398,1.566194,-0.0560,1.6711,0.5931,0.001534,0.532291,-0.490874,0.524621,-0.553767,0.521553,-0.518486
2.2942,0.020089,-0.001559,-1.573864,1.566194,0.0000,0.0000,0.0000,-0.004471,-1.575398,1.566194,-0.1069,1.6056,0.5980,0.001534,0.535359,-0.490874,0.524621,-0.555301,0.523087,-0.520019
2.3148,0.020584,-0.001528,-1.573864,1.566194,0.0000,0.0000,0.0000,-0.004471,-1.575398,1.566194,-0.1069,1.6056,0.5980,0.001534,0.535359,-0.490874,0.524621,-0.555301,0.523087,-0.520019
2.3349,0.020081,-0.001498,-1.573864,1.566194,0.0000,0.0000,0.0000,-0.004389,-1.575398,1.566194,-0.0533,1.5497,0.5887,0.001534,0.541495,-0.490874,0.524621,-0.556835,0.523087,-0.524621
2.3549,0.020083,-0.001468,-1.573864,1.566194,0.0000,0.0000,0.0000,-0.004369,-1.575398,1.566194,-0.0538,1.5126,0.5951,0.001534,0.543029,-0.490874,0.524621,-0.556835,0.523087,-0.526155
2.3750,0.020095,-0.001437,-1.573864,1.566194,0.0000,0.0000,0.0000,-0.004369,-1.575398,1.566194,-0.0538,1.5126,0.5951,0.001534,0.543029,-0.490874,0.524621,-0.556835,0.523087,-0.526155
2.3951,0.020083,-0.001407,-1.573864,1.566194,0.0000,0.0000,0.0000,-0.004359,-1.575398,1.566194,-0.0979,1.4995,0.5471,0.001534,0.543029,-0.490874,0.524621,-0.556835,0.523087,-0.527689
2.4152,0.020114,-0.001377,-1.573864,1.566194,0.0000,0.0000,0.0000,-0.004359,-1.575398,1.566194,-0.0979,1.4995,0.5471,0.001534,0.543029,-0.490874,0.524621,-0.556835,0.523087,-0.527689
2.4353,0.020091,-0.001347,-1.573864,1.566194,0.0000,0.0000,0.0000,-0.004359,-1.575398,1.566194,-0.0979,1.4995,0.5471,0.001534,0.543029,-0.490874,0.524621,-0.556835,0.523087,-0.527689
2.4554,0.020087,-0.001317,-1.573864,1.566194,0.0000,0.0000,0.0000,-0.004359,-1.575398,1.566194,-0.0979,1.4995,0.5471,0.001534,0.543029,-0.490874,0.524621,-0.556835,0.523087,-0.527689
2.4755,0.020090,-0.001287,-1.573864,1.566194,0.0000,0.0000,0.0000,-0.004348,-1.575398,1.566194,-0.0867,1.5507,0.4935,0.001534,0.543029,-0.490874,0.524621,-0.558369,0.523087,-0.527689
2.4956,0.020121,-0.001257,-1.573864,1.566194,0.0000,0.0000,0.0000,-0.004349,-1.575398,1.566194,-0.0879,1.5453,0.4991,0.001534,0.543029,-0.490874,0.524621,-0.558369,0.523087,-0.527689
2.5157,0.020102,-0.001226,-1.573864,1.566194,0.0000,0.0000,0.0000,-0.004349,-1.575398,1.566194,-0.0879,1.5453,0.4991,0.001534,0.543029,-0.490874,0.524621,-0.559903,0.523087,-0.527689
2.5358,0.020095,-0.001196,-1.573864,1.566194,0.0000,0.0000,0.0000,-0.004328,-1.575398,1.566194,-0.0654,1.6429,0.3980,0.001534,0.543029,-0.490874,0.524621,-0.561437,0.523087,-0.527689
2.5559,0.020093,-0.001166,-1.573864,1.566194,0.0000,0.0000,0.0000,-0.004328,-1.575398,1.566194,-0.0654,1.6429,0.3980,0.001534,0.543029,-0.490874,0.524621,-0.561437,0.523087,-0.527689
2.5760,0.020100,-0.001136,-1.573864,1.566194,0.0000,0.0000,0.0000,-0.004329,-1.575398,1.566194,-0.0665,1.6382,0.4029,0.001534,0.543029,-0.490874,0.524621,-0.561437,0.523087,-0.527689
2.5961,0.020098,-0.001106,-1.573864,1.566194,0.0000,0.0000,0.0000,-0.004278,-1.575398,1.566194,-0.0898,1.8461,0.5058,0.001534,0.543029,-0.490874,0.529223,-0.562971,0.523087,-0.527689
2.6162,0.020105,-0.001076,-1.573864,1.566194,0.0000,0.0000,0.0000,-0.004278,-1.575398,1.566194,-0.0898,1.8461,0.5058,0.001534,0.543029,-0.490874,0.529223,-0.562971,0.523087,-0.527689
2.6363,0.020089,-0.001046,-1.573864,1.566194,0.0000,0.0000,0.0000,-0.004212,-1.575398,1.566194,-0.1101,2.1205,0.5937,0.001534,0.543029,-0.490874,0.535359,-0.566039,0.523087,-0.527689
2.6564,0.020099,-0.001015,-1.573864,1.566194,0.0000,0.0000,0.0000,-0.004212,-1.575398,1.566194,-0.1101,2.1205,0.5937,0.001534,0.543029,-0.490874,0.535359,-0.566039,0.523087,-0.527689
2.6765,0.020088,-0.000985,-1.573864,1.566194,0.0000,0.0000,0.0000,-0.004177,-1.575398,1.566194,-0.1448,2.2611,0.7458,0.001534,0.543029,-0.490874,0.543029,-0.567573,0.523087,-0.527689
2.6966,0.020088,-0.000955,-1.573864,1.566194,0.0000,0.0000,0.0000,-0.004144,-1.575398,1.566194,-0.1533,2.4010,0.7817,0.001534,0.544563,-0.490874,0.544563,-0.570641,0.523087,-0.527689
2.7167,0.020100,-0.000925,-1.573864,1.566194,0.0000,0.0000,0.0000,-0.004102,-1.575398,1.566194,-0.0913,2.5248,0.7779,0.001534,0.544563,-0.490874,0.544563,-0.570641,0.523087,-0.527689
2.7368,0.020088,-0.000895,-1.573864,1.566194,0.0000,0.0000,0.0000,-0.004030,-1.575398,1.566194,0.0220,2.5794,0.7829,0.001534,0.546097,-0.493942,0.547631,-0.572175,0.523087,-0.527689
2.7569,0.020093,-0.000865,-1.573864,1.566194,0.0000,0.0000,0.0000,-0.003936,-1.575398,1.566194,0.2206,2.5899,0.7904,0.001534,0.550699,-0.503146,0.550699,-0.573709,0.523087,-0.527689
2.7770,0.020103,-0.000835,-1.573864,1.566194,0.0000,0.0000,0.0000,-0.003892,-1.575398,1.566194,0.3727,2.4665,0.6908,0.001534,0.550699,-0.503146,0.550699,-0.573709,0.523087,-0.527689
2.7971,0.020093,-0.000804,-1.573864,1.566194,0.0000,0.0000,0.0000,-0.003818,-1.575398,1.566194,0.6196,2.3057,0.6044,0.001534,0.558369,-0.515418,0.550699,-0.573709,0.526155,-0.530757
2.8177,0.020637,-0.000773,-1.573864,1.566194,0.0000,0.0000,0.0000,-0.003684,-1.575398,1.566194,0.7247,2.0288,0.5653,0.001534,0.558369,-0.515418,0.550699,-0.573709,0.526155,-0.530757
2.8378,0.020088,-0.000743,-1.573864,1.566194,0.0000,0.0000,0.0000,-0.003605,-1.575398,1.566194,0.8354,1.8481,0.4144,0.001534,0.562971,-0.527689,0.550699,-0.576777,0.529223,-0.535359
2.8579,0.020091,-0.000713,-1.573864,1.566194,0.0000,0.0000,0.0000,-0.003475,-1.575398,1.566194,0.9684,1.7254,0.1687,0.001534,0.566039,-0.530757,0.550699,-0.576777,0.532291,-0.538427
2.8780,0.020096,-0.000683,-1.573864,1.566194,0.0000,0.0000,0.0000,-0.003387,-1.575398,1.566194,0.9535,1.5317,0.1941,0.001534,0.566039,-0.530757,0.550699,-0.576777,0.532291,-0.538427
2.8981,0.020097,-0.000653,-1.573864,1.566194,0.0000,0.0000,0.0000,-0.003294,-1.575398,1.566194,0.9973,1.4107,-0.0199,0.001534,0.567573,-0.538427,0.550699,-0.578311,0.533825,-0.543029
2.9182,0.020081,-0.000623,-1.573864,1.566194,0.0000,0.0000,0.0000,-0.003264,-1.575398,1.566194,1.0232,1.3347,-0.1560,0.001534,0.567573,-0.538427,0.550699,-0.578311,0.533825,-0.543029
2.9382,0.020084,-0.000593,-1.573864,1.566194,0.0000,0.0000,0.0000,-0.003217,-1.575398,1.566194,1.0495,1.3255,-0.1407,0.001534,0.569107,-0.539961,0.552233,-0.578311,0.533825,-0.544563
2.9583,0.020071,-0.000563,-1.573864,1.566194,0.0000,0.0000,0.0000,-0.003183,-1.573864,1.566194,1.0260,1.3253,-0.1950,0.001534,0.569107,-0.541495,0.553767,-0.578311,0.533825,-0.546097
2.9784,0.020054,-0.000532,-1.573864,1.566194,0.0000,0.0000,0.0000,-0.003186,-1.575398,1.566194,1.0285,1.3253,-0.1894,0.001534,0.569107,-0.541495,0.553767,-0.578311,0.533825,-0.546097
2.9984,0.020081,-0.000502,-1.573864,1.566194,0.0000,0.0000,0.0000,-0.003186,-1.575398,1.566194,1.0281,1.3253,-0.1902,0.001534,0.569107,-0.541495,0.553767,-0.578311,0.533825,-0.546097
3.0185,0.020077,-0.000472,-1.573864,1.566194,0.0000,0.0000,0.0000,-0.003186,-1.575398,1.566194,1.0281,1.3253,-0.1902,0.001534,0.569107,-0.541495,0.553767,-0.578311,0.533825,-0.546097
3.0386,0.020093,-0.000442,-1.573864,1.566194,0.0000,0.0000,0.0000,-0.003175,-1.575398,1.566194,1.0400,1.3761,-0.2430,0.001534,0.569107,-0.541495,0.553767,-0.579845,0.533825,-0.546097
3.0587,0.020076,-0.000412,-1.573864,1.566194,0.0000,0.0000,0.0000,-0.003151,-1.575398,1.566194,1.0097,1.3875,-0.2388,0.001534,0.569107,-0.541495,0.553767,-0.581379,0.535359,-0.546097
3.0788,0.020086,-0.000382,-1.573864,1.566194,0.0000,0.0000,0.0000,-0.003141,-1.575398,1.566194,0.9720,1.3524,-0.1874,0.001534,0.569107,-0.541495,0.553767,-0.581379,0.536893,-0.546097
3.0989,0.020085,-0.000352,-1.573864,1.566194,0.0000,0.0000,0.0000,-0.003142,-1.575398,1.566194,0.9759,1.3561,-0.1928,0.001534,0.569107,-0.541495,0.553767,-0.581379,0.536893,-0.546097
3.1189,0.020081,-0.000322,-1.573864,1.566194,0.0000,0.0000,0.0000,-0.003117,-1.575398,1.566194,0.9464,1.3725,-0.1936,0.001534,0.569107,-0.541495,0.553767,-0.582913,0.538427,-0.546097
3.1390,0.020092,-0.000291,-1.573864,1.566194,0.0000,0.0000,0.0000,-0.003082,-1.575398,1.566194,0.8796,1.3537,-0.1428,0.001534,0.569107,-0.541495,0.553767,-0.584447,0.541495,-0.546097
3.1591,0.020081,-0.000261,-1.573864,1.566194,0.0000,0.0000,0.0000,-0.003048,-1.575398,1.566194,0.8972,1.3370,-0.2020,0.001534,0.569107,-0.543029,0.553767,-0.585981,0.543029,-0.546097
3.1792,0.020090,-0.000231,-1.573864,1.566194,0.0000,0.0000,0.0000,-0.003025,-1.575398,1.566194,0.8943,1.2695,-0.1964,0.001534,0.569107,-0.544563,0.553767,-0.585981,0.544563,-0.546097
3.1993,0.020085,-0.000201,-1.573864,1.566194,0.0000,0.0000,0.0000,-0.003016,-1.575398,1.566194,0.9061,1.3271,-0.2503,0.001534,0.569107,-0.544563,0.553767,-0.587515,0.544563,-0.546097
3.2194,0.020082,-0.000171,-1.573864,1.566194,0.0000,0.0000,0.0000,-0.002969,-1.575398,1.566194,0.8466,1.3545,-0.2473,0.001534,0.569107,-0.544563,0.553767,-0.590583,0.547631,-0.546097
3.2395,0.020093,-0.000141,-1.573864,1.566194,0.0000,0.0000,0.0000,-0.002912,-1.575398,1.566194,0.9020,1.3692,-0.1943,0.001534,0.570641,-0.546097,0.555301,-0.592117,0.549165,-0.546097
3.2595,0.020081,-0.000111,-1.573864,1.566194,0.0000,0.0000,0.0000,-0.002856,-1.575398,1.566194,0.9455,1.3852,-0.1465,0.001534,0.572175,-0.547631,0.556835,-0.593651,0.550699,-0.546097
3.2796,0.020093,-0.000081,-1.573864,1.566194,0.0000,0.0000,0.0000,-0.002849,-1.575398,1.566194,0.9004,1.3499,-0.0993,0.001534,0.572175,-0.547631,0.556835,-0.593651,0.552233,-0.546097
3.2997,0.020088,-0.000050,-1.573864,1.566194,0.0000,0.0000,0.0000,-0.002837,-1.575398,1.566194,0.9446,1.3179,-0.1569,0.001534,0.572175,-0.549165,0.556835,-0.593651,0.552233,-0.546097
3.3198,0.020079,-0.000020,-1.573864,1.566194,0.0000,0.0000,0.0000,-0.002838,-1.575398,1.566194,0.9399,1.3212,-0.1509,0.001534,0.572175,-0.549165,0.556835,-0.593651,0.552233,-0.546097
3.3399,0.020091,0.000010,-1.573864,1.566194,0.0000,0.0000,0.0000,-0.002838,-1.575398,1.566194,0.9399,1.3212,-0.1509,0.001534,0.572175,-0.549165,0.556835,-0.593651,0.552233,-0.546097
3.3600,0.020079,0.000040,-1.573864,1.566194,0.0000,0.0000,0.0000,-0.002838,-1.575398,1.566194,0.9399,1.3212,-0.1509,0.001534,0.572175,-0.549165,0.556835,-0.593651,0.552233,-0.546097
3.3801,0.020094,0.000070,-1.573864,1.566194,0.0000,0.0000,0.0000,-0.002825,-1.575398,1.566194,0.8911,1.3029,-0.2051,0.001534,0.572175,-0.549165,0.556835,-0.593651,0.552233,-0.547631
3.4002,0.020086,0.000100,-1.573864,1.566194,0.0000,0.0000,0.0000,-0.002789,-1.575398,1.566194,0.9362,1.2356,-0.2519,0.001534,0.573709,-0.550699,0.556835,-0.593651,0.552233,-0.549165
3.4202,0.020083,0.000130,-1.573864,1.566194,0.0000,0.0000,0.0000,-0.002756,-1.575398,1.566194,0.9331,1.2395,-0.4069,0.001534,0.573709,-0.552233,0.556835,-0.595185,0.552233,-0.550699
3.4403,0.020092,0.000160,-1.573864,1.566194,0.0000,0.0000,0.0000,-0.002698,-1.575398,1.566194,0.9742,1.1365,-0.4430,0.001534,0.576777,-0.553767,0.556835,-0.595185,0.552233,-0.553767
3.4604,0.020082,0.000191,-1.573864,1.566194,0.0000,0.0000,0.0000,-0.002629,-1.575398,1.566194,1.0117,1.0751,-0.6522,0.001534,0.578311,-0.556835,0.556835,-0.596719,0.552233,-0.556835
3.4805,0.020051,0.000221,-1.573864,1.566194,0.0000,0.0000,0.0000,-0.002574,-1.575398,1.566194,0.9580,0.9611,-0.6846,0.001534,0.579845,-0.558369,0.556835,-0.596719,0.553767,-0.559903
3.5005,0.020081,0.000251,-1.573864,1.566194,0.0000,0.0000,0.0000,-0.002507,-1.575398,1.566194,1.0244,0.9046,-0.6813,0.001534,0.582913,-0.559903,0.556835,-0.598253,0.555301,-0.561437
3.5206,0.020082,0.000281,-1.573864,1.566194,0.0000,0.0000,0.0000,-0.002477,-1.573864,1.566194,1.0574,0.8416,-0.7346,0.001534,0.584447,-0.561437,0.556835,-0.598253,0.555301,-0.562971
3.5407,0.020087,0.000311,-1.573864,1.566194,0.0000,0.0000,0.0000,-0.002432,-1.575398,1.566194,1.0556,0.9171,-0.7288,0.001534,0.585981,-0.561437,0.558369,-0.599786,0.555301,-0.564505
3.5608,0.020082,0.000341,-1.573864,1.566194,0.0000,0.0000,0.0000,-0.002399,-1.575398,1.566194,1.0537,0.9120,-0.5693,0.001534,0.587515,-0.561437,0.559903,-0.599786,0.556835,-0.564505
3.5809,0.020086,0.000371,-1.573864,1.566194,0.0000,0.0000,0.0000,-0.002350,-1.575398,1.566194,0.9923,0.8779,-0.5870,0.001534,0.587515,-0.562971,0.561437,-0.599786,0.558369,-0.566039
3.6010,0.020082,0.000401,-1.573864,1.566194,0.0000,0.0000,0.0000,-0.002341,-1.575398,1.566194,0.9375,1.0211,-0.4247,0.001534,0.587515,-0.561437,0.564505,-0.599786,0.558369,-0.566039
3.6210,0.020084,0.000432,-1.573864,1.566194,0.0000,0.0000,0.0000,-0.002316,-1.575398,1.566194,0.8830,1.0404,-0.4419,0.001534,0.587515,-0.561437,0.566039,-0.599786,0.558369,-0.567573
3.6411,0.020085,0.000462,-1.573864,1.566194,0.0000,0.0000,0.0000,-0.002292,-1.575398,1.566194,0.8663,1.1423,-0.3328,0.001534,0.587515,-0.561437,0.569107,-0.599786,0.558369,-0.567573
3.6612,0.020074,0.000492,-1.573864,1.566194,0.0000,0.0000,0.0000,-0.002255,-1.575398,1.566194,0.8849,1.2000,-0.2898,0.001534,0.587515,-0.562971,0.572175,-0.599786,0.558369,-0.567573
3.6813,0.020084,0.000522,-1.573864,1.566194,0.0000,0.0000,0.0000,-0.002259,-1.575398,1.566194,0.8830,1.1939,-0.2943,0.001534,0.587515,-0.562971,0.572175,-0.599786,0.558369,-0.567573
3.7014,0.020074,0.000552,-1.573864,1.566194,0.0000,0.0000,0.0000,-0.002259,-1.575398,1.566194,0.8832,1.1948,-0.2937,0.001534,0.587515,-0.562971,0.572175,-0.599786,0.558369,-0.567573
3.7214,0.020081,0.000582,-1.573864,1.566194,0.0000,0.0000,0.0000,-0.002272,-1.575398,1.566194,0.8437,1.2297,-0.2408,0.001534,0.587515,-0.561437,0.572175,-0.599786,0.558369,-0.567573
3.7415,0.020078,0.000612,-1.573864,1.566194,0.0000,0.0000,0.0000,-0.002271,-1.575398,1.566194,0.8478,1.2261,-0.2463,0.001534,0.587515,-0.561437,0.572175,-0.599786,0.558369,-0.567573
3.7616,0.020096,0.000642,-1.573864,1.566194,0.0000,0.0000,0.0000,-0.002260,-1.575398,1.566194,0.8591,1.2768,-0.2994,0.001534,0.587515,-0.561437,0.572175,-0.601320,0.558369,-0.567573
3.7817,0.020082,0.000673,-1.573864,1.566194,0.0000,0.0000,0.0000,-0.002248,-1.575398,1.566194,0.8974,1.2363,-0.3470,0.001534,0.587515,-0.562971,0.572175,-0.601320,0.558369,-0.567573
3.8018,0.020074,0.000703,-1.573864,1.566194,0.0000,0.0000,0.0000,-0.002251,-1.575398,1.566194,0.8657,1.3261,-0.3427,0.001534,0.587515,-0.561437,0.572175,-0.602854,0.558369,-0.567573
3.8218,0.020076,0.000733,-1.573864,1.566194,0.0000,0.0000,0.0000,-0.002251,-1.575398,1.566194,0.8690,1.3167,-0.3431,0.001534,0.587515,-0.561437,0.572175,-0.602854,0.558369,-0.567573
3.8419,0.020078,0.000763,-1.573864,1.566194,0.0000,0.0000,0.0000,-0.002237,-1.575398,1.566194,0.9081,1.2824,-0.3961,0.001534,0.587515,-0.562971,0.572175,-0.602854,0.558369,-0.567573
3.8620,0.020081,0.000793,-1.573864,1.566194,0.0000,0.0000,0.0000,-0.002252,-1.575398,1.566194,0.8646,1.3213,-0.3375,0.001534,0.587515,-0.561437,0.572175,-0.602854,0.558369,-0.567573
3.8821,0.020082,0.000823,-1.573864,1.566194,0.0000,0.0000,0.0000,-0.002237,-1.575398,1.566194,0.9086,1.2820,-0.3967,0.001534,0.587515,-0.562971,0.572175,-0.602854,0.558369,-0.567573
3.9022,0.020079,0.000853,-1.573864,1.566194,0.0000,0.0000,0.0000,-0.002239,-1.575398,1.566194,0.9040,1.2861,-0.3905,0.001534,0.587515,-0.562971,0.572175,-0.602854,0.558369,-0.567573
3.9223,0.020103,0.000883,-1.573864,1.566194,0.0000,0.0000,0.0000,-0.002252,-1.575398,1.566194,0.8651,1.3209,-0.3381,0.001534,0.587515,-0.561437,0.572175,-0.602854,0.558369,-0.567573
3.9424,0.020080,0.000914,-1.573864,1.566194,0.0000,0.0000,0.0000,-0.002178,-1.575398,1.566194,0.9460,1.4912,-0.1270,0.001534,0.590583,-0.561437,0.576777,-0.604388,0.558369,-0.567573
3.9624,0.020085,0.000944,-1.573864,1.566194,0.0000,0.0000,0.0000,-0.002126,-1.575398,1.566194,1.0763,1.5086,-0.0929,0.001534,0.593651,-0.562971,0.578311,-0.605922,0.558369,-0.567573
3.9825,0.020097,0.000974,-1.573864,1.566194,0.0000,0.0000,0.0000,-0.002073,-1.575398,1.566194,1.1504,1.6290,0.0671,0.001534,0.596719,-0.562971,0.581379,-0.607456,0.558369,-0.567573
4.0026,0.020084,0.001004,-1.573864,1.566194,0.0000,0.0000,0.0000,-0.002009,-1.575398,1.566194,1.2419,1.7891,0.1606,0.001534,0.599786,-0.562971,0.584447,-0.610524,0.558369,-0.567573
4.0229,0.020312,0.001034,-1.573864,1.566194,0.0000,0.0000,0.0000,-0.001971,-1.575398,1.566194,1.2795,1.9300,0.3682,0.001534,0.602854,-0.561437,0.587515,-0.612058,0.558369,-0.567573
4.0430,0.020094,0.001065,-1.573864,1.566194,0.0000,0.0000,0.0000,-0.001914,-1.575398,1.566194,1.3530,2.0176,0.4034,0.001534,0.604388,-0.562971,0.590583,-0.613592,0.558369,-0.567573
4.0631,0.020078,0.001095,-1.573864,1.566194,0.0000,0.0000,0.0000,-0.001885,-1.575398,1.566194,1.3947,2.0948,0.4554,0.001534,0.605922,-0.562971,0.592117,-0.615126,0.558369,-0.567573
4.0837,0.020630,0.001126,-1.573864,1.566194,0.0000,0.0000,0.0000,-0.001842,-1.575398,1.566194,1.3906,2.1549,0.4512,0.001534,0.607456,-0.562971,0.593651,-0.616660,0.558369,-0.569107
4.1038,0.020092,0.001156,-1.573864,1.566194,0.0000,0.0000,0.0000,-0.001838,-1.575398,1.566194,1.3508,2.1504,0.5051,0.001534,0.608990,-0.561437,0.593651,-0.616660,0.558369,-0.570641
4.1239,0.020085,0.001186,-1.573864,1.566194,0.0000,0.0000,0.0000,-0.001815,-1.575398,1.566194,1.3548,2.1174,0.5001,0.001534,0.610524,-0.561437,0.593651,-0.616660,0.558369,-0.572175
4.1440,0.020089,0.001216,-1.573864,1.566194,0.0000,0.0000,0.0000,-0.001796,-1.575398,1.566194,1.4158,2.1560,0.5021,0.001534,0.612058,-0.561437,0.593651,-0.618194,0.558369,-0.572175
4.1641,0.020084,0.001246,-1.573864,1.566194,0.0000,0.0000,0.0000,-0.001747,-1.575398,1.566194,1.3029,2.0619,0.2850,0.001534,0.612058,-0.562971,0.593651,-0.618194,0.558369,-0.576777
4.1843,0.020256,0.001277,-1.573864,1.566194,0.0000,0.0000,0.0000,-0.001728,-1.575398,1.566194,1.2172,2.0358,0.1983,0.001534,0.612058,-0.562971,0.593651,-0.618194,0.558369,-0.579845
4.2045,0.020205,0.001307,-1.573864,1.566194,0.0000,0.0000,0.0000,-0.001728,-1.575398,1.566194,1.1647,1.9703,0.2064,0.001534,0.612058,-0.562971,0.593651,-0.616660,0.558369,-0.581379
4.2246,0.020084,0.001337,-1.573864,1.566194,0.0000,0.0000,0.0000,-0.001720,-1.575398,1.566194,1.0940,2.0445,0.1499,0.001534,0.612058,-0.561437,0.593651,-0.618194,0.558369,-0.582913
4.2447,0.020093,0.001367,-1.573864,1.566194,0.0000,0.0000,0.0000,-0.001706,-1.575398,1.566194,1.1416,2.0017,0.1029,0.001534,0.612058,-0.562971,0.593651,-0.618194,0.558369,-0.582913
4.2648,0.020088,0.001397,-1.573864,1.566194,0.0000,0.0000,0.0000,-0.001684,-1.575398,1.566194,1.0394,1.9704,-0.0018,0.001534,0.612058,-0.562971,0.593651,-0.618194,0.558369,-0.585981
4.2849,0.020079,0.001427,-1.573864,1.566194,0.0000,0.0000,0.0000,-0.001686,-1.575398,1.566194,1.0501,1.9737,0.0092,0.001534,0.612058,-0.562971,0.593651,-0.618194,0.558369,-0.585981
4.3050,0.020089,0.001457,-1.573864,1.566194,0.0000,0.0000,0.0000,-0.001658,-1.575398,1.566194,0.9669,1.9062,0.1124,0.001534,0.612058,-0.562971,0.593651,-0.618194,0.561437,-0.585981
4.3251,0.020080,0.001488,-1.573864,1.566194,0.0000,0.0000,0.0000,-0.001612,-1.573864,1.566194,0.9916,1.8151,0.3166,0.001534,0.615126,-0.562971,0.593651,-0.618194,0.564505,-0.585981
4.3452,0.020095,0.001518,-1.573864,1.566194,0.0000,0.0000,0.0000,-0.001604,-1.575398,1.566194,0.9483,1.7912,0.3476,0.001534,0.615126,-0.562971,0.593651,-0.618194,0.566039,-0.585981
4.3652,0.020084,0.001548,-1.573864,1.566194,0.0000,0.0000,0.0000,-0.001517,-1.575398,1.566194,0.9448,1.7435,0.3960,0.001534,0.616660,-0.564505,0.593651,-0.621262,0.570641,-0.585981
4.3853,0.020079,0.001578,-1.573864,1.566194,0.0000,0.0000,0.0000,-0.001450,-1.575398,1.566194,0.9249,1.6483,0.4968,0.001534,0.618194,-0.566039,0.593651,-0.622796,0.575243,-0.585981
4.4054,0.020089,0.001608,-1.573864,1.566194,0.0000,0.0000,0.0000,-0.001330,-1.575398,1.566194,0.9587,1.5044,0.4848,0.001534,0.619728,-0.570641,0.593651,-0.625864,0.581379,-0.585981
4.4255,0.020089,0.001638,-1.573864,1.566194,0.0000,0.0000,0.0000,-0.001254,-1.575398,1.566194,0.9750,1.3841,0.5392,0.001534,0.621262,-0.573709,0.593651,-0.627398,0.585981,-0.585981
4.4456,0.020100,0.001668,-1.573864,1.566194,0.0000,0.0000,0.0000,-0.001126,-1.575398,1.566194,1.0735,1.4616,0.4804,0.001534,0.622796,-0.578311,0.596719,-0.632000,0.589049,-0.585981
4.4657,0.020081,0.001699,-1.573864,1.566194,0.0000,0.0000,0.0000,-0.001038,-1.575398,1.566194,1.0627,1.5183,0.4859,0.001534,0.622796,-0.581379,0.599786,-0.635068,0.592117,-0.585981
4.4857,0.020074,0.001729,-1.573864,1.566194,0.0000,0.0000,0.0000,-0.000973,-1.575398,1.566194,1.1520,1.4943,0.4866,0.001534,0.624330,-0.584447,0.601320,-0.636602,0.593651,-0.585981
4.5066,0.020886,0.001760,-1.573864,1.566194,0.0000,0.0000,0.0000,-0.000903,-1.575398,1.566194,1.1702,1.5445,0.4872,0.001534,0.624330,-0.587515,0.604388,-0.638136,0.595185,-0.585981
4.5267,0.020080,0.001790,-1.573864,1.566194,0.0000,0.0000,0.0000,-0.000857,-1.575398,1.566194,1.2240,1.5700,0.4890,0.001534,0.624330,-0.590583,0.607456,-0.638136,0.595185,-0.585981
4.5468,0.020090,0.001820,-1.573864,1.566194,0.0000,0.0000,0.0000,-0.000811,-1.575398,1.566194,1.3345,1.5325,0.4912,0.001534,0.625864,-0.593651,0.608990,-0.638136,0.595185,-0.585981
4.5669,0.020078,0.001850,-1.573864,1.566194,0.0000,0.0000,0.0000,-0.000792,-1.575398,1.566194,1.3233,1.6373,0.4915,0.001534,0.625864,-0.593651,0.610524,-0.639670,0.595185,-0.585981
4.5870,0.020080,0.001880,-1.573864,1.566194,0.0000,0.0000,0.0000,-0.000768,-1.575398,1.566194,1.3522,1.6418,0.4045,0.000000,0.625864,-0.595185,0.612058,-0.639670,0.595185,-0.585981
4.6070,0.020083,0.001911,-1.573864,1.566194,0.0000,0.0000,0.0000,-0.000744,-1.575398,1.566194,1.3770,1.6567,0.4933,0.001534,0.625864,-0.596719,0.613592,-0.639670,0.595185,-0.585981
4.6271,0.020079,0.001941,-1.573864,1.566194,0.0000,0.0000,0.0000,-0.000733,-1.575398,1.566194,1.4135,1.6197,0.4393,0.001534,0.625864,-0.598253,0.613592,-0.639670,0.595185,-0.585981
4.6472,0.020088,0.001971,-1.573864,1.566194,0.0000,0.0000,0.0000,-0.000721,-1.575398,1.566194,1.3985,1.6744,0.4999,0.001534,0.625864,-0.598253,0.615126,-0.639670,0.595185,-0.585981
4.6673,0.020075,0.002001,-1.573864,1.566194,0.0000,0.0000,0.0000,-0.000722,-1.575398,1.566194,1.4000,1.6687,0.4936,0.001534,0.625864,-0.598253,0.615126,-0.639670,0.595185,-0.585981
4.6874,0.020075,0.002031,-1.573864,1.566194,0.0000,0.0000,0.0000,-0.000722,-1.575398,1.566194,1.4000,1.6687,0.4936,0.001534,0.625864,-0.598253,0.615126,-0.639670,0.595185,-0.585981
4.7074,0.020086,0.002061,-1.573864,1.566194,0.0000,0.0000,0.0000,-0.000722,-1.575398,1.566194,1.4000,1.6687,0.4936,0.001534,0.625864,-0.598253,0.615126,-0.639670,0.595185,-0.585981
4.7275,0.020081,0.002091,-1.573864,1.566194,0.0000,0.0000,0.0000,-0.000710,-1.575398,1.566194,1.3601,1.6358,0.5473,0.001534,0.625864,-0.598253,0.615126,-0.639670,0.596719,-0.585981
4.7476,0.020094,0.002121,-1.573864,1.566194,0.0000,0.0000,0.0000,-0.000711,-1.575398,1.566194,1.3643,1.6392,0.5417,0.001534,0.625864,-0.598253,0.615126,-0.639670,0.596719,-0.585981
4.7677,0.020034,0.002151,-1.573864,1.566194,0.0000,0.0000,0.0000,-0.000713,-1.575398,1.566194,1.4152,1.7223,0.4348,0.001534,0.625864,-0.598253,0.615126,-0.641204,0.595185,-0.585981
4.7877,0.020081,0.002182,-1.573864,1.566194,0.0000,0.0000,0.0000,-0.000700,-1.575398,1.566194,1.3701,1.6802,0.4990,0.001534,0.625864,-0.598253,0.615126,-0.641204,0.596719,-0.585981
4.8078,0.020077,0.002212,-1.573864,1.566194,0.0000,0.0000,0.0000,-0.000703,-1.575398,1.566194,1.4262,1.7679,0.3848,0.001534,0.625864,-0.598253,0.615126,-0.642738,0.595185,-0.585981
4.8279,0.020085,0.002242,-1.573864,1.566194,0.0000,0.0000,0.0000,-0.000679,-1.575398,1.566194,1.3922,1.7752,0.3953,0.001534,0.625864,-0.598253,0.615126,-0.644272,0.596719,-0.585981
4.8480,0.020097,0.002272,-1.573864,1.566194,0.0000,0.0000,0.0000,-0.000682,-1.575398,1.566194,1.3958,1.7744,0.3942,0.001534,0.625864,-0.598253,0.615126,-0.644272,0.596719,-0.585981
4.8683,0.020258,0.002302,-1.573864,1.566194,0.0000,0.0000,0.0000,-0.000683,-1.575398,1.566194,1.4469,1.8577,0.2868,0.001534,0.625864,-0.598253,0.615126,-0.645806,0.595185,-0.585981
4.8883,0.020076,0.002332,-1.573864,1.566194,0.0000,0.0000,0.0000,-0.000670,-1.575398,1.566194,1.4017,1.8156,0.3510,0.001534,0.625864,-0.598253,0.615126,-0.645806,0.596719,-0.585981
4.9084,0.020075,0.002363,-1.573864,1.566194,0.0000,0.0000,0.0000,-0.000661,-1.575398,1.566194,1.4181,1.8698,0.2898,0.001534,0.625864,-0.598253,0.615126,-0.647340,0.596719,-0.585981
4.9285,0.020080,0.002393,-1.573864,1.566194,0.0000,0.0000,0.0000,-0.000662,-1.575398,1.566194,1.4164,1.8641,0.2962,0.001534,0.625864,-0.598253,0.615126,-0.647340,0.596719,-0.585981
4.9486,0.020095,0.002423,-1.573864,1.566194,0.0000,0.0000,0.0000,-0.000662,-1.575398,1.566194,1.4453,1.9490,0.2976,0.001534,0.625864,-0.598253,0.616660,-0.647340,0.595185,-0.585981
4.9689,0.020317,0.002453,-1.573864,1.566194,0.0000,0.0000,0.0000,-0.000636,-1.575398,1.566194,1.3156,1.8199,0.1857,0.001534,0.625864,-0.598253,0.615126,-0.647340,0.596719,-0.589049
4.9892,0.020343,0.002484,-1.573864,1.566194,0.0000,0.0000,0.0000,-0.000589,-1.575398,1.566194,1.2690,1.8338,0.1980,0.001534,0.627398,-0.598253,0.616660,-0.647340,0.596719,-0.592117
5.0094,0.020180,0.002514,-1.573864,1.566194,0.0000,0.0000,0.0000,-0.000526,-1.575398,1.566194,1.2982,1.8663,0.0885,0.001534,0.630466,-0.598253,0.616660,-0.650408,0.596719,-0.595185
5.0297,0.020235,0.002544,-1.573864,1.566194,0.0000,0.0000,0.0000,-0.000463,-1.575398,1.566194,1.2592,1.8292,-0.0088,0.001534,0.633534,-0.598253,0.616660,-0.651942,0.596719,-0.599786
5.0498,0.020106,0.002575,-1.573864,1.566194,0.0000,0.0000,0.0000,-0.000414,-1.575398,1.566194,1.2762,1.6840,-0.0520,0.001534,0.638136,-0.598253,0.615126,-0.651942,0.596719,-0.604388
5.0704,0.020652,0.002606,-1.573864,1.566194,0.0000,0.0000,0.0000,-0.000337,-1.575398,1.566194,1.2275,1.7164,-0.1015,0.001534,0.641204,-0.598253,0.616660,-0.653476,0.596719,-0.608990
5.0905,0.020080,0.002636,-1.573864,1.566194,0.0000,0.0000,0.0000,-0.000288,-1.575398,1.566194,1.1853,1.6298,-0.1507,0.001534,0.644272,-0.598253,0.616660,-0.653476,0.596719,-0.613592
5.1108,0.020358,0.002666,-1.573864,1.566194,0.0000,0.0000,0.0000,-0.000260,-1.575398,1.566194,1.2389,1.5912,-0.0892,0.001534,0.647340,-0.598253,0.616660,-0.653476,0.596719,-0.615126
5.1309,0.020075,0.002696,-1.573864,1.566194,0.0000,0.0000,0.0000,-0.000215,-1.575398,1.566194,1.2248,1.5095,-0.2046,0.001534,0.648874,-0.599786,0.616660,-0.653476,0.596719,-0.618194
5.1510,0.020079,0.002727,-1.573864,1.566194,0.0000,0.0000,0.0000,-0.000191,-1.575398,1.566194,1.2492,1.5549,-0.1369,0.001534,0.651942,-0.598253,0.616660,-0.655010,0.596719,-0.619728
5.1713,0.020260,0.002757,-1.573864,1.566194,0.0000,0.0000,0.0000,-0.000166,-1.575398,1.566194,1.2451,1.4820,-0.1448,0.001534,0.651942,-0.599786,0.616660,-0.655010,0.598253,-0.619728
5.1913,0.020078,0.002787,-1.573864,1.566194,0.0000,0.0000,0.0000,-0.000141,-1.575398,1.566194,1.1645,1.4235,-0.0375,0.001534,0.651942,-0.599786,0.616660,-0.655010,0.601320,-0.619728
5.2116,0.020230,0.002817,-1.573864,1.566194,0.0000,0.0000,0.0000,-0.000130,-1.575398,1.566194,1.1326,1.3966,0.0047,0.001534,0.651942,-0.599786,0.616660,-0.655010,0.602854,-0.619728
5.2318,0.020275,0.002848,-1.573864,1.566194,0.0000,0.0000,0.0000,-0.000118,-1.575398,1.566194,1.0161,1.3687,0.1612,0.001534,0.651942,-0.598253,0.616660,-0.655010,0.605922,-0.619728
5.2519,0.020092,0.002878,-1.573864,1.566194,0.0000,0.0000,0.0000,-0.000083,-1.575398,1.566194,0.9605,1.3553,0.1970,0.001534,0.651942,-0.598253,0.616660,-0.656544,0.608990,-0.619728
5.2722,0.020226,0.002908,-1.573864,1.566194,0.0000,0.0000,0.0000,-0.000036,-1.575398,1.566194,0.9378,1.3050,0.1916,0.001534,0.651942,-0.599786,0.616660,-0.658078,0.612058,-0.619728
5.2925,0.020350,0.002939,-1.573864,1.566194,0.0000,0.0000,0.0000,-0.000017,-1.575398,1.566194,0.9125,1.3269,0.1908,0.001534,0.651942,-0.599786,0.616660,-0.659612,0.613592,-0.619728
5.3126,0.020104,0.002969,-1.573864,1.566194,0.0000,0.0000,0.0000,0.000014,-1.575398,1.566194,0.9363,1.3267,0.2454,0.001534,0.653476,-0.599786,0.616660,-0.661146,0.615126,-0.619728
5.3327,0.020077,0.002999,-1.573864,1.566194,0.0000,0.0000,0.0000,0.000107,-1.575398,1.566194,0.8700,1.2739,0.1283,0.001534,0.655010,-0.601320,0.616660,-0.664214,0.618194,-0.622796
5.3528,0.020077,0.003029,-1.573864,1.566194,0.0000,0.0000,0.0000,0.000198,-1.575398,1.566194,0.9348,1.1096,0.1406,0.001534,0.656544,-0.605922,0.616660,-0.665748,0.622796,-0.622796
5.3729,0.020093,0.003059,-1.573864,1.566194,0.0000,0.0000,0.0000,0.000225,-1.575398,1.566194,0.9391,1.1077,0.0839,0.001534,0.656544,-0.607456,0.616660,-0.667282,0.624330,-0.622796
5.3929,0.020079,0.003089,-1.573864,1.566194,0.0000,0.0000,0.0000,0.000313,-1.575398,1.566194,1.0036,1.1195,0.0354,0.001534,0.656544,-0.612058,0.619728,-0.668816,0.625864,-0.622796
5.4131,0.020177,0.003120,-1.573864,1.566194,0.0000,0.0000,0.0000,0.000367,-1.575398,1.566194,1.0628,1.1982,-0.0136,0.001534,0.656544,-0.615126,0.622796,-0.670350,0.625864,-0.622796
5.4332,0.020078,0.003150,-1.573864,1.566194,0.0000,0.0000,0.0000,0.000425,-1.575398,1.566194,1.0725,1.3562,0.0472,0.001534,0.656544,-0.616660,0.627398,-0.671884,0.625864,-0.622796
5.4533,0.020081,0.003180,-1.573864,1.566194,0.0000,0.0000,0.0000,0.000483,-1.575398,1.566194,1.1374,1.4193,-0.0131,0.001534,0.656544,-0.619728,0.630466,-0.673418,0.625864,-0.622796
5.4734,0.020096,0.003210,-1.573864,1.566194,0.0000,0.0000,0.0000,0.000483,-1.575398,1.566194,1.1374,1.4193,-0.0131,0.001534,0.656544,-0.622796,0.635068,-0.673418,0.625864,-0.622796
5.4935,0.020082,0.003240,-1.573864,1.566194,0.0000,0.0000,0.0000,0.000590,-1.575398,1.566194,1.2231,1.5167,0.0451,0.001534,0.656544,-0.625864,0.638136,-0.673418,0.625864,-0.622796
5.5136,0.020105,0.003270,-1.573864,1.566194,0.0000,0.0000,0.0000,0.000624,-1.575398,1.566194,1.2334,1.5801,0.1020,0.001534,0.656544,-0.627398,0.641204,-0.673418,0.625864,-0.622796
5.5342,0.020634,0.003301,-1.573864,1.566194,0.0000,0.0000,0.0000,0.000658,-1.575398,1.566194,1.3080,1.5742,0.1530,0.001534,0.658078,-0.628932,0.642738,-0.673418,0.625864,-0.622796
5.5543,0.020083,0.003331,-1.573864,1.566194,0.0000,0.0000,0.0000,0.000691,-1.575398,1.566194,1.3259,1.6610,0.3151,0.001534,0.659612,-0.628932,0.645806,-0.673418,0.625864,-0.622796
5.5746,0.020285,0.003362,-1.573864,1.566194,0.0000,0.0000,0.0000,0.000687,-1.575398,1.566194,1.3239,1.6519,0.2982,0.001534,0.659612,-0.628932,0.645806,-0.673418,0.625864,-0.622796
5.5946,0.020081,0.003392,-1.573864,1.566194,0.0000,0.0000,0.0000,0.000698,-1.575398,1.566194,1.3727,1.6384,0.3561,0.001534,0.661146,-0.628932,0.645806,-0.673418,0.625864,-0.622796
5.6147,0.020100,0.003422,-1.573864,1.566194,0.0000,0.0000,0.0000,0.000707,-1.575398,1.566194,1.4161,1.6254,0.4063,0.001534,0.662680,-0.628932,0.645806,-0.673418,0.625864,-0.622796
5.6348,0.020084,0.003452,-1.573864,1.566194,0.0000,0.0000,0.0000,0.000717,-1.575398,1.566194,1.4601,1.6125,0.4573,0.001534,0.664214,-0.628932,0.645806,-0.673418,0.625864,-0.622796
5.6549,0.020086,0.003482,-1.573864,1.566194,0.0000,0.0000,0.0000,0.000716,-1.575398,1.566194,1.4555,1.6138,0.4519,0.001534,0.664214,-0.628932,0.645806,-0.673418,0.625864,-0.622796
5.6750,0.020108,0.003513,-1.573864,1.566194,0.0000,0.0000,0.0000,0.000719,-1.575398,1.566194,1.4461,1.5928,0.3415,0.001534,0.662680,-0.630466,0.645806,-0.673418,0.625864,-0.622796
5.6951,0.020104,0.003543,-1.573864,1.566194,0.0000,0.0000,0.0000,0.000729,-1.575398,1.566194,1.4590,1.6442,0.2978,0.001534,0.662680,-0.630466,0.645806,-0.674952,0.625864,-0.622796
5.7152,0.020103,0.003573,-1.573864,1.566194,0.0000,0.0000,0.0000,0.000762,-1.575398,1.566194,1.5567,1.6385,0.2485,0.001534,0.664214,-0.632000,0.645806,-0.676486,0.625864,-0.622796
5.7353,0.020110,0.003603,-1.573864,1.566194,0.0000,0.0000,0.0000,0.000759,-1.575398,1.566194,1.5100,1.7025,0.1422,0.001534,0.662680,-0.632000,0.645806,-0.678020,0.625864,-0.622796
5.7555,0.020113,0.003633,-1.573864,1.566194,0.0000,0.0000,0.0000,0.000759,-1.575398,1.566194,1.5100,1.7025,0.1422,0.001534,0.662680,-0.632000,0.645806,-0.681087,0.625864,-0.622796
5.7758,0.020352,0.003664,-1.573864,1.566194,0.0000,0.0000,0.0000,0.000780,-1.575398,1.566194,1.5390,1.7938,0.0428,0.001534,0.662680,-0.632000,0.645806,-0.681087,0.625864,-0.622796
5.7959,0.020096,0.003694,-1.573864,1.566194,0.0000,0.0000,0.0000,0.000778,-1.575398,1.566194,1.5364,1.7856,0.0517,0.001534,0.662680,-0.632000,0.645806,-0.681087,0.625864,-0.622796
5.8160,0.020111,0.003724,-1.573864,1.566194,0.0000,0.0000,0.0000,0.000788,-1.575398,1.566194,1.5849,1.7708,0.1085,0.001534,0.664214,-0.632000,0.645806,-0.681087,0.625864,-0.622796
5.8361,0.020101,0.003754,-1.573864,1.566194,0.0000,0.0000,0.0000,0.000787,-1.575398,1.566194,1.5798,1.7724,0.1026,0.001534,0.664214,-0.632000,0.645806,-0.681087,0.625864,-0.622796
5.8567,0.020555,0.003785,-1.573864,1.566194,0.0000,0.0000,0.0000,0.000787,-1.575398,1.566194,1.5798,1.7724,0.1026,0.001534,0.664214,-0.632000,0.645806,-0.681087,0.625864,-0.622796
5.8774,0.020703,0.003816,-1.573864,1.566194,0.0000,0.0000,0.0000,0.000787,-1.575398,1.566194,1.5798,1.7724,0.1026,0.001534,0.664214,-0.632000,0.645806,-0.681087,0.625864,-0.622796
5.8975,0.020092,0.003846,-1.573864,1.566194,0.0000,0.0000,0.0000,0.000813,-1.575398,1.566194,1.5010,1.7061,0.2108,0.001534,0.664214,-0.632000,0.645806,-0.681087,0.628932,-0.622796
5.9176,0.020103,0.003876,-1.573864,1.566194,0.0000,0.0000,0.0000,0.000856,-1.575398,1.566194,1.5687,1.6794,0.1994,0.001534,0.665748,-0.633534,0.645806,-0.682621,0.630466,-0.622796
5.9377,0.020099,0.003906,-1.573864,1.566194,0.0000,0.0000,0.0000,0.000856,-1.575398,1.566194,1.5687,1.6794,0.1994,0.001534,0.668816,-0.636602,0.645806,-0.684155,0.633534,-0.622796
5.9578,0.020090,0.003937,-1.573864,1.566194,0.0000,0.0000,0.0000,0.000934,-1.575398,1.566194,1.6683,1.5663,0.2557,0.001534,0.668816,-0.636602,0.645806,-0.684155,0.633534,-0.622796
5.9779,0.020099,0.003967,-1.573864,1.566194,0.0000,0.0000,0.0000,0.000969,-1.575398,1.566194,1.7277,1.5664,0.3610,0.001534,0.671884,-0.636602,0.645806,-0.685689,0.635068,-0.622796
5.9979,0.020088,0.003997,-1.573864,1.566194,0.0000,0.0000,0.0000,0.001054,-1.575398,1.566194,1.8505,1.5221,0.4614,0.001534,0.676486,-0.638136,0.645806,-0.688757,0.638136,-0.622796
6.0180,0.020094,0.004027,-1.573864,1.566194,0.0000,0.0000,0.0000,0.001113,-1.575398,1.566194,1.9061,1.4478,0.5613,0.001534,0.679553,-0.639670,0.645806,-0.690291,0.641204,-0.622796
6.0381,0.020098,0.004057,-1.573864,1.566194,0.0000,0.0000,0.0000,0.001150,-1.575398,1.566194,2.0474,1.4422,0.5532,0.001534,0.682621,-0.641204,0.645806,-0.691825,0.641204,-0.622796
6.0582,0.020086,0.004087,-1.573864,1.566194,0.0000,0.0000,0.0000,0.001199,-1.575398,1.566194,2.1918,1.4782,0.5010,0.001534,0.685689,-0.642738,0.645806,-0.694893,0.641204,-0.622796
6.0783,0.020093,0.004117,-1.573864,1.566194,0.0000,0.0000,0.0000,0.001239,-1.575398,1.566194,2.2357,1.4417,0.5062,0.001534,0.687223,-0.644272,0.645806,-0.696427,0.642738,-0.622796
6.0984,0.020083,0.004148,-1.573864,1.566194,0.0000,0.0000,0.0000,0.001254,-1.575398,1.566194,2.3282,1.4196,0.6190,0.001534,0.690291,-0.644272,0.645806,-0.696427,0.642738,-0.622796
6.1185,0.020087,0.004178,-1.573864,1.566194,0.0000,0.0000,0.0000,0.001301,-1.575398,1.566194,2.2306,1.3394,0.6066,0.001534,0.691825,-0.644272,0.645806,-0.696427,0.644272,-0.625864
6.1386,0.020110,0.004208,-1.573864,1.566194,0.0000,0.0000,0.0000,0.001296,-1.575398,1.566194,2.1545,1.3650,0.6076,0.001534,0.691825,-0.642738,0.645806,-0.696427,0.644272,-0.627398
6.1587,0.020089,0.004238,-1.573864,1.566194,0.0000,0.0000,0.0000,0.001346,-1.575398,1.566194,2.1520,1.2763,0.4973,0.001534,0.693359,-0.644272,0.645806,-0.696427,0.644272,-0.630466
6.1788,0.020089,0.004268,-1.573864,1.566194,0.0000,0.0000,0.0000,0.001341,-1.575398,1.566194,2.1523,1.2856,0.5089,0.001534,0.693359,-0.644272,0.645806,-0.696427,0.644272,-0.630466
6.1989,0.020098,0.004298,-1.573864,1.566194,0.0000,0.0000,0.0000,0.001364,-1.575398,1.566194,2.1523,1.2531,0.5086,0.001534,0.694893,-0.644272,0.645806,-0.696427,0.644272,-0.632000
6.2190,0.020091,0.004328,-1.573864,1.566194,0.0000,0.0000,0.0000,0.001411,-1.575398,1.566194,2.0200,1.2495,0.2857,0.001534,0.694893,-0.644272,0.645806,-0.697961,0.644272,-0.636602
6.2391,0.020099,0.004359,-1.573864,1.566194,0.0000,0.0000,0.0000,0.001455,-1.575398,1.566194,2.0325,1.1505,0.3086,0.001534,0.696427,-0.645806,0.645806,-0.697961,0.645806,-0.638136
6.2591,0.020050,0.004389,-1.573864,1.566194,0.0000,0.0000,0.0000,0.001536,-1.575398,1.566194,2.0598,1.1386,0.1406,0.001534,0.697961,-0.648874,0.647340,-0.699495,0.645806,-0.641204
6.2792,0.020088,0.004419,-1.573864,1.566194,0.0000,0.0000,0.0000,0.001630,-1.575398,1.566194,1.9859,1.1494,0.0459,0.001534,0.697961,-0.651942,0.650408,-0.701029,0.647340,-0.644272
6.2993,0.020084,0.004449,-1.573864,1.566194,0.0000,0.0000,0.0000,0.001702,-1.575398,1.566194,1.9477,1.2964,0.0015,0.001534,0.699495,-0.651942,0.653476,-0.704097,0.647340,-0.647340
6.3194,0.020093,0.004479,-1.573864,1.566194,0.0000,0.0000,0.0000,0.001761,-1.575398,1.566194,1.9557,1.2930,-0.0488,0.001534,0.699495,-0.655010,0.656544,-0.704097,0.647340,-0.648874
6.3395,0.020099,0.004509,-1.573864,1.566194,0.0000,0.0000,0.0000,0.001831,-1.575398,1.566194,2.0069,1.2920,-0.0416,0.001534,0.701029,-0.658078,0.659612,-0.704097,0.647340,-0.650408
6.3596,0.020086,0.004539,-1.573864,1.566194,0.0000,0.0000,0.0000,0.001876,-1.575398,1.566194,1.9678,1.3396,-0.0416,0.001534,0.701029,-0.659612,0.662680,-0.704097,0.647340,-0.651942
6.3796,0.020086,0.004569,-1.573864,1.566194,0.0000,0.0000,0.0000,0.001924,-1.575398,1.566194,2.0235,1.3647,-0.0404,0.001534,0.701029,-0.662680,0.665748,-0.704097,0.647340,-0.651942
6.3997,0.020080,0.004600,-1.573864,1.566194,0.0000,0.0000,0.0000,0.001959,-1.575398,1.566194,2.0811,1.3421,-0.0958,0.001534,0.701029,-0.665748,0.667282,-0.704097,0.647340,-0.651942
6.4198,0.020087,0.004630,-1.573864,1.566194,0.0000,0.0000,0.0000,0.001968,-1.575398,1.566194,2.1125,1.3095,-0.1460,0.001534,0.701029,-0.667282,0.667282,-0.704097,0.647340,-0.651942
6.4399,0.020086,0.004660,-1.573864,1.566194,0.0000,0.0000,0.0000,0.002017,-1.575398,1.566194,2.1848,1.3413,-0.2519,0.001534,0.701029,-0.670350,0.668816,-0.705631,0.647340,-0.651942
6.4600,0.020082,0.004690,-1.573864,1.566194,0.0000,0.0000,0.0000,0.002061,-1.575398,1.566194,2.2038,1.4514,-0.2393,0.001534,0.701029,-0.671884,0.671884,-0.707165,0.647340,-0.651942
6.4801,0.020082,0.004720,-1.573864,1.566194,0.0000,0.0000,0.0000,0.002079,-1.575398,1.566194,2.2027,1.5380,-0.2396,0.001534,0.701029,-0.671884,0.673418,-0.708699,0.647340,-0.651942
6.5001,0.020087,0.004750,-1.573864,1.566194,0.0000,0.0000,0.0000,0.002103,-1.575398,1.566194,2.2285,1.5440,-0.3268,0.000000,0.701029,-0.673418,0.674952,-0.708699,0.647340,-0.651942
6.5202,0.020091,0.004780,-1.573864,1.566194,0.0000,0.0000,0.0000,0.002111,-1.575398,1.566194,2.2382,1.5915,-0.2947,0.001534,0.701029,-0.673418,0.674952,-0.710233,0.647340,-0.651942
6.5403,0.020095,0.004811,-1.573864,1.566194,0.0000,0.0000,0.0000,0.002100,-1.575398,1.566194,2.1891,1.6004,-0.3458,0.001534,0.699495,-0.673418,0.674952,-0.710233,0.647340,-0.651942
6.5604,0.020094,0.004841,-1.573864,1.566194,0.0000,0.0000,0.0000,0.002111,-1.575398,1.566194,2.1655,1.5875,-0.1733,0.001534,0.701029,-0.671884,0.674952,-0.710233,0.648874,-0.651942
