t,loop_dt,cmd_z,cmd_ant_l,cmd_ant_r,cmd_roll,cmd_pitch,cmd_yaw,pres_z,pres_ant_l,pres_ant_r,pres_roll,pres_pitch,pres_yaw,pres_j0,pres_j1,pres_j2,pres_j3,pres_j4,pres_j5,pres_j6
0.0000,0.000001,-0.005000,-1.569262,1.566194,0.0000,0.0000,0.0000,-0.000629,-1.572330,1.566194,0.9475,1.2445,0.8394,0.001534,0.622796,-0.602854,0.621262,-0.628932,0.602854,-0.592117
0.0201,0.020104,-0.004980,-1.569262,1.566194,0.0000,0.0000,0.0000,-0.000628,-1.572330,1.566194,0.9480,1.2493,0.8338,0.001534,0.622796,-0.602854,0.621262,-0.628932,0.602854,-0.592117
0.0402,0.020088,-0.004960,-1.569262,1.566194,0.0000,0.0000,0.0000,-0.000628,-1.572330,1.566194,0.9480,1.2493,0.8338,0.001534,0.622796,-0.602854,0.621262,-0.628932,0.602854,-0.592117
0.0603,0.020093,-0.004940,-1.569262,1.566194,0.0000,0.0000,0.0000,-0.000652,-1.573864,1.566194,0.9480,1.1480,0.8337,0.001534,0.622796,-0.602854,0.619728,-0.627398,0.602854,-0.592117
0.0804,0.020103,-0.004920,-1.569262,1.566194,0.0000,0.0000,0.0000,-0.001126,-1.572330,1.566194,0.8412,1.1418,0.7749,0.001534,0.610524,-0.593651,0.610524,-0.616660,0.593651,-0.582913
0.1005,0.020103,-0.004900,-1.569262,1.566194,0.0000,0.0000,0.0000,-0.002197,-1.573864,1.566194,0.6802,1.0794,0.6101,0.001534,0.584447,-0.570641,0.585981,-0.593651,0.572175,-0.561437
0.1206,0.020111,-0.004879,-1.569262,1.566194,0.0000,0.0000,0.0000,-0.003502,-1.573864,1.566194,0.5498,1.0071,0.6177,0.001534,0.553767,-0.541495,0.556835,-0.562971,0.544563,-0.533825
0.1407,0.020100,-0.004859,-1.569262,1.566194,0.0000,0.0000,0.0000,-0.004720,-1.572330,1.566194,0.3358,0.9316,0.3990,0.001534,0.523087,-0.513884,0.527689,-0.535359,0.518486,-0.509282
0.1608,0.020097,-0.004839,-1.569262,1.566194,0.0000,0.0000,0.0000,-0.005514,-1.573864,1.566194,0.1568,0.6987,0.3651,0.001534,0.501612,-0.497010,0.507748,-0.513884,0.503146,-0.492408
0.1809,0.020112,-0.004819,-1.569262,1.566194,0.0000,0.0000,0.0000,-0.005810,-1.573864,1.566194,0.0139,0.4791,0.2643,0.001534,0.492408,-0.490874,0.498544,-0.503146,0.497010,-0.487806
0.2010,0.020083,-0.004799,-1.569262,1.566194,0.0000,0.0000,0.0000,-0.005818,-1.573864,1.566194,-0.0320,0.4326,0.4294,0.001534,0.492408,-0.489340,0.498544,-0.500078,0.497010,-0.487806
0.2211,0.020078,-0.004779,-1.569262,1.566194,0.0000,0.0000,0.0000,-0.005804,-1.573864,1.566194,-0.0170,0.4896,0.3605,0.001534,0.492408,-0.489340,0.498544,-0.501612,0.497010,-0.487806
0.2412,0.020101,-0.004759,-1.569262,1.566194,0.0000,0.0000,0.0000,-0.005818,-1.573864,1.566194,0.0214,0.5184,0.3162,0.001534,0.492408,-0.489340,0.498544,-0.501612,0.495476,-0.487806
0.2613,0.020090,-0.004739,-1.569262,1.566194,0.0000,0.0000,0.0000,-0.005804,-1.573864,1.566194,-0.0226,0.4806,0.3723,0.001534,0.492408,-0.489340,0.498544,-0.501612,0.497010,-0.487806
0.2814,0.020091,-0.004719,-1.569262,1.566194,0.0000,0.0000,0.0000,-0.005806,-1.573864,1.566194,-0.0180,0.4846,0.3664,0.001534,0.492408,-0.489340,0.498544,-0.501612,0.497010,-0.487806
0.3014,0.020089,-0.004699,-1.569262,1.566194,0.0000,0.0000,0.0000,-0.005818,-1.573864,1.566194,0.0215,0.5189,0.3156,0.001534,0.492408,-0.489340,0.498544,-0.501612,0.495476,-0.487806
0.3215,0.020099,-0.004678,-1.569262,1.566194,0.0000,0.0000,0.0000,-0.005804,-1.573864,1.566194,-0.0226,0.4806,0.3723,0.001534,0.492408,-0.489340,0.498544,-0.501612,0.497010,-0.487806
0.3416,0.020099,-0.004658,-1.569262,1.566194,0.0000,0.0000,0.0000,-0.005806,-1.572330,1.566194,-0.0180,0.4846,0.3664,0.001534,0.492408,-0.489340,0.498544,-0.501612,0.497010,-0.487806
0.3617,0.020085,-0.004638,-1.569262,1.566194,0.0000,0.0000,0.0000,-0.005806,-1.573864,1.566194,-0.0180,0.4846,0.3664,0.001534,0.492408,-0.489340,0.498544,-0.501612,0.497010,-0.487806
0.3818,0.020094,-0.004618,-1.569262,1.566194,0.0000,0.0000,0.0000,-0.005806,-1.573864,1.566194,-0.0180,0.4846,0.3664,0.001534,0.492408,-0.489340,0.498544,-0.501612,0.497010,-0.487806
0.4019,0.020099,-0.004598,-1.569262,1.566194,0.0000,0.0000,0.0000,-0.005806,-1.573864,1.566194,-0.0180,0.4846,0.3664,0.001534,0.492408,-0.489340,0.498544,-0.501612,0.497010,-0.487806
0.4220,0.020079,-0.004578,-1.569262,1.566194,0.0000,0.0000,0.0000,-0.005806,-1.573864,1.566194,-0.0180,0.4846,0.3664,0.001534,0.492408,-0.489340,0.498544,-0.501612,0.497010,-0.487806
0.4421,0.020058,-0.004558,-1.569262,1.566194,0.0000,0.0000,0.0000,-0.005806,-1.573864,1.566194,-0.0180,0.4846,0.3664,0.001534,0.492408,-0.489340,0.498544,-0.501612,0.497010,-0.487806
0.4621,0.020087,-0.004538,-1.569262,1.566194,0.0000,0.0000,0.0000,-0.005806,-1.573864,1.566194,-0.0180,0.4846,0.3664,0.001534,0.492408,-0.489340,0.498544,-0.501612,0.497010,-0.487806
0.4822,0.020087,-0.004518,-1.569262,1.566194,0.0000,0.0000,0.0000,-0.005818,-1.573864,1.566194,0.0215,0.5189,0.3156,0.001534,0.492408,-0.489340,0.498544,-0.501612,0.495476,-0.487806
0.5023,0.020087,-0.004498,-1.569262,1.566194,0.0000,0.0000,0.0000,-0.005817,-1.573864,1.566194,0.0174,0.5153,0.3209,0.001534,0.492408,-0.489340,0.498544,-0.501612,0.495476,-0.487806
0.5224,0.020052,-0.004478,-1.569262,1.566194,0.0000,0.0000,0.0000,-0.005804,-1.573864,1.566194,-0.0222,0.4810,0.3718,0.001534,0.492408,-0.489340,0.498544,-0.501612,0.497010,-0.487806
0.5441,0.021695,-0.004456,-1.569262,1.566194,0.0000,0.0000,0.0000,-0.005806,-1.573864,1.566194,-0.0180,0.4846,0.3665,0.001534,0.492408,-0.489340,0.498544,-0.501612,0.497010,-0.487806
0.5642,0.020093,-0.004436,-1.569262,1.566194,0.0000,0.0000,0.0000,-0.005806,-1.573864,1.566194,-0.0180,0.4846,0.3665,0.001534,0.492408,-0.489340,0.498544,-0.501612,0.497010,-0.487806
0.5842,0.020086,-0.004416,-1.569262,1.566194,0.0000,0.0000,0.0000,-0.005806,-1.572330,1.566194,-0.0180,0.4846,0.3665,0.001534,0.492408,-0.489340,0.498544,-0.501612,0.497010,-0.487806
0.6043,0.020084,-0.004396,-1.569262,1.566194,0.0000,0.0000,0.0000,-0.005818,-1.573864,1.566194,0.0215,0.5189,0.3156,0.001534,0.492408,-0.489340,0.498544,-0.501612,0.495476,-0.487806
0.6244,0.020084,-0.004376,-1.569262,1.566194,0.0000,0.0000,0.0000,-0.005804,-1.572330,1.566194,-0.0226,0.4806,0.3723,0.001534,0.492408,-0.489340,0.498544,-0.501612,0.497010,-0.487806
0.6445,0.020090,-0.004355,-1.569262,1.566194,0.0000,0.0000,0.0000,-0.005818,-1.573864,1.566194,0.0220,0.5193,0.3150,0.001534,0.492408,-0.489340,0.498544,-0.501612,0.495476,-0.487806
0.6646,0.020094,-0.004335,-1.569262,1.566194,0.0000,0.0000,0.0000,-0.005817,-1.573864,1.566194,0.0173,0.5153,0.3210,0.001534,0.492408,-0.489340,0.498544,-0.501612,0.495476,-0.487806
0.6847,0.020095,-0.004315,-1.569262,1.566194,0.0000,0.0000,0.0000,-0.005804,-1.573864,1.566194,-0.0222,0.4810,0.3718,0.001534,0.492408,-0.489340,0.498544,-0.501612,0.497010,-0.487806
0.7048,0.020088,-0.004295,-1.569262,1.566194,0.0000,0.0000,0.0000,-0.005806,-1.573864,1.566194,-0.0180,0.4845,0.3665,0.001534,0.492408,-0.489340,0.498544,-0.501612,0.497010,-0.487806
0.7249,0.020095,-0.004275,-1.569262,1.566194,0.0000,0.0000,0.0000,-0.005806,-1.573864,1.566194,-0.0180,0.4845,0.3665,0.001534,0.492408,-0.489340,0.498544,-0.501612,0.497010,-0.487806
0.7451,0.020270,-0.004255,-1.569262,1.566194,0.0000,0.0000,0.0000,-0.005806,-1.573864,1.566194,-0.0180,0.4845,0.3665,0.001534,0.492408,-0.489340,0.498544,-0.501612,0.497010,-0.487806
0.7652,0.020096,-0.004235,-1.569262,1.566194,0.0000,0.0000,0.0000,-0.005818,-1.572330,1.566194,0.0215,0.5189,0.3156,0.001534,0.492408,-0.489340,0.498544,-0.501612,0.495476,-0.487806
0.7857,0.020480,-0.004214,-1.569262,1.566194,0.0000,0.0000,0.0000,-0.005804,-1.573864,1.566194,-0.0226,0.4806,0.3723,0.001534,0.492408,-0.489340,0.498544,-0.501612,0.497010,-0.487806
0.8058,0.020099,-0.004194,-1.569262,1.566194,0.0000,0.0000,0.0000,-0.005806,-1.573864,1.566194,-0.0180,0.4846,0.3664,0.001534,0.492408,-0.489340,0.498544,-0.501612,0.497010,-0.487806
0.8259,0.020085,-0.004174,-1.569262,1.566194,0.0000,0.0000,0.0000,-0.005806,-1.573864,1.566194,0.0317,0.5710,0.2639,0.001534,0.492408,-0.489340,0.498544,-0.503146,0.495476,-0.487806
0.8460,0.020097,-0.004154,-1.569262,1.566194,0.0000,0.0000,0.0000,-0.005793,-1.573864,1.566194,-0.0135,0.5273,0.3260,0.001534,0.492408,-0.489340,0.498544,-0.503146,0.497010,-0.487806
0.8661,0.020089,-0.004134,-1.569262,1.566194,0.0000,0.0000,0.0000,-0.005807,-1.573864,1.566194,-0.0189,0.4797,0.3713,0.001534,0.492408,-0.489340,0.498544,-0.501612,0.497010,-0.487806
0.8862,0.020087,-0.004114,-1.569262,1.566194,0.0000,0.0000,0.0000,-0.005806,-1.573864,1.566194,0.0318,0.5715,0.2634,0.001534,0.492408,-0.489340,0.498544,-0.503146,0.495476,-0.487806
0.9063,0.020089,-0.004094,-1.569262,1.566194,0.0000,0.0000,0.0000,-0.005793,-1.573864,1.566194,-0.0135,0.5272,0.3261,0.001534,0.492408,-0.489340,0.498544,-0.503146,0.497010,-0.487806
0.9264,0.020085,-0.004074,-1.569262,1.566194,0.0000,0.0000,0.0000,-0.005794,-1.573864,1.566194,-0.0087,0.5318,0.3195,0.001534,0.492408,-0.489340,0.498544,-0.503146,0.497010,-0.487806
0.9464,0.020089,-0.004054,-1.569262,1.566194,0.0000,0.0000,0.0000,-0.005794,-1.573864,1.566194,-0.0087,0.5318,0.3195,0.001534,0.492408,-0.489340,0.498544,-0.503146,0.497010,-0.487806
0.9665,0.020089,-0.004033,-1.569262,1.566194,0.0000,0.0000,0.0000,-0.005794,-1.573864,1.566194,-0.0087,0.5318,0.3195,0.001534,0.492408,-0.489340,0.498544,-0.503146,0.497010,-0.487806
0.9869,0.020413,-0.004013,-1.569262,1.566194,0.0000,0.0000,0.0000,-0.005807,-1.573864,1.566194,0.0308,0.5661,0.2688,0.001534,0.492408,-0.489340,0.498544,-0.503146,0.495476,-0.487806
1.0070,0.020104,-0.003993,-1.569262,1.566194,0.0000,0.0000,0.0000,-0.005781,-1.573864,1.566194,0.0368,0.5109,0.3773,0.001534,0.493942,-0.489340,0.498544,-0.503146,0.497010,-0.487806
1.0273,0.020260,-0.003973,-1.569262,1.566194,0.0000,0.0000,0.0000,-0.005796,-1.573864,1.566194,-0.0140,0.5335,0.3142,0.001534,0.492408,-0.489340,0.498544,-0.503146,0.497010,-0.487806
1.0477,0.020352,-0.003952,-1.569262,1.566194,0.0000,0.0000,0.0000,-0.005782,-1.573864,1.566194,0.0415,0.5143,0.3725,0.001534,0.493942,-0.489340,0.498544,-0.503146,0.497010,-0.487806
1.0677,0.020089,-0.003932,-1.569262,1.566194,0.0000,0.0000,0.0000,-0.005783,-1.573864,1.566194,0.0357,0.5163,0.3664,0.001534,0.493942,-0.489340,0.498544,-0.503146,0.497010,-0.487806
1.0880,0.020259,-0.003912,-1.569262,1.566194,0.0000,0.0000,0.0000,-0.005783,-1.573864,1.566194,0.0357,0.5163,0.3664,0.001534,0.493942,-0.489340,0.498544,-0.503146,0.497010,-0.487806
1.1082,0.020171,-0.003892,-1.569262,1.566194,0.0000,0.0000,0.0000,-0.005796,-1.573864,1.566194,0.0764,0.5508,0.3157,0.001534,0.493942,-0.489340,0.498544,-0.503146,0.495476,-0.487806
1.1283,0.020093,-0.003872,-1.569262,1.566194,0.0000,0.0000,0.0000,-0.005782,-1.573864,1.566194,0.0321,0.5125,0.3724,0.001534,0.493942,-0.489340,0.498544,-0.503146,0.497010,-0.487806
1.1484,0.020104,-0.003852,-1.569262,1.566194,0.0000,0.0000,0.0000,-0.005783,-1.572330,1.566194,0.0367,0.5165,0.3665,0.001534,0.493942,-0.489340,0.498544,-0.503146,0.497010,-0.487806
1.1685,0.020093,-0.003832,-1.569262,1.566194,0.0000,0.0000,0.0000,-0.005783,-1.573864,1.566194,0.0367,0.5165,0.3665,0.001534,0.493942,-0.489340,0.498544,-0.503146,0.497010,-0.487806
1.1887,0.020202,-0.003811,-1.569262,1.566194,0.0000,0.0000,0.0000,-0.005783,-1.573864,1.566194,0.0367,0.5165,0.3665,0.001534,0.493942,-0.489340,0.498544,-0.503146,0.497010,-0.487806
1.2088,0.020105,-0.003791,-1.569262,1.566194,0.0000,0.0000,0.0000,-0.005783,-1.573864,1.566194,0.0367,0.5165,0.3665,0.001534,0.493942,-0.489340,0.498544,-0.503146,0.497010,-0.487806
1.2289,0.020093,-0.003771,-1.569262,1.566194,0.0000,0.0000,0.0000,-0.005783,-1.573864,1.566194,0.0367,0.5165,0.3665,0.001534,0.493942,-0.489340,0.498544,-0.503146,0.497010,-0.487806
1.2490,0.020093,-0.003751,-1.569262,1.566194,0.0000,0.0000,0.0000,-0.005783,-1.573864,1.566194,0.0367,0.5165,0.3665,0.001534,0.493942,-0.489340,0.498544,-0.503146,0.497010,-0.487806
1.2691,0.020092,-0.003731,-1.569262,1.566194,0.0000,0.0000,0.0000,-0.005783,-1.572330,1.566194,0.0367,0.5165,0.3665,0.001534,0.493942,-0.489340,0.498544,-0.503146,0.497010,-0.487806
1.2892,0.020117,-0.003711,-1.569262,1.566194,0.0000,0.0000,0.0000,-0.005783,-1.573864,1.566194,0.0367,0.5165,0.3665,0.001534,0.493942,-0.489340,0.498544,-0.503146,0.497010,-0.487806
1.3093,0.020107,-0.003691,-1.569262,1.566194,0.0000,0.0000,0.0000,-0.005783,-1.573864,1.566194,0.0367,0.5165,0.3665,0.001534,0.493942,-0.489340,0.498544,-0.503146,0.497010,-0.487806
1.3294,0.020092,-0.003671,-1.569262,1.566194,0.0000,0.0000,0.0000,-0.005783,-1.573864,1.566194,0.0367,0.5165,0.2786,0.000000,0.493942,-0.489340,0.498544,-0.503146,0.497010,-0.487806
1.3496,0.020197,-0.003650,-1.569262,1.566194,0.0000,0.0000,0.0000,-0.005783,-1.573864,1.566194,0.0367,0.5165,0.3665,0.001534,0.493942,-0.489340,0.498544,-0.503146,0.497010,-0.487806
1.3697,0.020088,-0.003630,-1.569262,1.566194,0.0000,0.0000,0.0000,-0.005783,-1.573864,1.566194,0.0367,0.5165,0.3665,0.001534,0.493942,-0.489340,0.498544,-0.503146,0.497010,-0.487806
1.3897,0.020084,-0.003610,-1.569262,1.566194,0.0000,0.0000,0.0000,-0.005783,-1.573864,1.566194,0.0367,0.5165,0.3665,0.001534,0.493942,-0.489340,0.498544,-0.503146,0.497010,-0.487806
1.4104,0.020685,-0.003590,-1.569262,1.566194,0.0000,0.0000,0.0000,-0.005783,-1.573864,1.566194,0.0367,0.5165,0.3665,0.001534,0.493942,-0.489340,0.498544,-0.503146,0.497010,-0.487806
1.4305,0.020084,-0.003569,-1.569262,1.566194,0.0000,0.0000,0.0000,-0.005783,-1.573864,1.566194,0.0367,0.5165,0.3665,0.001534,0.493942,-0.489340,0.498544,-0.503146,0.497010,-0.487806
1.4506,0.020091,-0.003549,-1.569262,1.566194,0.0000,0.0000,0.0000,-0.005783,-1.573864,1.566194,0.0367,0.5165,0.3665,0.001534,0.493942,-0.489340,0.498544,-0.503146,0.497010,-0.487806
1.4707,0.020087,-0.003529,-1.569262,1.566194,0.0000,0.0000,0.0000,-0.005783,-1.573864,1.566194,0.0367,0.5165,0.3665,0.001534,0.493942,-0.489340,0.498544,-0.503146,0.497010,-0.487806
1.4910,0.020277,-0.003509,-1.569262,1.566194,0.0000,0.0000,0.0000,-0.005783,-1.573864,1.566194,0.0367,0.5165,0.3665,0.001534,0.493942,-0.489340,0.498544,-0.503146,0.497010,-0.487806
1.5112,0.020238,-0.003489,-1.569262,1.566194,0.0000,0.0000,0.0000,-0.005783,-1.572330,1.566194,0.0367,0.5165,0.3665,0.001534,0.493942,-0.489340,0.498544,-0.503146,0.497010,-0.487806
1.5313,0.020089,-0.003469,-1.569262,1.566194,0.0000,0.0000,0.0000,-0.005783,-1.573864,1.566194,0.0367,0.5165,0.3665,0.001534,0.493942,-0.489340,0.498544,-0.503146,0.497010,-0.487806
1.5530,0.021697,-0.003447,-1.569262,1.566194,0.0000,0.0000,0.0000,-0.005783,-1.573864,1.566194,0.0367,0.5165,0.3665,0.001534,0.493942,-0.489340,0.498544,-0.503146,0.497010,-0.487806
1.5731,0.020090,-0.003427,-1.569262,1.566194,0.0000,0.0000,0.0000,-0.005783,-1.573864,1.566194,0.0367,0.5165,0.3665,0.001534,0.493942,-0.489340,0.498544,-0.503146,0.497010,-0.487806
1.5932,0.020089,-0.003407,-1.569262,1.566194,0.0000,0.0000,0.0000,-0.005783,-1.573864,1.566194,0.0367,0.5165,0.3665,0.001534,0.493942,-0.489340,0.498544,-0.503146,0.497010,-0.487806
1.6133,0.020100,-0.003387,-1.569262,1.566194,0.0000,0.0000,0.0000,-0.005783,-1.573864,1.566194,0.0367,0.5165,0.3665,0.001534,0.493942,-0.489340,0.498544,-0.503146,0.497010,-0.487806
1.6334,0.020101,-0.003367,-1.569262,1.566194,0.0000,0.0000,0.0000,-0.005783,-1.572330,1.566194,0.0367,0.5165,0.3665,0.001534,0.493942,-0.489340,0.498544,-0.503146,0.497010,-0.487806
1.6536,0.020248,-0.003346,-1.569262,1.566194,0.0000,0.0000,0.0000,-0.005783,-1.573864,1.566194,0.0367,0.5165,0.3665,0.001534,0.493942,-0.489340,0.498544,-0.503146,0.497010,-0.487806
1.6737,0.020103,-0.003326,-1.569262,1.566194,0.0000,0.0000,0.0000,-0.005783,-1.573864,1.566194,0.0367,0.5165,0.3665,0.001534,0.493942,-0.489340,0.498544,-0.503146,0.497010,-0.487806
1.6938,0.020095,-0.003306,-1.569262,1.566194,0.0000,0.0000,0.0000,-0.005783,-1.573864,1.566194,0.0367,0.5165,0.3665,0.001534,0.493942,-0.489340,0.498544,-0.503146,0.497010,-0.487806
1.7139,0.020105,-0.003286,-1.569262,1.566194,0.0000,0.0000,0.0000,-0.005783,-1.572330,1.566194,0.0367,0.5165,0.3665,0.001534,0.493942,-0.489340,0.498544,-0.503146,0.497010,-0.487806
1.7340,0.020106,-0.003266,-1.569262,1.566194,0.0000,0.0000,0.0000,-0.005783,-1.572330,1.566194,0.0367,0.5165,0.3665,0.001534,0.493942,-0.489340,0.498544,-0.503146,0.497010,-0.487806
1.7541,0.020093,-0.003246,-1.569262,1.566194,0.0000,0.0000,0.0000,-0.005783,-1.573864,1.566194,0.0367,0.5165,0.3665,0.001534,0.493942,-0.489340,0.498544,-0.503146,0.497010,-0.487806
1.7742,0.020094,-0.003226,-1.569262,1.566194,0.0000,0.0000,0.0000,-0.005783,-1.573864,1.566194,0.0367,0.5165,0.3665,0.001534,0.493942,-0.489340,0.498544,-0.503146,0.497010,-0.487806
1.7943,0.020084,-0.003206,-1.569262,1.566194,0.0000,0.0000,0.0000,-0.005783,-1.573864,1.566194,0.0367,0.5165,0.3665,0.001534,0.493942,-0.489340,0.498544,-0.503146,0.497010,-0.487806
1.8144,0.020102,-0.003186,-1.569262,1.566194,0.0000,0.0000,0.0000,-0.005783,-1.573864,1.566194,0.0367,0.5165,0.3665,0.001534,0.493942,-0.489340,0.498544,-0.503146,0.497010,-0.487806
1.8345,0.020100,-0.003166,-1.569262,1.566194,0.0000,0.0000,0.0000,-0.005770,-1.573864,1.566194,-0.0141,0.4985,0.3154,0.001534,0.493942,-0.490874,0.498544,-0.503146,0.497010,-0.489340
1.8546,0.020095,-0.003145,-1.569262,1.566194,0.0000,0.0000,0.0000,-0.005759,-1.573864,1.566194,0.0314,0.4653,0.2695,0.001534,0.493942,-0.490874,0.498544,-0.503146,0.497010,-0.489340
1.8747,0.020101,-0.003125,-1.569262,1.566194,0.0000,0.0000,0.0000,-0.005786,-1.573864,1.566194,0.0368,0.5214,0.3772,0.001534,0.493942,-0.489340,0.498544,-0.503146,0.497010,-0.487806
1.8948,0.020083,-0.003105,-1.569262,1.566194,0.0000,0.0000,0.0000,-0.005745,-1.573864,1.566194,0.0364,0.5149,0.2113,0.001534,0.493942,-0.490874,0.498544,-0.504680,0.497010,-0.489340
1.9149,0.020094,-0.003085,-1.569262,1.566194,0.0000,0.0000,0.0000,-0.005762,-1.572330,1.566194,-0.0037,0.5507,0.2799,0.001534,0.493942,-0.489340,0.498544,-0.504680,0.497010,-0.489340
1.9350,0.020095,-0.003065,-1.569262,1.566194,0.0000,0.0000,0.0000,-0.005773,-1.573864,1.566194,0.0507,0.5645,0.3244,0.001534,0.493942,-0.489340,0.498544,-0.504680,0.497010,-0.487806
1.9554,0.020435,-0.003045,-1.569262,1.566194,0.0000,0.0000,0.0000,-0.005759,-1.573864,1.566194,0.0852,0.5280,0.2685,0.001534,0.493942,-0.489340,0.498544,-0.507748,0.497010,-0.487806
1.9755,0.020114,-0.003024,-1.569262,1.566194,0.0000,0.0000,0.0000,-0.005748,-1.573864,1.566194,0.0620,0.6709,0.2220,0.001534,0.493942,-0.489340,0.498544,-0.507748,0.497010,-0.487806
1.9958,0.020317,-0.003004,-1.569262,1.566194,0.0000,0.0000,0.0000,-0.005737,-1.572330,1.566194,0.0142,0.6384,0.1752,0.001534,0.493942,-0.489340,0.498544,-0.507748,0.497010,-0.489340
2.0159,0.020105,-0.002984,-1.569262,1.566194,0.0000,0.0000,0.0000,-0.005700,-1.573864,1.566194,0.0800,0.7105,0.0251,0.001534,0.493942,-0.490874,0.498544,-0.510816,0.497010,-0.489340
2.0360,0.020098,-0.002964,-1.569262,1.566194,0.0000,0.0000,0.0000,-0.005692,-1.573864,1.566194,0.0835,0.7547,-0.0111,0.001534,0.493942,-0.490874,0.498544,-0.512350,0.497010,-0.489340
2.0561,0.020103,-0.002944,-1.569262,1.566194,0.0000,0.0000,0.0000,-0.005682,-1.573864,1.566194,0.1540,0.8711,-0.0594,0.001534,0.493942,-0.490874,0.498544,-0.515418,0.497010,-0.487806
2.0762,0.020109,-0.002924,-1.569262,1.566194,0.0000,0.0000,0.0000,-0.005645,-1.573864,1.566194,0.1574,0.8761,-0.1062,0.001534,0.495476,-0.490874,0.498544,-0.516952,0.497010,-0.489340
2.0963,0.020092,-0.002904,-1.569262,1.566194,0.0000,0.0000,0.0000,-0.005649,-1.573864,1.566194,0.1172,0.9440,-0.2053,0.001534,0.493942,-0.490874,0.498544,-0.518486,0.497010,-0.489340
2.1164,0.020096,-0.002884,-1.569262,1.566194,0.0000,0.0000,0.0000,-0.005649,-1.573864,1.566194,0.1214,0.9369,-0.1950,0.001534,0.493942,-0.490874,0.498544,-0.518486,0.497010,-0.489340
2.1365,0.020096,-0.002863,-1.569262,1.566194,0.0000,0.0000,0.0000,-0.005625,-1.573864,1.566194,0.1819,0.9724,-0.1961,0.001534,0.495476,-0.490874,0.498544,-0.520019,0.497010,-0.489340
2.1566,0.020104,-0.002843,-1.569262,1.566194,0.0000,0.0000,0.0000,-0.005628,-1.573864,1.566194,0.1356,1.0369,-0.3000,0.001534,0.493942,-0.490874,0.498544,-0.521553,0.497010,-0.489340
2.1768,0.020183,-0.002823,-1.569262,1.566194,0.0000,0.0000,0.0000,-0.005615,-1.573864,1.566194,0.1909,1.0134,-0.2372,0.001534,0.495476,-0.490874,0.498544,-0.521553,0.497010,-0.489340
2.1969,0.020103,-0.002803,-1.569262,1.566194,0.0000,0.0000,0.0000,-0.005616,-1.573864,1.566194,0.1852,1.0159,-0.2437,0.001534,0.495476,-0.490874,0.498544,-0.521553,0.497010,-0.489340
2.2174,0.020444,-0.002783,-1.569262,1.566194,0.0000,0.0000,0.0000,-0.005616,-1.573864,1.566194,0.1852,1.0159,-0.2437,0.001534,0.495476,-0.490874,0.498544,-0.521553,0.497010,-0.489340
2.2375,0.020091,-0.002763,-1.569262,1.566194,0.0000,0.0000,0.0000,-0.005616,-1.573864,1.566194,0.1852,1.0159,-0.2437,0.001534,0.495476,-0.490874,0.498544,-0.521553,0.497010,-0.489340
2.2575,0.020092,-0.002742,-1.569262,1.566194,0.0000,0.0000,0.0000,-0.005604,-1.573864,1.566194,0.2362,0.9988,-0.1911,0.001534,0.497010,-0.490874,0.498544,-0.521553,0.497010,-0.489340
2.2776,0.020096,-0.002722,-1.569262,1.566194,0.0000,0.0000,0.0000,-0.005593,-1.573864,1.566194,0.2813,0.9839,-0.1445,0.001534,0.498544,-0.490874,0.498544,-0.521553,0.497010,-0.489340
2.2977,0.020095,-0.002702,-1.569262,1.566194,0.0000,0.0000,0.0000,-0.005594,-1.573864,1.566194,0.2766,0.9855,-0.1494,0.001534,0.498544,-0.490874,0.498544,-0.521553,0.497010,-0.489340
2.3178,0.020098,-0.002682,-1.569262,1.566194,0.0000,0.0000,0.0000,-0.005594,-1.573864,1.566194,0.2766,0.9855,-0.1494,0.001534,0.498544,-0.490874,0.498544,-0.521553,0.497010,-0.489340
2.3379,0.020092,-0.002662,-1.569262,1.566194,0.0000,0.0000,0.0000,-0.005570,-1.573864,1.566194,0.3778,0.9520,-0.0447,0.001534,0.501612,-0.490874,0.498544,-0.521553,0.497010,-0.489340
2.3594,0.021454,-0.002641,-1.569262,1.566194,0.0000,0.0000,0.0000,-0.005561,-1.573864,1.566194,0.4175,0.9390,-0.0035,0.001534,0.503146,-0.490874,0.498544,-0.521553,0.497010,-0.489340
2.3795,0.020108,-0.002621,-1.569262,1.566194,0.0000,0.0000,0.0000,-0.005538,-1.572330,1.566194,0.4743,0.9754,-0.0076,0.001534,0.504680,-0.490874,0.498544,-0.523087,0.497010,-0.489340
2.3996,0.020103,-0.002600,-1.569262,1.566194,0.0000,0.0000,0.0000,-0.005518,-1.573864,1.566194,0.5001,1.0936,-0.0078,0.001534,0.509282,-0.490874,0.498544,-0.526155,0.497010,-0.489340
2.4197,0.020109,-0.002580,-1.569262,1.566194,0.0000,0.0000,0.0000,-0.005484,-1.573864,1.566194,0.6380,1.0130,0.0455,0.001534,0.512350,-0.490874,0.498544,-0.526155,0.497010,-0.489340
2.4398,0.020113,-0.002560,-1.569262,1.566194,0.0000,0.0000,0.0000,-0.005464,-1.573864,1.566194,0.7240,0.9889,0.1446,0.001534,0.512350,-0.490874,0.498544,-0.526155,0.497010,-0.489340
2.4599,0.020094,-0.002540,-1.569262,1.566194,0.0000,0.0000,0.0000,-0.005479,-1.573864,1.566194,0.6748,1.0271,0.1855,0.001534,0.512350,-0.489340,0.498544,-0.526155,0.497010,-0.489340
2.4800,0.020102,-0.002520,-1.569262,1.566194,0.0000,0.0000,0.0000,-0.005453,-1.573864,1.566194,0.7311,1.0389,0.0780,0.001534,0.512350,-0.490874,0.498544,-0.527689,0.497010,-0.489340
2.5001,0.020094,-0.002500,-1.569262,1.566194,0.0000,0.0000,0.0000,-0.005444,-1.573864,1.566194,0.7754,1.0214,0.1416,0.001534,0.513884,-0.490874,0.498544,-0.527689,0.497010,-0.489340
2.5202,0.020100,-0.002480,-1.569262,1.566194,0.0000,0.0000,0.0000,-0.005433,-1.573864,1.566194,0.7817,1.0747,0.0830,0.001534,0.513884,-0.490874,0.498544,-0.529223,0.497010,-0.489340
2.5403,0.020110,-0.002460,-1.569262,1.566194,0.0000,0.0000,0.0000,-0.005423,-1.573864,1.566194,0.8312,1.0530,0.1415,0.001534,0.515418,-0.490874,0.498544,-0.529223,0.497010,-0.489340
2.5604,0.020091,-0.002440,-1.569262,1.566194,0.0000,0.0000,0.0000,-0.005413,-1.573864,1.566194,0.8761,1.0392,0.1878,0.001534,0.516952,-0.490874,0.498544,-0.529223,0.497010,-0.489340
2.5805,0.020093,-0.002419,-1.569262,1.566194,0.0000,0.0000,0.0000,-0.005414,-1.573864,1.566194,0.8714,1.0406,0.1830,0.001534,0.516952,-0.490874,0.498544,-0.529223,0.497010,-0.489340
2.6006,0.020092,-0.002399,-1.569262,1.566194,0.0000,0.0000,0.0000,-0.005389,-1.572330,1.566194,0.8722,1.1444,0.1835,0.001534,0.516952,-0.490874,0.500078,-0.530757,0.497010,-0.489340
2.6207,0.020090,-0.002379,-1.569262,1.566194,0.0000,0.0000,0.0000,-0.005380,-1.573864,1.566194,0.8832,1.1849,0.1315,0.001534,0.516952,-0.490874,0.500078,-0.532291,0.497010,-0.489340
2.6408,0.020100,-0.002359,-1.569262,1.566194,0.0000,0.0000,0.0000,-0.005345,-1.573864,1.566194,0.9325,1.2685,0.1895,0.001534,0.518486,-0.490874,0.501612,-0.533825,0.497010,-0.489340
2.6609,0.020085,-0.002339,-1.569262,1.566194,0.0000,0.0000,0.0000,-0.005299,-1.573864,1.566194,0.9669,1.4001,0.2882,0.001534,0.520019,-0.490874,0.504680,-0.535359,0.497010,-0.489340
2.6810,0.020090,-0.002319,-1.569262,1.566194,0.0000,0.0000,0.0000,-0.005279,-1.573864,1.566194,0.9635,1.4901,0.2780,0.001534,0.520019,-0.490874,0.506214,-0.536893,0.497010,-0.489340
2.7011,0.020099,-0.002299,-1.569262,1.566194,0.0000,0.0000,0.0000,-0.005242,-1.573864,1.566194,0.8534,1.4961,0.2267,0.001534,0.520019,-0.490874,0.507748,-0.536893,0.497010,-0.492408
2.7211,0.020088,-0.002279,-1.569262,1.566194,0.0000,0.0000,0.0000,-0.005208,-1.573864,1.566194,0.8631,1.4980,0.3878,0.001534,0.521553,-0.490874,0.509282,-0.536893,0.498544,-0.492408
2.7412,0.020099,-0.002259,-1.569262,1.566194,0.0000,0.0000,0.0000,-0.005174,-1.573864,1.566194,0.8215,1.5677,0.4220,0.001534,0.521553,-0.490874,0.510816,-0.538427,0.500078,-0.492408
2.7613,0.020105,-0.002239,-1.569262,1.566194,0.0000,0.0000,0.0000,-0.005125,-1.573864,1.566194,0.6744,1.5418,0.4169,0.001534,0.521553,-0.490874,0.512350,-0.538427,0.501612,-0.495476
2.7814,0.020086,-0.002219,-1.569262,1.566194,0.0000,0.0000,0.0000,-0.005104,-1.573864,1.566194,0.5903,1.6458,0.3122,0.001534,0.520019,-0.490874,0.513884,-0.539961,0.501612,-0.497010
2.8015,0.020083,-0.002198,-1.569262,1.566194,0.0000,0.0000,0.0000,-0.005082,-1.573864,1.566194,0.5606,1.6680,0.2184,0.001534,0.520019,-0.490874,0.513884,-0.541495,0.501612,-0.498544
2.8216,0.020085,-0.002178,-1.569262,1.566194,0.0000,0.0000,0.0000,-0.005071,-1.573864,1.566194,0.5229,1.6318,0.2792,0.001534,0.520019,-0.490874,0.513884,-0.541495,0.503146,-0.498544
2.8417,0.020086,-0.002158,-1.569262,1.566194,0.0000,0.0000,0.0000,-0.005046,-1.572330,1.566194,0.4363,1.5833,0.2714,0.001534,0.520019,-0.490874,0.513884,-0.541495,0.504680,-0.500078
2.8618,0.020128,-0.002138,-1.569262,1.566194,0.0000,0.0000,0.0000,-0.005037,-1.573864,1.566194,0.4953,1.5723,0.3251,0.001534,0.521553,-0.490874,0.513884,-0.541495,0.504680,-0.500078
2.8819,0.020104,-0.002118,-1.569262,1.566194,0.0000,0.0000,0.0000,-0.005038,-1.573864,1.566194,0.4891,1.5734,0.3195,0.001534,0.521553,-0.490874,0.513884,-0.541495,0.504680,-0.500078
2.9020,0.020088,-0.002098,-1.569262,1.566194,0.0000,0.0000,0.0000,-0.005038,-1.573864,1.566194,0.4891,1.5734,0.3195,0.001534,0.521553,-0.490874,0.513884,-0.541495,0.504680,-0.500078
2.9221,0.020094,-0.002078,-1.569262,1.566194,0.0000,0.0000,0.0000,-0.005049,-1.573864,1.566194,0.4398,1.5894,0.2672,0.001534,0.520019,-0.490874,0.513884,-0.541495,0.504680,-0.500078
2.9422,0.020095,-0.002058,-1.569262,1.566194,0.0000,0.0000,0.0000,-0.005011,-1.573864,1.566194,0.4134,1.5039,0.4278,0.001534,0.521553,-0.490874,0.513884,-0.541495,0.507748,-0.500078
2.9623,0.020086,-0.002038,-1.569262,1.566194,0.0000,0.0000,0.0000,-0.005002,-1.573864,1.566194,0.3665,1.4944,0.3587,0.001534,0.521553,-0.490874,0.513884,-0.541495,0.507748,-0.501612
2.9824,0.020093,-0.002018,-1.569262,1.566194,0.0000,0.0000,0.0000,-0.004967,-1.572330,1.566194,0.3828,1.5124,0.3139,0.001534,0.523087,-0.490874,0.513884,-0.543029,0.507748,-0.503146
3.0025,0.020089,-0.001998,-1.569262,1.566194,0.0000,0.0000,0.0000,-0.004922,-1.573864,1.566194,0.3518,1.4937,0.3177,0.001534,0.524621,-0.490874,0.513884,-0.544563,0.509282,-0.504680
3.0226,0.020089,-0.001977,-1.569262,1.566194,0.0000,0.0000,0.0000,-0.004867,-1.573864,1.566194,0.3758,1.4628,0.3695,0.001534,0.527689,-0.490874,0.513884,-0.546097,0.510816,-0.506214
3.0426,0.020090,-0.001957,-1.569262,1.566194,0.0000,0.0000,0.0000,-0.004824,-1.573864,1.566194,0.3441,1.4492,0.3633,0.001534,0.529223,-0.490874,0.513884,-0.547631,0.512350,-0.507748
3.0627,0.020084,-0.001937,-1.569262,1.566194,0.0000,0.0000,0.0000,-0.004804,-1.573864,1.566194,0.3477,1.4162,0.3644,0.001534,0.530757,-0.490874,0.513884,-0.547631,0.512350,-0.509282
3.0828,0.020084,-0.001917,-1.569262,1.566194,0.0000,0.0000,0.0000,-0.004758,-1.573864,1.566194,0.3095,1.4180,0.2595,0.001534,0.532291,-0.490874,0.513884,-0.549165,0.512350,-0.512350
3.1029,0.020087,-0.001897,-1.569262,1.566194,0.0000,0.0000,0.0000,-0.004726,-1.573864,1.566194,0.2730,1.3498,0.3223,0.001534,0.533825,-0.490874,0.513884,-0.549165,0.513884,-0.513884
3.1230,0.020090,-0.001877,-1.569262,1.566194,0.0000,0.0000,0.0000,-0.004730,-1.573864,1.566194,0.3151,1.2897,0.4215,0.001534,0.535359,-0.490874,0.513884,-0.547631,0.513884,-0.513884
3.1431,0.020089,-0.001857,-1.569262,1.566194,0.0000,0.0000,0.0000,-0.004703,-1.573864,1.566194,0.2204,1.2439,0.4100,0.001534,0.535359,-0.490874,0.513884,-0.547631,0.515418,-0.515418
3.1632,0.020094,-0.001837,-1.569262,1.566194,0.0000,0.0000,0.0000,-0.004693,-1.573864,1.566194,0.1808,1.2302,0.3586,0.001534,0.535359,-0.490874,0.513884,-0.547631,0.515418,-0.516952
3.1833,0.020083,-0.001817,-1.569262,1.566194,0.0000,0.0000,0.0000,-0.004694,-1.573864,1.566194,0.1850,1.2316,0.3639,0.001534,0.535359,-0.490874,0.513884,-0.547631,0.515418,-0.516952
3.2033,0.020088,-0.001797,-1.569262,1.566194,0.0000,0.0000,0.0000,-0.004683,-1.573864,1.566194,0.1961,1.2828,0.3107,0.001534,0.535359,-0.490874,0.513884,-0.549165,0.515418,-0.516952
3.2234,0.020089,-0.001777,-1.569262,1.566194,0.0000,0.0000,0.0000,-0.004695,-1.573864,1.566194,0.1834,1.2262,0.3689,0.001534,0.535359,-0.490874,0.513884,-0.547631,0.515418,-0.516952
3.2435,0.020085,-0.001756,-1.569262,1.566194,0.0000,0.0000,0.0000,-0.004694,-1.573864,1.566194,0.1847,1.2320,0.3628,0.001534,0.535359,-0.490874,0.513884,-0.547631,0.515418,-0.516952
3.2636,0.020085,-0.001736,-1.569262,1.566194,0.0000,0.0000,0.0000,-0.004694,-1.573864,1.566194,0.1847,1.2320,0.3628,0.001534,0.535359,-0.490874,0.513884,-0.547631,0.515418,-0.516952
3.2837,0.020091,-0.001716,-1.569262,1.566194,0.0000,0.0000,0.0000,-0.004683,-1.573864,1.566194,0.1961,1.2827,0.3108,0.001534,0.535359,-0.490874,0.513884,-0.549165,0.515418,-0.516952
3.3038,0.020065,-0.001696,-1.569262,1.566194,0.0000,0.0000,0.0000,-0.004684,-1.573864,1.566194,0.1949,1.2774,0.3162,0.001534,0.535359,-0.490874,0.513884,-0.549165,0.515418,-0.516952
3.3239,0.020102,-0.001676,-1.569262,1.566194,0.0000,0.0000,0.0000,-0.004684,-1.573864,1.566194,0.1949,1.2774,0.3162,0.001534,0.535359,-0.490874,0.513884,-0.549165,0.515418,-0.516952
3.3440,0.020093,-0.001656,-1.569262,1.566194,0.0000,0.0000,0.0000,-0.004671,-1.573864,1.566194,0.1837,1.3302,0.3677,0.001534,0.535359,-0.490874,0.515418,-0.549165,0.515418,-0.516952
3.3640,0.020092,-0.001636,-1.569262,1.566194,0.0000,0.0000,0.0000,-0.004645,-1.573864,1.566194,0.1620,1.4291,0.4664,0.001534,0.535359,-0.490874,0.518486,-0.549165,0.515418,-0.516952
3.3841,0.020086,-0.001616,-1.569262,1.566194,0.0000,0.0000,0.0000,-0.004611,-1.573864,1.566194,0.1528,1.5743,0.5077,0.001534,0.535359,-0.490874,0.521553,-0.550699,0.515418,-0.516952
3.4042,0.020084,-0.001596,-1.569262,1.566194,0.0000,0.0000,0.0000,-0.004577,-1.573864,1.566194,0.1423,1.7145,0.5550,0.001534,0.535359,-0.490874,0.524621,-0.552233,0.515418,-0.516952
3.4243,0.020092,-0.001576,-1.569262,1.566194,0.0000,0.0000,0.0000,-0.004554,-1.573864,1.566194,0.1203,1.8038,0.6546,0.001534,0.535359,-0.490874,0.527689,-0.552233,0.515418,-0.516952
3.4444,0.020093,-0.001556,-1.569262,1.566194,0.0000,0.0000,0.0000,-0.004531,-1.573864,1.566194,0.0993,1.8981,0.7488,0.001534,0.535359,-0.490874,0.530757,-0.552233,0.515418,-0.516952
3.4645,0.020086,-0.001536,-1.569262,1.566194,0.0000,0.0000,0.0000,-0.004509,-1.573864,1.566194,0.1014,1.9915,0.7385,0.001534,0.535359,-0.490874,0.532291,-0.553767,0.515418,-0.516952
3.4846,0.020084,-0.001515,-1.569262,1.566194,0.0000,0.0000,0.0000,-0.004487,-1.573864,1.566194,0.1011,2.0850,0.7392,0.001534,0.535359,-0.490874,0.533825,-0.555301,0.515418,-0.516952
3.5046,0.020042,-0.001495,-1.569262,1.566194,0.0000,0.0000,0.0000,-0.004465,-1.573864,1.566194,0.1011,2.1785,0.7387,0.001534,0.535359,-0.490874,0.535359,-0.556835,0.515418,-0.516952
3.5247,0.020076,-0.001475,-1.569262,1.566194,0.0000,0.0000,0.0000,-0.004467,-1.573864,1.566194,0.1011,2.1687,0.7387,0.001534,0.535359,-0.490874,0.535359,-0.556835,0.515418,-0.516952
3.5448,0.020081,-0.001455,-1.569262,1.566194,0.0000,0.0000,0.0000,-0.004456,-1.573864,1.566194,0.1128,2.2212,0.6859,0.001534,0.535359,-0.490874,0.535359,-0.558369,0.515418,-0.516952
3.5649,0.020091,-0.001435,-1.569262,1.566194,0.0000,0.0000,0.0000,-0.004457,-1.573864,1.566194,0.1115,2.2157,0.6914,0.001534,0.535359,-0.490874,0.535359,-0.558369,0.515418,-0.516952
3.5849,0.020076,-0.001415,-1.569262,1.566194,0.0000,0.0000,0.0000,-0.004435,-1.573864,1.566194,0.2106,2.1843,0.7979,0.001534,0.538427,-0.490874,0.535359,-0.558369,0.515418,-0.516952
3.6050,0.020091,-0.001395,-1.569262,1.566194,0.0000,0.0000,0.0000,-0.004426,-1.573864,1.566194,0.2496,2.1717,0.8404,0.001534,0.539961,-0.490874,0.535359,-0.558369,0.515418,-0.516952
3.6251,0.020075,-0.001375,-1.569262,1.566194,0.0000,0.0000,0.0000,-0.004391,-1.573864,1.566194,0.1959,2.1201,0.7833,0.001534,0.541495,-0.490874,0.535359,-0.558369,0.515418,-0.520019
3.6452,0.020083,-0.001355,-1.569262,1.566194,0.0000,0.0000,0.0000,-0.004373,-1.572330,1.566194,0.2628,2.1611,0.7901,0.001534,0.543029,-0.490874,0.535359,-0.559903,0.515418,-0.520019
3.6653,0.020080,-0.001335,-1.569262,1.566194,0.0000,0.0000,0.0000,-0.004340,-1.573864,1.566194,0.2676,2.1738,0.7370,0.001534,0.544563,-0.490874,0.535359,-0.561437,0.515418,-0.521553
3.6853,0.020076,-0.001315,-1.569262,1.566194,0.0000,0.0000,0.0000,-0.004331,-1.573864,1.566194,0.2178,2.1539,0.6893,0.001534,0.544563,-0.490874,0.535359,-0.561437,0.515418,-0.523087
3.7054,0.020080,-0.001295,-1.569262,1.566194,0.0000,0.0000,0.0000,-0.004285,-1.572330,1.566194,0.1857,2.1544,0.5886,0.001534,0.546097,-0.490874,0.535359,-0.562971,0.515418,-0.526155
3.7255,0.020077,-0.001275,-1.569262,1.566194,0.0000,0.0000,0.0000,-0.004267,-1.573864,1.566194,0.1892,2.1199,0.5996,0.001534,0.547631,-0.490874,0.535359,-0.562971,0.515418,-0.527689
3.7456,0.020077,-0.001254,-1.569262,1.566194,0.0000,0.0000,0.0000,-0.004269,-1.573864,1.566194,0.1888,2.1235,0.5985,0.001534,0.547631,-0.490874,0.535359,-0.562971,0.515418,-0.527689
3.7656,0.020074,-0.001234,-1.569262,1.566194,0.0000,0.0000,0.0000,-0.004246,-1.573864,1.566194,0.1889,2.0887,0.5991,0.001534,0.549165,-0.490874,0.535359,-0.562971,0.515418,-0.529223
3.7857,0.020077,-0.001214,-1.569262,1.566194,0.0000,0.0000,0.0000,-0.004225,-1.573864,1.566194,0.1890,2.0579,0.5995,0.001534,0.550699,-0.490874,0.535359,-0.562971,0.515418,-0.530757
3.8058,0.020079,-0.001194,-1.569262,1.566194,0.0000,0.0000,0.0000,-0.004227,-1.573864,1.566194,0.1890,2.0611,0.5994,0.001534,0.550699,-0.490874,0.535359,-0.562971,0.515418,-0.530757
3.8259,0.020074,-0.001174,-1.569262,1.566194,0.0000,0.0000,0.0000,-0.004227,-1.573864,1.566194,0.1890,2.0611,0.5994,0.001534,0.550699,-0.490874,0.535359,-0.562971,0.515418,-0.530757
3.8460,0.020081,-0.001154,-1.569262,1.566194,0.0000,0.0000,0.0000,-0.004216,-1.572330,1.566194,0.2013,2.1120,0.5465,0.001534,0.550699,-0.490874,0.535359,-0.564505,0.515418,-0.530757
3.8660,0.020076,-0.001134,-1.569262,1.566194,0.0000,0.0000,0.0000,-0.004217,-1.573864,1.566194,0.2000,2.1067,0.5520,0.001534,0.550699,-0.490874,0.535359,-0.564505,0.515418,-0.530757
3.8861,0.020076,-0.001114,-1.569262,1.566194,0.0000,0.0000,0.0000,-0.004206,-1.573864,1.566194,0.2124,2.1585,0.4985,0.001534,0.550699,-0.490874,0.535359,-0.566039,0.515418,-0.530757
3.9062,0.020077,-0.001094,-1.569262,1.566194,0.0000,0.0000,0.0000,-0.004207,-1.572330,1.566194,0.2111,2.1531,0.5040,0.001534,0.550699,-0.490874,0.535359,-0.566039,0.515418,-0.530757
3.9263,0.020075,-0.001074,-1.569262,1.566194,0.0000,0.0000,0.0000,-0.004193,-1.573864,1.566194,0.1700,2.1201,0.5547,0.001534,0.550699,-0.490874,0.535359,-0.566039,0.516952,-0.530757
3.9463,0.020083,-0.001054,-1.569262,1.566194,0.0000,0.0000,0.0000,-0.004145,-1.572330,1.566194,0.1165,2.1589,0.5459,0.001534,0.550699,-0.490874,0.535359,-0.569107,0.520019,-0.530757
3.9664,0.020075,-0.001034,-1.569262,1.566194,0.0000,0.0000,0.0000,-0.004136,-1.572330,1.566194,0.0809,2.1214,0.5982,0.001534,0.550699,-0.490874,0.535359,-0.569107,0.521553,-0.530757
3.9865,0.020075,-0.001014,-1.569262,1.566194,0.0000,0.0000,0.0000,-0.004112,-1.573864,1.566194,0.0557,2.1431,0.5910,0.001534,0.550699,-0.490874,0.535359,-0.570641,0.523087,-0.530757
4.0066,0.020076,-0.000993,-1.569262,1.566194,0.0000,0.0000,0.0000,-0.004088,-1.573864,1.566194,-0.0237,2.0740,0.6948,0.001534,0.550699,-0.490874,0.535359,-0.570641,0.526155,-0.530757
4.0267,0.020076,-0.000973,-1.569262,1.566194,0.0000,0.0000,0.0000,-0.004052,-1.573864,1.566194,-0.0852,2.0656,0.7340,0.001534,0.550699,-0.490874,0.535359,-0.572175,0.529223,-0.530757
4.0467,0.020083,-0.000953,-1.569262,1.566194,0.0000,0.0000,0.0000,-0.004043,-1.572330,1.566194,-0.1196,2.0332,0.7816,0.001534,0.550699,-0.490874,0.535359,-0.572175,0.530757,-0.530757
4.0668,0.020087,-0.000933,-1.569262,1.566194,0.0000,0.0000,0.0000,-0.004006,-1.573864,1.566194,-0.1856,2.0211,0.8269,0.001534,0.550699,-0.490874,0.535359,-0.573709,0.533825,-0.530757
4.0869,0.020078,-0.000913,-1.569262,1.566194,0.0000,0.0000,0.0000,-0.004010,-1.573864,1.566194,-0.1787,2.0223,0.8222,0.001534,0.550699,-0.490874,0.535359,-0.573709,0.533825,-0.530757
4.1070,0.020076,-0.000893,-1.569262,1.566194,0.0000,0.0000,0.0000,-0.003996,-1.573864,1.566194,-0.2202,1.9889,0.8745,0.001534,0.550699,-0.490874,0.535359,-0.573709,0.535359,-0.530757
4.1271,0.020077,-0.000873,-1.569262,1.566194,0.0000,0.0000,0.0000,-0.003973,-1.573864,1.566194,-0.2071,1.9437,0.9748,0.001534,0.552233,-0.490874,0.535359,-0.573709,0.536893,-0.530757
4.1471,0.020080,-0.000853,-1.569262,1.566194,0.0000,0.0000,0.0000,-0.003955,-1.573864,1.566194,-0.1097,1.9178,1.0721,0.001534,0.555301,-0.490874,0.535359,-0.573709,0.536893,-0.530757
4.1672,0.020078,-0.000833,-1.569262,1.566194,0.0000,0.0000,0.0000,-0.003947,-1.573864,1.566194,-0.0706,1.9053,1.1159,0.001534,0.556835,-0.490874,0.535359,-0.573709,0.536893,-0.530757
4.1873,0.020078,-0.000813,-1.569262,1.566194,0.0000,0.0000,0.0000,-0.003937,-1.573864,1.566194,-0.0254,1.8915,1.1653,0.001534,0.558369,-0.490874,0.535359,-0.573709,0.536893,-0.530757
4.2074,0.020079,-0.000793,-1.569262,1.566194,0.0000,0.0000,0.0000,-0.003905,-1.573864,1.566194,0.0191,1.8435,1.2148,0.001534,0.561437,-0.490874,0.535359,-0.573709,0.536893,-0.532291
4.2274,0.020081,-0.000773,-1.569262,1.566194,0.0000,0.0000,0.0000,-0.003885,-1.573864,1.566194,0.0143,1.8143,1.2104,0.001534,0.562971,-0.490874,0.535359,-0.573709,0.536893,-0.533825
4.2475,0.020081,-0.000752,-1.569262,1.566194,0.0000,0.0000,0.0000,-0.003864,-1.573864,1.566194,0.0147,1.7831,1.2116,0.001534,0.564505,-0.490874,0.535359,-0.573709,0.536893,-0.535359
4.2676,0.020073,-0.000732,-1.569262,1.566194,0.0000,0.0000,0.0000,-0.003843,-1.573864,1.566194,0.0145,1.7521,1.2122,0.001534,0.566039,-0.490874,0.535359,-0.573709,0.536893,-0.536893
4.2877,0.020078,-0.000712,-1.569262,1.566194,0.0000,0.0000,0.0000,-0.003833,-1.573864,1.566194,-0.0346,1.7362,1.1588,0.001534,0.566039,-0.490874,0.535359,-0.573709,0.536893,-0.538427
4.3078,0.020078,-0.000692,-1.569262,1.566194,0.0000,0.0000,0.0000,-0.003834,-1.573864,1.566194,-0.0295,1.7378,1.1644,0.001534,0.566039,-0.490874,0.535359,-0.573709,0.536893,-0.538427
4.3278,0.020083,-0.000672,-1.569262,1.566194,0.0000,0.0000,0.0000,-0.003821,-1.573864,1.566194,-0.0792,1.7186,1.1105,0.001534,0.566039,-0.490874,0.535359,-0.573709,0.536893,-0.539961
4.3479,0.020078,-0.000652,-1.569262,1.566194,0.0000,0.0000,0.0000,-0.003810,-1.573864,1.566194,-0.1231,1.7015,1.0627,0.001534,0.566039,-0.490874,0.535359,-0.573709,0.536893,-0.541495
4.3681,0.020189,-0.000632,-1.569262,1.566194,0.0000,0.0000,0.0000,-0.003808,-1.573864,1.566194,-0.1799,1.7703,1.0660,0.001534,0.564505,-0.490874,0.536893,-0.573709,0.536893,-0.541495
4.3882,0.020073,-0.000612,-1.569262,1.566194,0.0000,0.0000,0.0000,-0.003761,-1.573864,1.566194,-0.1374,1.9025,1.1712,0.001534,0.566039,-0.490874,0.539961,-0.575243,0.536893,-0.541495
4.4083,0.020082,-0.000592,-1.569262,1.566194,0.0000,0.0000,0.0000,-0.003729,-1.573864,1.566194,-0.1545,2.0432,1.2117,0.001534,0.566039,-0.490874,0.543029,-0.576777,0.536893,-0.541495
4.4283,0.020078,-0.000572,-1.569262,1.566194,0.0000,0.0000,0.0000,-0.003651,-1.573864,1.566194,-0.0408,2.0755,1.1068,0.001534,0.566039,-0.495476,0.546097,-0.578311,0.536893,-0.541495
4.4484,0.020087,-0.000552,-1.569262,1.566194,0.0000,0.0000,0.0000,-0.003591,-1.573864,1.566194,-0.0069,2.1553,1.1741,0.001534,0.566039,-0.498544,0.550699,-0.578311,0.536893,-0.541495
4.4685,0.020079,-0.000531,-1.569262,1.566194,0.0000,0.0000,0.0000,-0.003488,-1.573864,1.566194,0.1020,2.1250,1.0671,0.001534,0.566039,-0.504680,0.553767,-0.579845,0.538427,-0.541495
4.4886,0.020076,-0.000511,-1.569262,1.566194,0.0000,0.0000,0.0000,-0.003374,-1.572330,1.566194,0.1824,2.1377,0.9253,0.001534,0.564505,-0.512350,0.558369,-0.581379,0.539961,-0.541495
4.5087,0.020080,-0.000491,-1.569262,1.566194,0.0000,0.0000,0.0000,-0.003268,-1.573864,1.566194,0.4159,2.0973,0.7898,0.001534,0.566039,-0.520019,0.561437,-0.582913,0.539961,-0.541495
4.5287,0.020082,-0.000471,-1.569262,1.566194,0.0000,0.0000,0.0000,-0.003173,-1.573864,1.566194,0.5021,2.0798,0.7022,0.001534,0.566039,-0.526155,0.564505,-0.584447,0.541495,-0.541495
4.5488,0.020078,-0.000451,-1.569262,1.566194,0.0000,0.0000,0.0000,-0.003101,-1.573864,1.566194,0.5655,2.0244,0.5015,0.001534,0.564505,-0.532291,0.566039,-0.585981,0.543029,-0.541495
4.5689,0.020078,-0.000431,-1.569262,1.566194,0.0000,0.0000,0.0000,-0.003041,-1.573864,1.566194,0.7086,1.9402,0.3675,0.001534,0.564505,-0.538427,0.567573,-0.585981,0.543029,-0.541495
4.5890,0.020085,-0.000411,-1.569262,1.566194,0.0000,0.0000,0.0000,-0.002983,-1.573864,1.566194,0.7336,1.9467,0.3291,0.001534,0.564505,-0.541495,0.569107,-0.587515,0.544563,-0.541495
4.6091,0.020083,-0.000391,-1.569262,1.566194,0.0000,0.0000,0.0000,-0.002937,-1.573864,1.566194,0.9006,1.8242,0.2300,0.001534,0.566039,-0.546097,0.569107,-0.587515,0.544563,-0.541495
4.6291,0.020078,-0.000371,-1.569262,1.566194,0.0000,0.0000,0.0000,-0.002929,-1.573864,1.566194,0.8846,1.8684,0.0805,0.001534,0.564505,-0.547631,0.569107,-0.589049,0.544563,-0.541495
4.6494,0.020287,-0.000351,-1.569262,1.566194,0.0000,0.0000,0.0000,-0.002917,-1.573864,1.566194,0.8876,1.7592,-0.0638,0.001534,0.564505,-0.549165,0.567573,-0.589049,0.544563,-0.543029
4.6695,0.020078,-0.000330,-1.569262,1.566194,0.0000,0.0000,0.0000,-0.002918,-1.573864,1.566194,0.8872,1.7705,-0.0487,0.001534,0.564505,-0.549165,0.567573,-0.589049,0.544563,-0.543029
4.6896,0.020075,-0.000310,-1.569262,1.566194,0.0000,0.0000,0.0000,-0.002919,-1.572330,1.566194,0.9481,1.8377,-0.0500,0.001534,0.564505,-0.549165,0.567573,-0.590583,0.544563,-0.541495
4.7098,0.020171,-0.000290,-1.569262,1.566194,0.0000,0.0000,0.0000,-0.002921,-1.573864,1.566194,0.9519,1.8501,0.0567,0.001534,0.566039,-0.547631,0.567573,-0.590583,0.544563,-0.541495
4.7298,0.020076,-0.000270,-1.569262,1.566194,0.0000,0.0000,0.0000,-0.002896,-1.573864,1.566194,1.0026,1.8641,-0.0604,0.001534,0.566039,-0.549165,0.567573,-0.592117,0.544563,-0.541495
4.7500,0.020211,-0.000250,-1.569262,1.566194,0.0000,0.0000,0.0000,-0.002899,-1.573864,1.566194,0.9973,1.8627,-0.0482,0.001534,0.566039,-0.549165,0.567573,-0.592117,0.544563,-0.541495
4.7702,0.020115,-0.000230,-1.569262,1.566194,0.0000,0.0000,0.0000,-0.002899,-1.573864,1.566194,0.9973,1.8627,-0.0482,0.001534,0.566039,-0.549165,0.567573,-0.592117,0.544563,-0.541495
4.7902,0.020073,-0.000210,-1.569262,1.566194,0.0000,0.0000,0.0000,-0.002899,-1.573864,1.566194,0.9973,1.8627,-0.0482,0.001534,0.566039,-0.549165,0.567573,-0.592117,0.544563,-0.541495
4.8104,0.020202,-0.000190,-1.569262,1.566194,0.0000,0.0000,0.0000,-0.002899,-1.573864,1.566194,0.9973,1.8627,-0.0482,0.001534,0.566039,-0.549165,0.567573,-0.592117,0.544563,-0.541495
4.8305,0.020075,-0.000169,-1.569262,1.566194,0.0000,0.0000,0.0000,-0.002899,-1.572330,1.566194,0.9973,1.8627,-0.0482,0.001534,0.566039,-0.549165,0.567573,-0.592117,0.544563,-0.541495
4.8506,0.020076,-0.000149,-1.569262,1.566194,0.0000,0.0000,0.0000,-0.002887,-1.573864,1.566194,0.9968,1.9340,0.1109,0.001534,0.567573,-0.547631,0.569107,-0.592117,0.544563,-0.541495
4.8707,0.020081,-0.000129,-1.569262,1.566194,0.0000,0.0000,0.0000,-0.002877,-1.573864,1.566194,1.0974,1.8238,0.0421,0.001534,0.569107,-0.549165,0.567573,-0.592117,0.544563,-0.541495
4.8907,0.020076,-0.000109,-1.569262,1.566194,0.0000,0.0000,0.0000,-0.002880,-1.573864,1.566194,1.0968,1.8549,0.1559,0.001534,0.570641,-0.547631,0.567573,-0.592117,0.544563,-0.541495
4.9108,0.020090,-0.000089,-1.569262,1.566194,0.0000,0.0000,0.0000,-0.002842,-1.573864,1.566194,1.1752,1.8522,0.1993,0.001534,0.572175,-0.549165,0.569107,-0.592117,0.544563,-0.541495
4.9309,0.020080,-0.000069,-1.569262,1.566194,0.0000,0.0000,0.0000,-0.002835,-1.573864,1.566194,1.2166,1.8368,0.2490,0.001534,0.573709,-0.549165,0.569107,-0.592117,0.544563,-0.541495
4.9510,0.020108,-0.000049,-1.569262,1.566194,0.0000,0.0000,0.0000,-0.002838,-1.573864,1.566194,1.2730,1.7712,0.2442,0.001534,0.575243,-0.549165,0.567573,-0.592117,0.544563,-0.541495
4.9715,0.020467,-0.000029,-1.569262,1.566194,0.0000,0.0000,0.0000,-0.002813,-1.573864,1.566194,1.3055,1.8142,0.3527,0.001534,0.576777,-0.549165,0.569107,-0.592117,0.544563,-0.541495
4.9916,0.020072,-0.000008,-1.569262,1.566194,0.0000,0.0000,0.0000,-0.002829,-1.573864,1.566194,1.3133,1.7581,0.2875,0.001534,0.576777,-0.549165,0.567573,-0.592117,0.544563,-0.541495
5.0122,0.020629,0.000012,-1.569262,1.566194,0.0000,0.0000,0.0000,-0.002816,-1.573864,1.566194,1.3621,1.7484,0.3485,0.001534,0.578311,-0.549165,0.567573,-0.592117,0.544563,-0.541495
5.0323,0.020079,0.000032,-1.569262,1.566194,0.0000,0.0000,0.0000,-0.002806,-1.573864,1.566194,1.4065,1.7340,0.3964,0.001534,0.579845,-0.549165,0.567573,-0.592117,0.544563,-0.541495
5.0524,0.020086,0.000052,-1.569262,1.566194,0.0000,0.0000,0.0000,-0.002807,-1.573864,1.566194,1.4018,1.7355,0.3914,0.001534,0.579845,-0.549165,0.567573,-0.592117,0.544563,-0.541495
5.0724,0.020084,0.000072,-1.569262,1.566194,0.0000,0.0000,0.0000,-0.002807,-1.573864,1.566194,1.4018,1.7355,0.3914,0.001534,0.579845,-0.549165,0.567573,-0.592117,0.544563,-0.541495
5.0925,0.020077,0.000093,-1.569262,1.566194,0.0000,0.0000,0.0000,-0.002807,-1.573864,1.566194,1.4018,1.7355,0.3914,0.001534,0.579845,-0.549165,0.567573,-0.592117,0.544563,-0.541495
5.1126,0.020102,0.000113,-1.569262,1.566194,0.0000,0.0000,0.0000,-0.002808,-1.573864,1.566194,1.3129,1.7526,0.3910,0.001534,0.579845,-0.547631,0.567573,-0.592117,0.544563,-0.543029
5.1327,0.020075,0.000133,-1.569262,1.566194,0.0000,0.0000,0.0000,-0.002807,-1.573864,1.566194,1.4116,1.7336,0.3920,0.001534,0.579845,-0.549165,0.567573,-0.592117,0.544563,-0.541495
5.1528,0.020084,0.000153,-1.569262,1.566194,0.0000,0.0000,0.0000,-0.002821,-1.573864,1.566194,1.3614,1.7711,0.4446,0.001534,0.579845,-0.547631,0.567573,-0.592117,0.544563,-0.541495
5.1729,0.020097,0.000173,-1.569262,1.566194,0.0000,0.0000,0.0000,-0.002793,-1.572330,1.566194,1.3571,1.7134,0.3327,0.001534,0.579845,-0.549165,0.567573,-0.592117,0.544563,-0.543029
5.1930,0.020084,0.000193,-1.569262,1.566194,0.0000,0.0000,0.0000,-0.002783,-1.573864,1.566194,1.3462,1.7710,0.3982,0.001534,0.579845,-0.549165,0.569107,-0.592117,0.544563,-0.543029
5.2131,0.020091,0.000213,-1.569262,1.566194,0.0000,0.0000,0.0000,-0.002810,-1.573864,1.566194,1.4081,1.7317,0.3912,0.001534,0.579845,-0.549165,0.567573,-0.592117,0.544563,-0.541495
5.2332,0.020167,0.000233,-1.569262,1.566194,0.0000,0.0000,0.0000,-0.002794,-1.573864,1.566194,1.4416,1.7002,0.3392,0.001534,0.579845,-0.550699,0.567573,-0.592117,0.544563,-0.541495
5.2533,0.020114,0.000253,-1.569262,1.566194,0.0000,0.0000,0.0000,-0.002769,-1.573864,1.566194,1.4284,1.6498,0.2381,0.001534,0.579845,-0.552233,0.567573,-0.592117,0.544563,-0.543029
5.2734,0.020089,0.000273,-1.569262,1.566194,0.0000,0.0000,0.0000,-0.002745,-1.573864,1.566194,1.4200,1.6015,0.1420,0.001534,0.579845,-0.553767,0.567573,-0.592117,0.544563,-0.544563
5.2935,0.020079,0.000294,-1.569262,1.566194,0.0000,0.0000,0.0000,-0.002682,-1.573864,1.566194,1.3902,1.5515,-0.0075,0.001534,0.579845,-0.556835,0.569107,-0.592117,0.544563,-0.547631
5.3136,0.020089,0.000314,-1.569262,1.566194,0.0000,0.0000,0.0000,-0.002650,-1.573864,1.566194,1.3342,1.4858,-0.1525,0.001534,0.579845,-0.558369,0.569107,-0.592117,0.544563,-0.550699
5.3337,0.020082,0.000334,-1.569262,1.566194,0.0000,0.0000,0.0000,-0.002603,-1.573864,1.566194,1.3433,1.3855,-0.4584,0.001534,0.579845,-0.561437,0.567573,-0.593651,0.544563,-0.553767
5.3538,0.020080,0.000354,-1.569262,1.566194,0.0000,0.0000,0.0000,-0.002546,-1.573864,1.566194,1.2838,1.2921,-0.5872,0.001534,0.581379,-0.562971,0.567573,-0.593651,0.544563,-0.558369
5.3738,0.020091,0.000374,-1.569262,1.566194,0.0000,0.0000,0.0000,-0.002505,-1.573864,1.566194,1.2535,1.3012,-0.6808,0.001534,0.582913,-0.562971,0.567573,-0.595185,0.544563,-0.561437
5.3940,0.020140,0.000394,-1.569262,1.566194,0.0000,0.0000,0.0000,-0.002451,-1.573864,1.566194,1.2700,1.2834,-0.7240,0.001534,0.585981,-0.562971,0.567573,-0.596719,0.544563,-0.564505
5.4141,0.020088,0.000414,-1.569262,1.566194,0.0000,0.0000,0.0000,-0.002372,-1.573864,1.566194,1.1622,1.2667,-0.8641,0.000000,0.587515,-0.562971,0.567573,-0.599786,0.547631,-0.567573
5.4342,0.020083,0.000434,-1.569262,1.566194,0.0000,0.0000,0.0000,-0.002317,-1.573864,1.566194,1.1792,1.2207,-0.5041,0.001534,0.590583,-0.562971,0.569107,-0.599786,0.550699,-0.567573
5.4542,0.020082,0.000454,-1.569262,1.566194,0.0000,0.0000,0.0000,-0.002275,-1.573864,1.566194,1.1198,1.1227,-0.5351,0.001534,0.592117,-0.562971,0.567573,-0.601320,0.553767,-0.569107
5.4743,0.020089,0.000474,-1.569262,1.566194,0.0000,0.0000,0.0000,-0.002233,-1.573864,1.566194,1.1666,1.1678,-0.4261,0.001534,0.593651,-0.562971,0.567573,-0.604388,0.556835,-0.567573
5.4944,0.020076,0.000494,-1.569262,1.566194,0.0000,0.0000,0.0000,-0.002189,-1.573864,1.566194,1.1793,1.0648,-0.2239,0.001534,0.596719,-0.562971,0.567573,-0.604388,0.559903,-0.567573
5.5145,0.020087,0.000514,-1.569262,1.566194,0.0000,0.0000,0.0000,-0.002156,-1.573864,1.566194,1.1086,1.0588,-0.1937,0.001534,0.596719,-0.562971,0.567573,-0.605922,0.562971,-0.567573
5.5346,0.020069,0.000535,-1.569262,1.566194,0.0000,0.0000,0.0000,-0.002123,-1.572330,1.566194,1.0466,1.0427,-0.1455,0.001534,0.596719,-0.562971,0.567573,-0.607456,0.566039,-0.567573
5.5546,0.020080,0.000555,-1.569262,1.566194,0.0000,0.0000,0.0000,-0.002126,-1.573864,1.566194,1.0531,1.0444,-0.1505,0.001534,0.596719,-0.562971,0.567573,-0.607456,0.566039,-0.567573
5.5747,0.020092,0.000575,-1.569262,1.566194,0.0000,0.0000,0.0000,-0.002126,-1.573864,1.566194,1.0522,1.0442,-0.1498,0.001534,0.596719,-0.562971,0.567573,-0.607456,0.566039,-0.567573
5.5948,0.020085,0.000595,-1.569262,1.566194,0.0000,0.0000,0.0000,-0.002126,-1.573864,1.566194,1.0522,1.0442,-0.1498,0.001534,0.596719,-0.562971,0.567573,-0.607456,0.566039,-0.567573
5.6149,0.020083,0.000615,-1.569262,1.566194,0.0000,0.0000,0.0000,-0.002137,-1.573864,1.566194,1.0030,1.0596,-0.2044,0.001534,0.595185,-0.562971,0.567573,-0.607456,0.566039,-0.567573
5.6350,0.020089,0.000635,-1.569262,1.566194,0.0000,0.0000,0.0000,-0.002125,-1.573864,1.566194,1.0577,1.0426,-0.1444,0.001534,0.596719,-0.562971,0.567573,-0.607456,0.566039,-0.567573
5.6551,0.020082,0.000655,-1.569262,1.566194,0.0000,0.0000,0.0000,-0.002126,-1.573864,1.566194,1.0520,1.0444,-0.1506,0.001534,0.596719,-0.562971,0.567573,-0.607456,0.566039,-0.567573
5.6752,0.020091,0.000675,-1.569262,1.566194,0.0000,0.0000,0.0000,-0.002126,-1.573864,1.566194,1.0520,1.0444,-0.1506,0.001534,0.596719,-0.562971,0.567573,-0.607456,0.566039,-0.567573
5.6952,0.020074,0.000695,-1.569262,1.566194,0.0000,0.0000,0.0000,-0.002115,-1.573864,1.566194,1.0643,1.0944,-0.2038,0.001534,0.596719,-0.562971,0.567573,-0.608990,0.566039,-0.567573
5.7153,0.020078,0.000715,-1.569262,1.566194,0.0000,0.0000,0.0000,-0.002116,-1.573864,1.566194,1.0630,1.0892,-0.1982,0.001534,0.596719,-0.562971,0.567573,-0.608990,0.566039,-0.567573
5.7374,0.022102,0.000737,-1.569262,1.566194,0.0000,0.0000,0.0000,-0.002116,-1.573864,1.566194,1.0630,1.0892,-0.1982,0.001534,0.596719,-0.562971,0.567573,-0.608990,0.566039,-0.567573
5.7575,0.020076,0.000757,-1.569262,1.566194,0.0000,0.0000,0.0000,-0.002116,-1.573864,1.566194,1.0630,1.0892,-0.1982,0.001534,0.596719,-0.562971,0.567573,-0.608990,0.566039,-0.567573
5.7776,0.020086,0.000778,-1.569262,1.566194,0.0000,0.0000,0.0000,-0.002103,-1.573864,1.566194,1.1024,1.0541,-0.2521,0.001534,0.596719,-0.564505,0.567573,-0.608990,0.566039,-0.567573
5.7977,0.020148,0.000798,-1.569262,1.566194,0.0000,0.0000,0.0000,-0.002091,-1.573864,1.566194,1.1375,1.0222,-0.2998,0.001534,0.596719,-0.566039,0.567573,-0.608990,0.566039,-0.567573
5.8178,0.020082,0.000818,-1.569262,1.566194,0.0000,0.0000,0.0000,-0.002078,-1.573864,1.566194,1.1227,1.0775,-0.2410,0.001534,0.596719,-0.566039,0.569107,-0.608990,0.566039,-0.567573
5.8381,0.020316,0.000838,-1.569262,1.566194,0.0000,0.0000,0.0000,-0.002083,-1.573864,1.566194,1.1471,1.0699,-0.3547,0.001534,0.596719,-0.566039,0.567573,-0.610524,0.566039,-0.567573
5.8582,0.020082,0.000858,-1.569262,1.566194,0.0000,0.0000,0.0000,-0.002069,-1.572330,1.566194,1.1334,1.1226,-0.2891,0.001534,0.596719,-0.566039,0.569107,-0.610524,0.566039,-0.567573
5.8783,0.020089,0.000878,-1.569262,1.566194,0.0000,0.0000,0.0000,-0.002043,-1.572330,1.566194,1.1125,1.2210,-0.1882,0.001534,0.596719,-0.566039,0.572175,-0.610524,0.566039,-0.567573
5.8984,0.020083,0.000898,-1.569262,1.566194,0.0000,0.0000,0.0000,-0.002033,-1.573864,1.566194,1.0657,1.1927,-0.2528,0.001534,0.596719,-0.566039,0.572175,-0.610524,0.566039,-0.569107
5.9185,0.020091,0.000918,-1.569262,1.566194,0.0000,0.0000,0.0000,-0.002005,-1.573864,1.566194,0.9873,1.2313,-0.1385,0.001534,0.596719,-0.566039,0.575243,-0.608990,0.566039,-0.570641
5.9386,0.020098,0.000939,-1.569262,1.566194,0.0000,0.0000,0.0000,-0.001945,-1.573864,1.566194,0.9750,1.3276,-0.2038,0.001534,0.596719,-0.567573,0.578311,-0.610524,0.566039,-0.572175
5.9586,0.020081,0.000959,-1.569262,1.566194,0.0000,0.0000,0.0000,-0.001914,-1.573864,1.566194,0.9655,1.4711,-0.1430,0.001534,0.596719,-0.567573,0.581379,-0.612058,0.566039,-0.572175
5.9791,0.020487,0.000979,-1.569262,1.566194,0.0000,0.0000,0.0000,-0.001830,-1.573864,1.566194,1.0348,1.5056,-0.2012,0.001534,0.598253,-0.570641,0.584447,-0.613592,0.566039,-0.573709
5.9992,0.020082,0.000999,-1.569262,1.566194,0.0000,0.0000,0.0000,-0.001765,-1.572330,1.566194,1.0055,1.5384,-0.0862,0.001534,0.601320,-0.570641,0.587515,-0.613592,0.566039,-0.576777
6.0193,0.020083,0.001019,-1.569262,1.566194,0.0000,0.0000,0.0000,-0.001749,-1.573864,1.566194,1.0089,1.5017,-0.0978,0.001534,0.602854,-0.570641,0.587515,-0.613592,0.566039,-0.578311
6.0394,0.020095,0.001039,-1.569262,1.566194,0.0000,0.0000,0.0000,-0.001714,-1.573864,1.566194,1.0345,1.5927,0.0666,0.001534,0.604388,-0.570641,0.590583,-0.613592,0.566039,-0.578311
6.0595,0.020074,0.001059,-1.569262,1.566194,0.0000,0.0000,0.0000,-0.001705,-1.573864,1.566194,1.0201,1.6344,0.1037,0.001534,0.604388,-0.570641,0.592117,-0.613592,0.566039,-0.578311
6.0796,0.020109,0.001080,-1.569262,1.566194,0.0000,0.0000,0.0000,-0.001693,-1.573864,1.566194,1.0099,1.6813,0.1541,0.001534,0.604388,-0.570641,0.593651,-0.613592,0.566039,-0.578311
6.0997,0.020091,0.001100,-1.569262,1.566194,0.0000,0.0000,0.0000,-0.001659,-1.573864,1.566194,1.1488,1.6100,0.2054,0.001534,0.607456,-0.572175,0.593651,-0.613592,0.566039,-0.578311
6.1199,0.020195,0.001120,-1.569262,1.566194,0.0000,0.0000,0.0000,-0.001637,-1.573864,1.566194,1.1861,1.6328,0.0929,0.001534,0.607456,-0.573709,0.593651,-0.615126,0.566039,-0.578311
6.1400,0.020099,0.001140,-1.569262,1.566194,0.0000,0.0000,0.0000,-0.001626,-1.573864,1.566194,1.2218,1.5953,0.0512,0.001534,0.607456,-0.575243,0.593651,-0.615126,0.566039,-0.578311
6.1601,0.020185,0.001160,-1.569262,1.566194,0.0000,0.0000,0.0000,-0.001614,-1.573864,1.566194,1.2577,1.5641,0.0021,0.001534,0.607456,-0.576777,0.593651,-0.615126,0.566039,-0.578311
6.1802,0.020089,0.001180,-1.569262,1.566194,0.0000,0.0000,0.0000,-0.001601,-1.573864,1.566194,1.2934,1.5323,-0.0462,0.001534,0.607456,-0.578311,0.593651,-0.615126,0.566039,-0.578311
6.2003,0.020094,0.001200,-1.569262,1.566194,0.0000,0.0000,0.0000,-0.001581,-1.573864,1.566194,1.3508,1.5702,-0.0401,0.001534,0.608990,-0.578311,0.593651,-0.616660,0.566039,-0.578311
6.2204,0.020089,0.001220,-1.569262,1.566194,0.0000,0.0000,0.0000,-0.001572,-1.573864,1.566194,1.3569,1.6164,-0.0946,0.001534,0.608990,-0.578311,0.593651,-0.618194,0.566039,-0.578311
6.2405,0.020101,0.001241,-1.569262,1.566194,0.0000,0.0000,0.0000,-0.001573,-1.573864,1.566194,1.3563,1.6116,-0.0889,0.001534,0.608990,-0.578311,0.593651,-0.618194,0.566039,-0.578311
6.2608,0.020306,0.001261,-1.569262,1.566194,0.0000,0.0000,0.0000,-0.001562,-1.573864,1.566194,1.4055,1.5966,-0.0346,0.001534,0.610524,-0.578311,0.593651,-0.618194,0.566039,-0.578311
6.2809,0.020087,0.001281,-1.569262,1.566194,0.0000,0.0000,0.0000,-0.001574,-1.573864,1.566194,1.3883,1.5480,0.0135,0.001534,0.610524,-0.578311,0.593651,-0.616660,0.566039,-0.578311
6.3011,0.020171,0.001301,-1.569262,1.566194,0.0000,0.0000,0.0000,-0.001573,-1.573864,1.566194,1.3901,1.5531,0.0085,0.001534,0.610524,-0.578311,0.593651,-0.616660,0.566039,-0.578311
6.3212,0.020090,0.001321,-1.569262,1.566194,0.0000,0.0000,0.0000,-0.001562,-1.573864,1.566194,1.4020,1.6027,-0.0448,0.001534,0.610524,-0.578311,0.593651,-0.618194,0.566039,-0.578311
6.3413,0.020107,0.001341,-1.569262,1.566194,0.0000,0.0000,0.0000,-0.001549,-1.573864,1.566194,1.4402,1.5624,-0.0928,0.001534,0.610524,-0.579845,0.593651,-0.618194,0.566039,-0.578311
6.3614,0.020085,0.001361,-1.569262,1.566194,0.0000,0.0000,0.0000,-0.001537,-1.573864,1.566194,1.4755,1.5315,-0.1414,0.001534,0.610524,-0.581379,0.593651,-0.618194,0.566039,-0.578311
6.3815,0.020113,0.001381,-1.569262,1.566194,0.0000,0.0000,0.0000,-0.001539,-1.572330,1.566194,1.4718,1.5347,-0.1363,0.001534,0.610524,-0.581379,0.593651,-0.618194,0.566039,-0.578311
6.4016,0.020094,0.001402,-1.569262,1.566194,0.0000,0.0000,0.0000,-0.001539,-1.573864,1.566194,1.4718,1.5347,-0.1363,0.001534,0.610524,-0.581379,0.593651,-0.618194,0.566039,-0.578311
6.4217,0.020081,0.001422,-1.569262,1.566194,0.0000,0.0000,0.0000,-0.001525,-1.573864,1.566194,1.5115,1.4992,-0.1905,0.001534,0.610524,-0.582913,0.593651,-0.618194,0.566039,-0.578311
6.4418,0.020103,0.001442,-1.569262,1.566194,0.0000,0.0000,0.0000,-0.001513,-1.573864,1.566194,1.5466,1.4678,-0.2386,0.001534,0.610524,-0.584447,0.593651,-0.618194,0.566039,-0.578311
6.4618,0.020088,0.001462,-1.569262,1.566194,0.0000,0.0000,0.0000,-0.001514,-1.573864,1.566194,1.5429,1.4711,-0.2336,0.001534,0.610524,-0.584447,0.593651,-0.618194,0.566039,-0.578311
6.4819,0.020101,0.001482,-1.569262,1.566194,0.0000,0.0000,0.0000,-0.001514,-1.573864,1.566194,1.5429,1.4711,-0.2336,0.001534,0.610524,-0.584447,0.593651,-0.618194,0.566039,-0.578311
6.5020,0.020082,0.001502,-1.569262,1.566194,0.0000,0.0000,0.0000,-0.001503,-1.572330,1.566194,1.5925,1.4552,-0.1793,0.001534,0.612058,-0.584447,0.593651,-0.618194,0.566039,-0.578311
6.5221,0.020088,0.001522,-1.569262,1.566194,0.0000,0.0000,0.0000,-0.001504,-1.573864,1.566194,1.5874,1.4569,-0.1849,0.001534,0.612058,-0.584447,0.593651,-0.618194,0.566039,-0.578311
6.5422,0.020096,0.001542,-1.569262,1.566194,0.0000,0.0000,0.0000,-0.001503,-1.573864,1.566194,1.4898,1.4546,-0.2937,0.001534,0.610524,-0.584447,0.593651,-0.618194,0.566039,-0.579845
