t,loop_dt,cmd_z,cmd_ant_l,cmd_ant_r,cmd_roll,cmd_pitch,cmd_yaw,pres_z,pres_ant_l,pres_ant_r,pres_roll,pres_pitch,pres_yaw,pres_j0,pres_j1,pres_j2,pres_j3,pres_j4,pres_j5,pres_j6
0.0000,0.000001,-0.005000,-1.576932,1.566194,0.0000,0.0000,0.0000,-0.002930,-1.576932,1.566194,0.7274,1.1684,0.5389,0.000000,0.572175,-0.544563,0.562971,-0.578311,0.550699,-0.546097
0.0201,0.020076,-0.004759,-1.576932,1.566194,0.0000,0.0000,0.0000,-0.002853,-1.576932,1.566194,0.7283,1.2072,0.3731,0.000000,0.572175,-0.547631,0.564505,-0.581379,0.552233,-0.547631
0.0402,0.020079,-0.004518,-1.576932,1.566194,0.0000,0.0000,0.0000,-0.002786,-1.576932,1.566194,0.8079,1.2014,0.2856,0.000000,0.573709,-0.550699,0.566039,-0.582913,0.552233,-0.549165
0.0602,0.020076,-0.004277,-1.576932,1.566194,0.0000,0.0000,0.0000,-0.002718,-1.576932,1.566194,0.8284,1.2871,0.2963,0.000000,0.575243,-0.552233,0.569107,-0.584447,0.552233,-0.550699
0.0803,0.020086,-0.004036,-1.576932,1.566194,0.0000,0.0000,0.0000,-0.003147,-1.576932,1.566194,0.9069,1.2103,0.1886,0.000000,0.566039,-0.546097,0.559903,-0.575243,0.543029,-0.541495
0.1004,0.020075,-0.003795,-1.576932,1.566194,0.0000,0.0000,0.0000,-0.003937,-1.576932,1.566194,0.7611,1.0836,0.1433,0.000000,0.547631,-0.529223,0.541495,-0.556835,0.527689,-0.526155
0.1205,0.020080,-0.003554,-1.576932,1.566194,0.0000,0.0000,0.0000,-0.004669,-1.576932,1.566194,0.6756,0.9608,0.1970,0.000000,0.529223,-0.513884,0.524621,-0.538427,0.513884,-0.509282
0.1406,0.020082,-0.003313,-1.576932,1.566194,0.0000,0.0000,0.0000,-0.005090,-1.576932,1.566194,0.2915,0.4701,0.1877,0.000000,0.513884,-0.507748,0.513884,-0.520019,0.509282,-0.503146
0.1606,0.020075,-0.003072,-1.576932,1.566194,0.0000,0.0000,0.0000,-0.005097,-1.576932,1.566194,0.1199,0.4320,0.1879,0.000000,0.509282,-0.507748,0.513884,-0.516952,0.510816,-0.503146
0.1807,0.020086,-0.002831,-1.576932,1.566194,0.0000,0.0000,0.0000,-0.005071,-1.576932,1.566194,0.1481,0.3844,0.2917,0.000000,0.510816,-0.507748,0.513884,-0.516952,0.512350,-0.503146
0.2008,0.020075,-0.002591,-1.576932,1.566194,0.0000,0.0000,0.0000,-0.005061,-1.578466,1.566194,0.1953,0.3727,0.3330,0.000000,0.512350,-0.507748,0.513884,-0.516952,0.512350,-0.503146
0.2209,0.020077,-0.002350,-1.576932,1.566194,0.0000,0.0000,0.0000,-0.005050,-1.576932,1.566194,0.2006,0.4259,0.2767,0.000000,0.512350,-0.507748,0.513884,-0.518486,0.512350,-0.503146
0.2409,0.020081,-0.002109,-1.576932,1.566194,0.0000,0.0000,0.0000,-0.005064,-1.576932,1.566194,0.2399,0.4550,0.2308,0.000000,0.512350,-0.507748,0.513884,-0.518486,0.510816,-0.503146
0.2610,0.020058,-0.001868,-1.576932,1.566194,0.0000,0.0000,0.0000,-0.005050,-1.576932,1.566194,0.1959,0.4173,0.3752,0.001534,0.512350,-0.507748,0.513884,-0.518486,0.512350,-0.503146
0.2811,0.020096,-0.001627,-1.576932,1.566194,0.0000,0.0000,0.0000,-0.005039,-1.576932,1.566194,0.2406,0.3861,0.2296,0.000000,0.512350,-0.509282,0.513884,-0.518486,0.512350,-0.503146
0.3012,0.020077,-0.001386,-1.576932,1.566194,0.0000,0.0000,0.0000,-0.005027,-1.576932,1.566194,0.2461,0.4413,0.1836,0.000000,0.512350,-0.509282,0.513884,-0.520019,0.512350,-0.503146
0.3213,0.020080,-0.001145,-1.576932,1.566194,0.0000,0.0000,0.0000,-0.005004,-1.576932,1.566194,0.3061,0.4707,0.1885,0.000000,0.513884,-0.509282,0.513884,-0.521553,0.512350,-0.503146
0.3413,0.020083,-0.000904,-1.576932,1.566194,0.0000,0.0000,0.0000,-0.004932,-1.576932,1.566194,0.4209,0.6418,0.1885,0.000000,0.516952,-0.509282,0.515418,-0.526155,0.512350,-0.503146
0.3614,0.020076,-0.000663,-1.576932,1.566194,0.0000,0.0000,0.0000,-0.004778,-1.576932,1.566194,0.4297,0.8676,0.2411,0.000000,0.521553,-0.509282,0.520019,-0.532291,0.513884,-0.506214
0.3815,0.020090,-0.000422,-1.576932,1.566194,0.0000,0.0000,0.0000,-0.004607,-1.576932,1.566194,0.4493,1.0177,0.3761,0.001534,0.526155,-0.510816,0.524621,-0.538427,0.516952,-0.509282
0.4016,0.020075,-0.000181,-1.576932,1.566194,0.0000,0.0000,0.0000,-0.004325,-1.576932,1.566194,0.5081,1.1058,0.2847,0.000000,0.533825,-0.515418,0.530757,-0.546097,0.521553,-0.515418
0.4217,0.020080,0.000060,-1.576932,1.566194,0.0000,0.0000,0.0000,-0.004017,-1.576932,1.566194,0.5129,1.1127,0.2336,0.000000,0.541495,-0.521553,0.536893,-0.553767,0.527689,-0.523087
0.4417,0.020070,0.000301,-1.576932,1.566194,0.0000,0.0000,0.0000,-0.003723,-1.578466,1.566194,0.5220,1.0604,0.3451,0.000000,0.549165,-0.527689,0.543029,-0.559903,0.535359,-0.529223
0.4618,0.020079,0.000542,-1.576932,1.566194,0.0000,0.0000,0.0000,-0.003443,-1.576932,1.566194,0.6220,1.1342,0.2828,0.000000,0.556835,-0.533825,0.549165,-0.567573,0.539961,-0.535359
0.4819,0.020094,0.000783,-1.576932,1.566194,0.0000,0.0000,0.0000,-0.003110,-1.576932,1.566194,0.6223,1.0729,0.2372,0.000000,0.564505,-0.541495,0.555301,-0.575243,0.547631,-0.543029
0.5020,0.020080,0.001024,-1.576932,1.566194,0.0000,0.0000,0.0000,-0.002846,-1.576932,1.566194,0.6221,1.0781,0.2427,0.000000,0.570641,-0.547631,0.561437,-0.581379,0.553767,-0.549165
0.5221,0.020103,0.001265,-1.576932,1.566194,0.0000,0.0000,0.0000,-0.002611,-1.576932,1.566194,0.7003,1.0769,0.2974,0.000000,0.576777,-0.553767,0.567573,-0.585981,0.558369,-0.553767
0.5422,0.020116,0.001507,-1.576932,1.566194,0.0000,0.0000,0.0000,-0.002339,-1.578466,1.566194,0.7428,1.0246,0.1864,0.000000,0.584447,-0.559903,0.572175,-0.592117,0.562971,-0.561437
0.5627,0.020444,0.001752,-1.576932,1.566194,0.0000,0.0000,0.0000,-0.002108,-1.576932,1.566194,0.8257,1.0492,0.3610,0.000000,0.592117,-0.564505,0.578311,-0.596719,0.567573,-0.566039
0.5828,0.020099,0.001993,-1.576932,1.566194,0.0000,0.0000,0.0000,-0.001885,-1.576932,1.566194,0.8675,1.0611,0.2364,0.000000,0.596719,-0.570641,0.582913,-0.602854,0.572175,-0.570641
0.6028,0.020096,0.002234,-1.576932,1.566194,0.0000,0.0000,0.0000,-0.001648,-1.576932,1.566194,0.9020,0.9903,0.1969,0.000000,0.602854,-0.576777,0.587515,-0.607456,0.576777,-0.576777
0.6229,0.020085,0.002475,-1.576932,1.566194,0.0000,0.0000,0.0000,-0.001437,-1.576932,1.566194,0.8865,1.0479,0.2558,0.000000,0.607456,-0.581379,0.593651,-0.612058,0.581379,-0.581379
0.6430,0.020091,0.002716,-1.576932,1.566194,0.0000,0.0000,0.0000,-0.001189,-1.576932,1.566194,0.9761,1.0917,0.2516,0.000000,0.613592,-0.587515,0.599786,-0.618194,0.585981,-0.585981
0.6631,0.020094,0.002957,-1.576932,1.566194,0.0000,0.0000,0.0000,-0.000919,-1.576932,1.566194,0.9655,1.0854,0.3406,0.001534,0.619728,-0.593651,0.605922,-0.624330,0.592117,-0.592117
0.6832,0.020101,0.003199,-1.576932,1.566194,0.0000,0.0000,0.0000,-0.000715,-1.576932,1.566194,1.0147,1.0695,0.3083,0.000000,0.625864,-0.598253,0.610524,-0.628932,0.596719,-0.596719
0.7033,0.020091,0.003440,-1.576932,1.566194,0.0000,0.0000,0.0000,-0.000453,-1.576932,1.566194,1.0379,1.0832,0.1402,0.000000,0.630466,-0.605922,0.616660,-0.635068,0.601320,-0.602854
0.7234,0.020091,0.003681,-1.576932,1.566194,0.0000,0.0000,0.0000,-0.000236,-1.576932,1.566194,1.0437,1.0315,0.2672,0.000000,0.636602,-0.610524,0.621262,-0.639670,0.607456,-0.607456
0.7435,0.020096,0.003922,-1.576932,1.566194,0.0000,0.0000,0.0000,0.000034,-1.576932,1.566194,1.0416,1.0352,0.2546,0.000000,0.642738,-0.616660,0.627398,-0.645806,0.613592,-0.613592
0.7636,0.020098,0.004163,-1.576932,1.566194,0.0000,0.0000,0.0000,0.000260,-1.576932,1.566194,1.0896,1.1188,0.3127,0.000000,0.648874,-0.621262,0.633534,-0.651942,0.618194,-0.618194
0.7837,0.020093,0.004404,-1.576932,1.566194,0.0000,0.0000,0.0000,0.000528,-1.576932,1.566194,1.1606,1.1065,0.1985,0.000000,0.655010,-0.628932,0.639670,-0.658078,0.622796,-0.624330
0.8038,0.020110,0.004646,-1.576932,1.566194,0.0000,0.0000,0.0000,0.000744,-1.576932,1.566194,1.1010,1.1229,0.3207,0.000000,0.659612,-0.633534,0.645806,-0.662680,0.628932,-0.628932
0.8239,0.020098,0.004887,-1.576932,1.566194,0.0000,0.0000,0.0000,0.000984,-1.576932,1.566194,1.2529,1.1047,0.3104,0.000000,0.667282,-0.639670,0.650408,-0.668816,0.633534,-0.633534
0.8440,0.020073,0.004872,-1.576932,1.566194,0.0000,0.0000,0.0000,0.001176,-1.576932,1.566194,1.1579,1.1064,0.4218,0.000000,0.671884,-0.642738,0.655010,-0.673418,0.639670,-0.638136
0.8641,0.020096,0.004631,-1.576932,1.566194,0.0000,0.0000,0.0000,0.001420,-1.576932,1.566194,1.2257,1.0712,0.4989,0.001534,0.678020,-0.648874,0.659612,-0.679553,0.645806,-0.642738
0.8854,0.021342,0.004375,-1.576932,1.566194,0.0000,0.0000,0.0000,0.001645,-1.576932,1.566194,1.2653,1.1578,0.4701,0.000000,0.684155,-0.653476,0.665748,-0.685689,0.650408,-0.647340
0.9057,0.020262,0.004132,-1.576932,1.566194,0.0000,0.0000,0.0000,0.001883,-1.576932,1.566194,1.3553,1.1804,0.5774,0.000000,0.690291,-0.659612,0.671884,-0.691825,0.656544,-0.650408
0.9258,0.020088,0.003891,-1.576932,1.566194,0.0000,0.0000,0.0000,0.002154,-1.576932,1.566194,1.4414,1.2434,0.5139,0.000000,0.697961,-0.665748,0.678020,-0.699495,0.661146,-0.656544
0.9459,0.020099,0.003650,-1.576932,1.566194,0.0000,0.0000,0.0000,0.002340,-1.576932,1.566194,1.5160,1.2168,0.5220,0.000000,0.702563,-0.671884,0.682621,-0.704097,0.665748,-0.659612
0.9660,0.020127,0.003408,-1.576932,1.566194,0.0000,0.0000,0.0000,0.002428,-1.576932,1.566194,1.5446,1.1532,0.5539,0.001534,0.705631,-0.674952,0.684155,-0.705631,0.667282,-0.662680
0.9861,0.020097,0.003167,-1.576932,1.566194,0.0000,0.0000,0.0000,0.002477,-1.576932,1.566194,1.5888,1.1763,0.5286,0.000000,0.707165,-0.676486,0.685689,-0.707165,0.668816,-0.662680
1.0062,0.020086,0.002926,-1.576932,1.566194,0.0000,0.0000,0.0000,0.002472,-1.576932,1.566194,1.5842,1.1739,0.5221,0.000000,0.707165,-0.676486,0.685689,-0.707165,0.668816,-0.662680
1.0263,0.020103,0.002685,-1.576932,1.566194,0.0000,0.0000,0.0000,0.002473,-1.576932,1.566194,1.5849,1.1742,0.5230,0.000000,0.707165,-0.676486,0.685689,-0.707165,0.668816,-0.662680
1.0464,0.020089,0.002444,-1.576932,1.566194,0.0000,0.0000,0.0000,0.002418,-1.576932,1.566194,1.3920,1.2014,0.4637,0.000000,0.702563,-0.674952,0.685689,-0.705631,0.668816,-0.662680
1.0664,0.020090,0.002203,-1.576932,1.566194,0.0000,0.0000,0.0000,0.002362,-1.578466,1.566194,1.2234,1.0738,0.3544,0.000000,0.696427,-0.676486,0.685689,-0.701029,0.668816,-0.662680
1.0865,0.020090,0.001962,-1.576932,1.566194,0.0000,0.0000,0.0000,0.002258,-1.576932,1.566194,0.9441,0.9146,0.3621,0.000000,0.688757,-0.676486,0.685689,-0.693359,0.668816,-0.662680
1.1066,0.020090,0.001720,-1.576932,1.566194,0.0000,0.0000,0.0000,0.002132,-1.576932,1.566194,0.6406,0.7245,0.2457,0.000000,0.679553,-0.676486,0.684155,-0.685689,0.668816,-0.662680
1.1267,0.020090,0.001479,-1.576932,1.566194,0.0000,0.0000,0.0000,0.002003,-1.576932,1.566194,0.4201,0.4748,0.0315,0.000000,0.671884,-0.676486,0.679553,-0.679553,0.668816,-0.662680
1.1468,0.020087,0.001238,-1.576932,1.566194,0.0000,0.0000,0.0000,0.001873,-1.576932,1.566194,0.3191,0.1209,-0.0595,0.000000,0.668816,-0.674952,0.671884,-0.673418,0.668816,-0.662680
1.1669,0.020088,0.000997,-1.576932,1.566194,0.0000,0.0000,0.0000,0.001683,-1.576932,1.566194,0.1305,-0.0255,-0.2172,0.000000,0.662680,-0.670350,0.664214,-0.668816,0.667282,-0.661146
1.1870,0.020098,0.000756,-1.576932,1.566194,0.0000,0.0000,0.0000,0.001391,-1.576932,1.566194,0.0107,0.0770,-0.2002,0.000000,0.656544,-0.659612,0.656544,-0.664214,0.661146,-0.656544
1.2071,0.020088,0.000515,-1.576932,1.566194,0.0000,0.0000,0.0000,0.001072,-1.576932,1.566194,-0.0741,0.1357,-0.1459,0.000000,0.648874,-0.650408,0.650408,-0.656544,0.653476,-0.650408
1.2272,0.020087,0.000274,-1.576932,1.566194,0.0000,0.0000,0.0000,0.000876,-1.576932,1.566194,-0.0059,0.3330,0.0143,0.000000,0.645806,-0.642738,0.647340,-0.653476,0.647340,-0.644272
1.2473,0.020093,0.000033,-1.576932,1.566194,0.0000,0.0000,0.0000,0.000642,-1.576932,1.566194,0.0733,0.1266,0.1635,0.000000,0.641204,-0.639670,0.641204,-0.645806,0.644272,-0.636602
1.2673,0.020084,-0.000208,-1.576932,1.566194,0.0000,0.0000,0.0000,0.000399,-1.578466,1.566194,0.1587,0.1455,0.2577,0.000000,0.635068,-0.636602,0.638136,-0.638136,0.638136,-0.628932
1.2874,0.020089,-0.000449,-1.576932,1.566194,0.0000,0.0000,0.0000,0.000169,-1.576932,1.566194,0.2371,0.1254,0.0825,0.000000,0.628932,-0.633534,0.632000,-0.633534,0.632000,-0.622796
1.3075,0.020089,-0.000690,-1.576932,1.566194,0.0000,0.0000,0.0000,-0.000051,-1.576932,1.566194,0.1420,0.1782,0.1005,0.000000,0.622796,-0.627398,0.627398,-0.628932,0.627398,-0.618194
1.3276,0.020090,-0.000931,-1.576932,1.566194,0.0000,0.0000,0.0000,-0.000321,-1.576932,1.566194,0.0854,0.1919,-0.0109,0.000000,0.616660,-0.619728,0.619728,-0.624330,0.621262,-0.613592
1.3477,0.020099,-0.001173,-1.576932,1.566194,0.0000,0.0000,0.0000,-0.000513,-1.576932,1.566194,0.0634,0.1428,0.0007,0.000000,0.613592,-0.613592,0.613592,-0.619728,0.616660,-0.610524
1.3679,0.020147,-0.001414,-1.576932,1.566194,0.0000,0.0000,0.0000,-0.000763,-1.576932,1.566194,0.0375,0.1645,-0.0006,0.000000,0.607456,-0.607456,0.607456,-0.615126,0.612058,-0.604388
1.3879,0.020090,-0.001655,-1.576932,1.566194,0.0000,0.0000,0.0000,-0.000983,-1.576932,1.566194,0.1070,0.2136,0.1081,0.000000,0.602854,-0.602854,0.604388,-0.608990,0.605922,-0.598253
1.4080,0.020090,-0.001896,-1.576932,1.566194,0.0000,0.0000,0.0000,-0.001243,-1.576932,1.566194,0.0787,0.1071,0.0425,0.000000,0.596719,-0.598253,0.598253,-0.601320,0.599786,-0.593651
1.4281,0.020086,-0.002137,-1.576932,1.566194,0.0000,0.0000,0.0000,-0.001524,-1.576932,1.566194,0.1879,0.1348,0.1032,0.000000,0.590583,-0.593651,0.593651,-0.593651,0.592117,-0.585981
1.4482,0.020101,-0.002379,-1.576932,1.566194,0.0000,0.0000,0.0000,-0.001755,-1.576932,1.566194,0.1874,0.2489,0.0427,0.000000,0.582913,-0.589049,0.589049,-0.590583,0.587515,-0.578311
1.4683,0.020086,-0.002620,-1.576932,1.566194,0.0000,0.0000,0.0000,-0.002015,-1.576932,1.566194,0.0601,0.2214,0.1025,0.000000,0.576777,-0.581379,0.582913,-0.584447,0.582913,-0.573709
1.4884,0.020088,-0.002861,-1.576932,1.566194,0.0000,0.0000,0.0000,-0.002199,-1.576932,1.566194,-0.1326,0.2085,0.2567,0.000000,0.572175,-0.573709,0.578311,-0.579845,0.581379,-0.570641
1.5085,0.020089,-0.003102,-1.576932,1.566194,0.0000,0.0000,0.0000,-0.002453,-1.576932,1.566194,-0.1629,0.2633,0.3466,0.000000,0.567573,-0.566039,0.573709,-0.573709,0.575243,-0.566039
1.5286,0.020088,-0.003343,-1.576932,1.566194,0.0000,0.0000,0.0000,-0.002738,-1.578466,1.566194,-0.0610,0.2253,0.2830,0.000000,0.562971,-0.559903,0.566039,-0.567573,0.567573,-0.559903
1.5487,0.020099,-0.003584,-1.576932,1.566194,0.0000,0.0000,0.0000,-0.002738,-1.576932,1.566194,-0.0610,0.2253,0.2830,0.000000,0.556835,-0.556835,0.561437,-0.559903,0.561437,-0.552233
1.5688,0.020092,-0.003825,-1.576932,1.566194,0.0000,0.0000,0.0000,-0.003180,-1.578466,1.566194,0.0658,0.1469,0.2823,0.000000,0.552233,-0.553767,0.556835,-0.555301,0.556835,-0.547631
1.5889,0.020102,-0.004066,-1.576932,1.566194,0.0000,0.0000,0.0000,-0.003324,-1.576932,1.566194,0.0025,0.1485,0.1293,0.000000,0.546097,-0.552233,0.553767,-0.552233,0.553767,-0.544563
1.6090,0.020095,-0.004308,-1.576932,1.566194,0.0000,0.0000,0.0000,-0.003596,-1.576932,1.566194,0.0191,0.2005,0.0919,0.000000,0.539961,-0.546097,0.547631,-0.547631,0.547631,-0.538427
1.6291,0.020102,-0.004549,-1.576932,1.566194,0.0000,0.0000,0.0000,-0.003906,-1.576932,1.566194,-0.1409,0.1959,0.1480,0.000000,0.532291,-0.536893,0.539961,-0.541495,0.543029,-0.532291
1.6492,0.020095,-0.004790,-1.576932,1.566194,0.0000,0.0000,0.0000,-0.004137,-1.576932,1.566194,-0.1146,0.2149,0.0891,0.000000,0.527689,-0.530757,0.533825,-0.536893,0.536893,-0.527689
1.6693,0.020092,-0.004969,-1.576932,1.566194,0.0000,0.0000,0.0000,-0.004327,-1.576932,1.566194,-0.0774,0.2145,0.3568,0.000000,0.526155,-0.524621,0.530757,-0.530757,0.532291,-0.523087
1.6894,0.020104,-0.004728,-1.576932,1.566194,0.0000,0.0000,0.0000,-0.004534,-1.576932,1.566194,-0.0815,0.2149,0.3282,0.000000,0.521553,-0.520019,0.526155,-0.526155,0.527689,-0.518486
1.7095,0.020096,-0.004487,-1.576932,1.566194,0.0000,0.0000,0.0000,-0.004827,-1.576932,1.566194,-0.0120,0.1630,0.2782,0.000000,0.515418,-0.515418,0.520019,-0.518486,0.520019,-0.512350
1.7296,0.020109,-0.004245,-1.576932,1.566194,0.0000,0.0000,0.0000,-0.004827,-1.576932,1.566194,-0.0120,0.1630,0.2782,0.000000,0.507748,-0.512350,0.513884,-0.513884,0.513884,-0.506214
1.7496,0.020082,-0.004004,-1.576932,1.566194,0.0000,0.0000,0.0000,-0.005073,-1.576932,1.566194,0.0205,0.1678,0.0748,0.000000,0.503146,-0.509282,0.510816,-0.510816,0.510816,-0.501612
1.7697,0.020087,-0.003763,-1.576932,1.566194,0.0000,0.0000,0.0000,-0.005247,-1.576932,1.566194,-0.0626,0.1982,0.0416,0.000000,0.501612,-0.507748,0.509282,-0.510816,0.510816,-0.501612
1.7898,0.020111,-0.003522,-1.576932,1.566194,0.0000,0.0000,0.0000,-0.005245,-1.576932,1.566194,-0.0543,0.1986,0.0472,0.000000,0.501612,-0.507748,0.509282,-0.510816,0.510816,-0.501612
1.8099,0.020097,-0.003281,-1.576932,1.566194,0.0000,0.0000,0.0000,-0.005232,-1.576932,1.566194,-0.0048,0.1815,0.0985,0.000000,0.503146,-0.507748,0.509282,-0.510816,0.510816,-0.501612
1.8300,0.020107,-0.003039,-1.576932,1.566194,0.0000,0.0000,0.0000,-0.005232,-1.576932,1.566194,-0.0048,0.1815,0.0985,0.000000,0.503146,-0.507748,0.509282,-0.510816,0.510816,-0.501612
1.8501,0.020095,-0.002798,-1.576932,1.566194,0.0000,0.0000,0.0000,-0.005221,-1.576932,1.566194,0.0409,0.1661,0.1456,0.000000,0.504680,-0.507748,0.509282,-0.510816,0.510816,-0.501612
1.8702,0.020099,-0.002557,-1.576932,1.566194,0.0000,0.0000,0.0000,-0.005221,-1.576932,1.566194,0.0409,0.1661,0.1456,0.000000,0.504680,-0.507748,0.509282,-0.510816,0.510816,-0.501612
1.8903,0.020102,-0.002316,-1.576932,1.566194,0.0000,0.0000,0.0000,-0.005222,-1.576932,1.566194,0.0356,0.1679,0.1401,0.000000,0.504680,-0.507748,0.509282,-0.510816,0.510816,-0.501612
1.9104,0.020093,-0.002075,-1.576932,1.566194,0.0000,0.0000,0.0000,-0.005222,-1.576932,1.566194,0.0356,0.1679,0.1401,0.000000,0.504680,-0.507748,0.509282,-0.510816,0.510816,-0.501612
1.9306,0.020117,-0.001833,-1.576932,1.566194,0.0000,0.0000,0.0000,-0.005197,-1.576932,1.566194,0.0064,0.1849,0.1406,0.000000,0.504680,-0.507748,0.509282,-0.512350,0.512350,-0.501612
1.9507,0.020116,-0.001592,-1.576932,1.566194,0.0000,0.0000,0.0000,-0.005199,-1.576932,1.566194,0.0095,0.1831,0.1406,0.000000,0.504680,-0.507748,0.509282,-0.512350,0.512350,-0.501612
1.9709,0.020193,-0.001350,-1.576932,1.566194,0.0000,0.0000,0.0000,-0.005117,-1.576932,1.566194,0.0448,0.3184,0.0941,0.000000,0.506214,-0.509282,0.512350,-0.515418,0.512350,-0.503146
1.9910,0.020119,-0.001108,-1.576932,1.566194,0.0000,0.0000,0.0000,-0.005117,-1.576932,1.566194,0.0448,0.3184,0.0941,0.000000,0.506214,-0.509282,0.512350,-0.515418,0.512350,-0.503146
2.0111,0.020114,-0.000867,-1.576932,1.566194,0.0000,0.0000,0.0000,-0.005043,-1.576932,1.566194,0.1057,0.4126,0.0936,0.000000,0.509282,-0.509282,0.513884,-0.518486,0.512350,-0.504680
2.0312,0.020113,-0.000626,-1.576932,1.566194,0.0000,0.0000,0.0000,-0.004888,-1.576932,1.566194,0.1200,0.6463,0.1456,0.000000,0.513884,-0.509282,0.518486,-0.524621,0.513884,-0.507748
2.0513,0.020114,-0.000384,-1.576932,1.566194,0.0000,0.0000,0.0000,-0.004717,-1.576932,1.566194,0.1390,0.8309,0.1923,0.000000,0.520019,-0.509282,0.523087,-0.530757,0.515418,-0.512350
2.0714,0.020106,-0.000143,-1.576932,1.566194,0.0000,0.0000,0.0000,-0.004510,-1.576932,1.566194,0.1977,0.9156,0.1881,0.000000,0.526155,-0.512350,0.527689,-0.536893,0.518486,-0.516952
2.0915,0.020098,0.000098,-1.576932,1.566194,0.0000,0.0000,0.0000,-0.004231,-1.576932,1.566194,0.2622,0.9936,0.2940,0.000000,0.533825,-0.516952,0.533825,-0.544563,0.524621,-0.521553
2.1116,0.020095,0.000339,-1.576932,1.566194,0.0000,0.0000,0.0000,-0.003960,-1.576932,1.566194,0.2651,1.0032,0.3890,0.000000,0.541495,-0.521553,0.539961,-0.550699,0.530757,-0.527689
2.1319,0.020232,0.000582,-1.576932,1.566194,0.0000,0.0000,0.0000,-0.003664,-1.576932,1.566194,0.3256,1.0364,0.3807,0.000000,0.549165,-0.527689,0.546097,-0.558369,0.536893,-0.533825
2.1520,0.020103,0.000823,-1.576932,1.566194,0.0000,0.0000,0.0000,-0.003370,-1.576932,1.566194,0.3193,0.9979,0.3830,0.000000,0.556835,-0.533825,0.552233,-0.564505,0.543029,-0.541495
2.1721,0.020097,0.001065,-1.576932,1.566194,0.0000,0.0000,0.0000,-0.003077,-1.576932,1.566194,0.4705,1.0185,0.3853,0.000000,0.564505,-0.541495,0.558369,-0.572175,0.549165,-0.546097
2.1922,0.020106,0.001306,-1.576932,1.566194,0.0000,0.0000,0.0000,-0.002821,-1.576932,1.566194,0.4656,0.9637,0.3329,0.000000,0.570641,-0.547631,0.562971,-0.578311,0.555301,-0.552233
2.2123,0.020099,0.001547,-1.576932,1.566194,0.0000,0.0000,0.0000,-0.002573,-1.576932,1.566194,0.4948,0.9512,0.3402,0.000000,0.584447,-0.559903,0.573709,-0.589049,0.564505,-0.562971
2.2324,0.020097,0.001788,-1.576932,1.566194,0.0000,0.0000,0.0000,-0.002327,-1.576932,1.566194,0.6414,0.9358,0.3418,0.000000,0.584447,-0.559903,0.573709,-0.589049,0.564505,-0.562971
2.2525,0.020096,0.002029,-1.576932,1.566194,0.0000,0.0000,0.0000,-0.002069,-1.576932,1.566194,0.7642,0.9721,0.3980,0.000000,0.592117,-0.566039,0.579845,-0.595185,0.569107,-0.567573
2.2734,0.020977,0.002281,-1.576932,1.566194,0.0000,0.0000,0.0000,-0.001834,-1.576932,1.566194,0.7395,0.9494,0.4467,0.000000,0.596719,-0.572175,0.585981,-0.599786,0.575243,-0.572175
2.2935,0.020105,0.002522,-1.576932,1.566194,0.0000,0.0000,0.0000,-0.001601,-1.576932,1.566194,0.7527,0.9685,0.3891,0.000000,0.602854,-0.576777,0.590583,-0.605922,0.579845,-0.578311
2.3136,0.020094,0.002764,-1.576932,1.566194,0.0000,0.0000,0.0000,-0.001367,-1.576932,1.566194,0.8792,1.0504,0.3443,0.000000,0.608990,-0.582913,0.596719,-0.612058,0.582913,-0.582913
2.3337,0.020096,0.003005,-1.576932,1.566194,0.0000,0.0000,0.0000,-0.001143,-1.576932,1.566194,0.8649,0.9716,0.3492,0.000000,0.619728,-0.593651,0.607456,-0.622796,0.593651,-0.593651
2.3538,0.020104,0.003246,-1.576932,1.566194,0.0000,0.0000,0.0000,-0.000897,-1.576932,1.566194,0.8657,1.0473,0.3502,0.000000,0.619728,-0.593651,0.607456,-0.622796,0.593651,-0.593651
2.3739,0.020107,0.003487,-1.576932,1.566194,0.0000,0.0000,0.0000,-0.000665,-1.576932,1.566194,0.9416,1.0385,0.4067,0.000000,0.625864,-0.599786,0.613592,-0.627398,0.598253,-0.598253
2.3940,0.020112,0.003729,-1.576932,1.566194,0.0000,0.0000,0.0000,-0.000394,-1.576932,1.566194,0.9453,1.0174,0.1829,0.000000,0.636602,-0.612058,0.622796,-0.639670,0.608990,-0.608990
2.4141,0.020090,0.003970,-1.576932,1.566194,0.0000,0.0000,0.0000,-0.000192,-1.576932,1.566194,0.9927,1.0031,0.2622,0.000000,0.636602,-0.612058,0.622796,-0.639670,0.608990,-0.608990
2.4342,0.020103,0.004211,-1.576932,1.566194,0.0000,0.0000,0.0000,0.000056,-1.576932,1.566194,1.0139,0.9866,0.2554,0.000000,0.642738,-0.618194,0.628932,-0.644272,0.613592,-0.615126
2.4543,0.020098,0.004452,-1.576932,1.566194,0.0000,0.0000,0.0000,0.000323,-1.576932,1.566194,1.0100,0.9865,0.2569,0.000000,0.648874,-0.624330,0.635068,-0.650408,0.619728,-0.621262
2.4744,0.020090,0.004693,-1.576932,1.566194,0.0000,0.0000,0.0000,0.000548,-1.576932,1.566194,1.0580,1.0703,0.3136,0.000000,0.655010,-0.628932,0.641204,-0.656544,0.624330,-0.625864
2.4945,0.020097,0.004934,-1.576932,1.566194,0.0000,0.0000,0.0000,0.000790,-1.576932,1.566194,1.0611,1.1113,0.4190,0.000000,0.661146,-0.633534,0.647340,-0.662680,0.630466,-0.630466
2.5147,0.020148,0.004824,-1.576932,1.566194,0.0000,0.0000,0.0000,0.001030,-1.576932,1.566194,1.1190,1.0719,0.4090,0.000000,0.667282,-0.639670,0.651942,-0.668816,0.636602,-0.635068
2.5348,0.020099,0.004583,-1.576932,1.566194,0.0000,0.0000,0.0000,0.001258,-1.576932,1.566194,1.1865,1.0749,0.4678,0.000000,0.673418,-0.645806,0.658078,-0.673418,0.641204,-0.639670
2.5549,0.020104,0.004342,-1.576932,1.566194,0.0000,0.0000,0.0000,0.001485,-1.576932,1.566194,1.1988,1.0745,0.5181,0.000000,0.679553,-0.650408,0.662680,-0.679553,0.647340,-0.644272
2.5751,0.020242,0.004099,-1.576932,1.566194,0.0000,0.0000,0.0000,0.001796,-1.576932,1.566194,1.2816,1.1219,0.5159,0.000000,0.687223,-0.658078,0.670350,-0.687223,0.653476,-0.650408
2.5952,0.020093,0.003857,-1.576932,1.566194,0.0000,0.0000,0.0000,0.001977,-1.576932,1.566194,1.3671,1.1179,0.6301,0.000000,0.693359,-0.662680,0.674952,-0.691825,0.658078,-0.653476
2.6153,0.020104,0.003616,-1.576932,1.566194,0.0000,0.0000,0.0000,0.002256,-1.576932,1.566194,1.4531,1.1471,0.5643,0.000000,0.699495,-0.670350,0.681087,-0.699495,0.664214,-0.658078
2.6354,0.020085,0.003375,-1.576932,1.566194,0.0000,0.0000,0.0000,0.002380,-1.576932,1.566194,1.4902,1.1287,0.6289,0.000000,0.704097,-0.673418,0.684155,-0.702563,0.667282,-0.661146
2.6555,0.020056,0.003135,-1.576932,1.566194,0.0000,0.0000,0.0000,0.002448,-1.576932,1.566194,1.5332,1.1163,0.6796,0.000000,0.707165,-0.674952,0.685689,-0.704097,0.668816,-0.662680
2.6755,0.020094,0.002893,-1.576932,1.566194,0.0000,0.0000,0.0000,0.002454,-1.576932,1.566194,1.5663,1.0828,0.6182,0.000000,0.707165,-0.676486,0.685689,-0.704097,0.668816,-0.662680
2.6956,0.020097,0.002652,-1.576932,1.566194,0.0000,0.0000,0.0000,0.002454,-1.576932,1.566194,1.5629,1.0863,0.6246,0.000000,0.707165,-0.676486,0.685689,-0.704097,0.668816,-0.662680
2.7159,0.020235,0.002409,-1.576932,1.566194,0.0000,0.0000,0.0000,0.002454,-1.576932,1.566194,1.5629,1.0863,0.6246,0.000000,0.707165,-0.676486,0.685689,-0.704097,0.668816,-0.662680
2.7360,0.020084,0.002168,-1.576932,1.566194,0.0000,0.0000,0.0000,0.002443,-1.576932,1.566194,1.5156,1.0997,0.5670,0.000000,0.705631,-0.676486,0.685689,-0.704097,0.668816,-0.662680
2.7561,0.020096,0.001927,-1.576932,1.566194,0.0000,0.0000,0.0000,0.002402,-1.576932,1.566194,1.3656,1.0910,0.4582,0.000000,0.701029,-0.676486,0.685689,-0.702563,0.668816,-0.662680
2.7761,0.020089,0.001686,-1.576932,1.566194,0.0000,0.0000,0.0000,0.002353,-1.576932,1.566194,1.2145,1.0366,0.4109,0.000000,0.696427,-0.676486,0.685689,-0.699495,0.668816,-0.662680
2.7962,0.020088,0.001445,-1.576932,1.566194,0.0000,0.0000,0.0000,0.002248,-1.576932,1.566194,0.8973,0.9327,0.2997,0.000000,0.687223,-0.676486,0.685689,-0.693359,0.668816,-0.662680
2.8163,0.020093,0.001204,-1.576932,1.566194,0.0000,0.0000,0.0000,0.002144,-1.576932,1.566194,0.6564,0.7719,0.1963,0.000000,0.679553,-0.676486,0.684155,-0.687223,0.668816,-0.662680
2.8364,0.020086,0.000963,-1.576932,1.566194,0.0000,0.0000,0.0000,0.001990,-1.576932,1.566194,0.3809,0.5042,0.0926,0.000000,0.671884,-0.674952,0.679553,-0.679553,0.668816,-0.662680
2.8565,0.020088,0.000722,-1.576932,1.566194,0.0000,0.0000,0.0000,0.001623,-1.576932,1.566194,0.0388,-0.1142,-0.2324,0.000000,0.661146,-0.668816,0.662680,-0.667282,0.667282,-0.661146
2.8766,0.020089,0.000481,-1.576932,1.566194,0.0000,0.0000,0.0000,0.001397,-1.576932,1.566194,-0.0390,0.0210,-0.1984,0.000000,0.656544,-0.659612,0.656544,-0.662680,0.661146,-0.658078
2.8967,0.020086,0.000240,-1.576932,1.566194,0.0000,0.0000,0.0000,0.001084,-1.576932,1.566194,-0.0472,0.2099,-0.0909,0.000000,0.650408,-0.648874,0.650408,-0.658078,0.653476,-0.650408
2.9168,0.020096,-0.000001,-1.576932,1.566194,0.0000,0.0000,0.0000,0.000802,-1.576932,1.566194,-0.0089,0.3256,0.0086,0.000000,0.644272,-0.641204,0.645806,-0.651942,0.645806,-0.642738
2.9369,0.020120,-0.000243,-1.576932,1.566194,0.0000,0.0000,0.0000,0.000601,-1.576932,1.566194,-0.0133,0.2461,0.1638,0.000000,0.639670,-0.636602,0.641204,-0.645806,0.642738,-0.636602
2.9570,0.020065,-0.000484,-1.576932,1.566194,0.0000,0.0000,0.0000,0.000245,-1.576932,1.566194,0.1612,0.1871,0.3121,0.000000,0.633534,-0.630466,0.633534,-0.636602,0.635068,-0.625864
2.9771,0.020089,-0.000725,-1.576932,1.566194,0.0000,0.0000,0.0000,-0.000120,-1.576932,1.566194,0.2097,0.1751,0.2409,0.000000,0.624330,-0.624330,0.625864,-0.627398,0.625864,-0.616660
2.9971,0.020089,-0.000966,-1.576932,1.566194,0.0000,0.0000,0.0000,-0.000412,-1.576932,1.566194,0.2049,0.1397,0.0836,0.000000,0.615126,-0.619728,0.618194,-0.621262,0.619728,-0.608990
3.0172,0.020096,-0.001207,-1.576932,1.566194,0.0000,0.0000,0.0000,-0.000578,-1.576932,1.566194,0.1666,0.1781,-0.0092,0.000000,0.610524,-0.615126,0.613592,-0.618194,0.615126,-0.605922
3.0373,0.020094,-0.001448,-1.576932,1.566194,0.0000,0.0000,0.0000,-0.000731,-1.576932,1.566194,-0.0329,0.1952,0.0003,0.000000,0.607456,-0.607456,0.608990,-0.615126,0.612058,-0.605922
3.0574,0.020086,-0.001689,-1.576932,1.566194,0.0000,0.0000,0.0000,-0.001010,-1.576932,1.566194,0.0647,0.1937,-0.1089,0.000000,0.601320,-0.602854,0.602854,-0.608990,0.604388,-0.599786
3.0775,0.020077,-0.001930,-1.576932,1.566194,0.0000,0.0000,0.0000,-0.001338,-1.576932,1.566194,0.0157,0.1600,-0.0432,0.000000,0.593651,-0.595185,0.595185,-0.601320,0.598253,-0.592117
3.0976,0.020096,-0.002171,-1.576932,1.566194,0.0000,0.0000,0.0000,-0.001576,-1.576932,1.566194,0.0489,0.1802,-0.0498,0.000000,0.587515,-0.590583,0.590583,-0.595185,0.592117,-0.585981
3.1179,0.020263,-0.002414,-1.576932,1.566194,0.0000,0.0000,0.0000,-0.001774,-1.576932,1.566194,0.0354,0.1606,0.1662,0.000000,0.582913,-0.585981,0.587515,-0.589049,0.589049,-0.579845
3.1380,0.020121,-0.002656,-1.576932,1.566194,0.0000,0.0000,0.0000,-0.002026,-1.576932,1.566194,0.0655,0.1794,0.1434,0.000000,0.576777,-0.581379,0.582913,-0.582913,0.582913,-0.573709
3.1581,0.020091,-0.002897,-1.576932,1.566194,0.0000,0.0000,0.0000,-0.002223,-1.576932,1.566194,-0.0759,0.2820,0.2524,0.000000,0.572175,-0.573709,0.579845,-0.578311,0.578311,-0.570641
3.1782,0.020089,-0.003138,-1.576932,1.566194,0.0000,0.0000,0.0000,-0.002463,-1.578466,1.566194,-0.0406,0.2723,0.2938,0.000000,0.567573,-0.567573,0.573709,-0.573709,0.573709,-0.564505
3.1982,0.020094,-0.003379,-1.576932,1.566194,0.0000,0.0000,0.0000,-0.002737,-1.576932,1.566194,-0.0731,0.1881,0.2886,0.000000,0.561437,-0.561437,0.566039,-0.567573,0.569107,-0.558369
3.2183,0.020090,-0.003620,-1.576932,1.566194,0.0000,0.0000,0.0000,-0.002970,-1.578466,1.566194,-0.0308,0.1290,0.2353,0.000000,0.556835,-0.556835,0.559903,-0.561437,0.562971,-0.553767
3.2384,0.020090,-0.003861,-1.576932,1.566194,0.0000,0.0000,0.0000,-0.003120,-1.576932,1.566194,-0.0459,0.1865,0.1343,0.000000,0.552233,-0.553767,0.556835,-0.558369,0.558369,-0.550699
3.2585,0.020089,-0.004102,-1.576932,1.566194,0.0000,0.0000,0.0000,-0.003367,-1.576932,1.566194,-0.0653,0.1807,0.0916,0.000000,0.546097,-0.549165,0.552233,-0.552233,0.552233,-0.546097
3.2786,0.020088,-0.004343,-1.576932,1.566194,0.0000,0.0000,0.0000,-0.003692,-1.576932,1.566194,-0.0032,0.1807,0.0956,0.000000,0.538427,-0.543029,0.544563,-0.546097,0.546097,-0.536893
3.2987,0.020092,-0.004584,-1.576932,1.566194,0.0000,0.0000,0.0000,-0.003946,-1.576932,1.566194,-0.0198,0.2328,0.1475,0.000000,0.532291,-0.536893,0.539961,-0.539961,0.539961,-0.530757
3.3188,0.020084,-0.004825,-1.576932,1.566194,0.0000,0.0000,0.0000,-0.004108,-1.576932,1.566194,-0.0473,0.3146,0.2991,0.000000,0.529223,-0.530757,0.536893,-0.536893,0.536893,-0.526155
3.3389,0.020092,-0.004934,-1.576932,1.566194,0.0000,0.0000,0.0000,-0.004368,-1.576932,1.566194,-0.0944,0.1863,0.3874,0.000000,0.524621,-0.524621,0.530757,-0.529223,0.532291,-0.521553
3.3590,0.020089,-0.004692,-1.576932,1.566194,0.0000,0.0000,0.0000,-0.004630,-1.576932,1.566194,-0.1400,0.1827,0.3249,0.000000,0.518486,-0.518486,0.524621,-0.523087,0.526155,-0.516952
3.3791,0.020088,-0.004451,-1.576932,1.566194,0.0000,0.0000,0.0000,-0.004917,-1.576932,1.566194,-0.0459,0.1316,0.1742,0.000000,0.512350,-0.513884,0.516952,-0.516952,0.518486,-0.510816
3.3991,0.020084,-0.004210,-1.576932,1.566194,0.0000,0.0000,0.0000,-0.005102,-1.576932,1.566194,-0.0158,0.1021,0.1375,0.000000,0.507748,-0.510816,0.512350,-0.512350,0.513884,-0.506214
3.4192,0.020088,-0.003969,-1.576932,1.566194,0.0000,0.0000,0.0000,-0.005158,-1.576932,1.566194,-0.0591,0.1743,0.0373,0.000000,0.504680,-0.509282,0.510816,-0.512350,0.512350,-0.504680
3.4393,0.020088,-0.003728,-1.576932,1.566194,0.0000,0.0000,0.0000,-0.005153,-1.576932,1.566194,-0.0546,0.1668,0.0477,0.000000,0.504680,-0.509282,0.510816,-0.512350,0.512350,-0.504680
3.4594,0.020092,-0.003487,-1.576932,1.566194,0.0000,0.0000,0.0000,-0.005153,-1.576932,1.566194,-0.0552,0.1678,0.0463,0.000000,0.504680,-0.509282,0.510816,-0.512350,0.512350,-0.504680
3.4795,0.020088,-0.003246,-1.576932,1.566194,0.0000,0.0000,0.0000,-0.005153,-1.576932,1.566194,-0.0552,0.1678,0.0463,0.000000,0.504680,-0.509282,0.510816,-0.512350,0.512350,-0.504680
3.4996,0.020090,-0.003005,-1.576932,1.566194,0.0000,0.0000,0.0000,-0.005153,-1.576932,1.566194,-0.0552,0.1678,0.0463,0.000000,0.504680,-0.509282,0.510816,-0.512350,0.512350,-0.504680
3.5197,0.020092,-0.002764,-1.576932,1.566194,0.0000,0.0000,0.0000,-0.005153,-1.576932,1.566194,-0.0552,0.1678,0.0463,0.000000,0.504680,-0.509282,0.510816,-0.512350,0.512350,-0.504680
3.5398,0.020088,-0.002523,-1.576932,1.566194,0.0000,0.0000,0.0000,-0.005153,-1.576932,1.566194,-0.0552,0.1678,0.0463,0.000000,0.504680,-0.509282,0.510816,-0.512350,0.512350,-0.504680
3.5598,0.020087,-0.002282,-1.576932,1.566194,0.0000,0.0000,0.0000,-0.005140,-1.576932,1.566194,-0.0651,0.2194,0.0987,0.000000,0.504680,-0.509282,0.512350,-0.512350,0.512350,-0.504680
3.5799,0.020096,-0.002041,-1.576932,1.566194,0.0000,0.0000,0.0000,-0.005129,-1.576932,1.566194,-0.0540,0.2660,0.0412,0.000000,0.504680,-0.509282,0.512350,-0.513884,0.512350,-0.504680
3.6000,0.020095,-0.001800,-1.576932,1.566194,0.0000,0.0000,0.0000,-0.005118,-1.576932,1.566194,-0.0049,0.2441,0.0992,0.000000,0.506214,-0.509282,0.512350,-0.513884,0.512350,-0.504680
3.6201,0.020092,-0.001558,-1.576932,1.566194,0.0000,0.0000,0.0000,-0.005081,-1.576932,1.566194,-0.0603,0.3332,0.0411,0.000000,0.506214,-0.509282,0.513884,-0.515418,0.512350,-0.506214
3.6402,0.020090,-0.001317,-1.576932,1.566194,0.0000,0.0000,0.0000,-0.005072,-1.576932,1.566194,-0.0443,0.3758,-0.0049,0.000000,0.506214,-0.509282,0.513884,-0.516952,0.512350,-0.506214
3.6603,0.020047,-0.001077,-1.576932,1.566194,0.0000,0.0000,0.0000,-0.005023,-1.576932,1.566194,-0.0254,0.4410,-0.1044,0.000000,0.507748,-0.509282,0.513884,-0.520019,0.512350,-0.507748
3.6804,0.020103,-0.000836,-1.576932,1.566194,0.0000,0.0000,0.0000,-0.004941,-1.576932,1.566194,0.1145,0.5039,-0.0423,0.000000,0.512350,-0.509282,0.513884,-0.524621,0.513884,-0.507748
3.7005,0.020086,-0.000595,-1.576932,1.566194,0.0000,0.0000,0.0000,-0.004788,-1.576932,1.566194,0.1520,0.5853,0.0026,0.000000,0.518486,-0.509282,0.515418,-0.530757,0.516952,-0.510816
3.7205,0.020089,-0.000353,-1.576932,1.566194,0.0000,0.0000,0.0000,-0.004566,-1.576932,1.566194,0.1691,0.6467,0.0499,0.000000,0.524621,-0.512350,0.520019,-0.536893,0.521553,-0.515418
3.7406,0.020091,-0.000112,-1.576932,1.566194,0.0000,0.0000,0.0000,-0.004277,-1.576932,1.566194,0.2789,0.7279,0.0979,0.000000,0.533825,-0.516952,0.526155,-0.544563,0.526155,-0.521553
3.7607,0.020089,0.000129,-1.576932,1.566194,0.0000,0.0000,0.0000,-0.004019,-1.576932,1.566194,0.1885,0.6843,0.0400,0.000000,0.539961,-0.521553,0.530757,-0.550699,0.532291,-0.529223
3.7808,0.020103,0.000370,-1.576932,1.566194,0.0000,0.0000,0.0000,-0.003697,-1.576932,1.566194,0.2986,0.7591,0.1523,0.000000,0.549165,-0.527689,0.538427,-0.558369,0.538427,-0.535359
3.8009,0.020086,0.000611,-1.576932,1.566194,0.0000,0.0000,0.0000,-0.003405,-1.578466,1.566194,0.3261,0.7862,0.2473,0.000000,0.556835,-0.533825,0.546097,-0.564505,0.544563,-0.541495
3.8210,0.020093,0.000852,-1.576932,1.566194,0.0000,0.0000,0.0000,-0.003123,-1.576932,1.566194,0.3634,0.7472,0.1856,0.000000,0.562971,-0.541495,0.552233,-0.570641,0.550699,-0.547631
3.8411,0.020063,0.001093,-1.576932,1.566194,0.0000,0.0000,0.0000,-0.002841,-1.576932,1.566194,0.4480,0.8038,0.3531,0.000000,0.570641,-0.547631,0.559903,-0.576777,0.556835,-0.552233
3.8612,0.020089,0.001334,-1.576932,1.566194,0.0000,0.0000,0.0000,-0.002584,-1.576932,1.566194,0.4789,0.8310,0.2838,0.000000,0.576777,-0.553767,0.566039,-0.582913,0.561437,-0.558369
3.8815,0.020365,0.001578,-1.576932,1.566194,0.0000,0.0000,0.0000,-0.002300,-1.576932,1.566194,0.6430,0.8791,0.3475,0.000000,0.584447,-0.561437,0.573709,-0.589049,0.566039,-0.562971
3.9016,0.020090,0.001819,-1.576932,1.566194,0.0000,0.0000,0.0000,-0.002058,-1.576932,1.566194,0.7527,0.8579,0.4507,0.000000,0.592117,-0.567573,0.579845,-0.593651,0.570641,-0.567573
3.9218,0.020175,0.002061,-1.576932,1.566194,0.0000,0.0000,0.0000,-0.001835,-1.576932,1.566194,0.7914,0.8750,0.3337,0.000000,0.596719,-0.573709,0.584447,-0.599786,0.575243,-0.572175
3.9419,0.020087,0.002303,-1.576932,1.566194,0.0000,0.0000,0.0000,-0.001599,-1.576932,1.566194,0.7755,0.8904,0.4013,0.000000,0.602854,-0.578311,0.590583,-0.604388,0.579845,-0.578311
3.9620,0.020095,0.002544,-1.576932,1.566194,0.0000,0.0000,0.0000,-0.001353,-1.576932,1.566194,0.8652,0.9389,0.3964,0.000000,0.608990,-0.584447,0.596719,-0.610524,0.584447,-0.582913
3.9821,0.020130,0.002785,-1.576932,1.566194,0.0000,0.0000,0.0000,-0.001131,-1.576932,1.566194,0.8831,0.9486,0.3985,0.000000,0.613592,-0.590583,0.602854,-0.615126,0.589049,-0.587515
4.0022,0.020084,0.003026,-1.576932,1.566194,0.0000,0.0000,0.0000,-0.000886,-1.576932,1.566194,0.9029,1.0147,0.2911,0.000000,0.619728,-0.595185,0.607456,-0.622796,0.593651,-0.593651
4.0223,0.020087,0.003267,-1.576932,1.566194,0.0000,0.0000,0.0000,-0.000653,-1.576932,1.566194,0.9768,1.0069,0.3588,0.000000,0.625864,-0.601320,0.613592,-0.627398,0.598253,-0.598253
4.0424,0.020084,0.003508,-1.576932,1.566194,0.0000,0.0000,0.0000,-0.000457,-1.576932,1.566194,0.9680,1.0064,0.3525,0.000000,0.630466,-0.605922,0.618194,-0.632000,0.602854,-0.602854
4.0624,0.020093,0.003749,-1.576932,1.566194,0.0000,0.0000,0.0000,-0.000196,-1.576932,1.566194,0.9788,0.9542,0.2990,0.000000,0.636602,-0.612058,0.622796,-0.638136,0.608990,-0.608990
4.0825,0.020093,0.003991,-1.576932,1.566194,0.0000,0.0000,0.0000,0.000057,-1.576932,1.566194,1.0154,0.9917,0.2516,0.000000,0.642738,-0.618194,0.628932,-0.644272,0.613592,-0.615126
4.1026,0.020089,0.004232,-1.576932,1.566194,0.0000,0.0000,0.0000,0.000310,-1.576932,1.566194,1.0587,1.0031,0.3125,0.000000,0.648874,-0.624330,0.635068,-0.650408,0.619728,-0.619728
4.1227,0.020091,0.004473,-1.576932,1.566194,0.0000,0.0000,0.0000,0.000502,-1.576932,1.566194,1.0528,1.0005,0.3068,0.000000,0.653476,-0.628932,0.639670,-0.655010,0.624330,-0.624330
4.1428,0.020099,0.004714,-1.576932,1.566194,0.0000,0.0000,0.0000,0.000724,-1.576932,1.566194,1.0891,1.0347,0.4196,0.000000,0.659612,-0.633534,0.645806,-0.659612,0.628932,-0.628932
4.1629,0.020103,0.004955,-1.576932,1.566194,0.0000,0.0000,0.0000,0.000966,-1.576932,1.566194,1.0562,1.0138,0.4082,0.000000,0.665748,-0.638136,0.650408,-0.665748,0.635068,-0.635068
4.1830,0.020105,0.004804,-1.576932,1.566194,0.0000,0.0000,0.0000,0.001193,-1.576932,1.566194,1.1663,0.9982,0.4661,0.000000,0.671884,-0.644272,0.655010,-0.671884,0.641204,-0.638136
4.2035,0.020427,0.004559,-1.576932,1.566194,0.0000,0.0000,0.0000,0.001445,-1.578466,1.566194,1.1913,1.0312,0.4067,0.000000,0.678020,-0.650408,0.661146,-0.678020,0.645806,-0.644272
4.2236,0.020137,0.004317,-1.576932,1.566194,0.0000,0.0000,0.0000,0.001682,-1.576932,1.566194,1.1966,1.0773,0.5256,0.000000,0.684155,-0.655010,0.667282,-0.684155,0.651942,-0.648874
4.2437,0.020087,0.004076,-1.576932,1.566194,0.0000,0.0000,0.0000,0.001907,-1.576932,1.566194,1.3288,1.1374,0.5720,0.000000,0.690291,-0.661146,0.673418,-0.690291,0.656544,-0.651942
4.2638,0.020092,0.003835,-1.576932,1.566194,0.0000,0.0000,0.0000,0.002358,-1.576932,1.566194,1.4561,1.1133,0.5714,0.000000,0.702563,-0.671884,0.682621,-0.701029,0.665748,-0.661146
4.2838,0.020069,0.003594,-1.576932,1.566194,0.0000,0.0000,0.0000,0.002405,-1.576932,1.566194,1.5271,1.0667,0.5727,0.000000,0.705631,-0.674952,0.684155,-0.702563,0.667282,-0.662680
4.3039,0.020087,0.003353,-1.576932,1.566194,0.0000,0.0000,0.0000,0.002423,-1.576932,1.566194,1.5200,1.1695,0.5734,0.000000,0.705631,-0.674952,0.685689,-0.704097,0.667282,-0.662680
4.3240,0.020086,0.003112,-1.576932,1.566194,0.0000,0.0000,0.0000,0.002424,-1.576932,1.566194,1.5465,1.0753,0.5732,0.000000,0.705631,-0.676486,0.685689,-0.702563,0.667282,-0.662680
4.3441,0.020091,0.002871,-1.576932,1.566194,0.0000,0.0000,0.0000,0.002423,-1.576932,1.566194,1.5437,1.0851,0.5732,0.000000,0.705631,-0.676486,0.685689,-0.702563,0.667282,-0.662680
4.3642,0.020089,0.002630,-1.576932,1.566194,0.0000,0.0000,0.0000,0.002411,-1.576932,1.566194,1.5064,1.1188,0.6293,0.000000,0.705631,-0.674952,0.685689,-0.702563,0.667282,-0.662680
4.3843,0.020099,0.002388,-1.576932,1.566194,0.0000,0.0000,0.0000,0.002381,-1.576932,1.566194,1.3672,1.1568,0.4527,0.000000,0.701029,-0.674952,0.685689,-0.702563,0.667282,-0.662680
4.4044,0.020095,0.002147,-1.576932,1.566194,0.0000,0.0000,0.0000,0.002330,-1.576932,1.566194,1.1787,1.1605,0.2997,0.000000,0.694893,-0.674952,0.685689,-0.701029,0.667282,-0.662680
4.4245,0.020099,0.001906,-1.576932,1.566194,0.0000,0.0000,0.0000,0.002237,-1.576932,1.566194,0.9126,1.0369,0.2561,0.000000,0.687223,-0.674952,0.685689,-0.694893,0.667282,-0.662680
4.4446,0.020094,0.001665,-1.576932,1.566194,0.0000,0.0000,0.0000,0.002110,-1.576932,1.566194,0.6070,0.8440,0.1452,0.000000,0.678020,-0.674952,0.684155,-0.687223,0.667282,-0.662680
4.4648,0.020192,0.001423,-1.576932,1.566194,0.0000,0.0000,0.0000,0.001970,-1.576932,1.566194,0.3755,0.5459,-0.0136,0.000000,0.670350,-0.674952,0.679553,-0.679553,0.667282,-0.662680
4.4850,0.020258,0.001180,-1.576932,1.566194,0.0000,0.0000,0.0000,0.001829,-1.576932,1.566194,0.2539,0.1290,-0.1663,0.000000,0.665748,-0.674952,0.671884,-0.671884,0.667282,-0.662680
4.5051,0.020088,0.000939,-1.576932,1.566194,0.0000,0.0000,0.0000,0.001663,-1.576932,1.566194,0.1370,-0.1255,-0.2061,0.000000,0.662680,-0.670350,0.662680,-0.667282,0.667282,-0.661146
4.5252,0.020096,0.000697,-1.576932,1.566194,0.0000,0.0000,0.0000,0.001393,-1.576932,1.566194,0.0635,-0.0805,-0.2012,0.000000,0.656544,-0.662680,0.656544,-0.661146,0.661146,-0.656544
4.5453,0.020070,0.000457,-1.576932,1.566194,0.0000,0.0000,0.0000,0.001084,-1.576932,1.566194,-0.0303,0.3044,-0.0907,0.000000,0.650408,-0.648874,0.651942,-0.658078,0.651942,-0.650408
4.5654,0.020094,0.000215,-1.576932,1.566194,0.0000,0.0000,0.0000,0.000862,-1.576932,1.566194,-0.0486,0.3501,0.0636,0.000000,0.645806,-0.641204,0.647340,-0.653476,0.647340,-0.644272
4.5855,0.020122,-0.000026,-1.576932,1.566194,0.0000,0.0000,0.0000,0.000862,-1.576932,1.566194,-0.0486,0.3501,0.0636,0.000000,0.645806,-0.641204,0.647340,-0.653476,0.647340,-0.644272
4.6056,0.020094,-0.000267,-1.576932,1.566194,0.0000,0.0000,0.0000,0.000619,-1.576932,1.566194,-0.0366,0.2595,0.1579,0.000000,0.639670,-0.636602,0.641204,-0.647340,0.644272,-0.636602
4.6257,0.020089,-0.000508,-1.576932,1.566194,0.0000,0.0000,0.0000,0.000377,-1.576932,1.566194,0.1808,0.1824,0.3682,0.000000,0.635068,-0.635068,0.638136,-0.638136,0.638136,-0.627398
4.6458,0.020094,-0.000749,-1.576932,1.566194,0.0000,0.0000,0.0000,0.000244,-1.576932,1.566194,0.1861,0.2061,0.1811,0.000000,0.630466,-0.633534,0.635068,-0.635068,0.633534,-0.624330
4.6659,0.020080,-0.000990,-1.576932,1.566194,0.0000,0.0000,0.0000,-0.000010,-1.576932,1.566194,0.2237,0.0689,-0.0193,0.000000,0.624330,-0.630466,0.627398,-0.628932,0.627398,-0.619728
4.6860,0.020092,-0.001231,-1.576932,1.566194,0.0000,0.0000,0.0000,-0.000239,-1.576932,1.566194,0.0556,0.1018,-0.0530,0.000000,0.618194,-0.622796,0.621262,-0.624330,0.622796,-0.616660
4.7060,0.020095,-0.001473,-1.576932,1.566194,0.0000,0.0000,0.0000,-0.000472,-1.576932,1.566194,0.0558,0.2023,-0.1040,0.000000,0.613592,-0.615126,0.615126,-0.621262,0.616660,-0.612058
4.7261,0.020075,-0.001713,-1.576932,1.566194,0.0000,0.0000,0.0000,-0.000816,-1.576932,1.566194,-0.0215,0.1929,0.0102,0.000000,0.605922,-0.605922,0.607456,-0.613592,0.610524,-0.604388
4.7462,0.020094,-0.001955,-1.576932,1.566194,0.0000,0.0000,0.0000,-0.001113,-1.576932,1.566194,0.0073,0.1947,0.0524,0.000000,0.599786,-0.598253,0.599786,-0.607456,0.604388,-0.596719
4.7663,0.020090,-0.002196,-1.576932,1.566194,0.0000,0.0000,0.0000,-0.001513,-1.576932,1.566194,0.1310,0.1788,-0.0059,0.000000,0.592117,-0.590583,0.590583,-0.598253,0.593651,-0.587515
4.7864,0.020086,-0.002437,-1.576932,1.566194,0.0000,0.0000,0.0000,-0.001805,-1.576932,1.566194,0.0869,0.2978,0.1615,0.000000,0.582913,-0.584447,0.587515,-0.590583,0.587515,-0.578311
4.8065,0.020091,-0.002678,-1.576932,1.566194,0.0000,0.0000,0.0000,-0.001948,-1.576932,1.566194,0.0996,0.2327,0.2514,0.000000,0.578311,-0.582913,0.585981,-0.584447,0.584447,-0.573709
4.8266,0.020092,-0.002919,-1.576932,1.566194,0.0000,0.0000,0.0000,-0.002120,-1.576932,1.566194,-0.0006,0.2396,0.2953,0.000000,0.573709,-0.578311,0.582913,-0.579845,0.581379,-0.570641
4.8467,0.020106,-0.003160,-1.576932,1.566194,0.0000,0.0000,0.0000,-0.002387,-1.576932,1.566194,-0.0583,0.1556,0.3433,0.000000,0.569107,-0.570641,0.575243,-0.573709,0.576777,-0.566039
4.8668,0.020084,-0.003401,-1.576932,1.566194,0.0000,0.0000,0.0000,-0.002707,-1.576932,1.566194,-0.0819,0.2180,0.3368,0.000000,0.562971,-0.561437,0.567573,-0.567573,0.569107,-0.559903
4.8869,0.020089,-0.003642,-1.576932,1.566194,0.0000,0.0000,0.0000,-0.002923,-1.576932,1.566194,-0.0301,0.1954,0.2303,0.000000,0.558369,-0.556835,0.561437,-0.562971,0.562971,-0.555301
4.9069,0.020087,-0.003883,-1.576932,1.566194,0.0000,0.0000,0.0000,-0.003150,-1.576932,1.566194,-0.0750,0.1631,0.1347,0.000000,0.552233,-0.552233,0.555301,-0.558369,0.558369,-0.550699
4.9270,0.020084,-0.004124,-1.576932,1.566194,0.0000,0.0000,0.0000,-0.003389,-1.576932,1.566194,-0.0623,0.2167,0.0915,0.000000,0.544563,-0.549165,0.552233,-0.552233,0.552233,-0.544563
4.9471,0.020103,-0.004366,-1.576932,1.566194,0.0000,0.0000,0.0000,-0.003640,-1.576932,1.566194,-0.0636,0.1420,0.0958,0.000000,0.538427,-0.544563,0.546097,-0.546097,0.547631,-0.538427
4.9672,0.020085,-0.004607,-1.576932,1.566194,0.0000,0.0000,0.0000,-0.003889,-1.578466,1.566194,0.0365,0.2536,0.2002,0.000000,0.533825,-0.538427,0.541495,-0.541495,0.541495,-0.530757
4.9873,0.020089,-0.004848,-1.576932,1.566194,0.0000,0.0000,0.0000,-0.004114,-1.576932,1.566194,-0.0531,0.3125,0.2936,0.000000,0.529223,-0.530757,0.536893,-0.536893,0.536893,-0.526155
5.0074,0.020089,-0.004911,-1.576932,1.566194,0.0000,0.0000,0.0000,-0.004355,-1.576932,1.566194,-0.0837,0.2384,0.3355,0.000000,0.524621,-0.524621,0.530757,-0.530757,0.532291,-0.521553
5.0275,0.020085,-0.004670,-1.576932,1.566194,0.0000,0.0000,0.0000,-0.004581,-1.576932,1.566194,-0.0806,0.1428,0.3304,0.000000,0.520019,-0.520019,0.524621,-0.524621,0.527689,-0.516952
5.0476,0.020100,-0.004429,-1.576932,1.566194,0.0000,0.0000,0.0000,-0.004809,-1.576932,1.566194,-0.1317,0.1355,0.1217,0.000000,0.513884,-0.515418,0.518486,-0.520019,0.521553,-0.513884
5.0677,0.020086,-0.004188,-1.576932,1.566194,0.0000,0.0000,0.0000,-0.005037,-1.576932,1.566194,-0.0367,0.1885,0.1429,0.000000,0.509282,-0.510816,0.513884,-0.515418,0.515418,-0.507748
5.0877,0.020089,-0.003947,-1.576932,1.566194,0.0000,0.0000,0.0000,-0.005190,-1.576932,1.566194,0.0331,0.2173,0.0367,0.000000,0.504680,-0.509282,0.510816,-0.512350,0.510816,-0.503146
5.1078,0.020082,-0.003706,-1.576932,1.566194,0.0000,0.0000,0.0000,-0.005200,-1.576932,1.566194,-0.0345,0.1794,0.0478,0.000000,0.503146,-0.509282,0.510816,-0.510816,0.510816,-0.503146
5.1279,0.020101,-0.003465,-1.576932,1.566194,0.0000,0.0000,0.0000,-0.005212,-1.576932,1.566194,0.0229,0.2005,0.0985,0.000000,0.503146,-0.509282,0.510816,-0.510816,0.510816,-0.501612
5.1484,0.020488,-0.003219,-1.576932,1.566194,0.0000,0.0000,0.0000,-0.005223,-1.576932,1.566194,-0.0229,0.2333,0.1450,0.000000,0.503146,-0.507748,0.510816,-0.510816,0.510816,-0.501612
5.1685,0.020087,-0.002978,-1.576932,1.566194,0.0000,0.0000,0.0000,-0.005184,-1.578466,1.566194,-0.0081,0.2477,0.0883,0.000000,0.504680,-0.507748,0.510816,-0.512350,0.510816,-0.503146
5.1886,0.020084,-0.002737,-1.576932,1.566194,0.0000,0.0000,0.0000,-0.005200,-1.576932,1.566194,-0.0198,0.1941,0.1462,0.000000,0.504680,-0.507748,0.510816,-0.510816,0.510816,-0.503146
5.2087,0.020084,-0.002496,-1.576932,1.566194,0.0000,0.0000,0.0000,-0.005199,-1.576932,1.566194,-0.0186,0.1997,0.1401,0.000000,0.504680,-0.507748,0.510816,-0.510816,0.510816,-0.503146
5.2288,0.020087,-0.002255,-1.576932,1.566194,0.0000,0.0000,0.0000,-0.005174,-1.576932,1.566194,0.0111,0.2161,0.1409,0.000000,0.504680,-0.509282,0.512350,-0.510816,0.510816,-0.503146
5.2489,0.020102,-0.002014,-1.576932,1.566194,0.0000,0.0000,0.0000,-0.005164,-1.576932,1.566194,0.0181,0.2664,0.0888,0.000000,0.504680,-0.509282,0.512350,-0.512350,0.510816,-0.503146
5.2690,0.020088,-0.001773,-1.576932,1.566194,0.0000,0.0000,0.0000,-0.005152,-1.576932,1.566194,-0.0224,0.2263,0.1462,0.000000,0.504680,-0.509282,0.512350,-0.512350,0.512350,-0.503146
5.2890,0.020086,-0.001532,-1.576932,1.566194,0.0000,0.0000,0.0000,-0.005128,-1.576932,1.566194,-0.0182,0.3344,0.1402,0.000000,0.504680,-0.509282,0.513884,-0.513884,0.512350,-0.503146
5.3091,0.020085,-0.001291,-1.576932,1.566194,0.0000,0.0000,0.0000,-0.005105,-1.576932,1.566194,0.0417,0.3582,0.1407,0.000000,0.506214,-0.509282,0.513884,-0.515418,0.512350,-0.503146
5.3292,0.020088,-0.001049,-1.576932,1.566194,0.0000,0.0000,0.0000,-0.005083,-1.576932,1.566194,0.0958,0.3907,0.1407,0.000000,0.507748,-0.509282,0.513884,-0.516952,0.512350,-0.503146
5.3493,0.020087,-0.000808,-1.576932,1.566194,0.0000,0.0000,0.0000,-0.004997,-1.576932,1.566194,0.1209,0.4747,-0.0155,0.000000,0.510816,-0.509282,0.513884,-0.521553,0.512350,-0.506214
5.3694,0.020091,-0.000567,-1.576932,1.566194,0.0000,0.0000,0.0000,-0.004856,-1.576932,1.566194,0.1201,0.5705,0.0001,0.000000,0.515418,-0.509282,0.515418,-0.527689,0.515418,-0.509282
5.3895,0.020089,-0.000326,-1.576932,1.566194,0.0000,0.0000,0.0000,-0.004634,-1.576932,1.566194,0.2021,0.7349,0.0504,0.000000,0.523087,-0.510816,0.520019,-0.535359,0.518486,-0.513884
5.4096,0.020086,-0.000085,-1.576932,1.566194,0.0000,0.0000,0.0000,-0.004369,-1.576932,1.566194,0.2440,0.7701,0.0980,0.000000,0.530757,-0.515418,0.526155,-0.541495,0.523087,-0.520019
5.4297,0.020093,0.000156,-1.576932,1.566194,0.0000,0.0000,0.0000,-0.004060,-1.576932,1.566194,0.2607,0.8019,0.1458,0.000000,0.539961,-0.520019,0.532291,-0.549165,0.529223,-0.527689
5.4497,0.020087,0.000397,-1.576932,1.566194,0.0000,0.0000,0.0000,-0.003441,-1.576932,1.566194,0.3082,0.7822,0.3540,0.000000,0.555301,-0.532291,0.546097,-0.561437,0.543029,-0.539961
5.4698,0.020094,0.000638,-1.576932,1.566194,0.0000,0.0000,0.0000,-0.003195,-1.576932,1.566194,0.4040,0.8530,0.2809,0.000000,0.562971,-0.538427,0.552233,-0.569107,0.547631,-0.546097
5.4900,0.020196,0.000880,-1.576932,1.566194,0.0000,0.0000,0.0000,-0.002884,-1.576932,1.566194,0.4822,0.8286,0.4499,0.000000,0.570641,-0.546097,0.559903,-0.575243,0.555301,-0.550699
5.5101,0.020082,0.001121,-1.576932,1.566194,0.0000,0.0000,0.0000,-0.002617,-1.576932,1.566194,0.4641,0.8466,0.3272,0.000000,0.576777,-0.552233,0.566039,-0.581379,0.559903,-0.558369
5.5302,0.020089,0.001362,-1.576932,1.566194,0.0000,0.0000,0.0000,-0.002370,-1.576932,1.566194,0.5839,0.8091,0.3425,0.000000,0.582913,-0.559903,0.572175,-0.585981,0.564505,-0.562971
5.5503,0.020097,0.001604,-1.576932,1.566194,0.0000,0.0000,0.0000,-0.002112,-1.576932,1.566194,0.7096,0.8479,0.3970,0.000000,0.590583,-0.566039,0.578311,-0.592117,0.569107,-0.567573
5.5704,0.020112,0.001845,-1.576932,1.566194,0.0000,0.0000,0.0000,-0.001891,-1.576932,1.566194,0.7848,0.7923,0.3931,0.000000,0.596719,-0.572175,0.582913,-0.596719,0.573709,-0.572175
5.5907,0.020311,0.002089,-1.576932,1.566194,0.0000,0.0000,0.0000,-0.001656,-1.578466,1.566194,0.8256,0.8838,0.4493,0.000000,0.602854,-0.576777,0.589049,-0.602854,0.578311,-0.576777
5.6108,0.020082,0.002330,-1.576932,1.566194,0.0000,0.0000,0.0000,-0.001408,-1.576932,1.566194,0.8108,0.9224,0.3368,0.000000,0.607456,-0.582913,0.595185,-0.608990,0.582913,-0.582913
5.6309,0.020085,0.002571,-1.576932,1.566194,0.0000,0.0000,0.0000,-0.001162,-1.576932,1.566194,0.8494,0.8838,0.4582,0.000000,0.613592,-0.589049,0.601320,-0.613592,0.589049,-0.587515
5.6510,0.020091,0.002812,-1.576932,1.566194,0.0000,0.0000,0.0000,-0.000967,-1.576932,1.566194,0.8953,0.9714,0.3388,0.000000,0.618194,-0.593651,0.605922,-0.619728,0.592117,-0.592117
5.6711,0.020093,0.003053,-1.576932,1.566194,0.0000,0.0000,0.0000,-0.000717,-1.576932,1.566194,0.9271,0.9276,0.4614,0.000000,0.624330,-0.599786,0.612058,-0.624330,0.598253,-0.596719
5.6912,0.020090,0.003294,-1.576932,1.566194,0.0000,0.0000,0.0000,-0.000485,-1.576932,1.566194,0.9241,0.9291,0.2860,0.000000,0.628932,-0.605922,0.616660,-0.630466,0.602854,-0.602854
5.7113,0.020103,0.003535,-1.576932,1.566194,0.0000,0.0000,0.0000,-0.000254,-1.576932,1.566194,0.9725,1.0133,0.3608,0.000000,0.635068,-0.610524,0.622796,-0.636602,0.607456,-0.607456
5.7314,0.020089,0.003776,-1.576932,1.566194,0.0000,0.0000,0.0000,-0.000033,-1.576932,1.566194,0.9562,0.9510,0.2442,0.000000,0.639670,-0.616660,0.627398,-0.641204,0.612058,-0.613592
5.7514,0.020087,0.004017,-1.576932,1.566194,0.0000,0.0000,0.0000,0.000164,-1.576932,1.566194,0.9567,0.9563,0.2569,0.000000,0.644272,-0.621262,0.632000,-0.645806,0.616660,-0.618194
5.7715,0.020088,0.004258,-1.576932,1.566194,0.0000,0.0000,0.0000,0.000470,-1.576932,1.566194,1.0038,1.0391,0.3125,0.000000,0.651942,-0.627398,0.639670,-0.653476,0.622796,-0.624330
5.7916,0.020090,0.004499,-1.576932,1.566194,0.0000,0.0000,0.0000,0.000680,-1.576932,1.566194,1.0070,0.9804,0.4175,0.000000,0.658078,-0.632000,0.644272,-0.658078,0.628932,-0.628932
5.8118,0.020202,0.004742,-1.576932,1.566194,0.0000,0.0000,0.0000,0.000887,-1.576932,1.566194,1.0537,0.9704,0.4633,0.000000,0.664214,-0.636602,0.648874,-0.662680,0.633534,-0.633534
5.8319,0.020087,0.004983,-1.576932,1.566194,0.0000,0.0000,0.0000,0.001107,-1.576932,1.566194,1.1072,0.9684,0.4591,0.000000,0.668816,-0.642738,0.653476,-0.668816,0.639670,-0.636602
5.8522,0.020263,0.004774,-1.576932,1.566194,0.0000,0.0000,0.0000,0.001371,-1.576932,1.566194,1.1864,0.9855,0.4626,0.000000,0.676486,-0.648874,0.659612,-0.674952,0.644272,-0.642738
5.8723,0.020091,0.004533,-1.576932,1.566194,0.0000,0.0000,0.0000,0.001606,-1.576932,1.566194,1.1860,1.0334,0.5749,0.000000,0.682621,-0.653476,0.665748,-0.681087,0.650408,-0.647340
5.8924,0.020088,0.004292,-1.576932,1.566194,0.0000,0.0000,0.0000,0.001845,-1.576932,1.566194,1.2705,1.0764,0.5660,0.000000,0.688757,-0.659612,0.671884,-0.687223,0.655010,-0.651942
5.9128,0.020438,0.004046,-1.576932,1.566194,0.0000,0.0000,0.0000,0.002115,-1.576932,1.566194,1.3669,1.1215,0.6257,0.000000,0.696427,-0.665748,0.678020,-0.694893,0.661146,-0.656544
5.9329,0.020093,0.003805,-1.576932,1.566194,0.0000,0.0000,0.0000,0.002302,-1.576932,1.566194,1.4406,1.0971,0.6210,0.000000,0.701029,-0.671884,0.682621,-0.699495,0.665748,-0.659612
5.9531,0.020245,0.003562,-1.576932,1.566194,0.0000,0.0000,0.0000,0.002388,-1.576932,1.566194,1.5292,1.0992,0.5669,0.000000,0.704097,-0.674952,0.684155,-0.702563,0.667282,-0.661146
5.9734,0.020247,0.003319,-1.576932,1.566194,0.0000,0.0000,0.0000,0.002414,-1.576932,1.566194,1.5079,1.1174,0.6299,0.000000,0.705631,-0.674952,0.685689,-0.702563,0.667282,-0.662680
5.9935,0.020099,0.003078,-1.576932,1.566194,0.0000,0.0000,0.0000,0.002437,-1.576932,1.566194,1.5095,1.0477,0.6223,0.000000,0.705631,-0.676486,0.685689,-0.702563,0.668816,-0.662680
6.0138,0.020313,0.002835,-1.576932,1.566194,0.0000,0.0000,0.0000,0.002422,-1.576932,1.566194,1.5476,1.0880,0.5681,0.000000,0.705631,-0.676486,0.685689,-0.702563,0.667282,-0.662680
6.0339,0.020090,0.002593,-1.576932,1.566194,0.0000,0.0000,0.0000,0.002424,-1.576932,1.566194,1.5436,1.0838,0.5737,0.000000,0.705631,-0.676486,0.685689,-0.702563,0.667282,-0.662680
6.0541,0.020269,0.002350,-1.576932,1.566194,0.0000,0.0000,0.0000,0.002390,-1.576932,1.566194,1.4110,1.1466,0.5153,0.000000,0.702563,-0.674952,0.685689,-0.702563,0.667282,-0.662680
6.0742,0.020096,0.002109,-1.576932,1.566194,0.0000,0.0000,0.0000,0.002351,-1.576932,1.566194,1.2698,1.1333,0.4067,0.000000,0.697961,-0.674952,0.685689,-0.701029,0.667282,-0.662680
6.0943,0.020101,0.001868,-1.576932,1.566194,0.0000,0.0000,0.0000,0.002351,-1.576932,1.566194,1.2698,1.1333,0.4067,0.000000,0.690291,-0.674952,0.685689,-0.693359,0.667282,-0.662680
6.1147,0.020384,0.001623,-1.576932,1.566194,0.0000,0.0000,0.0000,0.002168,-1.576932,1.566194,0.6841,0.8030,0.2972,0.000000,0.681087,-0.676486,0.685689,-0.687223,0.668816,-0.662680
6.1348,0.020087,0.001382,-1.576932,1.566194,0.0000,0.0000,0.0000,0.002035,-1.576932,1.566194,0.4907,0.6334,0.0834,0.000000,0.673418,-0.676486,0.682621,-0.681087,0.667282,-0.662680
6.1549,0.020099,0.001141,-1.576932,1.566194,0.0000,0.0000,0.0000,0.001894,-1.576932,1.566194,0.3389,0.2871,-0.0641,0.000000,0.668816,-0.674952,0.674952,-0.674952,0.667282,-0.662680
6.1750,0.020094,0.000900,-1.576932,1.566194,0.0000,0.0000,0.0000,0.001705,-1.576932,1.566194,0.1074,0.0568,-0.1052,0.000000,0.662680,-0.670350,0.667282,-0.668816,0.667282,-0.661146
6.1953,0.020250,0.000657,-1.576932,1.566194,0.0000,0.0000,0.0000,0.001449,-1.576932,1.566194,-0.0459,-0.0648,-0.0448,0.000000,0.658078,-0.661146,0.658078,-0.662680,0.664214,-0.658078
6.2157,0.020465,0.000411,-1.576932,1.566194,0.0000,0.0000,0.0000,0.001211,-1.576932,1.566194,-0.0464,0.1505,0.0596,0.000000,0.653476,-0.651942,0.653476,-0.659612,0.658078,-0.651942
6.2358,0.020098,0.000170,-1.576932,1.566194,0.0000,0.0000,0.0000,0.000922,-1.576932,1.566194,0.0018,0.2813,-0.0622,0.000000,0.647340,-0.644272,0.647340,-0.655010,0.648874,-0.645806
6.2559,0.020088,-0.000071,-1.576932,1.566194,0.0000,0.0000,0.0000,0.000674,-1.576932,1.566194,0.0237,0.2161,0.1162,0.000000,0.641204,-0.639670,0.642738,-0.647340,0.644272,-0.638136
6.2760,0.020090,-0.000312,-1.576932,1.566194,0.0000,0.0000,0.0000,0.000481,-1.576932,1.566194,0.0872,0.2047,0.2078,0.000000,0.636602,-0.636602,0.639670,-0.641204,0.639670,-0.632000
6.2962,0.020180,-0.000554,-1.576932,1.566194,0.0000,0.0000,0.0000,0.000221,-1.576932,1.566194,0.2062,0.1536,0.1427,0.000000,0.630466,-0.633534,0.633534,-0.635068,0.633534,-0.624330
6.3163,0.020090,-0.000795,-1.576932,1.566194,0.0000,0.0000,0.0000,-0.000044,-1.576932,1.566194,0.1834,0.1407,0.0395,0.000000,0.622796,-0.628932,0.627398,-0.628932,0.627398,-0.618194
6.3364,0.020093,-0.001036,-1.576932,1.566194,0.0000,0.0000,0.0000,-0.000248,-1.576932,1.566194,0.0811,0.1955,-0.0046,0.000000,0.618194,-0.621262,0.621262,-0.625864,0.622796,-0.615126
6.3565,0.020166,-0.001278,-1.576932,1.566194,0.0000,0.0000,0.0000,-0.000533,-1.576932,1.566194,0.0743,0.2251,-0.0546,0.000000,0.612058,-0.613592,0.613592,-0.621262,0.616660,-0.608990
6.3766,0.020084,-0.001519,-1.576932,1.566194,0.0000,0.0000,0.0000,-0.000785,-1.576932,1.566194,-0.0725,0.2069,0.1137,0.000000,0.605922,-0.605922,0.608990,-0.613592,0.612058,-0.604388
6.3968,0.020231,-0.001762,-1.576932,1.566194,0.0000,0.0000,0.0000,-0.000980,-1.576932,1.566194,0.0585,0.1421,0.0963,0.000000,0.602854,-0.602854,0.604388,-0.607456,0.605922,-0.599786
6.4170,0.020185,-0.002004,-1.576932,1.566194,0.0000,0.0000,0.0000,-0.001243,-1.576932,1.566194,0.0836,0.1145,0.0438,0.000000,0.596719,-0.598253,0.598253,-0.601320,0.599786,-0.593651
6.4371,0.020085,-0.002245,-1.576932,1.566194,0.0000,0.0000,0.0000,-0.001512,-1.576932,1.566194,0.1978,0.1850,0.0491,0.000000,0.590583,-0.593651,0.593651,-0.595185,0.592117,-0.585981
6.4572,0.020122,-0.002487,-1.576932,1.566194,0.0000,0.0000,0.0000,-0.001756,-1.576932,1.566194,0.1863,0.2437,0.0483,0.000000,0.582913,-0.589049,0.589049,-0.590583,0.587515,-0.578311
6.4773,0.020056,-0.002728,-1.576932,1.566194,0.0000,0.0000,0.0000,-0.001991,-1.576932,1.566194,0.0316,0.2384,0.1018,0.000000,0.576777,-0.581379,0.582913,-0.585981,0.584447,-0.573709
6.4974,0.020105,-0.002969,-1.576932,1.566194,0.0000,0.0000,0.0000,-0.002202,-1.576932,1.566194,-0.1296,0.2068,0.2567,0.000000,0.572175,-0.573709,0.578311,-0.579845,0.581379,-0.570641
6.5176,0.020222,-0.003211,-1.576932,1.566194,0.0000,0.0000,0.0000,-0.002503,-1.576932,1.566194,-0.1919,0.2804,0.3463,0.000000,0.566039,-0.564505,0.572175,-0.573709,0.575243,-0.564505
6.5377,0.020092,-0.003453,-1.576932,1.566194,0.0000,0.0000,0.0000,-0.002757,-1.576932,1.566194,-0.1180,0.1885,0.2831,0.000000,0.561437,-0.559903,0.566039,-0.566039,0.567573,-0.559903
6.5580,0.020298,-0.003696,-1.576932,1.566194,0.0000,0.0000,0.0000,-0.002943,-1.576932,1.566194,0.0132,0.1637,0.3422,0.000000,0.558369,-0.556835,0.561437,-0.561437,0.562971,-0.553767
