t,loop_dt,cmd_z,cmd_ant_l,cmd_ant_r,cmd_roll,cmd_pitch,cmd_yaw,pres_z,pres_ant_l,pres_ant_r,pres_roll,pres_pitch,pres_yaw,pres_j0,pres_j1,pres_j2,pres_j3,pres_j4,pres_j5,pres_j6
0.0000,0.000001,-0.005000,-1.576932,1.566194,0.0000,0.0000,0.0000,-0.003094,-1.576932,1.566194,0.8186,1.2388,0.3320,0.000000,0.569107,-0.541495,0.558369,-0.576777,0.544563,-0.543029
0.0201,0.020090,-0.004598,-1.576932,1.566194,0.0000,0.0000,0.0000,-0.003040,-1.576932,1.566194,1.0103,1.1857,0.2917,0.000000,0.572175,-0.544563,0.558369,-0.578311,0.544563,-0.543029
0.0402,0.020109,-0.004196,-1.576932,1.566194,0.0000,0.0000,0.0000,-0.002968,-1.576932,1.566194,1.0406,1.0681,0.1887,0.000000,0.572175,-0.549165,0.558369,-0.579845,0.547631,-0.543029
0.0603,0.020092,-0.003794,-1.576932,1.566194,0.0000,0.0000,0.0000,-0.002926,-1.576932,1.566194,0.9891,1.0600,-0.0134,0.000000,0.572175,-0.550699,0.558369,-0.581379,0.547631,-0.546097
0.0804,0.020094,-0.003392,-1.576932,1.566194,0.0000,0.0000,0.0000,-0.003165,-1.576932,1.566194,0.9443,0.9058,-0.0469,0.000000,0.566039,-0.547631,0.552233,-0.575243,0.544563,-0.541495
0.1005,0.020084,-0.002991,-1.576932,1.566194,0.0000,0.0000,0.0000,-0.003936,-1.576932,1.566194,0.7993,0.7685,-0.0450,0.000000,0.547631,-0.532291,0.535359,-0.556835,0.530757,-0.526155
0.1206,0.020084,-0.002589,-1.576932,1.566194,0.0000,0.0000,0.0000,-0.004517,-1.576932,1.566194,0.5531,0.7123,-0.0992,0.000000,0.529223,-0.520019,0.523087,-0.541495,0.520019,-0.513884
0.1406,0.020081,-0.002187,-1.576932,1.566194,0.0000,0.0000,0.0000,-0.004767,-1.576932,1.566194,0.2743,0.5453,0.0621,0.000000,0.518486,-0.515418,0.520019,-0.529223,0.516952,-0.509282
0.1607,0.020080,-0.001786,-1.576932,1.566194,0.0000,0.0000,0.0000,-0.004740,-1.576932,1.566194,0.1526,0.4751,0.0450,0.000000,0.516952,-0.515418,0.520019,-0.527689,0.518486,-0.510816
0.1808,0.020080,-0.001384,-1.576932,1.566194,0.0000,0.0000,0.0000,-0.004731,-1.576932,1.566194,0.2553,0.5351,0.2035,0.000000,0.518486,-0.515418,0.521553,-0.527689,0.518486,-0.509282
0.2009,0.020090,-0.000982,-1.576932,1.566194,0.0000,0.0000,0.0000,-0.004695,-1.576932,1.566194,0.3552,0.5474,0.2396,0.000000,0.521553,-0.515418,0.521553,-0.529223,0.518486,-0.509282
0.2210,0.020074,-0.000581,-1.576932,1.566194,0.0000,0.0000,0.0000,-0.004686,-1.576932,1.566194,0.3949,0.5296,0.2882,0.000000,0.523087,-0.515418,0.521553,-0.529223,0.518486,-0.509282
0.2410,0.020079,-0.000179,-1.576932,1.566194,0.0000,0.0000,0.0000,-0.004637,-1.578466,1.566194,0.3611,0.5146,0.2830,0.000000,0.524621,-0.515418,0.521553,-0.530757,0.520019,-0.510816
0.2611,0.020071,0.000222,-1.576932,1.566194,0.0000,0.0000,0.0000,-0.004518,-1.576932,1.566194,0.4361,0.5337,0.0753,0.000000,0.529223,-0.516952,0.521553,-0.535359,0.520019,-0.515418
0.2812,0.020077,0.000624,-1.576932,1.566194,0.0000,0.0000,0.0000,-0.004317,-1.576932,1.566194,0.4279,0.6362,0.2544,0.000000,0.533825,-0.520019,0.527689,-0.539961,0.524621,-0.518486
0.3013,0.020073,0.001025,-1.576932,1.566194,0.0000,0.0000,0.0000,-0.004027,-1.578466,1.566194,0.5002,0.6437,0.1845,0.000000,0.543029,-0.524621,0.532291,-0.547631,0.529223,-0.526155
0.3213,0.020078,0.001427,-1.576932,1.566194,0.0000,0.0000,0.0000,-0.003633,-1.576932,1.566194,0.5144,0.7111,0.0871,0.000000,0.552233,-0.532291,0.539961,-0.558369,0.536893,-0.535359
0.3414,0.020075,0.001828,-1.576932,1.566194,0.0000,0.0000,0.0000,-0.003236,-1.576932,1.566194,0.5626,0.7206,0.1510,0.000000,0.561437,-0.541495,0.549165,-0.567573,0.546097,-0.543029
0.3615,0.020093,0.002230,-1.576932,1.566194,0.0000,0.0000,0.0000,-0.002780,-1.576932,1.566194,0.6183,0.8566,0.1455,0.000000,0.572175,-0.550699,0.559903,-0.579845,0.555301,-0.552233
0.3816,0.020074,0.002632,-1.576932,1.566194,0.0000,0.0000,0.0000,-0.002368,-1.576932,1.566194,0.6521,0.8411,0.0942,0.000000,0.582913,-0.559903,0.569107,-0.589049,0.562971,-0.562971
0.4017,0.020087,0.003033,-1.576932,1.566194,0.0000,0.0000,0.0000,-0.001954,-1.576932,1.566194,0.7582,0.8938,0.1546,0.000000,0.593651,-0.569107,0.578311,-0.599786,0.572175,-0.570641
0.4217,0.020073,0.003435,-1.576932,1.566194,0.0000,0.0000,0.0000,-0.001491,-1.578466,1.566194,0.7859,0.9201,0.0958,0.000000,0.604388,-0.579845,0.589049,-0.610524,0.581379,-0.581379
0.4418,0.020082,0.003836,-1.576932,1.566194,0.0000,0.0000,0.0000,-0.001145,-1.576932,1.566194,0.9086,0.9336,0.2121,0.000000,0.613592,-0.589049,0.598253,-0.618194,0.589049,-0.587515
0.4619,0.020079,0.004238,-1.576932,1.566194,0.0000,0.0000,0.0000,-0.000703,-1.576932,1.566194,0.9435,1.0161,0.2562,0.000000,0.624330,-0.598253,0.608990,-0.628932,0.598253,-0.596719
0.4820,0.020074,0.004639,-1.576932,1.566194,0.0000,0.0000,0.0000,-0.000321,-1.578466,1.566194,0.9775,1.0386,0.1989,0.000000,0.633534,-0.607456,0.618194,-0.638136,0.605922,-0.605922
0.5021,0.020082,0.004959,-1.576932,1.566194,0.0000,0.0000,0.0000,0.000066,-1.576932,1.566194,1.0114,1.0671,0.1519,0.000000,0.642738,-0.616660,0.627398,-0.647340,0.613592,-0.615126
0.5221,0.020073,0.004557,-1.576932,1.566194,0.0000,0.0000,0.0000,0.000477,-1.578466,1.566194,0.9941,1.1116,0.2129,0.000000,0.651942,-0.625864,0.638136,-0.656544,0.622796,-0.624330
0.5422,0.020082,0.004156,-1.576932,1.566194,0.0000,0.0000,0.0000,0.000905,-1.576932,1.566194,1.0923,1.1034,0.1531,0.000000,0.662680,-0.636602,0.647340,-0.667282,0.632000,-0.633534
0.5623,0.020075,0.003754,-1.576932,1.566194,0.0000,0.0000,0.0000,0.001270,-1.576932,1.566194,1.1665,1.1513,0.1613,0.000000,0.671884,-0.645806,0.656544,-0.676486,0.639670,-0.641204
0.5824,0.020078,0.003353,-1.576932,1.566194,0.0000,0.0000,0.0000,0.001675,-1.576932,1.566194,1.2036,1.1280,0.2176,0.000000,0.682621,-0.655010,0.665748,-0.685689,0.648874,-0.650408
0.6025,0.020091,0.002951,-1.576932,1.566194,0.0000,0.0000,0.0000,0.001990,-1.576932,1.566194,1.2929,1.1299,0.3253,0.000000,0.691825,-0.662680,0.673418,-0.693359,0.656544,-0.656544
0.6225,0.020074,0.002549,-1.576932,1.566194,0.0000,0.0000,0.0000,0.002181,-1.576932,1.566194,1.3894,1.1795,0.3718,0.000000,0.697961,-0.667282,0.678020,-0.699495,0.661146,-0.659612
0.6426,0.020079,0.002148,-1.576932,1.566194,0.0000,0.0000,0.0000,0.002222,-1.576932,1.566194,1.4525,1.1072,0.4235,0.000000,0.699495,-0.670350,0.679553,-0.699495,0.662680,-0.659612
0.6627,0.020079,0.001746,-1.576932,1.566194,0.0000,0.0000,0.0000,0.002218,-1.576932,1.566194,1.4459,1.1148,0.4181,0.000000,0.699495,-0.670350,0.679553,-0.699495,0.662680,-0.659612
0.6828,0.020075,0.001345,-1.576932,1.566194,0.0000,0.0000,0.0000,0.002197,-1.576932,1.566194,1.3869,1.0792,0.4177,0.000000,0.697961,-0.670350,0.679553,-0.697961,0.662680,-0.659612
0.7029,0.020092,0.000943,-1.576932,1.566194,0.0000,0.0000,0.0000,0.002124,-1.576932,1.566194,1.1665,0.9929,0.3583,0.000000,0.691825,-0.670350,0.679553,-0.693359,0.662680,-0.659612
0.7229,0.020076,0.000541,-1.576932,1.566194,0.0000,0.0000,0.0000,0.001973,-1.576932,1.566194,0.8292,0.7794,0.2476,0.000000,0.682621,-0.668816,0.676486,-0.685689,0.662680,-0.659612
0.7430,0.020072,0.000140,-1.576932,1.566194,0.0000,0.0000,0.0000,0.001779,-1.576932,1.566194,0.4667,0.4467,0.0315,0.000000,0.671884,-0.667282,0.670350,-0.676486,0.662680,-0.659612
0.7631,0.020073,-0.000261,-1.576932,1.566194,0.0000,0.0000,0.0000,0.001430,-1.576932,1.566194,0.1171,0.1153,-0.2257,0.000000,0.659612,-0.661146,0.659612,-0.664214,0.658078,-0.658078
0.7831,0.020075,-0.000663,-1.576932,1.566194,0.0000,0.0000,0.0000,0.000972,-1.576932,1.566194,-0.0413,0.0508,-0.2535,0.000000,0.647340,-0.650408,0.648874,-0.651942,0.648874,-0.650408
0.8032,0.020086,-0.001065,-1.576932,1.566194,0.0000,0.0000,0.0000,0.000426,-1.576932,1.566194,-0.1395,0.0919,-0.4144,0.000000,0.633534,-0.636602,0.635068,-0.641204,0.636602,-0.639670
0.8233,0.020077,-0.001466,-1.576932,1.566194,0.0000,0.0000,0.0000,-0.000040,-1.576932,1.566194,-0.1962,0.0376,-0.3409,0.000000,0.622796,-0.624330,0.622796,-0.630466,0.627398,-0.628932
0.8434,0.020080,-0.001868,-1.576932,1.566194,0.0000,0.0000,0.0000,-0.000456,-1.576932,1.566194,-0.1424,0.1604,-0.1290,0.000000,0.613592,-0.613592,0.615126,-0.621262,0.618194,-0.616660
0.8635,0.020076,-0.002269,-1.576932,1.566194,0.0000,0.0000,0.0000,-0.000830,-1.576932,1.566194,-0.0224,0.1646,-0.0415,0.000000,0.605922,-0.605922,0.607456,-0.612058,0.608990,-0.605922
0.8836,0.020091,-0.002671,-1.576932,1.566194,0.0000,0.0000,0.0000,-0.001221,-1.576932,1.566194,0.1412,0.1976,0.1121,0.000000,0.598253,-0.598253,0.599786,-0.602854,0.599786,-0.593651
0.9036,0.020085,-0.003073,-1.576932,1.566194,0.0000,0.0000,0.0000,-0.001625,-1.576932,1.566194,0.1639,0.2260,0.2035,0.000000,0.587515,-0.590583,0.592117,-0.593651,0.592117,-0.581379
0.9237,0.020076,-0.003474,-1.576932,1.566194,0.0000,0.0000,0.0000,-0.002054,-1.576932,1.566194,0.1620,0.2570,0.1930,0.000000,0.576777,-0.581379,0.582913,-0.584447,0.582913,-0.570641
0.9438,0.020081,-0.003876,-1.576932,1.566194,0.0000,0.0000,0.0000,-0.002481,-1.576932,1.566194,0.1132,0.2387,0.3000,0.000000,0.567573,-0.570641,0.573709,-0.573709,0.573709,-0.561437
0.9639,0.020074,-0.004277,-1.576932,1.566194,0.0000,0.0000,0.0000,-0.002872,-1.576932,1.566194,-0.0209,0.2428,0.2345,0.000000,0.558369,-0.559903,0.564505,-0.564505,0.564505,-0.555301
0.9839,0.020075,-0.004679,-1.576932,1.566194,0.0000,0.0000,0.0000,-0.003218,-1.576932,1.566194,-0.0864,0.2098,0.1872,0.000000,0.550699,-0.550699,0.555301,-0.556835,0.556835,-0.549165
1.0040,0.020081,-0.004919,-1.576932,1.566194,0.0000,0.0000,0.0000,-0.003594,-1.576932,1.566194,-0.1195,0.1455,0.2440,0.000000,0.543029,-0.541495,0.546097,-0.547631,0.549165,-0.541495
1.0241,0.020074,-0.004518,-1.576932,1.566194,0.0000,0.0000,0.0000,-0.003969,-1.576932,1.566194,-0.1265,0.1345,0.2898,0.000000,0.533825,-0.533825,0.538427,-0.538427,0.541495,-0.532291
1.0442,0.020122,-0.004115,-1.576932,1.566194,0.0000,0.0000,0.0000,-0.004382,-1.576932,1.566194,-0.1262,0.1361,0.2837,0.000000,0.524621,-0.524621,0.529223,-0.529223,0.532291,-0.523087
1.0643,0.020073,-0.003714,-1.576932,1.566194,0.0000,0.0000,0.0000,-0.004817,-1.576932,1.566194,-0.0472,0.1702,0.1787,0.000000,0.513884,-0.516952,0.520019,-0.520019,0.521553,-0.512350
1.0844,0.020076,-0.003313,-1.576932,1.566194,0.0000,0.0000,0.0000,-0.005125,-1.576932,1.566194,-0.0555,0.2710,0.1888,0.000000,0.506214,-0.509282,0.513884,-0.513884,0.513884,-0.504680
1.1045,0.020078,-0.002911,-1.576932,1.566194,0.0000,0.0000,0.0000,-0.005282,-1.576932,1.566194,-0.0149,0.3300,0.1355,0.000000,0.501612,-0.506214,0.510816,-0.510816,0.509282,-0.500078
1.1245,0.020075,-0.002509,-1.576932,1.566194,0.0000,0.0000,0.0000,-0.005253,-1.576932,1.566194,0.0312,0.3069,0.1929,0.000000,0.503146,-0.506214,0.510816,-0.510816,0.509282,-0.500078
1.1446,0.020078,-0.002108,-1.576932,1.566194,0.0000,0.0000,0.0000,-0.005257,-1.576932,1.566194,-0.0032,0.2225,0.1869,0.000000,0.503146,-0.506214,0.509282,-0.510816,0.510816,-0.500078
1.1647,0.020076,-0.001706,-1.576932,1.566194,0.0000,0.0000,0.0000,-0.005256,-1.578466,1.566194,0.0004,0.2313,0.1875,0.000000,0.503146,-0.506214,0.509282,-0.510816,0.510816,-0.500078
1.1848,0.020078,-0.001305,-1.576932,1.566194,0.0000,0.0000,0.0000,-0.005244,-1.576932,1.566194,0.0502,0.2134,0.2393,0.000000,0.504680,-0.506214,0.509282,-0.510816,0.510816,-0.500078
1.2048,0.020044,-0.000904,-1.576932,1.566194,0.0000,0.0000,0.0000,-0.005220,-1.576932,1.566194,0.0851,0.2503,0.3378,0.000000,0.506214,-0.506214,0.510816,-0.510816,0.510816,-0.500078
1.2249,0.020086,-0.000502,-1.576932,1.566194,0.0000,0.0000,0.0000,-0.005185,-1.576932,1.566194,0.0918,0.2287,0.2757,0.000000,0.506214,-0.507748,0.510816,-0.512350,0.512350,-0.500078
1.2450,0.020080,-0.000101,-1.576932,1.566194,0.0000,0.0000,0.0000,-0.004898,-1.576932,1.566194,0.2018,0.4913,0.3350,0.000000,0.512350,-0.512350,0.518486,-0.521553,0.516952,-0.503146
1.2650,0.020075,0.000301,-1.576932,1.566194,0.0000,0.0000,0.0000,-0.004626,-1.576932,1.566194,0.3004,0.6546,0.2257,0.000000,0.520019,-0.516952,0.524621,-0.530757,0.520019,-0.509282
1.2851,0.020079,0.000702,-1.576932,1.566194,0.0000,0.0000,0.0000,-0.004215,-1.576932,1.566194,0.4007,0.7585,0.2912,0.000000,0.530757,-0.524621,0.533825,-0.541495,0.527689,-0.516952
1.3052,0.020076,0.001104,-1.576932,1.566194,0.0000,0.0000,0.0000,-0.003820,-1.576932,1.566194,0.4398,0.7993,0.3389,0.000000,0.541495,-0.532291,0.543029,-0.550699,0.535359,-0.526155
1.3253,0.020081,0.001506,-1.576932,1.566194,0.0000,0.0000,0.0000,-0.003386,-1.576932,1.566194,0.5463,0.9145,0.2304,0.000000,0.552233,-0.541495,0.552233,-0.562971,0.543029,-0.535359
1.3454,0.020073,0.001907,-1.576932,1.566194,0.0000,0.0000,0.0000,-0.002921,-1.576932,1.566194,0.5844,0.9533,0.2971,0.000000,0.564505,-0.550699,0.562971,-0.573709,0.552233,-0.546097
1.3654,0.020079,0.002309,-1.576932,1.566194,0.0000,0.0000,0.0000,-0.002461,-1.576932,1.566194,0.6512,0.9999,0.2387,0.000000,0.576777,-0.559903,0.572175,-0.585981,0.561437,-0.556835
1.3855,0.020073,0.002710,-1.576932,1.566194,0.0000,0.0000,0.0000,-0.001990,-1.576932,1.566194,0.7931,0.9435,0.2478,0.000000,0.590583,-0.570641,0.581379,-0.596719,0.570641,-0.567573
1.4056,0.020073,0.003112,-1.576932,1.566194,0.0000,0.0000,0.0000,-0.001569,-1.576932,1.566194,0.7767,0.9143,0.2483,0.000000,0.601320,-0.579845,0.590583,-0.605922,0.579845,-0.578311
1.4257,0.020077,0.003513,-1.576932,1.566194,0.0000,0.0000,0.0000,-0.001159,-1.576932,1.566194,0.7985,0.9855,0.3038,0.000000,0.612058,-0.587515,0.599786,-0.616660,0.589049,-0.587515
1.4457,0.020072,0.003915,-1.576932,1.566194,0.0000,0.0000,0.0000,-0.000772,-1.576932,1.566194,0.8344,1.0095,0.2457,0.000000,0.621262,-0.596719,0.608990,-0.625864,0.596719,-0.596719
1.4658,0.020078,0.004316,-1.576932,1.566194,0.0000,0.0000,0.0000,-0.000336,-1.576932,1.566194,0.8406,1.0221,0.1987,0.000000,0.632000,-0.605922,0.618194,-0.636602,0.605922,-0.607456
1.4859,0.020076,0.004718,-1.576932,1.566194,0.0000,0.0000,0.0000,0.000035,-1.576932,1.566194,0.9538,0.9840,0.2059,0.000000,0.641204,-0.616660,0.627398,-0.644272,0.613592,-0.615126
1.5060,0.020089,0.004881,-1.576932,1.566194,0.0000,0.0000,0.0000,0.000482,-1.576932,1.566194,0.9398,1.0535,0.2068,0.000000,0.651942,-0.625864,0.638136,-0.655010,0.622796,-0.625864
1.5260,0.020077,0.004479,-1.576932,1.566194,0.0000,0.0000,0.0000,0.000859,-1.576932,1.566194,0.9876,1.0602,0.2632,0.000000,0.661146,-0.635068,0.647340,-0.664214,0.632000,-0.633534
1.5461,0.020077,0.004078,-1.576932,1.566194,0.0000,0.0000,0.0000,0.001229,-1.576932,1.566194,1.0399,1.0232,0.2582,0.000000,0.670350,-0.644272,0.655010,-0.673418,0.641204,-0.641204
1.5662,0.020084,0.003676,-1.576932,1.566194,0.0000,0.0000,0.0000,0.001549,-1.576932,1.566194,1.1191,1.0432,0.2613,0.000000,0.679553,-0.651942,0.662680,-0.681087,0.647340,-0.648874
1.5863,0.020079,0.003274,-1.576932,1.566194,0.0000,0.0000,0.0000,0.001935,-1.576932,1.566194,1.1557,1.0547,0.3182,0.000000,0.688757,-0.661146,0.671884,-0.690291,0.656544,-0.656544
1.6064,0.020111,0.002872,-1.576932,1.566194,0.0000,0.0000,0.0000,0.002131,-1.576932,1.566194,1.2958,1.0685,0.3142,0.000000,0.694893,-0.667282,0.676486,-0.696427,0.661146,-0.659612
1.6265,0.020077,0.002471,-1.576932,1.566194,0.0000,0.0000,0.0000,0.002193,-1.576932,1.566194,1.3649,1.1187,0.4844,0.000000,0.697961,-0.668816,0.679553,-0.697961,0.662680,-0.659612
1.6466,0.020081,0.002069,-1.576932,1.566194,0.0000,0.0000,0.0000,0.002187,-1.576932,1.566194,1.3576,1.1135,0.4667,0.000000,0.697961,-0.668816,0.679553,-0.697961,0.662680,-0.659612
1.6666,0.020090,0.001667,-1.576932,1.566194,0.0000,0.0000,0.0000,0.002166,-1.576932,1.566194,1.2987,1.0793,0.4675,0.000000,0.696427,-0.668816,0.679553,-0.696427,0.662680,-0.659612
1.6867,0.020075,0.001266,-1.576932,1.566194,0.0000,0.0000,0.0000,0.002115,-1.576932,1.566194,1.1379,1.0275,0.4090,0.000000,0.691825,-0.668816,0.679553,-0.693359,0.662680,-0.659612
1.7068,0.020076,0.000864,-1.576932,1.566194,0.0000,0.0000,0.0000,0.002020,-1.576932,1.566194,0.9282,0.8452,0.3556,0.000000,0.685689,-0.668816,0.678020,-0.687223,0.662680,-0.659612
1.7269,0.020076,0.000463,-1.576932,1.566194,0.0000,0.0000,0.0000,0.001833,-1.576932,1.566194,0.6011,0.4939,0.1888,0.000000,0.676486,-0.667282,0.671884,-0.678020,0.662680,-0.659612
1.7470,0.020078,0.000061,-1.576932,1.566194,0.0000,0.0000,0.0000,0.001483,-1.576932,1.566194,0.2323,0.1920,0.0360,0.000000,0.662680,-0.661146,0.661146,-0.667282,0.661146,-0.655010
1.7670,0.020086,-0.000341,-1.576932,1.566194,0.0000,0.0000,0.0000,0.001014,-1.576932,1.566194,0.0384,0.1214,0.0512,0.000000,0.648874,-0.650408,0.650408,-0.655010,0.653476,-0.645806
1.7871,0.020075,-0.000742,-1.576932,1.566194,0.0000,0.0000,0.0000,0.000519,-1.576932,1.566194,-0.0017,0.0634,-0.1157,0.000000,0.636602,-0.639670,0.638136,-0.642738,0.641204,-0.636602
1.8072,0.020088,-0.001144,-1.576932,1.566194,0.0000,0.0000,0.0000,0.000011,-1.576932,1.566194,-0.1126,0.1044,-0.0980,0.000000,0.624330,-0.625864,0.625864,-0.632000,0.630466,-0.625864
1.8273,0.020079,-0.001546,-1.576932,1.566194,0.0000,0.0000,0.0000,-0.000364,-1.576932,1.566194,-0.0421,0.2365,0.0640,0.000000,0.616660,-0.615126,0.618194,-0.624330,0.621262,-0.615126
1.8474,0.020079,-0.001947,-1.576932,1.566194,0.0000,0.0000,0.0000,-0.000803,-1.576932,1.566194,0.1150,0.2057,0.1016,0.000000,0.607456,-0.607456,0.608990,-0.613592,0.610524,-0.602854
1.8675,0.020092,-0.002349,-1.576932,1.566194,0.0000,0.0000,0.0000,-0.001089,-1.576932,1.566194,0.1766,0.2097,0.1517,0.000000,0.601320,-0.601320,0.602854,-0.605922,0.602854,-0.595185
1.8875,0.020074,-0.002750,-1.576932,1.566194,0.0000,0.0000,0.0000,-0.001429,-1.576932,1.566194,0.2587,0.1918,0.1458,0.000000,0.593651,-0.595185,0.595185,-0.598253,0.595185,-0.585981
1.9076,0.020095,-0.003152,-1.576932,1.566194,0.0000,0.0000,0.0000,-0.001851,-1.576932,1.566194,0.2013,0.2107,0.0920,0.000000,0.582913,-0.585981,0.585981,-0.589049,0.585981,-0.576777
1.9277,0.020068,-0.003554,-1.576932,1.566194,0.0000,0.0000,0.0000,-0.002303,-1.578466,1.566194,0.0589,0.2260,0.0971,0.000000,0.570641,-0.575243,0.576777,-0.578311,0.576777,-0.567573
1.9478,0.020078,-0.003955,-1.576932,1.566194,0.0000,0.0000,0.0000,-0.002728,-1.578466,1.566194,-0.0651,0.2271,0.2026,0.000000,0.561437,-0.562971,0.567573,-0.567573,0.567573,-0.559903
1.9679,0.020088,-0.004357,-1.576932,1.566194,0.0000,0.0000,0.0000,-0.003070,-1.576932,1.566194,-0.0921,0.2624,0.2438,0.000000,0.553767,-0.553767,0.559903,-0.559903,0.559903,-0.552233
1.9879,0.020070,-0.004758,-1.576932,1.566194,0.0000,0.0000,0.0000,-0.003472,-1.576932,1.566194,-0.1289,0.2249,0.2913,0.000000,0.544563,-0.544563,0.550699,-0.550699,0.552233,-0.543029
2.0080,0.020081,-0.004840,-1.576932,1.566194,0.0000,0.0000,0.0000,-0.003869,-1.576932,1.566194,-0.1649,0.1948,0.3377,0.000000,0.535359,-0.535359,0.541495,-0.541495,0.544563,-0.533825
2.0281,0.020085,-0.004438,-1.576932,1.566194,0.0000,0.0000,0.0000,-0.004292,-1.576932,1.566194,-0.0325,0.2154,0.2790,0.000000,0.526155,-0.527689,0.532291,-0.532291,0.533825,-0.523087
2.0482,0.020076,-0.004037,-1.576932,1.566194,0.0000,0.0000,0.0000,-0.004688,-1.576932,1.566194,-0.0065,0.1790,0.2316,0.000000,0.516952,-0.520019,0.523087,-0.523087,0.524621,-0.513884
2.0683,0.020087,-0.003635,-1.576932,1.566194,0.0000,0.0000,0.0000,-0.005075,-1.576932,1.566194,-0.0697,0.2180,0.2355,0.000000,0.507748,-0.510816,0.515418,-0.513884,0.515418,-0.506214
2.0883,0.020079,-0.003233,-1.576932,1.566194,0.0000,0.0000,0.0000,-0.005237,-1.578466,1.566194,-0.0133,0.2315,0.1308,0.000000,0.503146,-0.507748,0.510816,-0.510816,0.510816,-0.501612
2.1084,0.020080,-0.002832,-1.576932,1.566194,0.0000,0.0000,0.0000,-0.005233,-1.576932,1.566194,-0.0091,0.1781,0.0898,0.000000,0.503146,-0.507748,0.509282,-0.510816,0.510816,-0.501612
2.1285,0.020076,-0.002430,-1.576932,1.566194,0.0000,0.0000,0.0000,-0.005233,-1.576932,1.566194,-0.0095,0.1836,0.0940,0.000000,0.503146,-0.507748,0.509282,-0.510816,0.510816,-0.501612
2.1486,0.020080,-0.002029,-1.576932,1.566194,0.0000,0.0000,0.0000,-0.005208,-1.576932,1.566194,0.0307,0.2180,0.1974,0.000000,0.504680,-0.507748,0.510816,-0.510816,0.510816,-0.501612
2.1687,0.020087,-0.001627,-1.576932,1.566194,0.0000,0.0000,0.0000,-0.005223,-1.576932,1.566194,0.0366,0.1625,0.1347,0.000000,0.504680,-0.507748,0.509282,-0.510816,0.510816,-0.501612
2.1887,0.020077,-0.001225,-1.576932,1.566194,0.0000,0.0000,0.0000,-0.005196,-1.576932,1.566194,0.0762,0.2033,0.2451,0.000000,0.506214,-0.507748,0.510816,-0.510816,0.510816,-0.501612
2.2088,0.020085,-0.000824,-1.576932,1.566194,0.0000,0.0000,0.0000,-0.005161,-1.576932,1.566194,-0.0080,0.1990,0.1817,0.000000,0.506214,-0.507748,0.510816,-0.512350,0.512350,-0.503146
2.2289,0.020075,-0.000422,-1.576932,1.566194,0.0000,0.0000,0.0000,-0.005076,-1.576932,1.566194,0.0405,0.3382,0.1365,0.000000,0.507748,-0.509282,0.513884,-0.515418,0.512350,-0.504680
2.2490,0.020074,-0.000021,-1.576932,1.566194,0.0000,0.0000,0.0000,-0.004922,-1.576932,1.566194,0.0058,0.4804,0.2972,0.000000,0.512350,-0.509282,0.518486,-0.520019,0.515418,-0.507748
2.2691,0.020086,0.000381,-1.576932,1.566194,0.0000,0.0000,0.0000,-0.004661,-1.576932,1.566194,0.1597,0.6220,0.2817,0.000000,0.520019,-0.513884,0.524621,-0.527689,0.518486,-0.512350
2.2891,0.020079,0.000783,-1.576932,1.566194,0.0000,0.0000,0.0000,-0.004299,-1.576932,1.566194,0.2144,0.7629,0.2321,0.000000,0.529223,-0.520019,0.532291,-0.538427,0.524621,-0.520019
2.3093,0.020207,0.001187,-1.576932,1.566194,0.0000,0.0000,0.0000,-0.003874,-1.576932,1.566194,0.2293,0.8169,0.2910,0.000000,0.539961,-0.527689,0.541495,-0.549165,0.533825,-0.529223
2.3294,0.020081,0.001588,-1.576932,1.566194,0.0000,0.0000,0.0000,-0.003431,-1.576932,1.566194,0.3383,0.8285,0.3398,0.000000,0.552233,-0.536893,0.550699,-0.559903,0.543029,-0.538427
2.3495,0.020082,0.001990,-1.576932,1.566194,0.0000,0.0000,0.0000,-0.003004,-1.576932,1.566194,0.4380,0.9467,0.2308,0.000000,0.562971,-0.546097,0.559903,-0.572175,0.550699,-0.547631
2.3696,0.020079,0.002392,-1.576932,1.566194,0.0000,0.0000,0.0000,-0.002514,-1.576932,1.566194,0.4769,0.9158,0.2975,0.000000,0.575243,-0.556835,0.570641,-0.582913,0.561437,-0.558369
2.3897,0.020072,0.002793,-1.576932,1.566194,0.0000,0.0000,0.0000,-0.002107,-1.576932,1.566194,0.5727,0.9864,0.2393,0.000000,0.585981,-0.566039,0.579845,-0.593651,0.569107,-0.567573
2.4098,0.020098,0.003195,-1.576932,1.566194,0.0000,0.0000,0.0000,-0.001680,-1.576932,1.566194,0.6608,0.9452,0.3555,0.000000,0.598253,-0.575243,0.589049,-0.602854,0.578311,-0.576777
2.4298,0.020061,0.003596,-1.576932,1.566194,0.0000,0.0000,0.0000,-0.001282,-1.576932,1.566194,0.7393,0.9660,0.3462,0.000000,0.608990,-0.584447,0.598253,-0.612058,0.585981,-0.585981
2.4499,0.020079,0.003998,-1.576932,1.566194,0.0000,0.0000,0.0000,-0.000857,-1.576932,1.566194,0.7903,0.9967,0.3494,0.000000,0.619728,-0.593651,0.607456,-0.622796,0.595185,-0.595185
2.4703,0.020400,0.004406,-1.576932,1.566194,0.0000,0.0000,0.0000,-0.000546,-1.576932,1.566194,0.8231,1.0252,0.2967,0.000000,0.627398,-0.601320,0.615126,-0.630466,0.601320,-0.602854
2.4904,0.020080,0.004807,-1.576932,1.566194,0.0000,0.0000,0.0000,-0.000114,-1.576932,1.566194,0.9059,0.9694,0.3045,0.000000,0.638136,-0.612058,0.624330,-0.639670,0.610524,-0.612058
2.5107,0.020283,0.004787,-1.576932,1.566194,0.0000,0.0000,0.0000,0.000267,-1.576932,1.566194,0.9439,0.9900,0.3603,0.000000,0.647340,-0.621262,0.633534,-0.648874,0.619728,-0.619728
2.5307,0.020084,0.004385,-1.576932,1.566194,0.0000,0.0000,0.0000,0.000725,-1.576932,1.566194,0.9763,1.0182,0.3019,0.000000,0.658078,-0.632000,0.644272,-0.659612,0.628932,-0.630466
2.5508,0.020078,0.003984,-1.576932,1.566194,0.0000,0.0000,0.0000,0.001074,-1.576932,1.566194,1.0193,1.0976,0.3657,0.000000,0.667282,-0.639670,0.653476,-0.668816,0.636602,-0.638136
2.5709,0.020081,0.003582,-1.576932,1.566194,0.0000,0.0000,0.0000,0.001460,-1.576932,1.566194,1.1102,1.0182,0.3049,0.000000,0.676486,-0.650408,0.661146,-0.678020,0.645806,-0.645806
2.5910,0.020091,0.003180,-1.576932,1.566194,0.0000,0.0000,0.0000,0.001837,-1.576932,1.566194,1.2323,1.0590,0.3705,0.000000,0.687223,-0.659612,0.670350,-0.687223,0.653476,-0.653476
2.6113,0.020333,0.002774,-1.576932,1.566194,0.0000,0.0000,0.0000,0.002072,-1.576932,1.566194,1.2650,1.0693,0.4208,0.000000,0.693359,-0.665748,0.676486,-0.693359,0.659612,-0.658078
2.6314,0.020084,0.002372,-1.576932,1.566194,0.0000,0.0000,0.0000,0.002178,-1.576932,1.566194,1.3084,1.0839,0.4723,0.000000,0.696427,-0.668816,0.679553,-0.696427,0.662680,-0.659612
2.6515,0.020074,0.001970,-1.576932,1.566194,0.0000,0.0000,0.0000,0.002167,-1.576932,1.566194,1.3039,1.0823,0.4669,0.000000,0.696427,-0.668816,0.679553,-0.696427,0.662680,-0.659612
2.6717,0.020204,0.001566,-1.576932,1.566194,0.0000,0.0000,0.0000,0.002179,-1.576932,1.566194,1.3522,1.0684,0.5243,0.000000,0.697961,-0.668816,0.679553,-0.696427,0.662680,-0.659612
2.6918,0.020085,0.001165,-1.576932,1.566194,0.0000,0.0000,0.0000,0.002135,-1.576932,1.566194,1.2280,1.0002,0.5164,0.000000,0.694893,-0.668816,0.679553,-0.693359,0.662680,-0.659612
2.7118,0.020079,0.000763,-1.576932,1.566194,0.0000,0.0000,0.0000,0.002051,-1.576932,1.566194,1.0263,0.8680,0.4017,0.000000,0.688757,-0.668816,0.678020,-0.688757,0.662680,-0.659612
2.7319,0.020083,0.000361,-1.576932,1.566194,0.0000,0.0000,0.0000,0.001888,-1.576932,1.566194,0.6760,0.6101,0.3529,0.000000,0.679553,-0.667282,0.674952,-0.679553,0.662680,-0.659612
2.7520,0.020080,-0.000040,-1.576932,1.566194,0.0000,0.0000,0.0000,0.001646,-1.576932,1.566194,0.3261,0.2329,0.2425,0.000000,0.668816,-0.664214,0.667282,-0.668816,0.662680,-0.658078
2.7721,0.020098,-0.000442,-1.576932,1.566194,0.0000,0.0000,0.0000,0.001191,-1.576932,1.566194,0.0833,0.0169,0.0302,0.000000,0.653476,-0.656544,0.655010,-0.656544,0.656544,-0.650408
2.7922,0.020057,-0.000843,-1.576932,1.566194,0.0000,0.0000,0.0000,0.000767,-1.576932,1.566194,-0.0273,-0.0262,-0.0033,0.000000,0.642738,-0.645806,0.644272,-0.645806,0.647340,-0.642738
2.8122,0.020086,-0.001245,-1.576932,1.566194,0.0000,0.0000,0.0000,0.000767,-1.576932,1.566194,-0.0273,-0.0262,-0.0033,0.000000,0.627398,-0.630466,0.628932,-0.635068,0.633534,-0.630466
2.8327,0.020438,-0.001654,-1.576932,1.566194,0.0000,0.0000,0.0000,-0.000342,-1.576932,1.566194,-0.0904,0.1555,0.0221,0.000000,0.616660,-0.616660,0.618194,-0.624330,0.622796,-0.616660
2.8528,0.020081,-0.002055,-1.576932,1.566194,0.0000,0.0000,0.0000,-0.000780,-1.576932,1.566194,-0.0065,0.2665,-0.0030,0.000000,0.607456,-0.605922,0.608990,-0.615126,0.610524,-0.605922
2.8729,0.020087,-0.002457,-1.576932,1.566194,0.0000,0.0000,0.0000,-0.001055,-1.576932,1.566194,0.1995,0.2216,0.1083,0.000000,0.602854,-0.601320,0.602854,-0.607456,0.602854,-0.596719
2.8931,0.020226,-0.002862,-1.576932,1.566194,0.0000,0.0000,0.0000,-0.001408,-1.576932,1.566194,0.2174,0.2248,0.0424,0.000000,0.593651,-0.595185,0.595185,-0.599786,0.595185,-0.587515
2.9132,0.020091,-0.003263,-1.576932,1.566194,0.0000,0.0000,0.0000,-0.001841,-1.576932,1.566194,0.2443,0.1725,0.0489,0.000000,0.582913,-0.587515,0.585981,-0.589049,0.585981,-0.576777
2.9333,0.020082,-0.003665,-1.576932,1.566194,0.0000,0.0000,0.0000,-0.002267,-1.576932,1.566194,0.1329,0.2300,0.1552,0.000000,0.572175,-0.576777,0.578311,-0.578311,0.576777,-0.567573
2.9533,0.020078,-0.004067,-1.576932,1.566194,0.0000,0.0000,0.0000,-0.002720,-1.576932,1.566194,0.0062,0.2598,0.2500,0.000000,0.561437,-0.564505,0.569107,-0.567573,0.567573,-0.558369
2.9735,0.020163,-0.004470,-1.576932,1.566194,0.0000,0.0000,0.0000,-0.003109,-1.576932,1.566194,-0.1095,0.2410,0.2920,0.000000,0.552233,-0.553767,0.559903,-0.558369,0.559903,-0.550699
2.9936,0.020075,-0.004871,-1.576932,1.566194,0.0000,0.0000,0.0000,-0.003468,-1.576932,1.566194,-0.2167,0.2450,0.2861,0.000000,0.544563,-0.543029,0.550699,-0.550699,0.552233,-0.544563
3.0137,0.020120,-0.004726,-1.576932,1.566194,0.0000,0.0000,0.0000,-0.003468,-1.576932,1.566194,-0.2167,0.2450,0.2861,0.000000,0.536893,-0.535359,0.539961,-0.543029,0.544563,-0.535359
3.0338,0.020084,-0.004325,-1.576932,1.566194,0.0000,0.0000,0.0000,-0.004294,-1.576932,1.566194,-0.0651,0.1685,0.2897,0.000000,0.527689,-0.526155,0.530757,-0.532291,0.533825,-0.524621
3.0538,0.020076,-0.003923,-1.576932,1.566194,0.0000,0.0000,0.0000,-0.004650,-1.576932,1.566194,-0.0135,0.2015,0.2828,0.000000,0.518486,-0.520019,0.524621,-0.523087,0.524621,-0.515418
3.0740,0.020165,-0.003520,-1.576932,1.566194,0.0000,0.0000,0.0000,-0.004991,-1.576932,1.566194,-0.0291,0.1807,0.1785,0.000000,0.509282,-0.513884,0.516952,-0.515418,0.516952,-0.507748
3.0941,0.020077,-0.003118,-1.576932,1.566194,0.0000,0.0000,0.0000,-0.005246,-1.576932,1.566194,-0.0175,0.2353,0.1367,0.000000,0.503146,-0.507748,0.510816,-0.510816,0.510816,-0.501612
3.1142,0.020083,-0.002717,-1.576932,1.566194,0.0000,0.0000,0.0000,-0.005245,-1.576932,1.566194,0.0714,0.2817,0.1410,0.000000,0.503146,-0.507748,0.510816,-0.510816,0.509282,-0.500078
3.1344,0.020255,-0.002311,-1.576932,1.566194,0.0000,0.0000,0.0000,-0.005232,-1.576932,1.566194,0.0224,0.2420,0.1924,0.000000,0.503146,-0.507748,0.510816,-0.510816,0.510816,-0.500078
3.1545,0.020077,-0.001910,-1.576932,1.566194,0.0000,0.0000,0.0000,-0.005234,-1.576932,1.566194,0.0275,0.2461,0.1871,0.000000,0.503146,-0.507748,0.510816,-0.510816,0.510816,-0.500078
3.1754,0.020857,-0.001493,-1.576932,1.566194,0.0000,0.0000,0.0000,-0.005221,-1.576932,1.566194,0.0772,0.2288,0.2395,0.000000,0.504680,-0.507748,0.510816,-0.510816,0.510816,-0.500078
3.1954,0.020083,-0.001091,-1.576932,1.566194,0.0000,0.0000,0.0000,-0.005209,-1.576932,1.566194,0.0217,0.2133,0.1822,0.000000,0.504680,-0.507748,0.510816,-0.510816,0.510816,-0.501612
3.2155,0.020081,-0.000689,-1.576932,1.566194,0.0000,0.0000,0.0000,-0.005148,-1.576932,1.566194,0.0577,0.2318,0.3442,0.000000,0.506214,-0.509282,0.513884,-0.510816,0.512350,-0.501612
3.2356,0.020063,-0.000288,-1.576932,1.566194,0.0000,0.0000,0.0000,-0.005103,-1.576932,1.566194,0.0134,0.3687,0.2235,0.000000,0.506214,-0.509282,0.515418,-0.513884,0.512350,-0.503146
3.2557,0.020082,0.000113,-1.576932,1.566194,0.0000,0.0000,0.0000,-0.004944,-1.576932,1.566194,-0.0118,0.5111,0.3923,0.000000,0.510816,-0.509282,0.520019,-0.518486,0.515418,-0.506214
3.2759,0.020221,0.000518,-1.576932,1.566194,0.0000,0.0000,0.0000,-0.004671,-1.576932,1.566194,0.1512,0.7048,0.3239,0.000000,0.518486,-0.513884,0.526155,-0.527689,0.518486,-0.510816
3.2960,0.020074,0.000919,-1.576932,1.566194,0.0000,0.0000,0.0000,-0.004272,-1.576932,1.566194,0.1945,0.8220,0.3327,0.000000,0.527689,-0.521553,0.535359,-0.538427,0.526155,-0.518486
3.3160,0.020077,0.001321,-1.576932,1.566194,0.0000,0.0000,0.0000,-0.003913,-1.576932,1.566194,0.2500,0.8792,0.3336,0.000000,0.538427,-0.527689,0.543029,-0.547631,0.532291,-0.527689
3.3363,0.020281,0.001727,-1.576932,1.566194,0.0000,0.0000,0.0000,-0.003451,-1.576932,1.566194,0.3045,0.8728,0.3356,0.000000,0.550699,-0.536893,0.552233,-0.558369,0.541495,-0.538427
3.3564,0.020080,0.002128,-1.576932,1.566194,0.0000,0.0000,0.0000,-0.003100,-1.576932,1.566194,0.3592,0.9072,0.3371,0.000000,0.559903,-0.544563,0.559903,-0.567573,0.549165,-0.546097
3.3765,0.020111,0.002530,-1.576932,1.566194,0.0000,0.0000,0.0000,-0.002540,-1.576932,1.566194,0.5639,0.9205,0.3407,0.000000,0.575243,-0.556835,0.570641,-0.581379,0.559903,-0.556835
3.3966,0.020082,0.002932,-1.576932,1.566194,0.0000,0.0000,0.0000,-0.002190,-1.576932,1.566194,0.5524,0.9352,0.2882,0.000000,0.584447,-0.564505,0.578311,-0.590583,0.567573,-0.566039
3.4167,0.020081,0.003334,-1.576932,1.566194,0.0000,0.0000,0.0000,-0.001758,-1.576932,1.566194,0.6518,0.9001,0.4039,0.000000,0.596719,-0.573709,0.587515,-0.599786,0.576777,-0.575243
3.4368,0.020086,0.003735,-1.576932,1.566194,0.0000,0.0000,0.0000,-0.001348,-1.576932,1.566194,0.7404,0.9711,0.3409,0.000000,0.607456,-0.582913,0.596719,-0.610524,0.584447,-0.584447
3.4569,0.020134,0.004138,-1.576932,1.566194,0.0000,0.0000,0.0000,-0.000947,-1.578466,1.566194,0.7298,0.9614,0.3490,0.000000,0.616660,-0.592117,0.605922,-0.619728,0.593651,-0.593651
3.4770,0.020122,0.004540,-1.576932,1.566194,0.0000,0.0000,0.0000,-0.000559,-1.576932,1.566194,0.7691,0.9940,0.2960,0.000000,0.625864,-0.601320,0.615126,-0.628932,0.601320,-0.602854
3.4971,0.020092,0.004942,-1.576932,1.566194,0.0000,0.0000,0.0000,-0.000137,-1.578466,1.566194,0.8238,1.0230,0.3036,0.000000,0.636602,-0.610524,0.624330,-0.639670,0.610524,-0.612058
3.5172,0.020078,0.004656,-1.576932,1.566194,0.0000,0.0000,0.0000,0.000282,-1.578466,1.566194,0.9038,0.9672,0.3051,0.000000,0.647340,-0.621262,0.633534,-0.648874,0.619728,-0.621262
3.5375,0.020285,0.004250,-1.576932,1.566194,0.0000,0.0000,0.0000,0.000650,-1.576932,1.566194,0.9809,1.0211,0.3075,0.000000,0.656544,-0.630466,0.642738,-0.658078,0.627398,-0.628932
3.5579,0.020438,0.003842,-1.576932,1.566194,0.0000,0.0000,0.0000,0.001468,-1.576932,1.566194,1.1033,1.0451,0.3674,0.000000,0.676486,-0.648874,0.661146,-0.676486,0.644272,-0.645806
3.5780,0.020103,0.003440,-1.576932,1.566194,0.0000,0.0000,0.0000,0.001849,-1.576932,1.566194,1.2215,1.1058,0.4202,0.000000,0.687223,-0.659612,0.671884,-0.687223,0.653476,-0.653476
3.5981,0.020076,0.003038,-1.576932,1.566194,0.0000,0.0000,0.0000,0.002083,-1.576932,1.566194,1.2179,1.0475,0.3593,0.000000,0.693359,-0.665748,0.676486,-0.693359,0.659612,-0.659612
3.6182,0.020076,0.002637,-1.576932,1.566194,0.0000,0.0000,0.0000,0.002212,-1.576932,1.566194,1.3014,1.1044,0.5358,0.000000,0.697961,-0.668816,0.681087,-0.696427,0.662680,-0.661146
3.6382,0.020080,0.002235,-1.576932,1.566194,0.0000,0.0000,0.0000,0.002199,-1.576932,1.566194,1.2926,1.0985,0.5174,0.000000,0.697961,-0.668816,0.681087,-0.696427,0.662680,-0.661146
3.6583,0.020080,0.001833,-1.576932,1.566194,0.0000,0.0000,0.0000,0.002200,-1.576932,1.566194,1.2933,1.0989,0.5188,0.000000,0.697961,-0.668816,0.681087,-0.696427,0.662680,-0.661146
3.6784,0.020079,0.001432,-1.576932,1.566194,0.0000,0.0000,0.0000,0.002145,-1.576932,1.566194,1.1866,1.1094,0.4610,0.000000,0.693359,-0.668816,0.681087,-0.694893,0.662680,-0.659612
3.6985,0.020077,0.001030,-1.576932,1.566194,0.0000,0.0000,0.0000,0.002028,-1.576932,1.566194,0.9348,0.8856,0.2945,0.000000,0.685689,-0.668816,0.678020,-0.688757,0.662680,-0.659612
3.7186,0.020080,0.000629,-1.576932,1.566194,0.0000,0.0000,0.0000,0.001867,-1.576932,1.566194,0.6116,0.6377,0.1398,0.000000,0.676486,-0.667282,0.673418,-0.681087,0.662680,-0.659612
3.7390,0.020458,0.000220,-1.576932,1.566194,0.0000,0.0000,0.0000,0.001588,-1.576932,1.566194,0.2582,0.2598,-0.1256,0.000000,0.664214,-0.664214,0.664214,-0.670350,0.661146,-0.658078
3.7591,0.020081,-0.000182,-1.576932,1.566194,0.0000,0.0000,0.0000,0.001197,-1.576932,1.566194,0.0032,0.0325,-0.2645,0.000000,0.651942,-0.656544,0.653476,-0.658078,0.655010,-0.653476
3.7793,0.020212,-0.000586,-1.576932,1.566194,0.0000,0.0000,0.0000,0.000706,-1.576932,1.566194,-0.1066,0.0222,-0.4694,0.000000,0.638136,-0.645806,0.641204,-0.647340,0.644272,-0.644272
3.7999,0.020618,-0.000999,-1.576932,1.566194,0.0000,0.0000,0.0000,0.000186,-1.576932,1.566194,-0.1124,0.0258,-0.5006,0.000000,0.627398,-0.632000,0.627398,-0.636602,0.632000,-0.633534
3.8200,0.020073,-0.001400,-1.576932,1.566194,0.0000,0.0000,0.0000,-0.000296,-1.576932,1.566194,-0.1505,0.1612,-0.2767,0.000000,0.616660,-0.618194,0.618194,-0.625864,0.621262,-0.621262
3.8401,0.020085,-0.001802,-1.576932,1.566194,0.0000,0.0000,0.0000,-0.000662,-1.576932,1.566194,-0.0106,0.1825,-0.0808,0.000000,0.610524,-0.608990,0.610524,-0.616660,0.612058,-0.610524
3.8602,0.020076,-0.002203,-1.576932,1.566194,0.0000,0.0000,0.0000,-0.001017,-1.576932,1.566194,0.1505,0.2140,0.2248,0.000000,0.604388,-0.601320,0.604388,-0.607456,0.604388,-0.598253
3.8803,0.020169,-0.002607,-1.576932,1.566194,0.0000,0.0000,0.0000,-0.001425,-1.576932,1.566194,0.2332,0.1757,0.3002,0.000000,0.595185,-0.593651,0.595185,-0.598253,0.596719,-0.585981
3.9004,0.020080,-0.003008,-1.576932,1.566194,0.0000,0.0000,0.0000,-0.001901,-1.576932,1.566194,0.2540,0.2295,0.2908,0.000000,0.582913,-0.584447,0.585981,-0.587515,0.585981,-0.573709
3.9205,0.020078,-0.003410,-1.576932,1.566194,0.0000,0.0000,0.0000,-0.002311,-1.576932,1.566194,0.2027,0.2412,0.2369,0.000000,0.572175,-0.575243,0.576777,-0.578311,0.576777,-0.564505
3.9406,0.020084,-0.003812,-1.576932,1.566194,0.0000,0.0000,0.0000,-0.002740,-1.576932,1.566194,0.0097,0.3103,0.3479,0.000000,0.561437,-0.562971,0.569107,-0.567573,0.567573,-0.556835
3.9607,0.020075,-0.004213,-1.576932,1.566194,0.0000,0.0000,0.0000,-0.003044,-1.576932,1.566194,-0.0501,0.2705,0.1227,0.000000,0.553767,-0.555301,0.559903,-0.561437,0.559903,-0.552233
3.9807,0.020084,-0.004615,-1.576932,1.566194,0.0000,0.0000,0.0000,-0.003437,-1.576932,1.566194,-0.1334,0.2239,0.1454,0.000000,0.544563,-0.546097,0.550699,-0.552233,0.552233,-0.544563
4.0009,0.020193,-0.004981,-1.576932,1.566194,0.0000,0.0000,0.0000,-0.003822,-1.576932,1.566194,-0.1545,0.1095,0.1425,0.000000,0.536893,-0.536893,0.539961,-0.543029,0.544563,-0.536893
4.0210,0.020076,-0.004580,-1.576932,1.566194,0.0000,0.0000,0.0000,-0.004259,-1.576932,1.566194,-0.0838,0.1732,0.2469,0.000000,0.527689,-0.527689,0.532291,-0.532291,0.533825,-0.526155
4.0415,0.020506,-0.004170,-1.576932,1.566194,0.0000,0.0000,0.0000,-0.004691,-1.576932,1.566194,-0.0912,0.2012,0.2349,0.000000,0.516952,-0.518486,0.523087,-0.523087,0.524621,-0.515418
4.0616,0.020082,-0.003768,-1.576932,1.566194,0.0000,0.0000,0.0000,-0.005025,-1.576932,1.566194,-0.0506,0.2677,0.3391,0.000000,0.509282,-0.510816,0.516952,-0.515418,0.516952,-0.506214
4.0819,0.020343,-0.003361,-1.576932,1.566194,0.0000,0.0000,0.0000,-0.005343,-1.576932,1.566194,-0.0049,0.2786,0.2234,0.000000,0.501612,-0.504680,0.509282,-0.509282,0.509282,-0.498544
4.1020,0.020079,-0.002960,-1.576932,1.566194,0.0000,0.0000,0.0000,-0.005336,-1.576932,1.566194,0.0805,0.3296,0.2354,0.000000,0.501612,-0.504680,0.509282,-0.509282,0.507748,-0.497010
4.1221,0.020081,-0.002558,-1.576932,1.566194,0.0000,0.0000,0.0000,-0.005336,-1.576932,1.566194,0.0716,0.3243,0.2342,0.000000,0.501612,-0.504680,0.509282,-0.509282,0.507748,-0.497010
4.1422,0.020085,-0.002156,-1.576932,1.566194,0.0000,0.0000,0.0000,-0.005311,-1.576932,1.566194,0.0322,0.3596,0.1306,0.000000,0.501612,-0.504680,0.509282,-0.510816,0.507748,-0.498544
4.1623,0.020073,-0.001755,-1.576932,1.566194,0.0000,0.0000,0.0000,-0.005313,-1.576932,1.566194,0.0364,0.3560,0.1414,0.000000,0.501612,-0.504680,0.509282,-0.510816,0.507748,-0.498544
4.1823,0.020083,-0.001353,-1.576932,1.566194,0.0000,0.0000,0.0000,-0.005300,-1.576932,1.566194,-0.0144,0.3391,0.0884,0.000000,0.501612,-0.504680,0.509282,-0.510816,0.507748,-0.500078
4.2024,0.020084,-0.000952,-1.576932,1.566194,0.0000,0.0000,0.0000,-0.005239,-1.578466,1.566194,0.0814,0.2889,0.2498,0.000000,0.504680,-0.506214,0.510816,-0.510816,0.509282,-0.500078
4.2225,0.020084,-0.000550,-1.576932,1.566194,0.0000,0.0000,0.0000,-0.005195,-1.576932,1.566194,0.1921,0.3646,0.2331,0.000000,0.507748,-0.506214,0.510816,-0.513884,0.509282,-0.500078
4.2427,0.020195,-0.000146,-1.576932,1.566194,0.0000,0.0000,0.0000,-0.004998,-1.576932,1.566194,0.2511,0.5140,0.3394,0.000000,0.513884,-0.507748,0.515418,-0.520019,0.512350,-0.503146
4.2628,0.020084,0.000256,-1.576932,1.566194,0.0000,0.0000,0.0000,-0.004705,-1.576932,1.566194,0.3950,0.6557,0.4868,0.000000,0.523087,-0.512350,0.523087,-0.527689,0.516952,-0.507748
4.2829,0.020080,0.000657,-1.576932,1.566194,0.0000,0.0000,0.0000,-0.004347,-1.576932,1.566194,0.3998,0.7107,0.5257,0.000000,0.532291,-0.518486,0.530757,-0.536893,0.524621,-0.515418
4.3030,0.020088,0.001059,-1.576932,1.566194,0.0000,0.0000,0.0000,-0.003909,-1.576932,1.566194,0.4694,0.7583,0.6299,0.000000,0.544563,-0.526155,0.539961,-0.547631,0.533825,-0.524621
4.3231,0.020136,0.001462,-1.576932,1.566194,0.0000,0.0000,0.0000,-0.003480,-1.576932,1.566194,0.5222,0.7876,0.6224,0.000000,0.555301,-0.535359,0.549165,-0.558369,0.543029,-0.533825
4.3432,0.020096,0.001864,-1.576932,1.566194,0.0000,0.0000,0.0000,-0.003088,-1.576932,1.566194,0.6453,0.8356,0.5747,0.000000,0.566039,-0.544563,0.558369,-0.567573,0.549165,-0.543029
4.3633,0.020075,0.002265,-1.576932,1.566194,0.0000,0.0000,0.0000,-0.002631,-1.578466,1.566194,0.6029,0.9489,0.5821,0.000000,0.575243,-0.553767,0.569107,-0.579845,0.559903,-0.552233
4.3833,0.020075,0.002667,-1.576932,1.566194,0.0000,0.0000,0.0000,-0.002208,-1.576932,1.566194,0.6955,0.9199,0.5857,0.000000,0.587515,-0.562971,0.578311,-0.589049,0.567573,-0.562971
4.4035,0.020142,0.003070,-1.576932,1.566194,0.0000,0.0000,0.0000,-0.002208,-1.576932,1.566194,0.6955,0.9199,0.5857,0.000000,0.599786,-0.573709,0.587515,-0.599786,0.576777,-0.572175
4.4236,0.020124,0.003472,-1.576932,1.566194,0.0000,0.0000,0.0000,-0.001336,-1.576932,1.566194,0.7800,0.9385,0.4837,0.000000,0.608990,-0.582913,0.596719,-0.610524,0.585981,-0.582913
4.4439,0.020276,0.003878,-1.576932,1.566194,0.0000,0.0000,0.0000,-0.000938,-1.576932,1.566194,0.8353,1.0174,0.3893,0.000000,0.618194,-0.592117,0.605922,-0.621262,0.593651,-0.592117
4.4640,0.020087,0.004279,-1.576932,1.566194,0.0000,0.0000,0.0000,-0.000527,-1.576932,1.566194,0.9050,1.0758,0.4574,0.000000,0.628932,-0.601320,0.616660,-0.630466,0.601320,-0.601320
4.4840,0.020080,0.004681,-1.576932,1.566194,0.0000,0.0000,0.0000,-0.000116,-1.576932,1.566194,0.8972,0.9641,0.2876,0.000000,0.638136,-0.612058,0.624330,-0.639670,0.610524,-0.612058
4.5041,0.020085,0.004917,-1.576932,1.566194,0.0000,0.0000,0.0000,0.000255,-1.576932,1.566194,0.9841,1.0243,0.3080,0.000000,0.647340,-0.621262,0.633534,-0.648874,0.618194,-0.619728
4.5242,0.020077,0.004516,-1.576932,1.566194,0.0000,0.0000,0.0000,0.000675,-1.576932,1.566194,1.0327,1.0500,0.3080,0.000000,0.658078,-0.630466,0.642738,-0.659612,0.627398,-0.628932
4.5443,0.020098,0.004114,-1.576932,1.566194,0.0000,0.0000,0.0000,0.001103,-1.576932,1.566194,1.1002,1.0447,0.3661,0.000000,0.668816,-0.641204,0.653476,-0.668816,0.636602,-0.638136
4.5644,0.020087,0.003712,-1.576932,1.566194,0.0000,0.0000,0.0000,0.001456,-1.576932,1.566194,1.1016,1.0238,0.3049,0.000000,0.676486,-0.650408,0.661146,-0.678020,0.645806,-0.645806
4.5845,0.020074,0.003311,-1.576932,1.566194,0.0000,0.0000,0.0000,0.001850,-1.576932,1.566194,1.1849,1.0415,0.3144,0.000000,0.687223,-0.659612,0.670350,-0.687223,0.653476,-0.655010
4.6046,0.020121,0.002908,-1.576932,1.566194,0.0000,0.0000,0.0000,0.002083,-1.576932,1.566194,1.2218,1.0542,0.3704,0.000000,0.693359,-0.665748,0.676486,-0.693359,0.659612,-0.659612
4.6247,0.020153,0.002505,-1.576932,1.566194,0.0000,0.0000,0.0000,0.002175,-1.578466,1.566194,1.3992,1.1044,0.4795,0.000000,0.697961,-0.668816,0.679553,-0.696427,0.661146,-0.659612
4.6451,0.020404,0.002097,-1.576932,1.566194,0.0000,0.0000,0.0000,0.002178,-1.576932,1.566194,1.3422,1.0661,0.5230,0.000000,0.697961,-0.668816,0.679553,-0.696427,0.662680,-0.659612
4.6652,0.020045,0.001696,-1.576932,1.566194,0.0000,0.0000,0.0000,0.002177,-1.576932,1.566194,1.3482,1.0701,0.5184,0.000000,0.697961,-0.668816,0.679553,-0.696427,0.662680,-0.659612
4.6853,0.020076,0.001295,-1.576932,1.566194,0.0000,0.0000,0.0000,0.002124,-1.576932,1.566194,1.1807,1.0142,0.4603,0.000000,0.693359,-0.668816,0.679553,-0.693359,0.662680,-0.659612
4.7054,0.020143,0.000892,-1.576932,1.566194,0.0000,0.0000,0.0000,0.002124,-1.576932,1.566194,1.1807,1.0142,0.4603,0.000000,0.687223,-0.668816,0.678020,-0.688757,0.662680,-0.659612
4.7255,0.020079,0.000490,-1.576932,1.566194,0.0000,0.0000,0.0000,0.002041,-1.576932,1.566194,0.9832,0.8810,0.3510,0.000000,0.678020,-0.667282,0.673418,-0.681087,0.661146,-0.659612
4.7456,0.020083,0.000089,-1.576932,1.566194,0.0000,0.0000,0.0000,0.001865,-1.576932,1.566194,0.6929,0.6569,0.1349,0.000000,0.665748,-0.662680,0.664214,-0.670350,0.661146,-0.658078
4.7657,0.020121,-0.000314,-1.576932,1.566194,0.0000,0.0000,0.0000,0.001245,-1.576932,1.566194,0.0139,0.0804,-0.1653,0.000000,0.653476,-0.656544,0.655010,-0.659612,0.656544,-0.653476
4.7858,0.020077,-0.000715,-1.576932,1.566194,0.0000,0.0000,0.0000,0.000665,-1.576932,1.566194,-0.1346,0.1015,-0.3141,0.000000,0.638136,-0.642738,0.641204,-0.647340,0.644272,-0.642738
4.8059,0.020110,-0.001118,-1.576932,1.566194,0.0000,0.0000,0.0000,0.000154,-1.576932,1.566194,-0.1965,0.1688,-0.3523,0.000000,0.625864,-0.628932,0.628932,-0.636602,0.632000,-0.632000
4.8261,0.020238,-0.001522,-1.576932,1.566194,0.0000,0.0000,0.0000,-0.000244,-1.576932,1.566194,-0.1696,0.1304,-0.2922,0.000000,0.618194,-0.618194,0.618194,-0.627398,0.622796,-0.622796
4.8462,0.020086,-0.001924,-1.576932,1.566194,0.0000,0.0000,0.0000,-0.000716,-1.576932,1.566194,-0.0580,0.2021,0.0295,0.000000,0.608990,-0.607456,0.610524,-0.615126,0.612058,-0.608990
4.8663,0.020098,-0.002326,-1.576932,1.566194,0.0000,0.0000,0.0000,-0.001012,-1.576932,1.566194,0.1449,0.1934,0.1050,0.000000,0.602854,-0.602854,0.604388,-0.607456,0.604388,-0.598253
4.8864,0.020077,-0.002728,-1.576932,1.566194,0.0000,0.0000,0.0000,-0.001400,-1.576932,1.566194,0.2514,0.2117,0.2049,0.000000,0.595185,-0.595185,0.596719,-0.598253,0.595185,-0.587515
4.9065,0.020106,-0.003130,-1.576932,1.566194,0.0000,0.0000,0.0000,-0.001817,-1.576932,1.566194,0.2909,0.1908,0.2471,0.000000,0.584447,-0.587515,0.587515,-0.589049,0.587515,-0.575243
4.9266,0.020080,-0.003531,-1.576932,1.566194,0.0000,0.0000,0.0000,-0.001817,-1.576932,1.566194,0.2909,0.1908,0.2471,0.000000,0.573709,-0.576777,0.579845,-0.579845,0.578311,-0.566039
4.9470,0.020432,-0.003940,-1.576932,1.566194,0.0000,0.0000,0.0000,-0.002661,-1.576932,1.566194,0.0213,0.3557,0.2888,0.000000,0.562971,-0.564505,0.570641,-0.570641,0.569107,-0.558369
4.9671,0.020089,-0.004342,-1.576932,1.566194,0.0000,0.0000,0.0000,-0.003065,-1.576932,1.566194,-0.0906,0.3007,0.1817,0.000000,0.553767,-0.553767,0.559903,-0.561437,0.559903,-0.552233
4.9872,0.020086,-0.004743,-1.576932,1.566194,0.0000,0.0000,0.0000,-0.003473,-1.576932,1.566194,-0.1980,0.2392,0.1917,0.000000,0.544563,-0.543029,0.549165,-0.552233,0.552233,-0.544563
5.0073,0.020098,-0.004855,-1.576932,1.566194,0.0000,0.0000,0.0000,-0.003869,-1.576932,1.566194,-0.1084,0.1428,0.2428,0.000000,0.536893,-0.535359,0.539961,-0.541495,0.543029,-0.535359
5.0278,0.020564,-0.004443,-1.576932,1.566194,0.0000,0.0000,0.0000,-0.004267,-1.576932,1.566194,-0.0782,0.1182,0.1841,0.000000,0.527689,-0.527689,0.530757,-0.532291,0.533825,-0.526155
5.0479,0.020106,-0.004041,-1.576932,1.566194,0.0000,0.0000,0.0000,-0.004653,-1.576932,1.566194,-0.0121,0.2067,0.2937,0.000000,0.518486,-0.520019,0.524621,-0.523087,0.524621,-0.515418
5.0680,0.020082,-0.003640,-1.576932,1.566194,0.0000,0.0000,0.0000,-0.004978,-1.576932,1.566194,-0.0192,0.2321,0.1253,0.000000,0.509282,-0.513884,0.516952,-0.516952,0.516952,-0.507748
5.0881,0.020085,-0.003238,-1.576932,1.566194,0.0000,0.0000,0.0000,-0.005184,-1.578466,1.566194,0.0318,0.2470,0.1942,0.000000,0.504680,-0.509282,0.512350,-0.512350,0.512350,-0.501612
5.1082,0.020079,-0.002836,-1.576932,1.566194,0.0000,0.0000,0.0000,-0.005175,-1.576932,1.566194,-0.0134,0.2805,0.2389,0.000000,0.504680,-0.507748,0.512350,-0.512350,0.512350,-0.501612
5.1283,0.020098,-0.002434,-1.576932,1.566194,0.0000,0.0000,0.0000,-0.005189,-1.576932,1.566194,0.0310,0.3119,0.1823,0.000000,0.504680,-0.507748,0.512350,-0.512350,0.510816,-0.501612
5.1484,0.020115,-0.002032,-1.576932,1.566194,0.0000,0.0000,0.0000,-0.005175,-1.576932,1.566194,-0.0133,0.2738,0.2401,0.000000,0.504680,-0.507748,0.512350,-0.512350,0.512350,-0.501612
5.1685,0.020101,-0.001630,-1.576932,1.566194,0.0000,0.0000,0.0000,-0.005175,-1.576932,1.566194,-0.0133,0.2738,0.2401,0.000000,0.506214,-0.507748,0.512350,-0.512350,0.512350,-0.501612
5.1886,0.020099,-0.001228,-1.576932,1.566194,0.0000,0.0000,0.0000,-0.005164,-1.578466,1.566194,0.0415,0.2608,0.2860,0.000000,0.506214,-0.507748,0.512350,-0.512350,0.512350,-0.503146
5.2087,0.020143,-0.000825,-1.576932,1.566194,0.0000,0.0000,0.0000,-0.005115,-1.576932,1.566194,0.0312,0.3155,0.1835,0.000000,0.506214,-0.509282,0.513884,-0.513884,0.512350,-0.503146
5.2288,0.020105,-0.000423,-1.576932,1.566194,0.0000,0.0000,0.0000,-0.005069,-1.576932,1.566194,0.0867,0.4471,0.1883,0.000000,0.507748,-0.509282,0.515418,-0.516952,0.512350,-0.503146
5.2489,0.020104,-0.000021,-1.576932,1.566194,0.0000,0.0000,0.0000,-0.005069,-1.576932,1.566194,0.0867,0.4471,0.1883,0.000000,0.510816,-0.509282,0.518486,-0.521553,0.513884,-0.504680
5.2690,0.020097,0.000381,-1.576932,1.566194,0.0000,0.0000,0.0000,-0.004734,-1.576932,1.566194,0.1910,0.7480,0.3911,0.000000,0.518486,-0.510816,0.523087,-0.529223,0.518486,-0.507748
5.2891,0.020085,0.000783,-1.576932,1.566194,0.0000,0.0000,0.0000,-0.004381,-1.578466,1.566194,0.2023,0.9056,0.2717,0.000000,0.526155,-0.516952,0.530757,-0.539961,0.524621,-0.515418
5.3092,0.020101,0.001185,-1.576932,1.566194,0.0000,0.0000,0.0000,-0.003981,-1.576932,1.566194,0.3220,1.0286,0.4437,0.000000,0.538427,-0.523087,0.539961,-0.550699,0.532291,-0.523087
5.3293,0.020104,0.001587,-1.576932,1.566194,0.0000,0.0000,0.0000,-0.003547,-1.576932,1.566194,0.3700,1.0491,0.4280,0.000000,0.549165,-0.532291,0.549165,-0.561437,0.541495,-0.532291
5.3495,0.020125,0.001989,-1.576932,1.566194,0.0000,0.0000,0.0000,-0.003547,-1.576932,1.566194,0.3700,1.0491,0.4280,0.000000,0.561437,-0.541495,0.559903,-0.572175,0.550699,-0.543029
5.3696,0.020099,0.002391,-1.576932,1.566194,0.0000,0.0000,0.0000,-0.003081,-1.576932,1.566194,0.4146,1.0979,0.4858,0.000000,0.573709,-0.552233,0.569107,-0.582913,0.559903,-0.553767
5.3898,0.020263,0.002796,-1.576932,1.566194,0.0000,0.0000,0.0000,-0.002173,-1.578466,1.566194,0.5603,1.0609,0.4387,0.000000,0.585981,-0.561437,0.578311,-0.593651,0.569107,-0.564505
5.4099,0.020114,0.003199,-1.576932,1.566194,0.0000,0.0000,0.0000,-0.001738,-1.576932,1.566194,0.6930,0.9917,0.4955,0.000000,0.598253,-0.572175,0.587515,-0.602854,0.578311,-0.573709
5.4300,0.020096,0.003601,-1.576932,1.566194,0.0000,0.0000,0.0000,-0.001340,-1.576932,1.566194,0.7668,1.0154,0.4932,0.000000,0.608990,-0.581379,0.596719,-0.612058,0.585981,-0.582913
5.4501,0.020101,0.004003,-1.576932,1.566194,0.0000,0.0000,0.0000,-0.001340,-1.576932,1.566194,0.7668,1.0154,0.4932,0.000000,0.618194,-0.592117,0.607456,-0.622796,0.593651,-0.592117
5.4702,0.020100,0.004405,-1.576932,1.566194,0.0000,0.0000,0.0000,-0.000566,-1.576932,1.566194,0.9164,1.0479,0.4022,0.000000,0.627398,-0.601320,0.615126,-0.630466,0.601320,-0.599786
5.4903,0.020101,0.004807,-1.576932,1.566194,0.0000,0.0000,0.0000,-0.000138,-1.576932,1.566194,0.9059,1.0194,0.4029,0.000000,0.638136,-0.610524,0.624330,-0.639670,0.610524,-0.610524
5.5104,0.020114,0.004791,-1.576932,1.566194,0.0000,0.0000,0.0000,-0.000138,-1.576932,1.566194,0.9059,1.0194,0.4029,0.000000,0.647340,-0.619728,0.633534,-0.648874,0.616660,-0.619728
5.5306,0.020122,0.004389,-1.576932,1.566194,0.0000,0.0000,0.0000,0.000231,-1.576932,1.566194,0.9835,1.0871,0.2966,0.000000,0.658078,-0.628932,0.642738,-0.658078,0.627398,-0.628932
5.5511,0.020507,0.003978,-1.576932,1.566194,0.0000,0.0000,0.0000,0.000998,-1.576932,1.566194,1.0849,1.0462,0.2989,0.000000,0.665748,-0.639670,0.651942,-0.665748,0.633534,-0.636602
5.5712,0.020100,0.003576,-1.576932,1.566194,0.0000,0.0000,0.0000,0.000998,-1.576932,1.566194,1.0849,1.0462,0.2989,0.000000,0.678020,-0.650408,0.662680,-0.678020,0.644272,-0.645806
5.5913,0.020100,0.003174,-1.576932,1.566194,0.0000,0.0000,0.0000,0.001478,-1.576932,1.566194,1.1788,1.0923,0.3699,0.000000,0.678020,-0.650408,0.662680,-0.678020,0.644272,-0.645806
5.6114,0.020092,0.002773,-1.576932,1.566194,0.0000,0.0000,0.0000,0.002041,-1.576932,1.566194,1.2608,1.0855,0.4782,0.000000,0.693359,-0.664214,0.676486,-0.691825,0.658078,-0.658078
5.6315,0.020109,0.002370,-1.576932,1.566194,0.0000,0.0000,0.0000,0.002041,-1.576932,1.566194,1.2608,1.0855,0.4782,0.000000,0.693359,-0.664214,0.676486,-0.691825,0.658078,-0.658078
5.6516,0.020130,0.001968,-1.576932,1.566194,0.0000,0.0000,0.0000,0.002169,-1.576932,1.566194,1.3473,1.1154,0.4114,0.000000,0.697961,-0.668816,0.679553,-0.696427,0.661146,-0.659612
5.6717,0.020093,0.001566,-1.576932,1.566194,0.0000,0.0000,0.0000,0.002166,-1.576932,1.566194,1.3861,1.0981,0.4752,0.000000,0.697961,-0.668816,0.679553,-0.696427,0.661146,-0.659612
5.6918,0.020090,0.001164,-1.576932,1.566194,0.0000,0.0000,0.0000,0.002156,-1.576932,1.566194,1.3342,1.1140,0.4118,0.000000,0.694893,-0.668816,0.679553,-0.693359,0.661146,-0.659612
5.7119,0.020094,0.000762,-1.576932,1.566194,0.0000,0.0000,0.0000,0.002125,-1.576932,1.566194,1.2682,1.0288,0.4732,0.000000,0.694893,-0.668816,0.679553,-0.693359,0.661146,-0.659612
5.7320,0.020095,0.000360,-1.576932,1.566194,0.0000,0.0000,0.0000,0.002040,-1.576932,1.566194,1.0603,0.8985,0.3511,0.000000,0.679553,-0.668816,0.674952,-0.681087,0.661146,-0.659612
5.7521,0.020099,-0.000042,-1.576932,1.566194,0.0000,0.0000,0.0000,0.001901,-1.576932,1.566194,0.7595,0.6554,0.1915,0.000000,0.679553,-0.668816,0.674952,-0.681087,0.661146,-0.659612
5.7722,0.020105,-0.000444,-1.576932,1.566194,0.0000,0.0000,0.0000,0.001644,-1.576932,1.566194,0.4417,0.3114,0.0370,0.000000,0.668816,-0.665748,0.667282,-0.670350,0.659612,-0.658078
5.7923,0.020095,-0.000846,-1.576932,1.566194,0.0000,0.0000,0.0000,0.001275,-1.576932,1.566194,0.1680,0.0773,-0.0040,0.000000,0.656544,-0.658078,0.656544,-0.659612,0.656544,-0.651942
5.8124,0.020107,-0.001248,-1.576932,1.566194,0.0000,0.0000,0.0000,0.000771,-1.576932,1.566194,0.0505,0.0175,-0.1655,0.000000,0.628932,-0.633534,0.630466,-0.636602,0.633534,-0.632000
5.8325,0.020109,-0.001650,-1.576932,1.566194,0.0000,0.0000,0.0000,0.000229,-1.576932,1.566194,-0.0521,0.0583,-0.3126,0.000000,0.616660,-0.619728,0.618194,-0.625864,0.622796,-0.619728
5.8535,0.020991,-0.002070,-1.576932,1.566194,0.0000,0.0000,0.0000,-0.000288,-1.576932,1.566194,-0.1082,0.1050,-0.2412,0.000000,0.616660,-0.619728,0.618194,-0.625864,0.622796,-0.619728
5.8736,0.020086,-0.002471,-1.576932,1.566194,0.0000,0.0000,0.0000,-0.001062,-1.576932,1.566194,0.1112,0.2028,0.1054,0.000000,0.601320,-0.601320,0.602854,-0.607456,0.604388,-0.596719
5.8937,0.020099,-0.002873,-1.576932,1.566194,0.0000,0.0000,0.0000,-0.001420,-1.576932,1.566194,0.1983,0.2437,0.2045,0.000000,0.593651,-0.593651,0.595185,-0.599786,0.596719,-0.585981
5.9139,0.020229,-0.003278,-1.576932,1.566194,0.0000,0.0000,0.0000,-0.001420,-1.576932,1.566194,0.1983,0.2437,0.2045,0.000000,0.582913,-0.585981,0.587515,-0.589049,0.587515,-0.576777
5.9340,0.020104,-0.003680,-1.576932,1.566194,0.0000,0.0000,0.0000,-0.001827,-1.576932,1.566194,0.1583,0.2218,0.1935,0.000000,0.582913,-0.585981,0.587515,-0.589049,0.587515,-0.576777
5.9541,0.020101,-0.004082,-1.576932,1.566194,0.0000,0.0000,0.0000,-0.002751,-1.578466,1.566194,0.0141,0.3117,0.1927,0.000000,0.561437,-0.564505,0.569107,-0.569107,0.567573,-0.558369
5.9742,0.020086,-0.004484,-1.576932,1.566194,0.0000,0.0000,0.0000,-0.002956,-1.576932,1.566194,-0.0214,0.2535,0.2985,0.000000,0.556835,-0.556835,0.562971,-0.561437,0.561437,-0.553767
5.9943,0.020083,-0.004886,-1.576932,1.566194,0.0000,0.0000,0.0000,-0.003209,-1.576932,1.566194,-0.0863,0.2087,0.1805,0.000000,0.550699,-0.550699,0.555301,-0.556835,0.556835,-0.549165
6.0144,0.020085,-0.004713,-1.576932,1.566194,0.0000,0.0000,0.0000,-0.003608,-1.576932,1.566194,-0.1488,0.1624,0.0863,0.000000,0.541495,-0.541495,0.544563,-0.549165,0.549165,-0.541495
6.0344,0.020089,-0.004311,-1.576932,1.566194,0.0000,0.0000,0.0000,-0.004181,-1.576932,1.566194,-0.1724,0.2209,0.2523,0.000000,0.530757,-0.526155,0.532291,-0.536893,0.536893,-0.529223
6.0545,0.020079,-0.003909,-1.576932,1.566194,0.0000,0.0000,0.0000,-0.004762,-1.576932,1.566194,-0.1314,0.2842,0.1814,0.000000,0.516952,-0.513884,0.520019,-0.524621,0.523087,-0.515418
6.0746,0.020083,-0.003508,-1.576932,1.566194,0.0000,0.0000,0.0000,-0.005231,-1.576932,1.566194,-0.1464,0.2604,0.0841,0.000000,0.504680,-0.504680,0.509282,-0.513884,0.512350,-0.504680
6.0947,0.020091,-0.003106,-1.576932,1.566194,0.0000,0.0000,0.0000,-0.005422,-1.576932,1.566194,-0.0354,0.2801,0.1460,0.000000,0.500078,-0.501612,0.506214,-0.507748,0.506214,-0.498544
6.1148,0.020087,-0.002704,-1.576932,1.566194,0.0000,0.0000,0.0000,-0.005377,-1.576932,1.566194,0.0136,0.3132,0.1395,0.000000,0.501612,-0.501612,0.506214,-0.509282,0.506214,-0.498544
6.1349,0.020095,-0.002302,-1.576932,1.566194,0.0000,0.0000,0.0000,-0.005382,-1.576932,1.566194,0.0084,0.3097,0.1402,0.000000,0.501612,-0.501612,0.506214,-0.509282,0.506214,-0.498544
6.1550,0.020075,-0.001901,-1.576932,1.566194,0.0000,0.0000,0.0000,-0.005382,-1.576932,1.566194,0.0092,0.3102,0.1401,0.000000,0.501612,-0.501612,0.506214,-0.509282,0.506214,-0.498544
6.1750,0.020086,-0.001499,-1.576932,1.566194,0.0000,0.0000,0.0000,-0.005344,-1.576932,1.566194,-0.0711,0.3099,0.0882,0.000000,0.501612,-0.501612,0.506214,-0.510816,0.507748,-0.500078
6.1951,0.020079,-0.001098,-1.576932,1.566194,0.0000,0.0000,0.0000,-0.005310,-1.576932,1.566194,-0.0422,0.3102,0.1453,0.000000,0.503146,-0.501612,0.506214,-0.512350,0.509282,-0.500078
6.2152,0.020091,-0.000696,-1.576932,1.566194,0.0000,0.0000,0.0000,-0.005289,-1.576932,1.566194,0.0153,0.3453,0.1393,0.000000,0.504680,-0.501612,0.506214,-0.513884,0.509282,-0.500078
6.2353,0.020093,-0.000294,-1.576932,1.566194,0.0000,0.0000,0.0000,-0.005166,-1.576932,1.566194,0.1304,0.4118,0.1400,0.000000,0.509282,-0.503146,0.507748,-0.518486,0.510816,-0.501612
6.2554,0.020091,0.000108,-1.576932,1.566194,0.0000,0.0000,0.0000,-0.004903,-1.576932,1.566194,0.1895,0.5623,0.2442,0.000000,0.516952,-0.506214,0.513884,-0.526155,0.515418,-0.506214
6.2755,0.020086,0.000510,-1.576932,1.566194,0.0000,0.0000,0.0000,-0.004629,-1.576932,1.566194,0.2836,0.7207,0.3388,0.000000,0.524621,-0.510816,0.521553,-0.533825,0.520019,-0.510816
6.2956,0.020094,0.000912,-1.576932,1.566194,0.0000,0.0000,0.0000,-0.004256,-1.576932,1.566194,0.3345,0.7384,0.3304,0.000000,0.533825,-0.518486,0.529223,-0.543029,0.527689,-0.518486
6.3157,0.020099,0.001314,-1.576932,1.566194,0.0000,0.0000,0.0000,-0.003808,-1.576932,1.566194,0.3500,0.7721,0.3858,0.000000,0.546097,-0.526155,0.538427,-0.553767,0.536893,-0.529223
6.3358,0.020093,0.001715,-1.576932,1.566194,0.0000,0.0000,0.0000,-0.003354,-1.576932,1.566194,0.4384,0.8190,0.3827,0.000000,0.556835,-0.536893,0.549165,-0.564505,0.546097,-0.538427
6.3559,0.020095,0.002117,-1.576932,1.566194,0.0000,0.0000,0.0000,-0.002865,-1.576932,1.566194,0.5077,0.8821,0.4396,0.000000,0.569107,-0.547631,0.561437,-0.575243,0.555301,-0.549165
6.3760,0.020096,0.002519,-1.576932,1.566194,0.0000,0.0000,0.0000,-0.002419,-1.576932,1.566194,0.5895,0.9251,0.4368,0.000000,0.579845,-0.558369,0.572175,-0.585981,0.564505,-0.558369
6.3961,0.020091,0.002921,-1.576932,1.566194,0.0000,0.0000,0.0000,-0.001984,-1.576932,1.566194,0.7187,0.8880,0.4951,0.000000,0.593651,-0.567573,0.581379,-0.595185,0.572175,-0.569107
6.4162,0.020098,0.003323,-1.576932,1.566194,0.0000,0.0000,0.0000,-0.001559,-1.576932,1.566194,0.7548,0.9058,0.3836,0.000000,0.602854,-0.578311,0.590583,-0.605922,0.581379,-0.578311
6.4362,0.020089,0.003725,-1.576932,1.566194,0.0000,0.0000,0.0000,-0.001148,-1.576932,1.566194,0.8274,0.9714,0.4531,0.000000,0.613592,-0.587515,0.601320,-0.615126,0.589049,-0.587515
6.4563,0.020098,0.004127,-1.576932,1.566194,0.0000,0.0000,0.0000,-0.000747,-1.576932,1.566194,0.8969,0.9610,0.3401,0.000000,0.622796,-0.598253,0.610524,-0.624330,0.596719,-0.596719
6.4764,0.020088,0.004529,-1.576932,1.566194,0.0000,0.0000,0.0000,-0.000325,-1.578466,1.566194,0.9481,0.9948,0.3543,0.000000,0.633534,-0.607456,0.619728,-0.635068,0.605922,-0.605922
6.4965,0.020085,0.004930,-1.576932,1.566194,0.0000,0.0000,0.0000,0.000057,-1.576932,1.566194,0.9798,1.0224,0.3004,0.000000,0.642738,-0.616660,0.628932,-0.644272,0.613592,-0.615126
6.5166,0.020081,0.004668,-1.576932,1.566194,0.0000,0.0000,0.0000,0.000443,-1.576932,1.566194,1.0133,1.0504,0.2532,0.000000,0.651942,-0.625864,0.638136,-0.653476,0.621262,-0.624330
6.5367,0.020088,0.004266,-1.576932,1.566194,0.0000,0.0000,0.0000,0.000853,-1.576932,1.566194,1.0225,1.0101,0.3151,0.000000,0.661146,-0.636602,0.648874,-0.661146,0.630466,-0.633534
6.5568,0.020092,0.003865,-1.576932,1.566194,0.0000,0.0000,0.0000,0.001255,-1.576932,1.566194,1.1271,1.0630,0.3665,0.000000,0.671884,-0.645806,0.658078,-0.671884,0.639670,-0.641204
