t,loop_dt,cmd_z,cmd_ant_l,cmd_ant_r,cmd_roll,cmd_pitch,cmd_yaw,pres_z,pres_ant_l,pres_ant_r,pres_roll,pres_pitch,pres_yaw,pres_j0,pres_j1,pres_j2,pres_j3,pres_j4,pres_j5,pres_j6
0.0000,0.000001,-0.005000,-1.575398,1.566194,0.0000,0.0000,0.0000,-0.002950,-1.575398,1.566194,0.9052,1.4941,0.2858,0.001534,0.572175,-0.543029,0.561437,-0.585981,0.546097,-0.544563
0.0201,0.020097,-0.004960,-1.575398,1.566194,0.0000,0.0000,0.0000,-0.002872,-1.575398,1.566194,0.9460,1.4646,0.2334,0.001534,0.573709,-0.546097,0.562971,-0.587515,0.547631,-0.546097
0.0402,0.020096,-0.004920,-1.575398,1.566194,0.0000,0.0000,0.0000,-0.002777,-1.575398,1.566194,0.8803,1.4652,0.2380,0.001534,0.573709,-0.549165,0.566039,-0.589049,0.550699,-0.547631
0.0603,0.020094,-0.004879,-1.575398,1.566194,0.0000,0.0000,0.0000,-0.002677,-1.575398,1.566194,0.8986,1.4818,0.1845,0.001534,0.576777,-0.550699,0.567573,-0.592117,0.552233,-0.550699
0.0804,0.020100,-0.004839,-1.575398,1.566194,0.0000,0.0000,0.0000,-0.002896,-1.575398,1.566194,0.8469,1.4280,0.1354,0.001534,0.570641,-0.547631,0.562971,-0.587515,0.549165,-0.546097
0.1005,0.020104,-0.004799,-1.575398,1.566194,0.0000,0.0000,0.0000,-0.003768,-1.575398,1.566194,0.8424,1.2479,0.0339,0.001534,0.550699,-0.532291,0.543029,-0.567573,0.532291,-0.527689
0.1206,0.020104,-0.004759,-1.575398,1.566194,0.0000,0.0000,0.0000,-0.004600,-1.575398,1.566194,0.5806,1.0635,0.1465,0.001534,0.529223,-0.513884,0.524621,-0.544563,0.516952,-0.510816
0.1407,0.020096,-0.004719,-1.575398,1.566194,0.0000,0.0000,0.0000,-0.005278,-1.575398,1.566194,0.3844,0.8416,0.1850,0.001534,0.510816,-0.500078,0.509282,-0.524621,0.504680,-0.497010
0.1608,0.020065,-0.004678,-1.575398,1.566194,0.0000,0.0000,0.0000,-0.005631,-1.575398,1.566194,-0.1303,0.1867,0.2839,0.001534,0.495476,-0.497010,0.501612,-0.503146,0.503146,-0.493942
0.1809,0.020097,-0.004638,-1.575398,1.566194,0.0000,0.0000,0.0000,-0.005583,-1.575398,1.566194,0.0030,0.3231,0.3254,0.001534,0.497010,-0.497010,0.503146,-0.503146,0.501612,-0.493942
0.2009,0.020085,-0.004598,-1.575398,1.566194,0.0000,0.0000,0.0000,-0.005601,-1.575398,1.566194,-0.0007,0.2569,0.2693,0.001534,0.497010,-0.497010,0.501612,-0.503146,0.501612,-0.493942
0.2210,0.020089,-0.004558,-1.575398,1.566194,0.0000,0.0000,0.0000,-0.005612,-1.575398,1.566194,0.0500,0.2812,0.3268,0.001534,0.497010,-0.497010,0.501612,-0.503146,0.501612,-0.492408
0.2411,0.020087,-0.004518,-1.575398,1.566194,0.0000,0.0000,0.0000,-0.005598,-1.575398,1.566194,-0.0056,0.2612,0.2692,0.001534,0.497010,-0.497010,0.501612,-0.503146,0.501612,-0.493942
0.2612,0.020088,-0.004478,-1.575398,1.566194,0.0000,0.0000,0.0000,-0.005599,-1.575398,1.566194,0.0002,0.2633,0.2752,0.001534,0.497010,-0.497010,0.501612,-0.503146,0.501612,-0.493942
0.2813,0.020106,-0.004437,-1.575398,1.566194,0.0000,0.0000,0.0000,-0.005599,-1.575398,1.566194,0.0002,0.2633,0.2752,0.001534,0.497010,-0.497010,0.501612,-0.503146,0.501612,-0.493942
0.3014,0.020086,-0.004397,-1.575398,1.566194,0.0000,0.0000,0.0000,-0.005599,-1.575398,1.566194,0.0002,0.2633,0.2752,0.001534,0.497010,-0.497010,0.501612,-0.503146,0.501612,-0.493942
0.3215,0.020096,-0.004357,-1.575398,1.566194,0.0000,0.0000,0.0000,-0.005599,-1.575398,1.566194,0.0002,0.2633,0.2752,0.001534,0.497010,-0.497010,0.501612,-0.503146,0.501612,-0.493942
0.3416,0.020098,-0.004317,-1.575398,1.566194,0.0000,0.0000,0.0000,-0.005599,-1.575398,1.566194,0.0002,0.2633,0.2752,0.001534,0.497010,-0.497010,0.501612,-0.503146,0.501612,-0.493942
0.3617,0.020095,-0.004277,-1.575398,1.566194,0.0000,0.0000,0.0000,-0.005599,-1.575398,1.566194,0.0002,0.2633,0.2752,0.001534,0.497010,-0.497010,0.501612,-0.503146,0.501612,-0.493942
0.3818,0.020102,-0.004236,-1.575398,1.566194,0.0000,0.0000,0.0000,-0.005599,-1.575398,1.566194,0.0002,0.2633,0.2752,0.001534,0.497010,-0.497010,0.501612,-0.503146,0.501612,-0.493942
0.4019,0.020108,-0.004196,-1.575398,1.566194,0.0000,0.0000,0.0000,-0.005599,-1.575398,1.566194,0.0002,0.2633,0.2752,0.001534,0.497010,-0.497010,0.501612,-0.503146,0.501612,-0.493942
0.4220,0.020091,-0.004156,-1.575398,1.566194,0.0000,0.0000,0.0000,-0.005599,-1.575398,1.566194,0.0002,0.2633,0.2752,0.001534,0.497010,-0.497010,0.501612,-0.503146,0.501612,-0.493942
0.4421,0.020091,-0.004116,-1.575398,1.566194,0.0000,0.0000,0.0000,-0.005586,-1.575398,1.566194,-0.0106,0.3151,0.3263,0.001534,0.497010,-0.497010,0.503146,-0.503146,0.501612,-0.493942
0.4622,0.020091,-0.004076,-1.575398,1.566194,0.0000,0.0000,0.0000,-0.005600,-1.575398,1.566194,0.0007,0.2577,0.2692,0.001534,0.497010,-0.497010,0.501612,-0.503146,0.501612,-0.493942
0.4823,0.020115,-0.004035,-1.575398,1.566194,0.0000,0.0000,0.0000,-0.005599,-1.575398,1.566194,-0.0005,0.2637,0.2752,0.001534,0.497010,-0.497010,0.501612,-0.503146,0.501612,-0.493942
0.5024,0.020095,-0.003995,-1.575398,1.566194,0.0000,0.0000,0.0000,-0.005599,-1.575398,1.566194,-0.0005,0.2637,0.1873,0.000000,0.497010,-0.497010,0.501612,-0.503146,0.501612,-0.493942
0.5225,0.020091,-0.003955,-1.575398,1.566194,0.0000,0.0000,0.0000,-0.005599,-1.575398,1.566194,-0.0005,0.2637,0.2752,0.001534,0.497010,-0.497010,0.501612,-0.503146,0.501612,-0.493942
0.5426,0.020092,-0.003915,-1.575398,1.566194,0.0000,0.0000,0.0000,-0.005586,-1.575398,1.566194,-0.0105,0.3151,0.3263,0.001534,0.497010,-0.497010,0.503146,-0.503146,0.501612,-0.493942
0.5626,0.020076,-0.003875,-1.575398,1.566194,0.0000,0.0000,0.0000,-0.005600,-1.575398,1.566194,0.0007,0.2577,0.2692,0.001534,0.497010,-0.497010,0.501612,-0.503146,0.501612,-0.493942
0.5831,0.020445,-0.003834,-1.575398,1.566194,0.0000,0.0000,0.0000,-0.005599,-1.575398,1.566194,-0.0005,0.2637,0.2752,0.001534,0.497010,-0.497010,0.501612,-0.503146,0.501612,-0.493942
0.6032,0.020094,-0.003794,-1.575398,1.566194,0.0000,0.0000,0.0000,-0.005599,-1.575398,1.566194,-0.0005,0.2637,0.2752,0.001534,0.497010,-0.497010,0.501612,-0.503146,0.501612,-0.493942
0.6233,0.020084,-0.003753,-1.575398,1.566194,0.0000,0.0000,0.0000,-0.005599,-1.575398,1.566194,-0.0005,0.2637,0.2752,0.001534,0.497010,-0.497010,0.501612,-0.503146,0.501612,-0.493942
0.6433,0.020086,-0.003713,-1.575398,1.566194,0.0000,0.0000,0.0000,-0.005599,-1.575398,1.566194,-0.0005,0.2637,0.2752,0.001534,0.497010,-0.497010,0.501612,-0.503146,0.501612,-0.493942
0.6634,0.020085,-0.003673,-1.575398,1.566194,0.0000,0.0000,0.0000,-0.005586,-1.575398,1.566194,-0.0105,0.3151,0.3263,0.001534,0.497010,-0.497010,0.503146,-0.503146,0.501612,-0.493942
0.6835,0.020087,-0.003633,-1.575398,1.566194,0.0000,0.0000,0.0000,-0.005588,-1.575398,1.566194,-0.0095,0.3097,0.3209,0.001534,0.497010,-0.497010,0.503146,-0.503146,0.501612,-0.493942
0.7036,0.020087,-0.003593,-1.575398,1.566194,0.0000,0.0000,0.0000,-0.005588,-1.575398,1.566194,-0.0393,0.2235,0.3215,0.001534,0.497010,-0.497010,0.501612,-0.503146,0.503146,-0.493942
0.7237,0.020090,-0.003553,-1.575398,1.566194,0.0000,0.0000,0.0000,-0.005600,-1.575398,1.566194,0.0037,0.2673,0.2697,0.001534,0.497010,-0.497010,0.501612,-0.503146,0.501612,-0.493942
0.7438,0.020099,-0.003512,-1.575398,1.566194,0.0000,0.0000,0.0000,-0.005574,-1.575398,1.566194,-0.0305,0.2800,0.2750,0.001534,0.497010,-0.497010,0.501612,-0.504680,0.503146,-0.493942
0.7641,0.020304,-0.003472,-1.575398,1.566194,0.0000,0.0000,0.0000,-0.005589,-1.575398,1.566194,-0.0371,0.2266,0.3262,0.001534,0.497010,-0.497010,0.501612,-0.503146,0.503146,-0.493942
0.7845,0.020354,-0.003431,-1.575398,1.566194,0.0000,0.0000,0.0000,-0.005575,-1.575398,1.566194,-0.0466,0.2841,0.3726,0.001534,0.497010,-0.497010,0.503146,-0.503146,0.503146,-0.493942
0.8045,0.020094,-0.003391,-1.575398,1.566194,0.0000,0.0000,0.0000,-0.005576,-1.575398,1.566194,-0.0456,0.2781,0.3678,0.001534,0.497010,-0.497010,0.503146,-0.503146,0.503146,-0.493942
0.8246,0.020096,-0.003351,-1.575398,1.566194,0.0000,0.0000,0.0000,-0.005589,-1.575398,1.566194,-0.0355,0.2268,0.3166,0.001534,0.497010,-0.497010,0.501612,-0.503146,0.503146,-0.493942
0.8447,0.020054,-0.003311,-1.575398,1.566194,0.0000,0.0000,0.0000,-0.005575,-1.575398,1.566194,-0.0265,0.2842,0.2701,0.001534,0.497010,-0.497010,0.501612,-0.504680,0.503146,-0.493942
0.8648,0.020089,-0.003270,-1.575398,1.566194,0.0000,0.0000,0.0000,-0.005564,-1.575398,1.566194,-0.0376,0.3302,0.3267,0.001534,0.497010,-0.497010,0.503146,-0.504680,0.503146,-0.493942
0.8849,0.020095,-0.003230,-1.575398,1.566194,0.0000,0.0000,0.0000,-0.005565,-1.575398,1.566194,-0.0364,0.3254,0.3208,0.001534,0.497010,-0.497010,0.503146,-0.504680,0.503146,-0.493942
0.9050,0.020094,-0.003190,-1.575398,1.566194,0.0000,0.0000,0.0000,-0.005552,-1.575398,1.566194,0.0137,0.3090,0.3732,0.001534,0.498544,-0.497010,0.503146,-0.504680,0.503146,-0.493942
0.9251,0.020095,-0.003150,-1.575398,1.566194,0.0000,0.0000,0.0000,-0.005554,-1.575398,1.566194,0.0085,0.3107,0.3677,0.001534,0.498544,-0.497010,0.503146,-0.504680,0.503146,-0.493942
0.9452,0.020096,-0.003110,-1.575398,1.566194,0.0000,0.0000,0.0000,-0.005554,-1.575398,1.566194,0.0085,0.3107,0.3677,0.001534,0.498544,-0.497010,0.503146,-0.504680,0.503146,-0.493942
0.9653,0.020091,-0.003069,-1.575398,1.566194,0.0000,0.0000,0.0000,-0.005554,-1.575398,1.566194,0.0294,0.3107,0.2647,0.001534,0.498544,-0.497010,0.501612,-0.506214,0.503146,-0.493942
0.9853,0.020053,-0.003029,-1.575398,1.566194,0.0000,0.0000,0.0000,-0.005541,-1.575398,1.566194,0.0374,0.3626,0.2236,0.001534,0.498544,-0.497010,0.501612,-0.507748,0.503146,-0.493942
1.0054,0.020125,-0.002989,-1.575398,1.566194,0.0000,0.0000,0.0000,-0.005517,-1.575398,1.566194,-0.0035,0.3917,0.1243,0.001534,0.498544,-0.497010,0.501612,-0.509282,0.503146,-0.495476
1.0255,0.020106,-0.002949,-1.575398,1.566194,0.0000,0.0000,0.0000,-0.005470,-1.575398,1.566194,-0.0290,0.5100,0.1342,0.001534,0.498544,-0.497010,0.503146,-0.512350,0.504680,-0.495476
1.0456,0.020100,-0.002909,-1.575398,1.566194,0.0000,0.0000,0.0000,-0.005462,-1.575398,1.566194,-0.0161,0.5495,0.0812,0.001534,0.498544,-0.497010,0.503146,-0.513884,0.504680,-0.495476
1.0657,0.020101,-0.002869,-1.575398,1.566194,0.0000,0.0000,0.0000,-0.005451,-1.575398,1.566194,-0.0072,0.5972,0.0347,0.001534,0.498544,-0.497010,0.503146,-0.515418,0.504680,-0.495476
1.0858,0.020095,-0.002828,-1.575398,1.566194,0.0000,0.0000,0.0000,-0.005440,-1.575398,1.566194,0.0022,0.6440,-0.0125,0.001534,0.498544,-0.497010,0.503146,-0.516952,0.504680,-0.495476
1.1059,0.020084,-0.002788,-1.575398,1.566194,0.0000,0.0000,0.0000,-0.005429,-1.575398,1.566194,0.0116,0.6908,-0.0597,0.001534,0.498544,-0.497010,0.503146,-0.518486,0.504680,-0.495476
1.1260,0.020086,-0.002748,-1.575398,1.566194,0.0000,0.0000,0.0000,-0.005430,-1.575398,1.566194,0.0106,0.6859,-0.0548,0.001534,0.498544,-0.497010,0.503146,-0.518486,0.504680,-0.495476
1.1461,0.020089,-0.002708,-1.575398,1.566194,0.0000,0.0000,0.0000,-0.005430,-1.575398,1.566194,0.0106,0.6859,-0.0548,0.001534,0.498544,-0.497010,0.503146,-0.518486,0.504680,-0.495476
1.1662,0.020082,-0.002668,-1.575398,1.566194,0.0000,0.0000,0.0000,-0.005418,-1.575398,1.566194,0.0210,0.7381,-0.1074,0.001534,0.498544,-0.497010,0.503146,-0.520019,0.504680,-0.495476
1.1863,0.020109,-0.002627,-1.575398,1.566194,0.0000,0.0000,0.0000,-0.005419,-1.575398,1.566194,0.0200,0.7326,-0.1019,0.001534,0.498544,-0.497010,0.503146,-0.520019,0.504680,-0.495476
1.2064,0.020079,-0.002587,-1.575398,1.566194,0.0000,0.0000,0.0000,-0.005407,-1.575398,1.566194,0.0305,0.7848,-0.1546,0.001534,0.498544,-0.497010,0.503146,-0.521553,0.504680,-0.495476
1.2265,0.020086,-0.002547,-1.575398,1.566194,0.0000,0.0000,0.0000,-0.005408,-1.575398,1.566194,0.0294,0.7794,-0.1491,0.001534,0.498544,-0.497010,0.503146,-0.521553,0.504680,-0.495476
1.2465,0.020096,-0.002507,-1.575398,1.566194,0.0000,0.0000,0.0000,-0.005408,-1.575398,1.566194,0.0294,0.7794,-0.1491,0.001534,0.498544,-0.497010,0.503146,-0.521553,0.504680,-0.495476
1.2666,0.020082,-0.002467,-1.575398,1.566194,0.0000,0.0000,0.0000,-0.005395,-1.575398,1.566194,-0.0205,0.7624,-0.2016,0.001534,0.498544,-0.497010,0.503146,-0.521553,0.504680,-0.497010
1.2867,0.020091,-0.002427,-1.575398,1.566194,0.0000,0.0000,0.0000,-0.005397,-1.575398,1.566194,0.0451,0.8333,-0.1964,0.001534,0.498544,-0.497010,0.503146,-0.523087,0.504680,-0.495476
1.3068,0.020093,-0.002386,-1.575398,1.566194,0.0000,0.0000,0.0000,-0.005360,-1.575398,1.566194,0.0492,0.8430,-0.2491,0.001534,0.500078,-0.497010,0.503146,-0.524621,0.504680,-0.497010
1.3269,0.020088,-0.002346,-1.575398,1.566194,0.0000,0.0000,0.0000,-0.005300,-1.575398,1.566194,0.1290,0.9462,-0.1915,0.001534,0.501612,-0.498544,0.506214,-0.526155,0.504680,-0.497010
1.3470,0.020098,-0.002306,-1.575398,1.566194,0.0000,0.0000,0.0000,-0.005270,-1.575398,1.566194,0.2320,0.9534,-0.1454,0.001534,0.504680,-0.498544,0.506214,-0.527689,0.504680,-0.497010
1.3671,0.020084,-0.002266,-1.575398,1.566194,0.0000,0.0000,0.0000,-0.005224,-1.575398,1.566194,0.2826,0.9531,-0.1501,0.001534,0.507748,-0.498544,0.506214,-0.529223,0.504680,-0.498544
1.3872,0.020086,-0.002226,-1.575398,1.566194,0.0000,0.0000,0.0000,-0.005205,-1.575398,1.566194,0.2881,0.9376,-0.0457,0.001534,0.510816,-0.497010,0.506214,-0.529223,0.504680,-0.500078
1.4073,0.020083,-0.002185,-1.575398,1.566194,0.0000,0.0000,0.0000,-0.005157,-1.575398,1.566194,0.3781,0.8529,-0.0555,0.001534,0.513884,-0.498544,0.506214,-0.529223,0.504680,-0.501612
1.4273,0.020095,-0.002145,-1.575398,1.566194,0.0000,0.0000,0.0000,-0.005056,-1.575398,1.566194,0.5127,0.9332,-0.0017,0.001534,0.521553,-0.497010,0.506214,-0.533825,0.504680,-0.504680
1.4475,0.020103,-0.002105,-1.575398,1.566194,0.0000,0.0000,0.0000,-0.005067,-1.575398,1.566194,0.4985,0.9249,-0.0073,0.001534,0.521553,-0.497010,0.506214,-0.533825,0.504680,-0.504680
1.4675,0.020083,-0.002065,-1.575398,1.566194,0.0000,0.0000,0.0000,-0.005017,-1.575398,1.566194,0.5008,0.8570,-0.0062,0.001534,0.524621,-0.497010,0.506214,-0.533825,0.504680,-0.507748
1.4876,0.020085,-0.002025,-1.575398,1.566194,0.0000,0.0000,0.0000,-0.004973,-1.575398,1.566194,0.4713,0.8470,-0.0069,0.001534,0.526155,-0.497010,0.506214,-0.535359,0.506214,-0.509282
1.5077,0.020083,-0.001985,-1.575398,1.566194,0.0000,0.0000,0.0000,-0.004890,-1.575398,1.566194,0.3054,0.7609,-0.0607,0.001534,0.527689,-0.497010,0.506214,-0.536893,0.509282,-0.513884
1.5278,0.020084,-0.001944,-1.575398,1.566194,0.0000,0.0000,0.0000,-0.004899,-1.575398,1.566194,0.3228,0.7699,-0.0551,0.001534,0.527689,-0.497010,0.506214,-0.536893,0.509282,-0.513884
1.5479,0.020095,-0.001904,-1.575398,1.566194,0.0000,0.0000,0.0000,-0.004845,-1.575398,1.566194,0.2301,0.6475,-0.0563,0.001534,0.527689,-0.498544,0.506214,-0.536893,0.512350,-0.515418
1.5680,0.020084,-0.001864,-1.575398,1.566194,0.0000,0.0000,0.0000,-0.004840,-1.575398,1.566194,0.1701,0.7132,-0.0055,0.001534,0.527689,-0.497010,0.506214,-0.538427,0.513884,-0.515418
1.5881,0.020093,-0.001824,-1.575398,1.566194,0.0000,0.0000,0.0000,-0.004790,-1.575398,1.566194,0.1375,0.6701,-0.1154,0.001534,0.527689,-0.498544,0.506214,-0.539961,0.515418,-0.516952
1.6081,0.020087,-0.001784,-1.575398,1.566194,0.0000,0.0000,0.0000,-0.004797,-1.575398,1.566194,0.1120,0.7614,-0.1051,0.001534,0.527689,-0.497010,0.506214,-0.541495,0.515418,-0.516952
1.6282,0.020090,-0.001744,-1.575398,1.566194,0.0000,0.0000,0.0000,-0.004796,-1.575398,1.566194,0.1146,0.7519,-0.1062,0.001534,0.527689,-0.497010,0.506214,-0.541495,0.515418,-0.516952
1.6483,0.020096,-0.001703,-1.575398,1.566194,0.0000,0.0000,0.0000,-0.004772,-1.575398,1.566194,0.1656,0.7685,-0.2101,0.001534,0.527689,-0.498544,0.506214,-0.543029,0.515418,-0.516952
1.6684,0.020086,-0.001663,-1.575398,1.566194,0.0000,0.0000,0.0000,-0.004738,-1.575398,1.566194,0.1719,0.9215,-0.2527,0.001534,0.527689,-0.498544,0.507748,-0.546097,0.515418,-0.516952
1.6885,0.020084,-0.001623,-1.575398,1.566194,0.0000,0.0000,0.0000,-0.004717,-1.575398,1.566194,0.1716,1.0091,-0.2490,0.001534,0.527689,-0.498544,0.509282,-0.547631,0.515418,-0.516952
1.7086,0.020085,-0.001583,-1.575398,1.566194,0.0000,0.0000,0.0000,-0.004679,-1.575398,1.566194,0.1388,1.1575,-0.0936,0.001534,0.527689,-0.498544,0.513884,-0.547631,0.515418,-0.516952
1.7287,0.020095,-0.001543,-1.575398,1.566194,0.0000,0.0000,0.0000,-0.004632,-1.575398,1.566194,0.1203,1.3502,-0.0064,0.001534,0.527689,-0.498544,0.518486,-0.549165,0.515418,-0.516952
1.7488,0.020092,-0.001502,-1.575398,1.566194,0.0000,0.0000,0.0000,-0.004575,-1.575398,1.566194,0.0732,1.5189,-0.0696,0.001534,0.527689,-0.498544,0.521553,-0.552233,0.515418,-0.518486
1.7691,0.020377,-0.001462,-1.575398,1.566194,0.0000,0.0000,0.0000,-0.004480,-1.575398,1.566194,0.0044,1.6930,0.1447,0.001534,0.529223,-0.498544,0.527689,-0.553767,0.516952,-0.520019
1.7892,0.020090,-0.001422,-1.575398,1.566194,0.0000,0.0000,0.0000,-0.004402,-1.575398,1.566194,-0.0516,1.8136,0.2780,0.001534,0.530757,-0.498544,0.532291,-0.555301,0.518486,-0.521553
1.8093,0.020086,-0.001381,-1.575398,1.566194,0.0000,0.0000,0.0000,-0.004337,-1.575398,1.566194,0.0016,1.8894,0.4740,0.001534,0.533825,-0.498544,0.535359,-0.556835,0.520019,-0.521553
1.8294,0.020091,-0.001341,-1.575398,1.566194,0.0000,0.0000,0.0000,-0.004281,-1.575398,1.566194,0.0457,1.8991,0.5070,0.001534,0.535359,-0.500078,0.536893,-0.558369,0.521553,-0.521553
1.8495,0.020088,-0.001301,-1.575398,1.566194,0.0000,0.0000,0.0000,-0.004186,-1.575398,1.566194,0.1026,1.7604,0.5053,0.001534,0.538427,-0.503146,0.536893,-0.559903,0.524621,-0.523087
1.8697,0.020181,-0.001261,-1.575398,1.566194,0.0000,0.0000,0.0000,-0.004058,-1.575398,1.566194,0.1466,1.7921,0.5593,0.001534,0.541495,-0.506214,0.539961,-0.562971,0.527689,-0.524621
1.8900,0.020278,-0.001220,-1.575398,1.566194,0.0000,0.0000,0.0000,-0.003996,-1.575398,1.566194,0.2707,1.7037,0.6623,0.001534,0.544563,-0.509282,0.541495,-0.562971,0.529223,-0.524621
1.9101,0.020096,-0.001180,-1.575398,1.566194,0.0000,0.0000,0.0000,-0.003900,-1.575398,1.566194,0.2489,1.6589,0.5474,0.001534,0.546097,-0.512350,0.543029,-0.564505,0.530757,-0.527689
1.9301,0.020089,-0.001140,-1.575398,1.566194,0.0000,0.0000,0.0000,-0.003809,-1.575398,1.566194,0.4024,1.5088,0.5623,0.001534,0.549165,-0.516952,0.543029,-0.566039,0.533825,-0.527689
1.9502,0.020091,-0.001100,-1.575398,1.566194,0.0000,0.0000,0.0000,-0.003767,-1.575398,1.566194,0.4671,1.4195,0.4576,0.001534,0.550699,-0.520019,0.543029,-0.566039,0.533825,-0.529223
1.9704,0.020190,-0.001059,-1.575398,1.566194,0.0000,0.0000,0.0000,-0.003745,-1.575398,1.566194,0.4510,1.3752,0.3635,0.001534,0.550699,-0.521553,0.543029,-0.566039,0.533825,-0.530757
1.9905,0.020082,-0.001019,-1.575398,1.566194,0.0000,0.0000,0.0000,-0.003708,-1.575398,1.566194,0.4835,1.2910,0.2163,0.001534,0.550699,-0.524621,0.543029,-0.566039,0.533825,-0.532291
2.0106,0.020087,-0.000979,-1.575398,1.566194,0.0000,0.0000,0.0000,-0.003687,-1.575398,1.566194,0.5314,1.3155,0.1266,0.001534,0.550699,-0.526155,0.543029,-0.567573,0.533825,-0.532291
2.0307,0.020090,-0.000939,-1.575398,1.566194,0.0000,0.0000,0.0000,-0.003665,-1.575398,1.566194,0.4881,1.3461,0.0298,0.001534,0.550699,-0.526155,0.543029,-0.569107,0.533825,-0.533825
2.0508,0.020089,-0.000898,-1.575398,1.566194,0.0000,0.0000,0.0000,-0.003643,-1.575398,1.566194,0.4546,1.3760,-0.0664,0.001534,0.550699,-0.526155,0.543029,-0.570641,0.533825,-0.535359
2.0709,0.020093,-0.000858,-1.575398,1.566194,0.0000,0.0000,0.0000,-0.003645,-1.575398,1.566194,0.4581,1.3729,-0.0564,0.001534,0.550699,-0.526155,0.543029,-0.570641,0.533825,-0.535359
2.0910,0.020097,-0.000818,-1.575398,1.566194,0.0000,0.0000,0.0000,-0.003645,-1.575398,1.566194,0.4581,1.3729,-0.0564,0.001534,0.550699,-0.526155,0.543029,-0.570641,0.533825,-0.535359
2.1111,0.020096,-0.000778,-1.575398,1.566194,0.0000,0.0000,0.0000,-0.003632,-1.575398,1.566194,0.4171,1.3393,-0.0055,0.001534,0.550699,-0.526155,0.543029,-0.570641,0.535359,-0.535359
2.1312,0.020098,-0.000738,-1.575398,1.566194,0.0000,0.0000,0.0000,-0.003620,-1.575398,1.566194,0.3809,1.3088,0.0412,0.001534,0.550699,-0.526155,0.543029,-0.570641,0.536893,-0.535359
2.1513,0.020116,-0.000697,-1.575398,1.566194,0.0000,0.0000,0.0000,-0.003622,-1.575398,1.566194,0.3847,1.3120,0.0363,0.001534,0.550699,-0.526155,0.543029,-0.570641,0.536893,-0.535359
2.1714,0.020087,-0.000657,-1.575398,1.566194,0.0000,0.0000,0.0000,-0.003599,-1.575398,1.566194,0.4839,1.2796,0.1438,0.001534,0.553767,-0.526155,0.543029,-0.570641,0.536893,-0.535359
2.1915,0.020135,-0.000617,-1.575398,1.566194,0.0000,0.0000,0.0000,-0.003578,-1.575398,1.566194,0.5347,1.3180,0.1331,0.001534,0.555301,-0.526155,0.543029,-0.572175,0.536893,-0.535359
2.2116,0.020100,-0.000577,-1.575398,1.566194,0.0000,0.0000,0.0000,-0.003545,-1.575398,1.566194,0.5411,1.3310,0.0814,0.001534,0.556835,-0.526155,0.543029,-0.573709,0.536893,-0.536893
2.2317,0.020079,-0.000537,-1.575398,1.566194,0.0000,0.0000,0.0000,-0.003502,-1.575398,1.566194,0.6021,1.3307,0.0876,0.001534,0.559903,-0.526155,0.543029,-0.575243,0.536893,-0.538427
2.2518,0.020090,-0.000496,-1.575398,1.566194,0.0000,0.0000,0.0000,-0.003461,-1.575398,1.566194,0.6575,1.3319,0.0879,0.001534,0.562971,-0.526155,0.543029,-0.576777,0.536893,-0.539961
2.2719,0.020090,-0.000456,-1.575398,1.566194,0.0000,0.0000,0.0000,-0.003441,-1.575398,1.566194,0.6521,1.2978,0.0883,0.001534,0.564505,-0.526155,0.543029,-0.576777,0.536893,-0.541495
2.2920,0.020098,-0.000416,-1.575398,1.566194,0.0000,0.0000,0.0000,-0.003409,-1.575398,1.566194,0.6648,1.3182,0.0355,0.001534,0.566039,-0.526155,0.543029,-0.578311,0.536893,-0.543029
2.3122,0.020229,-0.000376,-1.575398,1.566194,0.0000,0.0000,0.0000,-0.003400,-1.575398,1.566194,0.6144,1.2979,-0.0124,0.001534,0.566039,-0.526155,0.543029,-0.578311,0.536893,-0.544563
2.3323,0.020091,-0.000335,-1.575398,1.566194,0.0000,0.0000,0.0000,-0.003377,-1.575398,1.566194,0.6202,1.2660,-0.0070,0.001534,0.567573,-0.526155,0.543029,-0.578311,0.536893,-0.546097
2.3524,0.020091,-0.000295,-1.575398,1.566194,0.0000,0.0000,0.0000,-0.003356,-1.575398,1.566194,0.6201,1.2354,-0.0072,0.001534,0.569107,-0.526155,0.543029,-0.578311,0.536893,-0.547631
2.3724,0.020081,-0.000255,-1.575398,1.566194,0.0000,0.0000,0.0000,-0.003335,-1.575398,1.566194,0.6206,1.2046,-0.0068,0.001534,0.570641,-0.526155,0.543029,-0.578311,0.536893,-0.549165
2.3925,0.020076,-0.000215,-1.575398,1.566194,0.0000,0.0000,0.0000,-0.003303,-1.575398,1.566194,0.6331,1.2245,-0.0597,0.001534,0.572175,-0.526155,0.543029,-0.579845,0.536893,-0.550699
2.4127,0.020220,-0.000175,-1.575398,1.566194,0.0000,0.0000,0.0000,-0.003282,-1.575398,1.566194,0.6028,1.2396,-0.0555,0.001534,0.572175,-0.526155,0.543029,-0.581379,0.538427,-0.550699
2.4328,0.020078,-0.000134,-1.575398,1.566194,0.0000,0.0000,0.0000,-0.003270,-1.575398,1.566194,0.5650,1.2046,-0.0039,0.001534,0.572175,-0.526155,0.543029,-0.581379,0.539961,-0.550699
2.4529,0.020088,-0.000094,-1.575398,1.566194,0.0000,0.0000,0.0000,-0.003219,-1.575398,1.566194,0.3893,1.1048,-0.0120,0.001534,0.572175,-0.526155,0.543029,-0.581379,0.543029,-0.553767
2.4730,0.020076,-0.000054,-1.575398,1.566194,0.0000,0.0000,0.0000,-0.003159,-1.575398,1.566194,0.4181,1.0278,-0.0644,0.001534,0.572175,-0.529223,0.543029,-0.582913,0.546097,-0.553767
2.4931,0.020083,-0.000014,-1.575398,1.566194,0.0000,0.0000,0.0000,-0.003050,-1.575398,1.566194,0.4030,1.0187,-0.0060,0.001534,0.573709,-0.532291,0.546097,-0.584447,0.549165,-0.555301
2.5132,0.020164,0.000026,-1.575398,1.566194,0.0000,0.0000,0.0000,-0.002896,-1.575398,1.566194,0.3167,1.0322,-0.1736,0.001534,0.573709,-0.536893,0.549165,-0.589049,0.553767,-0.558369
2.5333,0.020080,0.000067,-1.575398,1.566194,0.0000,0.0000,0.0000,-0.002760,-1.575398,1.566194,0.3539,1.0806,-0.1562,0.001534,0.575243,-0.541495,0.553767,-0.592117,0.556835,-0.559903
2.5534,0.020091,0.000107,-1.575398,1.566194,0.0000,0.0000,0.0000,-0.002659,-1.575398,1.566194,0.3674,1.1437,-0.1044,0.001534,0.576777,-0.544563,0.558369,-0.593651,0.558369,-0.561437
2.5735,0.020080,0.000147,-1.575398,1.566194,0.0000,0.0000,0.0000,-0.002544,-1.575398,1.566194,0.4750,1.2539,-0.2150,0.001534,0.578311,-0.549165,0.562971,-0.596719,0.558369,-0.562971
2.5936,0.020081,0.000187,-1.575398,1.566194,0.0000,0.0000,0.0000,-0.002467,-1.575398,1.566194,0.6213,1.2745,-0.2544,0.001534,0.579845,-0.553767,0.566039,-0.598253,0.558369,-0.562971
2.6137,0.020148,0.000227,-1.575398,1.566194,0.0000,0.0000,0.0000,-0.002385,-1.575398,1.566194,0.6140,1.3900,-0.3029,0.001534,0.579845,-0.556835,0.570641,-0.599786,0.558369,-0.564505
2.6337,0.020035,0.000267,-1.575398,1.566194,0.0000,0.0000,0.0000,-0.002354,-1.575398,1.566194,0.6825,1.3592,-0.3500,0.001534,0.579845,-0.559903,0.572175,-0.599786,0.558369,-0.564505
2.6541,0.020304,0.000308,-1.575398,1.566194,0.0000,0.0000,0.0000,-0.002331,-1.575398,1.566194,0.7541,1.2921,-0.4511,0.001534,0.579845,-0.562971,0.572175,-0.599786,0.558369,-0.564505
2.6741,0.020081,0.000348,-1.575398,1.566194,0.0000,0.0000,0.0000,-0.002333,-1.575398,1.566194,0.7466,1.2991,-0.4406,0.001534,0.579845,-0.562971,0.572175,-0.599786,0.558369,-0.564505
2.6942,0.020083,0.000388,-1.575398,1.566194,0.0000,0.0000,0.0000,-0.002321,-1.575398,1.566194,0.7971,1.2823,-0.3875,0.001534,0.581379,-0.562971,0.572175,-0.599786,0.558369,-0.564505
2.7143,0.020094,0.000429,-1.575398,1.566194,0.0000,0.0000,0.0000,-0.002311,-1.575398,1.566194,0.8415,1.2681,-0.3389,0.001534,0.582913,-0.562971,0.572175,-0.599786,0.558369,-0.564505
2.7344,0.020085,0.000469,-1.575398,1.566194,0.0000,0.0000,0.0000,-0.002312,-1.575398,1.566194,0.8368,1.2696,-0.3439,0.001534,0.582913,-0.562971,0.572175,-0.599786,0.558369,-0.564505
2.7547,0.020309,0.000509,-1.575398,1.566194,0.0000,0.0000,0.0000,-0.002312,-1.575398,1.566194,0.8754,1.2031,-0.2356,0.001534,0.584447,-0.562971,0.572175,-0.598253,0.558369,-0.564505
2.7748,0.020079,0.000550,-1.575398,1.566194,0.0000,0.0000,0.0000,-0.002290,-1.575398,1.566194,0.9325,1.2446,-0.2463,0.001534,0.585981,-0.562971,0.572175,-0.599786,0.558369,-0.564505
2.7949,0.020082,0.000590,-1.575398,1.566194,0.0000,0.0000,0.0000,-0.002281,-1.575398,1.566194,0.9761,1.2245,-0.1909,0.001534,0.587515,-0.562971,0.572175,-0.599786,0.558369,-0.564505
2.8150,0.020129,0.000630,-1.575398,1.566194,0.0000,0.0000,0.0000,-0.002282,-1.575398,1.566194,0.9716,1.2266,-0.1967,0.001534,0.587515,-0.562971,0.572175,-0.599786,0.558369,-0.564505
2.8351,0.020090,0.000670,-1.575398,1.566194,0.0000,0.0000,0.0000,-0.002282,-1.575398,1.566194,0.9716,1.2266,-0.1967,0.001534,0.587515,-0.562971,0.572175,-0.599786,0.558369,-0.564505
2.8552,0.020084,0.000710,-1.575398,1.566194,0.0000,0.0000,0.0000,-0.002268,-1.575398,1.566194,0.9609,1.2781,-0.1422,0.001534,0.587515,-0.562971,0.573709,-0.599786,0.558369,-0.564505
2.8752,0.020081,0.000750,-1.575398,1.566194,0.0000,0.0000,0.0000,-0.002257,-1.575398,1.566194,0.9507,1.3244,-0.0941,0.001534,0.587515,-0.562971,0.575243,-0.599786,0.558369,-0.564505
2.8953,0.020082,0.000791,-1.575398,1.566194,0.0000,0.0000,0.0000,-0.002258,-1.575398,1.566194,0.9518,1.3195,-0.0991,0.001534,0.587515,-0.562971,0.575243,-0.599786,0.558369,-0.564505
2.9156,0.020260,0.000831,-1.575398,1.566194,0.0000,0.0000,0.0000,-0.002234,-1.575398,1.566194,0.9521,1.4221,-0.0983,0.001534,0.587515,-0.562971,0.576777,-0.601320,0.558369,-0.564505
2.9357,0.020079,0.000871,-1.575398,1.566194,0.0000,0.0000,0.0000,-0.002186,-1.575398,1.566194,0.8716,1.4457,0.0066,0.001534,0.587515,-0.562971,0.578311,-0.602854,0.561437,-0.564505
2.9559,0.020244,0.000912,-1.575398,1.566194,0.0000,0.0000,0.0000,-0.002167,-1.575398,1.566194,0.8513,1.4598,-0.0056,0.001534,0.587515,-0.562971,0.578311,-0.604388,0.562971,-0.564505
2.9760,0.020090,0.000952,-1.575398,1.566194,0.0000,0.0000,0.0000,-0.002144,-1.575398,1.566194,0.8247,1.4749,-0.0056,0.001534,0.587515,-0.562971,0.578311,-0.605922,0.564505,-0.564505
2.9961,0.020076,0.000992,-1.575398,1.566194,0.0000,0.0000,0.0000,-0.002026,-1.575398,1.566194,0.7889,1.5100,0.2060,0.001534,0.590583,-0.562971,0.579845,-0.610524,0.570641,-0.564505
3.0162,0.020081,0.001032,-1.575398,1.566194,0.0000,0.0000,0.0000,-0.001943,-1.575398,1.566194,0.8247,1.4559,0.1833,0.001534,0.593651,-0.564505,0.579845,-0.613592,0.573709,-0.566039
3.0362,0.020081,0.001072,-1.575398,1.566194,0.0000,0.0000,0.0000,-0.001842,-1.575398,1.566194,0.8924,1.3754,0.1320,0.001534,0.596719,-0.567573,0.579845,-0.616660,0.576777,-0.567573
3.0563,0.020084,0.001113,-1.575398,1.566194,0.0000,0.0000,0.0000,-0.001755,-1.575398,1.566194,0.9360,1.2628,0.0306,0.001534,0.599786,-0.570641,0.579845,-0.618194,0.578311,-0.570641
3.0764,0.020093,0.001153,-1.575398,1.566194,0.0000,0.0000,0.0000,-0.001667,-1.575398,1.566194,0.8146,1.1735,0.0398,0.001534,0.602854,-0.570641,0.579845,-0.619728,0.581379,-0.575243
3.0965,0.020080,0.001193,-1.575398,1.566194,0.0000,0.0000,0.0000,-0.001605,-1.575398,1.566194,0.7998,1.1334,0.0387,0.001534,0.605922,-0.570641,0.579845,-0.621262,0.582913,-0.578311
3.1166,0.020134,0.001233,-1.575398,1.566194,0.0000,0.0000,0.0000,-0.001564,-1.575398,1.566194,0.8025,1.0714,0.0398,0.001534,0.608990,-0.570641,0.579845,-0.621262,0.582913,-0.581379
3.1368,0.020174,0.001274,-1.575398,1.566194,0.0000,0.0000,0.0000,-0.001532,-1.575398,1.566194,0.7625,1.0115,0.0933,0.001534,0.610524,-0.570641,0.579845,-0.621262,0.584447,-0.582913
3.1569,0.020077,0.001314,-1.575398,1.566194,0.0000,0.0000,0.0000,-0.001472,-1.575398,1.566194,0.6956,1.0697,0.1418,0.001534,0.612058,-0.570641,0.582913,-0.621262,0.584447,-0.585981
3.1770,0.020090,0.001354,-1.575398,1.566194,0.0000,0.0000,0.0000,-0.001472,-1.575398,1.566194,0.6956,1.0697,0.1418,0.001534,0.612058,-0.570641,0.582913,-0.621262,0.584447,-0.585981
3.1971,0.020079,0.001394,-1.575398,1.566194,0.0000,0.0000,0.0000,-0.001431,-1.575398,1.566194,0.7034,1.1321,0.1369,0.001534,0.613592,-0.570641,0.584447,-0.622796,0.584447,-0.587515
3.2171,0.020087,0.001434,-1.575398,1.566194,0.0000,0.0000,0.0000,-0.001397,-1.575398,1.566194,0.6678,1.1452,0.3002,0.001534,0.615126,-0.570641,0.587515,-0.621262,0.584447,-0.589049
3.2372,0.020085,0.001474,-1.575398,1.566194,0.0000,0.0000,0.0000,-0.001374,-1.575398,1.566194,0.6481,1.2463,0.3913,0.001534,0.615126,-0.570641,0.590583,-0.621262,0.584447,-0.589049
3.2573,0.020076,0.001515,-1.575398,1.566194,0.0000,0.0000,0.0000,-0.001303,-1.575398,1.566194,0.6785,1.3199,0.3831,0.001534,0.616660,-0.572175,0.593651,-0.622796,0.584447,-0.590583
3.2774,0.020090,0.001555,-1.575398,1.566194,0.0000,0.0000,0.0000,-0.001257,-1.575398,1.566194,0.7311,1.3438,0.3858,0.001534,0.616660,-0.575243,0.596719,-0.622796,0.584447,-0.590583
3.2975,0.020080,0.001595,-1.575398,1.566194,0.0000,0.0000,0.0000,-0.001184,-1.575398,1.566194,0.8701,1.3224,0.3890,0.001534,0.618194,-0.579845,0.599786,-0.622796,0.584447,-0.590583
3.3176,0.020084,0.001635,-1.575398,1.566194,0.0000,0.0000,0.0000,-0.001152,-1.575398,1.566194,0.9230,1.3053,0.3360,0.001534,0.618194,-0.582913,0.601320,-0.622796,0.584447,-0.590583
3.3376,0.020082,0.001675,-1.575398,1.566194,0.0000,0.0000,0.0000,-0.001115,-1.575398,1.566194,0.9848,1.2879,0.2888,0.001534,0.618194,-0.585981,0.602854,-0.622796,0.584447,-0.590583
3.3577,0.020078,0.001715,-1.575398,1.566194,0.0000,0.0000,0.0000,-0.001042,-1.575398,1.566194,0.9361,1.2865,0.1861,0.001534,0.618194,-0.589049,0.605922,-0.622796,0.584447,-0.593651
3.3778,0.020087,0.001756,-1.575398,1.566194,0.0000,0.0000,0.0000,-0.000962,-1.575398,1.566194,1.0597,1.3843,0.0363,0.001534,0.618194,-0.593651,0.608990,-0.625864,0.584447,-0.593651
3.3979,0.020076,0.001796,-1.575398,1.566194,0.0000,0.0000,0.0000,-0.000959,-1.575398,1.566194,1.0586,1.4242,-0.0023,0.001534,0.618194,-0.593651,0.608990,-0.627398,0.584447,-0.593651
3.4180,0.020084,0.001836,-1.575398,1.566194,0.0000,0.0000,0.0000,-0.000896,-1.575398,1.566194,1.0885,1.4339,-0.1604,0.001534,0.618194,-0.596719,0.610524,-0.628932,0.584447,-0.595185
3.4380,0.020085,0.001876,-1.575398,1.566194,0.0000,0.0000,0.0000,-0.000854,-1.575398,1.566194,1.0759,1.4819,-0.2522,0.001534,0.618194,-0.598253,0.612058,-0.630466,0.584447,-0.596719
3.4581,0.020075,0.001916,-1.575398,1.566194,0.0000,0.0000,0.0000,-0.000821,-1.575398,1.566194,1.1167,1.5430,-0.2961,0.001534,0.618194,-0.599786,0.613592,-0.632000,0.584447,-0.596719
3.4782,0.020089,0.001956,-1.575398,1.566194,0.0000,0.0000,0.0000,-0.000826,-1.575398,1.566194,1.1357,1.5355,-0.4007,0.001534,0.618194,-0.599786,0.612058,-0.633534,0.584447,-0.596719
3.4983,0.020084,0.001997,-1.575398,1.566194,0.0000,0.0000,0.0000,-0.000826,-1.575398,1.566194,1.1338,1.5362,-0.3898,0.001534,0.618194,-0.599786,0.612058,-0.633534,0.584447,-0.596719
3.5184,0.020092,0.002037,-1.575398,1.566194,0.0000,0.0000,0.0000,-0.000815,-1.575398,1.566194,1.1459,1.5860,-0.4453,0.001534,0.618194,-0.599786,0.612058,-0.635068,0.584447,-0.596719
3.5385,0.020084,0.002077,-1.575398,1.566194,0.0000,0.0000,0.0000,-0.000768,-1.575398,1.566194,1.1167,1.5638,-0.4407,0.001534,0.619728,-0.599786,0.612058,-0.636602,0.585981,-0.598253
3.5586,0.020082,0.002117,-1.575398,1.566194,0.0000,0.0000,0.0000,-0.000748,-1.575398,1.566194,1.0597,1.6001,-0.4414,0.001534,0.619728,-0.599786,0.613592,-0.636602,0.585981,-0.599786
3.5786,0.020089,0.002157,-1.575398,1.566194,0.0000,0.0000,0.0000,-0.000713,-1.575398,1.566194,0.9970,1.4448,-0.4777,0.000000,0.621262,-0.599786,0.612058,-0.636602,0.589049,-0.601320
3.5987,0.020082,0.002197,-1.575398,1.566194,0.0000,0.0000,0.0000,-0.000656,-1.575398,1.566194,1.0519,1.3439,-0.3406,0.001534,0.624330,-0.601320,0.612058,-0.636602,0.590583,-0.602854
3.6188,0.020086,0.002238,-1.575398,1.566194,0.0000,0.0000,0.0000,-0.000586,-1.575398,1.566194,0.9937,1.2703,-0.2384,0.001534,0.625864,-0.602854,0.613592,-0.636602,0.593651,-0.604388
3.6389,0.020083,0.002278,-1.575398,1.566194,0.0000,0.0000,0.0000,-0.000519,-1.575398,1.566194,0.9795,1.0427,-0.1424,0.001534,0.628932,-0.604388,0.612058,-0.636602,0.598253,-0.605922
3.6590,0.020083,0.002318,-1.575398,1.566194,0.0000,0.0000,0.0000,-0.000467,-1.575398,1.566194,1.1271,0.9518,0.0125,0.001534,0.633534,-0.605922,0.612058,-0.636602,0.599786,-0.605922
3.6791,0.020093,0.002358,-1.575398,1.566194,0.0000,0.0000,0.0000,-0.000389,-1.575398,1.566194,1.0444,0.8790,0.0497,0.001534,0.636602,-0.605922,0.612058,-0.638136,0.602854,-0.608990
3.6991,0.020082,0.002398,-1.575398,1.566194,0.0000,0.0000,0.0000,-0.000362,-1.575398,1.566194,1.0740,0.8879,0.1002,0.001534,0.638136,-0.605922,0.612058,-0.639670,0.604388,-0.608990
3.7192,0.020083,0.002438,-1.575398,1.566194,0.0000,0.0000,0.0000,-0.000318,-1.575398,1.566194,1.0344,0.8868,-0.0142,0.001534,0.639670,-0.605922,0.612058,-0.641204,0.604388,-0.612058
3.7393,0.020080,0.002479,-1.575398,1.566194,0.0000,0.0000,0.0000,-0.000291,-1.575398,1.566194,1.1113,0.9714,-0.0562,0.001534,0.641204,-0.605922,0.612058,-0.644272,0.604388,-0.612058
3.7594,0.020084,0.002519,-1.575398,1.566194,0.0000,0.0000,0.0000,-0.000283,-1.575398,1.566194,1.1153,1.0122,-0.1065,0.001534,0.641204,-0.605922,0.612058,-0.645806,0.604388,-0.612058
3.7794,0.020038,0.002559,-1.575398,1.566194,0.0000,0.0000,0.0000,-0.000273,-1.575398,1.566194,1.1270,1.0576,-0.1559,0.001534,0.641204,-0.605922,0.612058,-0.647340,0.604388,-0.612058
3.7995,0.020077,0.002599,-1.575398,1.566194,0.0000,0.0000,0.0000,-0.000274,-1.575398,1.566194,1.1258,1.0528,-0.1508,0.001534,0.641204,-0.605922,0.612058,-0.647340,0.604388,-0.612058
3.8196,0.020080,0.002639,-1.575398,1.566194,0.0000,0.0000,0.0000,-0.000250,-1.575398,1.566194,1.1264,1.1540,-0.1512,0.001534,0.641204,-0.605922,0.613592,-0.648874,0.604388,-0.612058
3.8397,0.020079,0.002679,-1.575398,1.566194,0.0000,0.0000,0.0000,-0.000229,-1.575398,1.566194,1.1269,1.2440,-0.1510,0.001534,0.641204,-0.605922,0.615126,-0.650408,0.604388,-0.612058
3.8598,0.020084,0.002720,-1.575398,1.566194,0.0000,0.0000,0.0000,-0.000195,-1.575398,1.566194,1.1158,1.3862,-0.0959,0.001534,0.641204,-0.605922,0.618194,-0.651942,0.604388,-0.612058
3.8798,0.020083,0.002760,-1.575398,1.566194,0.0000,0.0000,0.0000,-0.000185,-1.575398,1.566194,1.1053,1.4222,-0.0467,0.001534,0.641204,-0.605922,0.619728,-0.651942,0.604388,-0.612058
3.8999,0.020084,0.002800,-1.575398,1.566194,0.0000,0.0000,0.0000,-0.000150,-1.575398,1.566194,1.0952,1.5697,0.0034,0.001534,0.641204,-0.605922,0.622796,-0.653476,0.604388,-0.612058
3.9200,0.020080,0.002840,-1.575398,1.566194,0.0000,0.0000,0.0000,-0.000130,-1.575398,1.566194,1.0967,1.6546,-0.0016,0.001534,0.641204,-0.605922,0.624330,-0.655010,0.604388,-0.612058
3.9401,0.020077,0.002880,-1.575398,1.566194,0.0000,0.0000,0.0000,-0.000096,-1.575398,1.566194,1.0852,1.7968,0.0543,0.001534,0.641204,-0.605922,0.627398,-0.656544,0.604388,-0.612058
3.9602,0.020081,0.002920,-1.575398,1.566194,0.0000,0.0000,0.0000,-0.000076,-1.575398,1.566194,1.0869,1.8821,0.0487,0.001534,0.641204,-0.605922,0.628932,-0.658078,0.604388,-0.612058
3.9802,0.020078,0.002960,-1.575398,1.566194,0.0000,0.0000,0.0000,-0.000044,-1.575398,1.566194,1.1359,1.9583,0.1054,0.001534,0.642738,-0.605922,0.630466,-0.659612,0.604388,-0.612058
4.0003,0.020076,0.003001,-1.575398,1.566194,0.0000,0.0000,0.0000,-0.000024,-1.575398,1.566194,1.1676,1.9860,0.2106,0.001534,0.644272,-0.605922,0.632000,-0.659612,0.604388,-0.612058
4.0204,0.020075,0.003041,-1.575398,1.566194,0.0000,0.0000,0.0000,0.000043,-1.575398,1.566194,1.2015,2.0862,0.3119,0.001534,0.647340,-0.605922,0.635068,-0.661146,0.604388,-0.613592
4.0405,0.020072,0.003081,-1.575398,1.566194,0.0000,0.0000,0.0000,0.000135,-1.575398,1.566194,1.1733,2.1755,0.4122,0.001534,0.648874,-0.607456,0.639670,-0.662680,0.605922,-0.615126
4.0605,0.020070,0.003121,-1.575398,1.566194,0.0000,0.0000,0.0000,0.000258,-1.575398,1.566194,1.2236,2.0494,0.4579,0.001534,0.653476,-0.610524,0.641204,-0.664214,0.608990,-0.618194
4.0806,0.020074,0.003161,-1.575398,1.566194,0.0000,0.0000,0.0000,0.000368,-1.575398,1.566194,1.2171,1.9609,0.4531,0.001534,0.656544,-0.613592,0.642738,-0.665748,0.612058,-0.621262
4.1007,0.020086,0.003201,-1.575398,1.566194,0.0000,0.0000,0.0000,0.000505,-1.575398,1.566194,1.1647,1.8855,0.5627,0.001534,0.659612,-0.616660,0.645806,-0.667282,0.616660,-0.624330
4.1208,0.020086,0.003242,-1.575398,1.566194,0.0000,0.0000,0.0000,0.000563,-1.575398,1.566194,1.1781,1.7451,0.6610,0.001534,0.662680,-0.618194,0.645806,-0.667282,0.619728,-0.625864
4.1409,0.020087,0.003282,-1.575398,1.566194,0.0000,0.0000,0.0000,0.000622,-1.575398,1.566194,1.1881,1.6728,0.5942,0.001534,0.662680,-0.621262,0.645806,-0.668816,0.622796,-0.625864
4.1609,0.020076,0.003322,-1.575398,1.566194,0.0000,0.0000,0.0000,0.000666,-1.575398,1.566194,1.2738,1.5626,0.6021,0.001534,0.664214,-0.624330,0.645806,-0.668816,0.624330,-0.625864
4.1810,0.020101,0.003362,-1.575398,1.566194,0.0000,0.0000,0.0000,0.000698,-1.575398,1.566194,1.2764,1.5553,0.5454,0.001534,0.664214,-0.625864,0.645806,-0.670350,0.625864,-0.625864
4.2011,0.020085,0.003402,-1.575398,1.566194,0.0000,0.0000,0.0000,0.000685,-1.575398,1.566194,1.2277,1.5705,0.4951,0.001534,0.662680,-0.625864,0.645806,-0.670350,0.625864,-0.625864
4.2212,0.020077,0.003442,-1.575398,1.566194,0.0000,0.0000,0.0000,0.000697,-1.575398,1.566194,1.2448,1.6183,0.4451,0.001534,0.662680,-0.625864,0.645806,-0.671884,0.625864,-0.625864
4.2413,0.020076,0.003483,-1.575398,1.566194,0.0000,0.0000,0.0000,0.000730,-1.575398,1.566194,1.3423,1.6131,0.3967,0.001534,0.664214,-0.627398,0.645806,-0.673418,0.625864,-0.625864
4.2614,0.020074,0.003523,-1.575398,1.566194,0.0000,0.0000,0.0000,0.000740,-1.575398,1.566194,1.3708,1.5785,0.3470,0.001534,0.664214,-0.628932,0.645806,-0.673418,0.625864,-0.625864
4.2814,0.020079,0.003563,-1.575398,1.566194,0.0000,0.0000,0.0000,0.000751,-1.575398,1.566194,1.3283,1.5489,0.4061,0.001534,0.664214,-0.628932,0.645806,-0.673418,0.627398,-0.625864
4.3015,0.020082,0.003603,-1.575398,1.566194,0.0000,0.0000,0.0000,0.000774,-1.575398,1.566194,1.3054,1.5681,0.3986,0.001534,0.664214,-0.628932,0.645806,-0.674952,0.628932,-0.625864
4.3216,0.020074,0.003643,-1.575398,1.566194,0.0000,0.0000,0.0000,0.000771,-1.575398,1.566194,1.3077,1.5661,0.3994,0.001534,0.664214,-0.628932,0.645806,-0.674952,0.628932,-0.625864
4.3417,0.020085,0.003683,-1.575398,1.566194,0.0000,0.0000,0.0000,0.000782,-1.575398,1.566194,1.3195,1.6155,0.3440,0.001534,0.664214,-0.628932,0.645806,-0.676486,0.628932,-0.625864
4.3617,0.020076,0.003723,-1.575398,1.566194,0.0000,0.0000,0.0000,0.000804,-1.575398,1.566194,1.2909,1.6264,0.3484,0.001534,0.664214,-0.628932,0.645806,-0.678020,0.630466,-0.625864
4.3818,0.020082,0.003764,-1.575398,1.566194,0.0000,0.0000,0.0000,0.000825,-1.575398,1.566194,1.2665,1.6414,0.3466,0.001534,0.664214,-0.628932,0.645806,-0.679553,0.632000,-0.625864
4.4019,0.020082,0.003804,-1.575398,1.566194,0.0000,0.0000,0.0000,0.000835,-1.576932,1.566194,1.1930,1.6701,0.2891,0.001534,0.662680,-0.628932,0.645806,-0.681087,0.633534,-0.625864
4.4220,0.020075,0.003844,-1.575398,1.566194,0.0000,0.0000,0.0000,0.000845,-1.575398,1.566194,1.2493,1.6529,0.3514,0.001534,0.664214,-0.628932,0.645806,-0.681087,0.633534,-0.625864
4.4421,0.020085,0.003884,-1.575398,1.566194,0.0000,0.0000,0.0000,0.000854,-1.575398,1.566194,1.2554,1.7037,0.2894,0.001534,0.664214,-0.628932,0.645806,-0.682621,0.633534,-0.625864
4.4621,0.020074,0.003924,-1.575398,1.566194,0.0000,0.0000,0.0000,0.000873,-1.575398,1.566194,1.3154,1.7333,0.2967,0.001534,0.665748,-0.628932,0.645806,-0.684155,0.633534,-0.625864
4.4822,0.020077,0.003964,-1.575398,1.566194,0.0000,0.0000,0.0000,0.000892,-1.575398,1.566194,1.4063,1.7021,0.4087,0.001534,0.668816,-0.628932,0.645806,-0.684155,0.633534,-0.625864
4.5023,0.020091,0.004005,-1.575398,1.566194,0.0000,0.0000,0.0000,0.000900,-1.575398,1.566194,1.4453,1.6914,0.4534,0.001534,0.670350,-0.628932,0.645806,-0.684155,0.633534,-0.625864
4.5224,0.020072,0.004045,-1.575398,1.566194,0.0000,0.0000,0.0000,0.000932,-1.575398,1.566194,1.4898,1.6468,0.5059,0.001534,0.673418,-0.628932,0.645806,-0.684155,0.633534,-0.627398
4.5429,0.020560,0.004086,-1.575398,1.566194,0.0000,0.0000,0.0000,0.000994,-1.575398,1.566194,1.5100,1.6856,0.3910,0.001534,0.676486,-0.628932,0.645806,-0.687223,0.633534,-0.630466
4.5630,0.020073,0.004126,-1.575398,1.566194,0.0000,0.0000,0.0000,0.001046,-1.575398,1.566194,1.5049,1.6534,0.5701,0.001534,0.679553,-0.628932,0.647340,-0.687223,0.635068,-0.632000
4.5831,0.020076,0.004166,-1.575398,1.566194,0.0000,0.0000,0.0000,0.001158,-1.575398,1.566194,1.5136,1.5778,0.6632,0.001534,0.684155,-0.630466,0.648874,-0.688757,0.638136,-0.635068
4.6032,0.020075,0.004206,-1.575398,1.566194,0.0000,0.0000,0.0000,0.001284,-1.575398,1.566194,1.4030,1.5308,0.5971,0.001534,0.685689,-0.633534,0.651942,-0.690291,0.641204,-0.639670
4.6232,0.020072,0.004246,-1.575398,1.566194,0.0000,0.0000,0.0000,0.001401,-1.575398,1.566194,1.4527,1.4363,0.5509,0.001534,0.690291,-0.636602,0.653476,-0.691825,0.642738,-0.644272
4.6434,0.020177,0.004287,-1.575398,1.566194,0.0000,0.0000,0.0000,0.001524,-1.575398,1.566194,1.4699,1.4640,0.7242,0.001534,0.693359,-0.639670,0.658078,-0.693359,0.645806,-0.645806
4.6635,0.020077,0.004327,-1.575398,1.566194,0.0000,0.0000,0.0000,0.001709,-1.575398,1.566194,1.5974,1.4863,0.5992,0.001534,0.696427,-0.647340,0.664214,-0.696427,0.647340,-0.648874
4.6836,0.020114,0.004367,-1.575398,1.566194,0.0000,0.0000,0.0000,0.001739,-1.575398,1.566194,1.6964,1.4499,0.6147,0.001534,0.697961,-0.650408,0.665748,-0.696427,0.647340,-0.648874
4.7037,0.020085,0.004407,-1.575398,1.566194,0.0000,0.0000,0.0000,0.001763,-1.575398,1.566194,1.7123,1.4684,0.6140,0.001534,0.697961,-0.651942,0.667282,-0.696427,0.647340,-0.648874
4.7238,0.020082,0.004448,-1.575398,1.566194,0.0000,0.0000,0.0000,0.001764,-1.575398,1.566194,1.7010,1.4451,0.5017,0.001534,0.696427,-0.653476,0.667282,-0.696427,0.647340,-0.648874
4.7439,0.020094,0.004488,-1.575398,1.566194,0.0000,0.0000,0.0000,0.001787,-1.575398,1.566194,1.7881,1.3988,0.5148,0.001534,0.697961,-0.655010,0.667282,-0.696427,0.647340,-0.648874
4.7639,0.020077,0.004528,-1.575398,1.566194,0.0000,0.0000,0.0000,0.001808,-1.575398,1.566194,1.8294,1.4174,0.4022,0.001534,0.697961,-0.656544,0.667282,-0.697961,0.647340,-0.648874
4.7840,0.020080,0.004568,-1.575398,1.566194,0.0000,0.0000,0.0000,0.001829,-1.575398,1.566194,1.8755,1.4290,0.3027,0.001534,0.697961,-0.658078,0.667282,-0.699495,0.647340,-0.648874
4.8041,0.020076,0.004608,-1.575398,1.566194,0.0000,0.0000,0.0000,0.001837,-1.575398,1.566194,1.8830,1.4763,0.2574,0.001534,0.697961,-0.658078,0.667282,-0.701029,0.647340,-0.648874
4.8242,0.020075,0.004648,-1.575398,1.566194,0.0000,0.0000,0.0000,0.001847,-1.575398,1.566194,1.8947,1.5199,0.2065,0.001534,0.697961,-0.658078,0.667282,-0.702563,0.647340,-0.648874
4.8443,0.020079,0.004689,-1.575398,1.566194,0.0000,0.0000,0.0000,0.001859,-1.575398,1.566194,1.9313,1.4803,0.1561,0.001534,0.697961,-0.659612,0.667282,-0.702563,0.647340,-0.648874
4.8643,0.020075,0.004729,-1.575398,1.566194,0.0000,0.0000,0.0000,0.001904,-1.575398,1.566194,1.9863,1.4513,0.1611,0.001534,0.699495,-0.661146,0.667282,-0.704097,0.648874,-0.648874
4.8844,0.020078,0.004769,-1.575398,1.566194,0.0000,0.0000,0.0000,0.001912,-1.575398,1.566194,2.0182,1.4192,0.1048,0.001534,0.699495,-0.662680,0.667282,-0.704097,0.648874,-0.648874
4.9045,0.020073,0.004809,-1.575398,1.566194,0.0000,0.0000,0.0000,0.001922,-1.575398,1.566194,2.1400,1.4066,0.0575,0.001534,0.701029,-0.664214,0.667282,-0.704097,0.647340,-0.648874
4.9246,0.020074,0.004849,-1.575398,1.566194,0.0000,0.0000,0.0000,0.001960,-1.575398,1.566194,2.1629,1.3050,0.0047,0.001534,0.701029,-0.667282,0.667282,-0.704097,0.648874,-0.648874
4.9446,0.020085,0.004889,-1.575398,1.566194,0.0000,0.0000,0.0000,0.001956,-1.575398,1.566194,2.2373,1.3134,-0.1000,0.001534,0.701029,-0.668816,0.667282,-0.704097,0.647340,-0.648874
4.9647,0.020075,0.004929,-1.575398,1.566194,0.0000,0.0000,0.0000,0.002013,-1.575398,1.566194,2.4128,1.2634,-0.1432,0.001534,0.704097,-0.671884,0.667282,-0.705631,0.647340,-0.648874
4.9848,0.020082,0.004970,-1.575398,1.566194,0.0000,0.0000,0.0000,0.002062,-1.575398,1.566194,2.4651,1.2836,-0.1950,0.001534,0.705631,-0.673418,0.667282,-0.708699,0.648874,-0.648874
5.0049,0.020074,0.004990,-1.575398,1.566194,0.0000,0.0000,0.0000,0.002077,-1.575398,1.566194,2.5969,1.3137,-0.2987,0.001534,0.707165,-0.674952,0.667282,-0.710233,0.647340,-0.648874
5.0250,0.020078,0.004950,-1.575398,1.566194,0.0000,0.0000,0.0000,0.002134,-1.575398,1.566194,2.6297,1.3275,-0.2319,0.001534,0.708699,-0.676486,0.668816,-0.711767,0.648874,-0.648874
5.0450,0.020077,0.004910,-1.575398,1.566194,0.0000,0.0000,0.0000,0.002137,-1.575398,1.566194,2.6873,1.2887,-0.4078,0.001534,0.708699,-0.678020,0.667282,-0.713301,0.648874,-0.648874
5.0651,0.020076,0.004870,-1.575398,1.566194,0.0000,0.0000,0.0000,0.002159,-1.575398,1.566194,2.7306,1.3053,-0.5016,0.001534,0.708699,-0.679553,0.667282,-0.714835,0.648874,-0.648874
5.0852,0.020128,0.004830,-1.575398,1.566194,0.0000,0.0000,0.0000,0.002157,-1.575398,1.566194,2.7260,1.3035,-0.4918,0.001534,0.708699,-0.679553,0.667282,-0.714835,0.648874,-0.648874
5.1053,0.020075,0.004789,-1.575398,1.566194,0.0000,0.0000,0.0000,0.002179,-1.575398,1.566194,2.7758,1.3163,-0.6050,0.001534,0.708699,-0.681087,0.667282,-0.716369,0.648874,-0.648874
5.1254,0.020080,0.004749,-1.575398,1.566194,0.0000,0.0000,0.0000,0.002173,-1.575398,1.566194,2.7464,1.3978,-0.5924,0.001534,0.708699,-0.679553,0.667282,-0.717903,0.648874,-0.648874
5.1456,0.020220,0.004709,-1.575398,1.566194,0.0000,0.0000,0.0000,0.002174,-1.575398,1.566194,2.7494,1.3893,-0.5937,0.001534,0.708699,-0.679553,0.667282,-0.717903,0.648874,-0.648874
5.1657,0.020073,0.004669,-1.575398,1.566194,0.0000,0.0000,0.0000,0.002174,-1.575398,1.566194,2.7494,1.3893,-0.5937,0.001534,0.708699,-0.679553,0.667282,-0.717903,0.648874,-0.648874
5.1858,0.020116,0.004628,-1.575398,1.566194,0.0000,0.0000,0.0000,0.002174,-1.575398,1.566194,2.7494,1.3893,-0.5937,0.001534,0.708699,-0.679553,0.667282,-0.717903,0.648874,-0.648874
5.2059,0.020073,0.004588,-1.575398,1.566194,0.0000,0.0000,0.0000,0.002161,-1.575398,1.566194,2.7890,1.4228,-0.6476,0.001534,0.708699,-0.679553,0.667282,-0.717903,0.647340,-0.648874
5.2260,0.020090,0.004548,-1.575398,1.566194,0.0000,0.0000,0.0000,0.002162,-1.575398,1.566194,2.7849,1.4194,-0.6420,0.001534,0.708699,-0.679553,0.667282,-0.717903,0.647340,-0.648874
5.2460,0.020085,0.004508,-1.575398,1.566194,0.0000,0.0000,0.0000,0.002175,-1.575398,1.566194,2.7454,1.3871,-0.5885,0.001534,0.708699,-0.679553,0.667282,-0.717903,0.648874,-0.648874
5.2661,0.020085,0.004468,-1.575398,1.566194,0.0000,0.0000,0.0000,0.002174,-1.575398,1.566194,2.7495,1.3905,-0.5941,0.001534,0.708699,-0.679553,0.667282,-0.717903,0.648874,-0.648874
5.2862,0.020095,0.004428,-1.575398,1.566194,0.0000,0.0000,0.0000,0.002161,-1.575398,1.566194,2.7890,1.4227,-0.6476,0.001534,0.708699,-0.679553,0.667282,-0.717903,0.647340,-0.648874
5.3063,0.020085,0.004387,-1.575398,1.566194,0.0000,0.0000,0.0000,0.002175,-1.575398,1.566194,2.7450,1.3868,-0.5880,0.001534,0.708699,-0.679553,0.667282,-0.717903,0.648874,-0.648874
5.3264,0.020087,0.004347,-1.575398,1.566194,0.0000,0.0000,0.0000,0.002174,-1.575398,1.566194,2.7496,1.3905,-0.5942,0.001534,0.708699,-0.679553,0.667282,-0.717903,0.648874,-0.648874
5.3467,0.020257,0.004307,-1.575398,1.566194,0.0000,0.0000,0.0000,0.002174,-1.575398,1.566194,2.7496,1.3905,-0.5942,0.001534,0.708699,-0.679553,0.667282,-0.717903,0.648874,-0.648874
5.3667,0.020081,0.004267,-1.575398,1.566194,0.0000,0.0000,0.0000,0.002174,-1.575398,1.566194,2.7496,1.3905,-0.5942,0.001534,0.708699,-0.679553,0.667282,-0.717903,0.648874,-0.648874
5.3868,0.020087,0.004226,-1.575398,1.566194,0.0000,0.0000,0.0000,0.002174,-1.575398,1.566194,2.7496,1.3905,-0.5942,0.001534,0.708699,-0.679553,0.667282,-0.717903,0.648874,-0.648874
5.4069,0.020084,0.004186,-1.575398,1.566194,0.0000,0.0000,0.0000,0.002161,-1.575398,1.566194,2.7890,1.4227,-0.6476,0.001534,0.708699,-0.679553,0.667282,-0.717903,0.647340,-0.648874
5.4270,0.020083,0.004146,-1.575398,1.566194,0.0000,0.0000,0.0000,0.002175,-1.575398,1.566194,2.7450,1.3868,-0.5880,0.001534,0.708699,-0.679553,0.667282,-0.717903,0.648874,-0.648874
5.4471,0.020085,0.004106,-1.575398,1.566194,0.0000,0.0000,0.0000,0.002174,-1.575398,1.566194,2.7496,1.3905,-0.5942,0.001534,0.708699,-0.679553,0.667282,-0.717903,0.648874,-0.648874
5.4672,0.020092,0.004066,-1.575398,1.566194,0.0000,0.0000,0.0000,0.002161,-1.575398,1.566194,2.7890,1.4227,-0.6476,0.001534,0.708699,-0.679553,0.667282,-0.717903,0.647340,-0.648874
5.4872,0.020078,0.004026,-1.575398,1.566194,0.0000,0.0000,0.0000,0.002175,-1.575398,1.566194,2.7450,1.3868,-0.5880,0.001534,0.708699,-0.679553,0.667282,-0.717903,0.648874,-0.648874
5.5073,0.020086,0.003985,-1.575398,1.566194,0.0000,0.0000,0.0000,0.002174,-1.575398,1.566194,2.7496,1.3905,-0.5942,0.001534,0.708699,-0.679553,0.667282,-0.717903,0.648874,-0.648874
5.5274,0.020090,0.003945,-1.575398,1.566194,0.0000,0.0000,0.0000,0.002174,-1.575398,1.566194,2.7496,1.3905,-0.5942,0.001534,0.708699,-0.679553,0.667282,-0.717903,0.648874,-0.648874
5.5475,0.020086,0.003905,-1.575398,1.566194,0.0000,0.0000,0.0000,0.002174,-1.575398,1.566194,2.7496,1.3905,-0.5942,0.001534,0.708699,-0.679553,0.667282,-0.717903,0.648874,-0.648874
5.5676,0.020091,0.003865,-1.575398,1.566194,0.0000,0.0000,0.0000,0.002174,-1.575398,1.566194,2.7496,1.3905,-0.5942,0.001534,0.708699,-0.679553,0.667282,-0.717903,0.648874,-0.648874
5.5877,0.020081,0.003825,-1.575398,1.566194,0.0000,0.0000,0.0000,0.002174,-1.575398,1.566194,2.7496,1.3905,-0.5942,0.001534,0.708699,-0.679553,0.667282,-0.717903,0.648874,-0.648874
5.6078,0.020086,0.003784,-1.575398,1.566194,0.0000,0.0000,0.0000,0.002174,-1.575398,1.566194,2.7496,1.3905,-0.5942,0.001534,0.708699,-0.679553,0.667282,-0.717903,0.648874,-0.648874
5.6278,0.020080,0.003744,-1.575398,1.566194,0.0000,0.0000,0.0000,0.002161,-1.575398,1.566194,2.7890,1.4227,-0.6476,0.001534,0.708699,-0.679553,0.667282,-0.717903,0.647340,-0.648874
5.6479,0.020087,0.003704,-1.575398,1.566194,0.0000,0.0000,0.0000,0.002175,-1.575398,1.566194,2.7450,1.3868,-0.5880,0.001534,0.708699,-0.679553,0.667282,-0.717903,0.648874,-0.648874
5.6680,0.020082,0.003664,-1.575398,1.566194,0.0000,0.0000,0.0000,0.002161,-1.575398,1.566194,2.7895,1.4231,-0.6482,0.001534,0.708699,-0.679553,0.667282,-0.717903,0.647340,-0.648874
5.6881,0.020083,0.003624,-1.575398,1.566194,0.0000,0.0000,0.0000,0.002175,-1.575398,1.566194,2.7449,1.3867,-0.5879,0.001534,0.708699,-0.679553,0.667282,-0.717903,0.648874,-0.648874
5.7082,0.020085,0.003584,-1.575398,1.566194,0.0000,0.0000,0.0000,0.002164,-1.575398,1.566194,2.7370,1.3428,-0.5385,0.001534,0.708699,-0.679553,0.667282,-0.716369,0.648874,-0.648874
5.7283,0.020080,0.003543,-1.575398,1.566194,0.0000,0.0000,0.0000,0.002166,-1.575398,1.566194,2.7379,1.3474,-0.5436,0.001534,0.708699,-0.679553,0.667282,-0.716369,0.648874,-0.648874
5.7483,0.020085,0.003503,-1.575398,1.566194,0.0000,0.0000,0.0000,0.002133,-1.575398,1.566194,2.7168,1.3452,-0.5985,0.001534,0.707165,-0.679553,0.667282,-0.714835,0.647340,-0.648874
5.7684,0.020077,0.003463,-1.575398,1.566194,0.0000,0.0000,0.0000,0.002127,-1.575398,1.566194,2.7065,1.2977,-0.5371,0.001534,0.707165,-0.679553,0.667282,-0.713301,0.647340,-0.648874
5.7885,0.020077,0.003423,-1.575398,1.566194,0.0000,0.0000,0.0000,0.002131,-1.575398,1.566194,2.6553,1.2221,-0.4338,0.001534,0.707165,-0.679553,0.667282,-0.711767,0.648874,-0.648874
5.8086,0.020091,0.003383,-1.575398,1.566194,0.0000,0.0000,0.0000,0.002121,-1.575398,1.566194,2.6124,1.2434,-0.5015,0.001534,0.705631,-0.679553,0.667282,-0.711767,0.648874,-0.648874
5.8287,0.020076,0.003343,-1.575398,1.566194,0.0000,0.0000,0.0000,0.002102,-1.575398,1.566194,2.5563,1.2068,-0.4957,0.001534,0.704097,-0.679553,0.667282,-0.710233,0.648874,-0.648874
5.8487,0.020080,0.003303,-1.575398,1.566194,0.0000,0.0000,0.0000,0.002094,-1.575398,1.566194,2.5138,1.2242,-0.5532,0.001534,0.702563,-0.679553,0.667282,-0.710233,0.648874,-0.648874
5.8688,0.020084,0.003262,-1.575398,1.566194,0.0000,0.0000,0.0000,0.002095,-1.575398,1.566194,2.5182,1.2224,-0.5472,0.001534,0.702563,-0.679553,0.667282,-0.710233,0.648874,-0.648874
5.8889,0.020078,0.003222,-1.575398,1.566194,0.0000,0.0000,0.0000,0.002085,-1.575398,1.566194,2.5055,1.1746,-0.4922,0.001534,0.702563,-0.679553,0.667282,-0.708699,0.648874,-0.648874
5.9090,0.020093,0.003182,-1.575398,1.566194,0.0000,0.0000,0.0000,0.002043,-1.575398,1.566194,2.4736,1.1302,-0.4978,0.001534,0.701029,-0.679553,0.667282,-0.705631,0.647340,-0.648874
5.9291,0.020078,0.003142,-1.575398,1.566194,0.0000,0.0000,0.0000,0.002040,-1.575398,1.566194,2.3770,1.0675,-0.4441,0.001534,0.699495,-0.679553,0.667282,-0.704097,0.648874,-0.648874
5.9492,0.020148,0.003102,-1.575398,1.566194,0.0000,0.0000,0.0000,0.002028,-1.575398,1.566194,2.4265,1.1071,-0.5040,0.001534,0.699495,-0.679553,0.667282,-0.704097,0.647340,-0.648874
5.9693,0.020083,0.003061,-1.575398,1.566194,0.0000,0.0000,0.0000,0.002008,-1.575398,1.566194,2.3696,1.0528,-0.3885,0.001534,0.697961,-0.679553,0.667282,-0.702563,0.648874,-0.647340
5.9894,0.020079,0.003021,-1.575398,1.566194,0.0000,0.0000,0.0000,0.002013,-1.575398,1.566194,2.2791,1.0551,-0.5133,0.001534,0.696427,-0.679553,0.667282,-0.702563,0.648874,-0.648874
6.0095,0.020094,0.002981,-1.575398,1.566194,0.0000,0.0000,0.0000,0.002000,-1.575398,1.566194,2.3279,1.0880,-0.5546,0.001534,0.696427,-0.679553,0.667282,-0.702563,0.647340,-0.648874
6.0296,0.020082,0.002941,-1.575398,1.566194,0.0000,0.0000,0.0000,0.002014,-1.575398,1.566194,2.2835,1.0515,-0.4960,0.001534,0.696427,-0.679553,0.667282,-0.702563,0.648874,-0.648874
6.0497,0.020090,0.002901,-1.575398,1.566194,0.0000,0.0000,0.0000,0.001979,-1.575398,1.566194,2.2671,1.0542,-0.5575,0.001534,0.694893,-0.679553,0.667282,-0.701029,0.647340,-0.648874
6.0697,0.020050,0.002861,-1.575398,1.566194,0.0000,0.0000,0.0000,0.001941,-1.575398,1.566194,2.1482,0.9857,-0.5532,0.001534,0.691825,-0.679553,0.667282,-0.697961,0.647340,-0.648874
6.0898,0.020081,0.002820,-1.575398,1.566194,0.0000,0.0000,0.0000,0.001947,-1.575398,1.566194,2.1095,0.9113,-0.4437,0.001534,0.691825,-0.679553,0.667282,-0.696427,0.648874,-0.648874
6.1099,0.020090,0.002780,-1.575398,1.566194,0.0000,0.0000,0.0000,0.001923,-1.575398,1.566194,2.1043,0.9665,-0.5661,0.001534,0.690291,-0.679553,0.667282,-0.696427,0.647340,-0.648874
6.1300,0.020084,0.002740,-1.575398,1.566194,0.0000,0.0000,0.0000,0.001913,-1.575398,1.566194,2.1531,0.9776,-0.4973,0.001534,0.690291,-0.679553,0.667282,-0.696427,0.647340,-0.647340
6.1500,0.020079,0.002700,-1.575398,1.566194,0.0000,0.0000,0.0000,0.001905,-1.575398,1.566194,2.0396,0.9255,-0.5615,0.001534,0.688757,-0.679553,0.667282,-0.694893,0.647340,-0.648874
6.1701,0.020083,0.002660,-1.575398,1.566194,0.0000,0.0000,0.0000,0.001908,-1.575398,1.566194,2.0006,0.8492,-0.4448,0.001534,0.688757,-0.679553,0.667282,-0.693359,0.648874,-0.648874
6.1903,0.020132,0.002619,-1.575398,1.566194,0.0000,0.0000,0.0000,0.001908,-1.575398,1.566194,2.0047,0.8571,-0.4570,0.001534,0.688757,-0.679553,0.667282,-0.693359,0.648874,-0.648874
6.2103,0.020049,0.002579,-1.575398,1.566194,0.0000,0.0000,0.0000,0.001897,-1.575398,1.566194,1.9559,0.8706,-0.5121,0.001534,0.687223,-0.679553,0.667282,-0.693359,0.648874,-0.648874
6.2304,0.020080,0.002539,-1.575398,1.566194,0.0000,0.0000,0.0000,0.001853,-1.575398,1.566194,1.8915,0.8831,-0.6181,0.001534,0.684155,-0.679553,0.667282,-0.691825,0.647340,-0.648874
6.2505,0.020082,0.002499,-1.575398,1.566194,0.0000,0.0000,0.0000,0.001836,-1.575398,1.566194,1.8381,0.8479,-0.6079,0.001534,0.682621,-0.679553,0.667282,-0.690291,0.647340,-0.648874
6.2705,0.020078,0.002459,-1.575398,1.566194,0.0000,0.0000,0.0000,0.001850,-1.575398,1.566194,1.8047,0.8180,-0.5544,0.001534,0.682621,-0.679553,0.667282,-0.690291,0.648874,-0.648874
6.2909,0.020355,0.002418,-1.575398,1.566194,0.0000,0.0000,0.0000,0.001837,-1.575398,1.566194,1.7967,0.7726,-0.5045,0.001534,0.682621,-0.679553,0.667282,-0.688757,0.648874,-0.648874
6.3110,0.020072,0.002378,-1.575398,1.566194,0.0000,0.0000,0.0000,0.001817,-1.575398,1.566194,1.7376,0.7433,-0.5104,0.001534,0.681087,-0.679553,0.667282,-0.687223,0.648874,-0.648874
6.3310,0.020073,0.002338,-1.575398,1.566194,0.0000,0.0000,0.0000,0.001796,-1.575398,1.566194,1.7712,0.7314,-0.5090,0.001534,0.681087,-0.679553,0.667282,-0.685689,0.647340,-0.648874
6.3511,0.020089,0.002298,-1.575398,1.566194,0.0000,0.0000,0.0000,0.001810,-1.575398,1.566194,1.7289,0.6989,-0.4545,0.001534,0.681087,-0.679553,0.667282,-0.685689,0.648874,-0.648874
6.3713,0.020139,0.002257,-1.575398,1.566194,0.0000,0.0000,0.0000,0.001810,-1.575398,1.566194,1.7289,0.6989,-0.4545,0.001534,0.681087,-0.679553,0.667282,-0.685689,0.648874,-0.648874
6.3914,0.020112,0.002217,-1.575398,1.566194,0.0000,0.0000,0.0000,0.001764,-1.575398,1.566194,1.6683,0.7149,-0.5653,0.001534,0.678020,-0.679553,0.667282,-0.684155,0.647340,-0.648874
6.4115,0.020074,0.002177,-1.575398,1.566194,0.0000,0.0000,0.0000,0.001722,-1.575398,1.566194,1.5504,0.6475,-0.5615,0.001534,0.674952,-0.679553,0.667282,-0.681087,0.647340,-0.648874
6.4315,0.020083,0.002137,-1.575398,1.566194,0.0000,0.0000,0.0000,0.001727,-1.575398,1.566194,1.4754,0.6355,-0.5633,0.001534,0.673418,-0.679553,0.667282,-0.681087,0.648874,-0.648874
6.4516,0.020079,0.002097,-1.575398,1.566194,0.0000,0.0000,0.0000,0.001702,-1.575398,1.566194,1.4966,0.7245,-0.4492,0.001534,0.674952,-0.676486,0.667282,-0.681087,0.647340,-0.648874
6.4717,0.020076,0.002057,-1.575398,1.566194,0.0000,0.0000,0.0000,0.001670,-1.575398,1.566194,1.3974,0.7157,-0.4055,0.001534,0.673418,-0.674952,0.667282,-0.679553,0.647340,-0.648874
6.4918,0.020073,0.002016,-1.575398,1.566194,0.0000,0.0000,0.0000,0.001661,-1.575398,1.566194,1.2948,0.7516,-0.2432,0.001534,0.673418,-0.671884,0.667282,-0.679553,0.648874,-0.648874
6.5119,0.020085,0.001976,-1.575398,1.566194,0.0000,0.0000,0.0000,0.001651,-1.575398,1.566194,1.2941,0.6988,-0.2046,0.001534,0.673418,-0.671884,0.667282,-0.678020,0.648874,-0.648874
6.5319,0.020063,0.001936,-1.575398,1.566194,0.0000,0.0000,0.0000,0.001641,-1.575398,1.566194,1.2458,0.7193,-0.2647,0.001534,0.671884,-0.671884,0.667282,-0.678020,0.648874,-0.648874
6.5521,0.020178,0.001896,-1.575398,1.566194,0.0000,0.0000,0.0000,0.001595,-1.575398,1.566194,1.1811,0.7322,-0.3698,0.001534,0.668816,-0.671884,0.667282,-0.676486,0.647340,-0.648874
