t,loop_dt,cmd_z,cmd_ant_l,cmd_ant_r,cmd_roll,cmd_pitch,cmd_yaw,pres_z,pres_ant_l,pres_ant_r,pres_roll,pres_pitch,pres_yaw,pres_j0,pres_j1,pres_j2,pres_j3,pres_j4,pres_j5,pres_j6
0.0000,0.000001,-0.005000,-1.575398,1.566194,0.0000,0.0000,0.0000,-0.000011,-1.575398,1.566194,0.2476,0.1995,0.2797,0.001534,0.625864,-0.625864,0.625864,-0.632000,0.628932,-0.616660
0.0201,0.020101,-0.004940,-1.575398,1.566194,0.0000,0.0000,0.0000,-0.000045,-1.575398,1.566194,0.2707,0.2903,0.1222,0.001534,0.624330,-0.625864,0.625864,-0.632000,0.625864,-0.616660
0.0402,0.020086,-0.004879,-1.575398,1.566194,0.0000,0.0000,0.0000,-0.000053,-1.575398,1.566194,0.3068,0.3152,0.0840,0.001534,0.624330,-0.625864,0.625864,-0.632000,0.624330,-0.616660
0.0603,0.020095,-0.004819,-1.575398,1.566194,0.0000,0.0000,0.0000,-0.000162,-1.575398,1.566194,0.2606,0.1430,0.0547,0.000000,0.621262,-0.625864,0.624330,-0.625864,0.622796,-0.615126
0.0804,0.020095,-0.004759,-1.575398,1.566194,0.0000,0.0000,0.0000,-0.000529,-1.575398,1.566194,0.1183,0.0440,-0.1150,0.000000,0.612058,-0.618194,0.615126,-0.616660,0.615126,-0.610524
0.1005,0.020087,-0.004699,-1.575398,1.566194,0.0000,0.0000,0.0000,-0.001842,-1.575398,1.566194,-0.0526,0.1065,-0.2033,0.000000,0.581379,-0.589049,0.587515,-0.589049,0.587515,-0.584447
0.1210,0.020503,-0.004637,-1.575398,1.566194,0.0000,0.0000,0.0000,-0.003221,-1.575398,1.566194,-0.0642,0.2572,0.2138,0.001534,0.552233,-0.553767,0.558369,-0.558369,0.556835,-0.552233
0.1411,0.020090,-0.004577,-1.575398,1.566194,0.0000,0.0000,0.0000,-0.004506,-1.575398,1.566194,-0.1724,0.3311,0.2830,0.001534,0.523087,-0.521553,0.529223,-0.530757,0.529223,-0.523087
0.1612,0.020092,-0.004517,-1.575398,1.566194,0.0000,0.0000,0.0000,-0.005282,-1.576932,1.566194,-0.1628,0.3252,0.1863,0.000000,0.504680,-0.503146,0.510816,-0.512350,0.510816,-0.504680
0.1812,0.020093,-0.004456,-1.575398,1.566194,0.0000,0.0000,0.0000,-0.005695,-1.576932,1.566194,-0.1438,0.3268,0.2376,0.000000,0.495476,-0.492408,0.500078,-0.503146,0.501612,-0.493942
0.2013,0.020096,-0.004396,-1.575398,1.566194,0.0000,0.0000,0.0000,-0.005716,-1.576932,1.566194,-0.1561,0.3787,0.3716,0.001534,0.493942,-0.490874,0.500078,-0.501612,0.500078,-0.492408
0.2214,0.020085,-0.004336,-1.575398,1.566194,0.0000,0.0000,0.0000,-0.005713,-1.576932,1.566194,-0.1548,0.3733,0.2789,0.000000,0.493942,-0.490874,0.500078,-0.501612,0.500078,-0.492408
0.2415,0.020094,-0.004275,-1.575398,1.566194,0.0000,0.0000,0.0000,-0.005713,-1.576932,1.566194,-0.1548,0.3733,0.3668,0.001534,0.493942,-0.490874,0.500078,-0.501612,0.500078,-0.492408
0.2616,0.020087,-0.004215,-1.575398,1.566194,0.0000,0.0000,0.0000,-0.005713,-1.575398,1.566194,-0.1548,0.3733,0.2789,0.000000,0.493942,-0.490874,0.500078,-0.501612,0.500078,-0.492408
0.2817,0.020093,-0.004155,-1.575398,1.566194,0.0000,0.0000,0.0000,-0.005713,-1.575398,1.566194,-0.1548,0.3733,0.2789,0.000000,0.493942,-0.490874,0.500078,-0.501612,0.500078,-0.492408
0.3019,0.020229,-0.004094,-1.575398,1.566194,0.0000,0.0000,0.0000,-0.005713,-1.575398,1.566194,-0.1548,0.3733,0.3668,0.001534,0.493942,-0.490874,0.500078,-0.501612,0.500078,-0.492408
0.3220,0.020083,-0.004034,-1.575398,1.566194,0.0000,0.0000,0.0000,-0.005713,-1.575398,1.566194,-0.1548,0.3733,0.3668,0.001534,0.493942,-0.490874,0.500078,-0.501612,0.500078,-0.492408
0.3421,0.020089,-0.003974,-1.575398,1.566194,0.0000,0.0000,0.0000,-0.005713,-1.575398,1.566194,-0.1548,0.3733,0.2789,0.000000,0.493942,-0.490874,0.500078,-0.501612,0.500078,-0.492408
0.3622,0.020083,-0.003913,-1.575398,1.566194,0.0000,0.0000,0.0000,-0.005713,-1.576932,1.566194,-0.1548,0.3733,0.2789,0.000000,0.493942,-0.490874,0.500078,-0.501612,0.500078,-0.492408
0.3823,0.020102,-0.003853,-1.575398,1.566194,0.0000,0.0000,0.0000,-0.005701,-1.575398,1.566194,-0.1447,0.4260,0.2276,0.000000,0.493942,-0.490874,0.500078,-0.503146,0.500078,-0.492408
0.4024,0.020144,-0.003793,-1.575398,1.566194,0.0000,0.0000,0.0000,-0.005702,-1.576932,1.566194,-0.1458,0.4205,0.3208,0.001534,0.493942,-0.490874,0.500078,-0.503146,0.500078,-0.492408
0.4225,0.020091,-0.003732,-1.575398,1.566194,0.0000,0.0000,0.0000,-0.005702,-1.575398,1.566194,-0.1458,0.4205,0.3208,0.001534,0.493942,-0.490874,0.500078,-0.503146,0.500078,-0.492408
0.4426,0.020086,-0.003672,-1.575398,1.566194,0.0000,0.0000,0.0000,-0.005702,-1.575398,1.566194,-0.1458,0.4205,0.3208,0.001534,0.493942,-0.490874,0.500078,-0.503146,0.500078,-0.492408
0.4627,0.020104,-0.003612,-1.575398,1.566194,0.0000,0.0000,0.0000,-0.005702,-1.575398,1.566194,-0.1458,0.4205,0.3208,0.001534,0.493942,-0.490874,0.500078,-0.503146,0.500078,-0.492408
0.4828,0.020102,-0.003552,-1.575398,1.566194,0.0000,0.0000,0.0000,-0.005690,-1.575398,1.566194,-0.1560,0.4730,0.3719,0.001534,0.493942,-0.490874,0.501612,-0.503146,0.500078,-0.492408
0.5029,0.020092,-0.003491,-1.575398,1.566194,0.0000,0.0000,0.0000,-0.005691,-1.575398,1.566194,-0.1549,0.4675,0.2787,0.000000,0.493942,-0.490874,0.501612,-0.503146,0.500078,-0.492408
0.5230,0.020107,-0.003431,-1.575398,1.566194,0.0000,0.0000,0.0000,-0.005691,-1.575398,1.566194,-0.1549,0.4675,0.2787,0.000000,0.493942,-0.490874,0.501612,-0.503146,0.500078,-0.492408
0.5431,0.020118,-0.003371,-1.575398,1.566194,0.0000,0.0000,0.0000,-0.005691,-1.576932,1.566194,-0.1549,0.4675,0.3666,0.001534,0.493942,-0.490874,0.501612,-0.503146,0.500078,-0.492408
0.5632,0.020098,-0.003310,-1.575398,1.566194,0.0000,0.0000,0.0000,-0.005691,-1.576932,1.566194,-0.1549,0.4675,0.3666,0.001534,0.493942,-0.490874,0.501612,-0.503146,0.500078,-0.492408
0.5833,0.020101,-0.003250,-1.575398,1.566194,0.0000,0.0000,0.0000,-0.005691,-1.575398,1.566194,-0.1549,0.4675,0.3666,0.001534,0.493942,-0.490874,0.501612,-0.503146,0.500078,-0.492408
0.6034,0.020101,-0.003190,-1.575398,1.566194,0.0000,0.0000,0.0000,-0.005678,-1.575398,1.566194,-0.1949,0.4333,0.4187,0.001534,0.493942,-0.490874,0.501612,-0.503146,0.501612,-0.492408
0.6235,0.020095,-0.003129,-1.575398,1.566194,0.0000,0.0000,0.0000,-0.005680,-1.575398,1.566194,-0.1907,0.4369,0.4133,0.001534,0.493942,-0.490874,0.501612,-0.503146,0.501612,-0.492408
0.6436,0.020104,-0.003069,-1.575398,1.566194,0.0000,0.0000,0.0000,-0.005680,-1.575398,1.566194,-0.1907,0.4369,0.4133,0.001534,0.493942,-0.490874,0.501612,-0.503146,0.501612,-0.492408
0.6637,0.020095,-0.003009,-1.575398,1.566194,0.0000,0.0000,0.0000,-0.005692,-1.575398,1.566194,-0.1513,0.4713,0.3623,0.001534,0.493942,-0.490874,0.501612,-0.503146,0.500078,-0.492408
0.6853,0.021567,-0.002944,-1.575398,1.566194,0.0000,0.0000,0.0000,-0.005678,-1.575398,1.566194,-0.1953,0.4329,0.4192,0.001534,0.493942,-0.490874,0.501612,-0.503146,0.501612,-0.492408
0.7054,0.020093,-0.002884,-1.575398,1.566194,0.0000,0.0000,0.0000,-0.005667,-1.575398,1.566194,-0.1405,0.4200,0.3771,0.000000,0.495476,-0.490874,0.501612,-0.504680,0.500078,-0.492408
0.7255,0.020141,-0.002823,-1.575398,1.566194,0.0000,0.0000,0.0000,-0.005668,-1.575398,1.566194,-0.0962,0.5083,0.2690,0.000000,0.495476,-0.490874,0.501612,-0.504680,0.500078,-0.492408
0.7468,0.021271,-0.002760,-1.575398,1.566194,0.0000,0.0000,0.0000,-0.005668,-1.575398,1.566194,-0.1007,0.4990,0.2802,0.000000,0.495476,-0.490874,0.501612,-0.504680,0.500078,-0.492408
0.7669,0.020102,-0.002699,-1.575398,1.566194,0.0000,0.0000,0.0000,-0.005656,-1.576932,1.566194,-0.1402,0.4653,0.4185,0.001534,0.495476,-0.490874,0.503146,-0.504680,0.501612,-0.492408
0.7870,0.020110,-0.002639,-1.575398,1.566194,0.0000,0.0000,0.0000,-0.005620,-1.575398,1.566194,-0.1253,0.6192,0.2684,0.000000,0.495476,-0.490874,0.503146,-0.507748,0.501612,-0.492408
0.8071,0.020096,-0.002579,-1.575398,1.566194,0.0000,0.0000,0.0000,-0.005610,-1.575398,1.566194,-0.1172,0.6610,0.3158,0.001534,0.495476,-0.490874,0.503146,-0.509282,0.501612,-0.492408
0.8272,0.020094,-0.002518,-1.575398,1.566194,0.0000,0.0000,0.0000,-0.005610,-1.576932,1.566194,-0.1172,0.6610,0.3158,0.000000,0.498544,-0.490874,0.503146,-0.513884,0.501612,-0.492408
0.8473,0.020110,-0.002458,-1.575398,1.566194,0.0000,0.0000,0.0000,-0.005550,-1.575398,1.566194,0.0133,0.7789,0.1801,0.000000,0.498544,-0.490874,0.503146,-0.516952,0.501612,-0.492408
0.8674,0.020099,-0.002398,-1.575398,1.566194,0.0000,0.0000,0.0000,-0.005532,-1.575398,1.566194,0.0205,0.8702,0.0811,0.001534,0.500078,-0.490874,0.503146,-0.520019,0.501612,-0.492408
0.8875,0.020098,-0.002337,-1.575398,1.566194,0.0000,0.0000,0.0000,-0.005477,-1.575398,1.566194,0.1445,0.9744,0.0437,0.000000,0.501612,-0.490874,0.503146,-0.521553,0.501612,-0.492408
0.9076,0.020103,-0.002277,-1.575398,1.566194,0.0000,0.0000,0.0000,-0.005477,-1.575398,1.566194,0.1445,0.9744,0.0437,0.000000,0.501612,-0.490874,0.503146,-0.521553,0.501612,-0.492408
0.9277,0.020116,-0.002217,-1.575398,1.566194,0.0000,0.0000,0.0000,-0.005341,-1.575398,1.566194,0.3046,1.2340,0.0378,0.000000,0.507748,-0.490874,0.506214,-0.529223,0.501612,-0.493942
0.9479,0.020147,-0.002156,-1.575398,1.566194,0.0000,0.0000,0.0000,-0.005341,-1.575398,1.566194,0.3046,1.2340,0.0378,0.000000,0.510816,-0.490874,0.506214,-0.530757,0.501612,-0.495476
0.9680,0.020099,-0.002096,-1.575398,1.566194,0.0000,0.0000,0.0000,-0.005298,-1.575398,1.566194,0.3666,1.2237,0.0444,0.001534,0.513884,-0.490874,0.506214,-0.532291,0.501612,-0.497010
0.9881,0.020108,-0.002036,-1.575398,1.566194,0.0000,0.0000,0.0000,-0.005255,-1.576932,1.566194,0.4215,1.2254,0.1322,0.000000,0.518486,-0.490874,0.506214,-0.533825,0.501612,-0.500078
1.0082,0.020128,-0.001975,-1.575398,1.566194,0.0000,0.0000,0.0000,-0.005159,-1.575398,1.566194,0.5219,1.1443,0.1860,0.001534,0.521553,-0.490874,0.506214,-0.533825,0.501612,-0.501612
1.0283,0.020108,-0.001915,-1.575398,1.566194,0.0000,0.0000,0.0000,-0.005159,-1.576932,1.566194,0.5219,1.1443,0.1860,0.001534,0.524621,-0.490874,0.506214,-0.535359,0.501612,-0.504680
1.0484,0.020101,-0.001855,-1.575398,1.566194,0.0000,0.0000,0.0000,-0.005102,-1.575398,1.566194,0.5291,1.1316,0.1290,0.000000,0.527689,-0.490874,0.506214,-0.536893,0.501612,-0.507748
1.0685,0.020107,-0.001794,-1.575398,1.566194,0.0000,0.0000,0.0000,-0.004993,-1.575398,1.566194,0.4990,1.0142,0.1402,0.001534,0.530757,-0.490874,0.506214,-0.536893,0.503146,-0.510816
1.0886,0.020104,-0.001734,-1.575398,1.566194,0.0000,0.0000,0.0000,-0.004993,-1.575398,1.566194,0.4990,1.0142,0.1402,0.000000,0.533825,-0.490874,0.506214,-0.536893,0.504680,-0.513884
1.1087,0.020109,-0.001674,-1.575398,1.566194,0.0000,0.0000,0.0000,-0.004938,-1.576932,1.566194,0.4631,0.9220,0.0984,0.001534,0.535359,-0.490874,0.507748,-0.538427,0.507748,-0.516952
1.1289,0.020152,-0.001613,-1.575398,1.566194,0.0000,0.0000,0.0000,-0.004856,-1.576932,1.566194,0.3360,0.9150,0.2317,0.001534,0.535359,-0.490874,0.507748,-0.538427,0.507748,-0.516952
1.1490,0.020106,-0.001553,-1.575398,1.566194,0.0000,0.0000,0.0000,-0.004774,-1.575398,1.566194,0.1661,0.9522,0.3804,0.001534,0.535359,-0.490874,0.510816,-0.539961,0.512350,-0.518486
1.1691,0.020100,-0.001493,-1.575398,1.566194,0.0000,0.0000,0.0000,-0.004669,-1.575398,1.566194,0.0304,1.0361,0.4314,0.000000,0.536893,-0.490874,0.515418,-0.541495,0.515418,-0.521553
1.1892,0.020091,-0.001432,-1.575398,1.566194,0.0000,0.0000,0.0000,-0.004580,-1.575398,1.566194,-0.0367,1.1324,0.5195,0.000000,0.538427,-0.490874,0.518486,-0.544563,0.518486,-0.523087
1.2093,0.020110,-0.001372,-1.575398,1.566194,0.0000,0.0000,0.0000,-0.004464,-1.575398,1.566194,-0.1630,1.2458,0.8047,0.001534,0.539961,-0.490874,0.523087,-0.547631,0.523087,-0.524621
1.2294,0.020098,-0.001312,-1.575398,1.566194,0.0000,0.0000,0.0000,-0.004275,-1.575398,1.566194,-0.2913,1.5624,0.9455,0.000000,0.543029,-0.490874,0.532291,-0.553767,0.527689,-0.527689
1.2495,0.020112,-0.001251,-1.575398,1.566194,0.0000,0.0000,0.0000,-0.004275,-1.576932,1.566194,-0.2913,1.5624,0.9455,0.000000,0.543029,-0.490874,0.535359,-0.556835,0.530757,-0.527689
1.2696,0.020096,-0.001191,-1.575398,1.566194,0.0000,0.0000,0.0000,-0.004211,-1.576932,1.566194,-0.3633,1.6870,1.0325,0.000000,0.543029,-0.490874,0.535359,-0.556835,0.530757,-0.527689
1.2897,0.020087,-0.001131,-1.575398,1.566194,0.0000,0.0000,0.0000,-0.004180,-1.575398,1.566194,-0.3963,1.7434,1.1625,0.001534,0.543029,-0.490874,0.536893,-0.558369,0.532291,-0.527689
1.3098,0.020120,-0.001071,-1.575398,1.566194,0.0000,0.0000,0.0000,-0.004145,-1.575398,1.566194,-0.4567,1.8068,1.3148,0.001534,0.543029,-0.490874,0.539961,-0.558369,0.533825,-0.527689
1.3299,0.020093,-0.001010,-1.575398,1.566194,0.0000,0.0000,0.0000,-0.004125,-1.575398,1.566194,-0.4275,1.9036,1.1925,0.001534,0.543029,-0.490874,0.539961,-0.561437,0.533825,-0.527689
1.3500,0.020090,-0.000950,-1.575398,1.566194,0.0000,0.0000,0.0000,-0.004077,-1.575398,1.566194,-0.4829,2.0142,1.3087,0.001534,0.543029,-0.490874,0.543029,-0.562971,0.535359,-0.527689
1.3710,0.021052,-0.000887,-1.575398,1.566194,0.0000,0.0000,0.0000,-0.004069,-1.576932,1.566194,-0.5173,1.9690,1.3486,0.001534,0.543029,-0.490874,0.543029,-0.562971,0.536893,-0.527689
1.3911,0.020087,-0.000827,-1.575398,1.566194,0.0000,0.0000,0.0000,-0.004058,-1.575398,1.566194,-0.5023,2.0254,1.2033,0.000000,0.543029,-0.490874,0.543029,-0.564505,0.536893,-0.527689
1.4112,0.020089,-0.000766,-1.575398,1.566194,0.0000,0.0000,0.0000,-0.004019,-1.575398,1.566194,-0.4098,1.9999,1.1425,0.001534,0.543029,-0.493942,0.543029,-0.566039,0.536893,-0.527689
1.4313,0.020089,-0.000706,-1.575398,1.566194,0.0000,0.0000,0.0000,-0.003973,-1.575398,1.566194,-0.2763,1.9671,1.0568,0.001534,0.544563,-0.497010,0.543029,-0.567573,0.536893,-0.527689
1.4514,0.020097,-0.000646,-1.575398,1.566194,0.0000,0.0000,0.0000,-0.003913,-1.575398,1.566194,-0.1063,1.8993,0.9132,0.001534,0.546097,-0.501612,0.543029,-0.569107,0.536893,-0.527689
1.4715,0.020099,-0.000585,-1.575398,1.566194,0.0000,0.0000,0.0000,-0.003768,-1.576932,1.566194,0.1524,1.7469,0.6203,0.001534,0.550699,-0.509282,0.543029,-0.572175,0.536893,-0.530757
1.4916,0.020107,-0.000525,-1.575398,1.566194,0.0000,0.0000,0.0000,-0.003543,-1.575398,1.566194,0.5744,1.4775,-0.0068,0.000000,0.556835,-0.523087,0.543029,-0.576777,0.536893,-0.535359
1.5117,0.020102,-0.000465,-1.575398,1.566194,0.0000,0.0000,0.0000,-0.003455,-1.576932,1.566194,0.8009,1.3483,-0.0160,0.001534,0.561437,-0.529223,0.543029,-0.578311,0.536893,-0.536893
1.5318,0.020104,-0.000405,-1.575398,1.566194,0.0000,0.0000,0.0000,-0.003362,-1.575398,1.566194,0.9377,1.1516,-0.3023,0.000000,0.564505,-0.535359,0.543029,-0.578311,0.536893,-0.539961
1.5519,0.020107,-0.000344,-1.575398,1.566194,0.0000,0.0000,0.0000,-0.003271,-1.576932,1.566194,0.9942,0.9799,-0.4920,0.000000,0.567573,-0.539961,0.543029,-0.578311,0.536893,-0.544563
1.5720,0.020095,-0.000284,-1.575398,1.566194,0.0000,0.0000,0.0000,-0.003181,-1.575398,1.566194,1.1199,0.8745,-0.5951,0.001534,0.570641,-0.544563,0.543029,-0.579845,0.536893,-0.547631
1.5921,0.020100,-0.000224,-1.575398,1.566194,0.0000,0.0000,0.0000,-0.003127,-1.575398,1.566194,1.1453,0.7470,-0.6287,0.001534,0.572175,-0.547631,0.543029,-0.579845,0.538427,-0.549165
1.6122,0.020103,-0.000163,-1.575398,1.566194,0.0000,0.0000,0.0000,-0.003058,-1.575398,1.566194,1.1928,0.6723,-0.7321,0.001534,0.573709,-0.550699,0.543029,-0.581379,0.539961,-0.550699
1.6323,0.020094,-0.000103,-1.575398,1.566194,0.0000,0.0000,0.0000,-0.002991,-1.575398,1.566194,1.1878,0.5435,-0.8097,0.000000,0.576777,-0.552233,0.543029,-0.581379,0.541495,-0.553767
1.6524,0.020083,-0.000043,-1.575398,1.566194,0.0000,0.0000,0.0000,-0.002935,-1.575398,1.566194,1.1883,0.4849,-0.8838,0.001534,0.576777,-0.555301,0.543029,-0.582913,0.543029,-0.555301
1.6725,0.020091,0.000017,-1.575398,1.566194,0.0000,0.0000,0.0000,-0.002855,-1.575398,1.566194,1.2079,0.3887,-0.8149,0.001534,0.579845,-0.556835,0.543029,-0.584447,0.546097,-0.556835
1.6926,0.020086,0.000078,-1.575398,1.566194,0.0000,0.0000,0.0000,-0.002837,-1.575398,1.566194,1.0362,0.3491,-0.8053,0.000000,0.579845,-0.555301,0.543029,-0.584447,0.549165,-0.558369
1.7127,0.020088,0.000138,-1.575398,1.566194,0.0000,0.0000,0.0000,-0.002775,-1.576932,1.566194,0.9542,0.4570,-0.7633,0.000000,0.579845,-0.555301,0.546097,-0.585981,0.550699,-0.559903
1.7327,0.020085,0.000198,-1.575398,1.566194,0.0000,0.0000,0.0000,-0.002718,-1.575398,1.566194,0.8628,0.5495,-0.7156,0.000000,0.579845,-0.555301,0.549165,-0.587515,0.552233,-0.561437
1.7529,0.020111,0.000259,-1.575398,1.566194,0.0000,0.0000,0.0000,-0.002676,-1.575398,1.566194,0.8438,0.6590,-0.6338,0.001534,0.579845,-0.555301,0.550699,-0.590583,0.553767,-0.561437
1.7730,0.020095,0.000319,-1.575398,1.566194,0.0000,0.0000,0.0000,-0.002603,-1.576932,1.566194,0.7933,0.6995,-0.5281,0.001534,0.579845,-0.556835,0.553767,-0.592117,0.556835,-0.561437
1.7930,0.020087,0.000379,-1.575398,1.566194,0.0000,0.0000,0.0000,-0.002546,-1.575398,1.566194,0.7368,0.8684,-0.4679,0.000000,0.579845,-0.556835,0.558369,-0.593651,0.558369,-0.561437
1.8132,0.020110,0.000439,-1.575398,1.566194,0.0000,0.0000,0.0000,-0.002488,-1.575398,1.566194,0.7309,0.9359,-0.4305,0.000000,0.579845,-0.558369,0.561437,-0.595185,0.559903,-0.561437
1.8333,0.020131,0.000500,-1.575398,1.566194,0.0000,0.0000,0.0000,-0.002417,-1.575398,1.566194,0.7886,1.0644,-0.3457,0.001534,0.579845,-0.561437,0.566039,-0.596719,0.559903,-0.561437
1.8534,0.020090,0.000560,-1.575398,1.566194,0.0000,0.0000,0.0000,-0.002338,-1.575398,1.566194,0.8999,1.1898,-0.2709,0.000000,0.582913,-0.562971,0.570641,-0.598253,0.559903,-0.561437
1.8735,0.020091,0.000620,-1.575398,1.566194,0.0000,0.0000,0.0000,-0.002248,-1.575398,1.566194,0.8380,1.2300,-0.1809,0.000000,0.585981,-0.562971,0.573709,-0.599786,0.561437,-0.564505
1.8936,0.020097,0.000681,-1.575398,1.566194,0.0000,0.0000,0.0000,-0.002182,-1.575398,1.566194,0.9115,1.3800,-0.0812,0.000000,0.587515,-0.564505,0.578311,-0.601320,0.561437,-0.564505
1.9137,0.020092,0.000741,-1.575398,1.566194,0.0000,0.0000,0.0000,-0.002139,-1.575398,1.566194,0.9034,1.3972,-0.0041,0.001534,0.587515,-0.566039,0.579845,-0.602854,0.562971,-0.564505
1.9338,0.020100,0.000801,-1.575398,1.566194,0.0000,0.0000,0.0000,-0.002096,-1.575398,1.566194,1.0415,1.3997,0.2142,0.001534,0.592117,-0.566039,0.581379,-0.602854,0.562971,-0.564505
1.9538,0.020085,0.000862,-1.575398,1.566194,0.0000,0.0000,0.0000,-0.002051,-1.575398,1.566194,1.0553,1.3823,0.1927,0.001534,0.593651,-0.567573,0.582913,-0.602854,0.562971,-0.566039
1.9739,0.020089,0.000922,-1.575398,1.566194,0.0000,0.0000,0.0000,-0.001994,-1.576932,1.566194,0.9851,1.3337,0.1588,0.000000,0.595185,-0.567573,0.582913,-0.604388,0.566039,-0.567573
1.9940,0.020095,0.000982,-1.575398,1.566194,0.0000,0.0000,0.0000,-0.001962,-1.576932,1.566194,1.1209,1.2527,0.1890,0.001534,0.596719,-0.570641,0.582913,-0.604388,0.566039,-0.567573
2.0141,0.020096,0.001042,-1.575398,1.566194,0.0000,0.0000,0.0000,-0.001954,-1.575398,1.566194,1.1183,1.3117,0.1413,0.001534,0.596719,-0.570641,0.582913,-0.605922,0.566039,-0.567573
2.0342,0.020108,0.001103,-1.575398,1.566194,0.0000,0.0000,0.0000,-0.001942,-1.575398,1.566194,1.1073,1.3569,0.2004,0.001534,0.596719,-0.570641,0.584447,-0.605922,0.566039,-0.567573
2.0543,0.020124,0.001163,-1.575398,1.566194,0.0000,0.0000,0.0000,-0.001896,-1.575398,1.566194,1.1089,1.4208,0.1072,0.000000,0.598253,-0.570641,0.585981,-0.607456,0.566039,-0.569107
2.0744,0.020089,0.001223,-1.575398,1.566194,0.0000,0.0000,0.0000,-0.001853,-1.575398,1.566194,1.0713,1.4135,0.0881,0.001534,0.599786,-0.570641,0.585981,-0.608990,0.566039,-0.572175
2.0945,0.020087,0.001284,-1.575398,1.566194,0.0000,0.0000,0.0000,-0.001786,-1.575398,1.566194,1.1646,1.4320,0.1015,0.001534,0.602854,-0.572175,0.587515,-0.610524,0.566039,-0.573709
2.1146,0.020088,0.001344,-1.575398,1.566194,0.0000,0.0000,0.0000,-0.001695,-1.575398,1.566194,1.1973,1.4608,-0.2020,0.000000,0.604388,-0.575243,0.589049,-0.613592,0.566039,-0.576777
2.1347,0.020098,0.001404,-1.575398,1.566194,0.0000,0.0000,0.0000,-0.001582,-1.575398,1.566194,1.2825,1.3733,-0.0901,0.001534,0.608990,-0.578311,0.590583,-0.615126,0.567573,-0.579845
2.1548,0.020088,0.001464,-1.575398,1.566194,0.0000,0.0000,0.0000,-0.001508,-1.575398,1.566194,1.2903,1.3837,-0.0366,0.001534,0.612058,-0.579845,0.593651,-0.615126,0.567573,-0.582913
2.1749,0.020095,0.001525,-1.575398,1.566194,0.0000,0.0000,0.0000,-0.001442,-1.575398,1.566194,1.3318,1.3121,-0.2576,0.001534,0.613592,-0.582913,0.593651,-0.616660,0.567573,-0.585981
2.1950,0.020110,0.001585,-1.575398,1.566194,0.0000,0.0000,0.0000,-0.001401,-1.576932,1.566194,1.4960,1.2346,-0.4272,0.000000,0.616660,-0.585981,0.593651,-0.616660,0.566039,-0.587515
2.2153,0.020300,0.001646,-1.575398,1.566194,0.0000,0.0000,0.0000,-0.001306,-1.576932,1.566194,1.4688,1.1899,-0.4398,0.001534,0.618194,-0.589049,0.595185,-0.618194,0.567573,-0.590583
2.2367,0.021372,0.001710,-1.575398,1.566194,0.0000,0.0000,0.0000,-0.001277,-1.575398,1.566194,1.4876,1.2627,-0.3740,0.001534,0.618194,-0.590583,0.598253,-0.618194,0.567573,-0.590583
2.2574,0.020721,0.001772,-1.575398,1.566194,0.0000,0.0000,0.0000,-0.001204,-1.575398,1.566194,1.5120,1.1698,-0.3815,0.001534,0.619728,-0.593651,0.599786,-0.618194,0.569107,-0.592117
2.2776,0.020227,0.001833,-1.575398,1.566194,0.0000,0.0000,0.0000,-0.001147,-1.575398,1.566194,1.3193,1.1286,-0.4181,0.000000,0.619728,-0.593651,0.601320,-0.618194,0.572175,-0.595185
2.2977,0.020123,0.001893,-1.575398,1.566194,0.0000,0.0000,0.0000,-0.001052,-1.575398,1.566194,1.2212,1.1305,-0.3393,0.001534,0.619728,-0.595185,0.602854,-0.621262,0.576777,-0.596719
2.3178,0.020092,0.001954,-1.575398,1.566194,0.0000,0.0000,0.0000,-0.000972,-1.575398,1.566194,1.1387,1.1462,-0.2662,0.000000,0.619728,-0.596719,0.605922,-0.622796,0.581379,-0.596719
2.3379,0.020106,0.002014,-1.575398,1.566194,0.0000,0.0000,0.0000,-0.000892,-1.575398,1.566194,1.0178,1.0920,-0.1442,0.001534,0.619728,-0.598253,0.607456,-0.624330,0.585981,-0.598253
2.3582,0.020205,0.002074,-1.575398,1.566194,0.0000,0.0000,0.0000,-0.000789,-1.575398,1.566194,0.9246,1.1452,-0.2931,0.000000,0.619728,-0.599786,0.608990,-0.628932,0.590583,-0.599786
2.3782,0.020089,0.002135,-1.575398,1.566194,0.0000,0.0000,0.0000,-0.000739,-1.576932,1.566194,0.8665,1.0891,-0.1463,0.001534,0.621262,-0.599786,0.608990,-0.630466,0.593651,-0.601320
2.3983,0.020091,0.002195,-1.575398,1.566194,0.0000,0.0000,0.0000,-0.000686,-1.576932,1.566194,0.7777,1.1296,-0.1882,0.000000,0.622796,-0.598253,0.608990,-0.633534,0.596719,-0.602854
2.4184,0.020088,0.002255,-1.575398,1.566194,0.0000,0.0000,0.0000,-0.000583,-1.575398,1.566194,0.8078,1.1258,-0.0512,0.001534,0.625864,-0.599786,0.610524,-0.636602,0.599786,-0.604388
2.4385,0.020089,0.002316,-1.575398,1.566194,0.0000,0.0000,0.0000,-0.000533,-1.575398,1.566194,0.7372,1.2097,-0.0917,0.000000,0.625864,-0.599786,0.612058,-0.639670,0.602854,-0.604388
2.4586,0.020094,0.002376,-1.575398,1.566194,0.0000,0.0000,0.0000,-0.000480,-1.576932,1.566194,0.7659,1.1694,0.0458,0.001534,0.628932,-0.599786,0.612058,-0.641204,0.604388,-0.605922
2.4787,0.020131,0.002436,-1.575398,1.566194,0.0000,0.0000,0.0000,-0.000430,-1.575398,1.566194,0.7572,1.2273,0.0944,0.001534,0.632000,-0.598253,0.612058,-0.644272,0.605922,-0.607456
2.4989,0.020141,0.002497,-1.575398,1.566194,0.0000,0.0000,0.0000,-0.000372,-1.575398,1.566194,0.7462,1.1710,0.1442,0.001534,0.633534,-0.599786,0.613592,-0.644272,0.607456,-0.608990
2.5190,0.020128,0.002557,-1.575398,1.566194,0.0000,0.0000,0.0000,-0.000355,-1.576932,1.566194,0.7566,1.1285,0.2481,0.001534,0.635068,-0.599786,0.613592,-0.644272,0.608990,-0.608990
2.5391,0.020118,0.002617,-1.575398,1.566194,0.0000,0.0000,0.0000,-0.000297,-1.576932,1.566194,0.7164,1.1678,0.2914,0.001534,0.636602,-0.599786,0.615126,-0.645806,0.610524,-0.610524
2.5593,0.020164,0.002678,-1.575398,1.566194,0.0000,0.0000,0.0000,-0.000220,-1.575398,1.566194,0.6818,1.1660,0.3415,0.001534,0.639670,-0.599786,0.616660,-0.647340,0.612058,-0.613592
2.5795,0.020208,0.002738,-1.575398,1.566194,0.0000,0.0000,0.0000,-0.000205,-1.575398,1.566194,0.6856,1.1337,0.2489,0.000000,0.641204,-0.599786,0.616660,-0.647340,0.612058,-0.615126
2.5999,0.020373,0.002800,-1.575398,1.566194,0.0000,0.0000,0.0000,-0.000174,-1.575398,1.566194,0.7947,1.1572,0.3936,0.001534,0.644272,-0.599786,0.616660,-0.648874,0.612058,-0.615126
2.6200,0.020086,0.002860,-1.575398,1.566194,0.0000,0.0000,0.0000,-0.000171,-1.575398,1.566194,0.7683,1.1566,0.3325,0.001534,0.645806,-0.598253,0.615126,-0.650408,0.612058,-0.616660
2.6400,0.020091,0.002920,-1.575398,1.566194,0.0000,0.0000,0.0000,-0.000124,-1.575398,1.566194,0.8227,1.1385,0.2304,0.001534,0.647340,-0.599786,0.615126,-0.651942,0.612058,-0.618194
2.6601,0.020086,0.002980,-1.575398,1.566194,0.0000,0.0000,0.0000,-0.000093,-1.575398,1.566194,0.8054,1.1587,0.2964,0.001534,0.648874,-0.599786,0.616660,-0.651942,0.612058,-0.619728
2.6802,0.020101,0.003041,-1.575398,1.566194,0.0000,0.0000,0.0000,-0.000060,-1.575398,1.566194,0.8467,1.0888,0.2360,0.001534,0.650408,-0.601320,0.616660,-0.651942,0.612058,-0.621262
2.7005,0.020278,0.003102,-1.575398,1.566194,0.0000,0.0000,0.0000,0.000011,-1.575398,1.566194,0.9722,1.0075,-0.0627,0.000000,0.651942,-0.605922,0.616660,-0.653476,0.612058,-0.622796
2.7206,0.020091,0.003162,-1.575398,1.566194,0.0000,0.0000,0.0000,0.000075,-1.575398,1.566194,1.1345,1.0165,-0.0378,0.000000,0.655010,-0.608990,0.618194,-0.655010,0.612058,-0.622796
2.7408,0.020176,0.003222,-1.575398,1.566194,0.0000,0.0000,0.0000,0.000156,-1.576932,1.566194,1.1924,1.0487,0.0155,0.000000,0.656544,-0.612058,0.621262,-0.656544,0.613592,-0.622796
2.7609,0.020111,0.003283,-1.575398,1.566194,0.0000,0.0000,0.0000,0.000285,-1.575398,1.566194,1.3027,1.0397,-0.1536,0.000000,0.658078,-0.618194,0.624330,-0.659612,0.615126,-0.624330
2.7810,0.020064,0.003343,-1.575398,1.566194,0.0000,0.0000,0.0000,0.000382,-1.575398,1.566194,1.4811,1.1078,0.0106,0.001534,0.661146,-0.622796,0.628932,-0.661146,0.615126,-0.624330
2.8011,0.020099,0.003403,-1.575398,1.566194,0.0000,0.0000,0.0000,0.000508,-1.575398,1.566194,1.4861,1.2510,0.1684,0.001534,0.662680,-0.625864,0.635068,-0.664214,0.618194,-0.624330
2.8211,0.020097,0.003463,-1.575398,1.566194,0.0000,0.0000,0.0000,0.000633,-1.575398,1.566194,1.4627,1.2969,0.0082,0.000000,0.662680,-0.630466,0.639670,-0.667282,0.621262,-0.625864
2.8414,0.020208,0.003524,-1.575398,1.566194,0.0000,0.0000,0.0000,0.000696,-1.576932,1.566194,1.4912,1.3389,0.1038,0.001534,0.662680,-0.633534,0.642738,-0.668816,0.622796,-0.625864
2.8616,0.020209,0.003585,-1.575398,1.566194,0.0000,0.0000,0.0000,0.000837,-1.575398,1.566194,1.4730,1.4497,0.2358,0.000000,0.664214,-0.636602,0.648874,-0.671884,0.627398,-0.625864
2.8817,0.020164,0.003645,-1.575398,1.566194,0.0000,0.0000,0.0000,0.000823,-1.575398,1.566194,1.4749,1.4381,0.2128,0.000000,0.664214,-0.636602,0.648874,-0.671884,0.627398,-0.625864
2.9019,0.020161,0.003706,-1.575398,1.566194,0.0000,0.0000,0.0000,0.000871,-1.575398,1.566194,1.4477,1.5546,0.3025,0.001534,0.664214,-0.636602,0.650408,-0.674952,0.628932,-0.625864
2.9222,0.020347,0.003767,-1.575398,1.566194,0.0000,0.0000,0.0000,0.000904,-1.576932,1.566194,1.3238,1.5896,0.3547,0.001534,0.662680,-0.636602,0.651942,-0.676486,0.632000,-0.625864
2.9425,0.020269,0.003828,-1.575398,1.566194,0.0000,0.0000,0.0000,0.000947,-1.576932,1.566194,1.3097,1.7010,0.3485,0.001534,0.662680,-0.636602,0.653476,-0.679553,0.633534,-0.625864
2.9626,0.020103,0.003888,-1.575398,1.566194,0.0000,0.0000,0.0000,0.000953,-1.575398,1.566194,1.3230,1.7385,0.2938,0.001534,0.662680,-0.636602,0.653476,-0.681087,0.633534,-0.625864
2.9828,0.020157,0.003948,-1.575398,1.566194,0.0000,0.0000,0.0000,0.000953,-1.575398,1.566194,1.3216,1.7346,0.2116,0.000000,0.662680,-0.636602,0.653476,-0.681087,0.633534,-0.625864
3.0029,0.020104,0.004009,-1.575398,1.566194,0.0000,0.0000,0.0000,0.000976,-1.576932,1.566194,1.3311,1.6874,0.3213,0.000000,0.664214,-0.636602,0.653476,-0.681087,0.635068,-0.625864
3.0229,0.020058,0.004069,-1.575398,1.566194,0.0000,0.0000,0.0000,0.000997,-1.576932,1.566194,1.3395,1.6449,0.5081,0.001534,0.665748,-0.636602,0.653476,-0.681087,0.636602,-0.625864
3.0431,0.020127,0.004129,-1.575398,1.566194,0.0000,0.0000,0.0000,0.001062,-1.575398,1.566194,1.3715,1.6686,0.4980,0.001534,0.668816,-0.636602,0.653476,-0.684155,0.638136,-0.627398
3.0631,0.020093,0.004189,-1.575398,1.566194,0.0000,0.0000,0.0000,0.001174,-1.575398,1.566194,1.4267,1.5011,0.4996,0.001534,0.673418,-0.639670,0.653476,-0.685689,0.641204,-0.630466
3.0833,0.020132,0.004250,-1.575398,1.566194,0.0000,0.0000,0.0000,0.001277,-1.575398,1.566194,1.4531,1.4383,0.4117,0.000000,0.678020,-0.641204,0.653476,-0.688757,0.644272,-0.633534
3.1039,0.020592,0.004312,-1.575398,1.566194,0.0000,0.0000,0.0000,0.001384,-1.576932,1.566194,1.5087,1.2805,0.5003,0.001534,0.682621,-0.644272,0.653476,-0.690291,0.647340,-0.636602
3.1240,0.020130,0.004372,-1.575398,1.566194,0.0000,0.0000,0.0000,0.001515,-1.575398,1.566194,1.6020,1.1614,0.1915,0.000000,0.687223,-0.648874,0.653476,-0.693359,0.648874,-0.641204
3.1441,0.020087,0.004432,-1.575398,1.566194,0.0000,0.0000,0.0000,0.001583,-1.575398,1.566194,1.5944,1.1065,0.1368,0.001534,0.690291,-0.650408,0.653476,-0.694893,0.648874,-0.645806
3.1642,0.020090,0.004493,-1.575398,1.566194,0.0000,0.0000,0.0000,0.001658,-1.575398,1.566194,1.6429,1.0980,0.2084,0.001534,0.693359,-0.651942,0.655010,-0.696427,0.650408,-0.647340
3.1843,0.020106,0.004553,-1.575398,1.566194,0.0000,0.0000,0.0000,0.001708,-1.575398,1.566194,1.6266,1.0862,0.2584,0.001534,0.696427,-0.651942,0.656544,-0.696427,0.650408,-0.650408
3.2044,0.020102,0.004613,-1.575398,1.566194,0.0000,0.0000,0.0000,0.001708,-1.575398,1.566194,1.6266,1.0862,0.2584,0.001534,0.696427,-0.651942,0.656544,-0.696427,0.650408,-0.650408
3.2245,0.020096,0.004673,-1.575398,1.566194,0.0000,0.0000,0.0000,0.001791,-1.575398,1.566194,1.5555,1.0708,0.2212,0.000000,0.697961,-0.653476,0.659612,-0.696427,0.651942,-0.653476
3.2446,0.020098,0.004734,-1.575398,1.566194,0.0000,0.0000,0.0000,0.001844,-1.576932,1.566194,1.6270,1.0209,0.2494,0.001534,0.699495,-0.656544,0.661146,-0.696427,0.651942,-0.655010
3.2647,0.020120,0.004794,-1.575398,1.566194,0.0000,0.0000,0.0000,0.001898,-1.575398,1.566194,1.6941,1.1259,0.2258,0.000000,0.701029,-0.658078,0.664214,-0.697961,0.651942,-0.655010
3.2848,0.020099,0.004854,-1.575398,1.566194,0.0000,0.0000,0.0000,0.001964,-1.576932,1.566194,1.7135,1.1970,0.2210,0.000000,0.702563,-0.659612,0.667282,-0.699495,0.651942,-0.656544
3.3049,0.020104,0.004915,-1.575398,1.566194,0.0000,0.0000,0.0000,0.002003,-1.575398,1.566194,1.8059,1.0944,0.4220,0.001534,0.705631,-0.661146,0.667282,-0.699495,0.653476,-0.656544
3.3250,0.020100,0.004975,-1.575398,1.566194,0.0000,0.0000,0.0000,0.002085,-1.575398,1.566194,1.8693,1.1371,0.4673,0.001534,0.707165,-0.664214,0.670350,-0.701029,0.655010,-0.656544
3.3451,0.020100,0.004965,-1.575398,1.566194,0.0000,0.0000,0.0000,0.002175,-1.576932,1.566194,1.9734,1.1295,0.4638,0.001534,0.708699,-0.668816,0.673418,-0.702563,0.656544,-0.656544
3.3652,0.020096,0.004904,-1.575398,1.566194,0.0000,0.0000,0.0000,0.002263,-1.576932,1.566194,1.9609,1.1912,0.3753,0.000000,0.708699,-0.671884,0.676486,-0.705631,0.659612,-0.656544
3.3853,0.020103,0.004844,-1.575398,1.566194,0.0000,0.0000,0.0000,0.002325,-1.575398,1.566194,1.9976,1.2512,0.5766,0.001534,0.710233,-0.673418,0.679553,-0.707165,0.661146,-0.656544
3.4054,0.020101,0.004784,-1.575398,1.566194,0.0000,0.0000,0.0000,0.002400,-1.576932,1.566194,2.0412,1.3597,0.6225,0.001534,0.711767,-0.674952,0.682621,-0.710233,0.662680,-0.656544
3.4255,0.020107,0.004723,-1.575398,1.566194,0.0000,0.0000,0.0000,0.002477,-1.575398,1.566194,2.1096,1.3795,0.6752,0.001534,0.713301,-0.678020,0.685689,-0.711767,0.664214,-0.656544
3.4456,0.020097,0.004663,-1.575398,1.566194,0.0000,0.0000,0.0000,0.002527,-1.575398,1.566194,2.1861,1.4610,0.8401,0.001534,0.714835,-0.679553,0.688757,-0.713301,0.665748,-0.655010
3.4661,0.020462,0.004602,-1.575398,1.566194,0.0000,0.0000,0.0000,0.002554,-1.575398,1.566194,2.1992,1.4551,0.8790,0.001534,0.716369,-0.679553,0.688757,-0.714835,0.667282,-0.655010
3.4862,0.020093,0.004542,-1.575398,1.566194,0.0000,0.0000,0.0000,0.002555,-1.575398,1.566194,2.1019,1.4511,0.7612,0.001534,0.714835,-0.679553,0.688757,-0.714835,0.667282,-0.656544
3.5063,0.020093,0.004481,-1.575398,1.566194,0.0000,0.0000,0.0000,0.002565,-1.575398,1.566194,2.1241,1.5000,0.6296,0.000000,0.714835,-0.679553,0.688757,-0.716369,0.667282,-0.656544
3.5263,0.020090,0.004421,-1.575398,1.566194,0.0000,0.0000,0.0000,0.002551,-1.575398,1.566194,2.1700,1.5125,0.7785,0.001534,0.714835,-0.679553,0.688757,-0.716369,0.667282,-0.655010
3.5464,0.020087,0.004361,-1.575398,1.566194,0.0000,0.0000,0.0000,0.002565,-1.575398,1.566194,2.1170,1.4935,0.7157,0.001534,0.714835,-0.679553,0.688757,-0.716369,0.667282,-0.656544
3.5665,0.020096,0.004300,-1.575398,1.566194,0.0000,0.0000,0.0000,0.002564,-1.575398,1.566194,2.1225,1.4955,0.7223,0.001534,0.714835,-0.679553,0.688757,-0.716369,0.667282,-0.656544
3.5866,0.020083,0.004240,-1.575398,1.566194,0.0000,0.0000,0.0000,0.002564,-1.575398,1.566194,2.1225,1.4955,0.7223,0.001534,0.714835,-0.679553,0.688757,-0.716369,0.667282,-0.656544
3.6067,0.020083,0.004180,-1.575398,1.566194,0.0000,0.0000,0.0000,0.002574,-1.575398,1.566194,2.1696,1.4822,0.6910,0.000000,0.716369,-0.679553,0.688757,-0.716369,0.667282,-0.656544
3.6268,0.020084,0.004120,-1.575398,1.566194,0.0000,0.0000,0.0000,0.002550,-1.575398,1.566194,2.1653,1.5144,0.6843,0.000000,0.714835,-0.679553,0.688757,-0.716369,0.667282,-0.655010
3.6469,0.020084,0.004059,-1.575398,1.566194,0.0000,0.0000,0.0000,0.002552,-1.576932,1.566194,2.1657,1.5110,0.6850,0.000000,0.714835,-0.679553,0.688757,-0.716369,0.667282,-0.655010
3.6671,0.020253,0.003999,-1.575398,1.566194,0.0000,0.0000,0.0000,0.002575,-1.575398,1.566194,2.1651,1.4806,0.6857,0.000000,0.716369,-0.679553,0.688757,-0.716369,0.667282,-0.656544
3.6872,0.020067,0.003938,-1.575398,1.566194,0.0000,0.0000,0.0000,0.002572,-1.575398,1.566194,2.1652,1.4838,0.6857,0.000000,0.716369,-0.679553,0.688757,-0.716369,0.667282,-0.656544
3.7073,0.020102,0.003878,-1.575398,1.566194,0.0000,0.0000,0.0000,0.002563,-1.575398,1.566194,2.1175,1.4965,0.7163,0.001534,0.714835,-0.679553,0.688757,-0.716369,0.667282,-0.656544
3.7274,0.020102,0.003818,-1.575398,1.566194,0.0000,0.0000,0.0000,0.002574,-1.575398,1.566194,2.1702,1.4821,0.6916,0.000000,0.716369,-0.679553,0.688757,-0.716369,0.667282,-0.656544
3.7475,0.020089,0.003758,-1.575398,1.566194,0.0000,0.0000,0.0000,0.002563,-1.575398,1.566194,2.1170,1.4967,0.6277,0.000000,0.714835,-0.679553,0.688757,-0.716369,0.667282,-0.656544
3.7676,0.020165,0.003697,-1.575398,1.566194,0.0000,0.0000,0.0000,0.002564,-1.575398,1.566194,2.1225,1.4952,0.7223,0.001534,0.714835,-0.679553,0.688757,-0.716369,0.667282,-0.656544
3.7877,0.020089,0.003637,-1.575398,1.566194,0.0000,0.0000,0.0000,0.002564,-1.576932,1.566194,2.1225,1.4952,0.7223,0.001534,0.714835,-0.679553,0.688757,-0.716369,0.667282,-0.656544
3.8080,0.020271,0.003576,-1.575398,1.566194,0.0000,0.0000,0.0000,0.002554,-1.575398,1.566194,2.0743,1.5085,0.6643,0.001534,0.713301,-0.679553,0.688757,-0.716369,0.667282,-0.656544
3.8281,0.020090,0.003516,-1.575398,1.566194,0.0000,0.0000,0.0000,0.002532,-1.576932,1.566194,2.0798,1.5379,0.6696,0.001534,0.711767,-0.679553,0.688757,-0.716369,0.667282,-0.655010
3.8482,0.020091,0.003455,-1.575398,1.566194,0.0000,0.0000,0.0000,0.002537,-1.575398,1.566194,1.9832,1.5305,0.4674,0.000000,0.710233,-0.679553,0.688757,-0.716369,0.667282,-0.656544
3.8683,0.020093,0.003395,-1.575398,1.566194,0.0000,0.0000,0.0000,0.002527,-1.576932,1.566194,1.9454,1.5447,0.4221,0.000000,0.708699,-0.679553,0.688757,-0.716369,0.667282,-0.656544
3.8884,0.020088,0.003335,-1.575398,1.566194,0.0000,0.0000,0.0000,0.002487,-1.576932,1.566194,1.8299,1.4735,0.4245,0.000000,0.705631,-0.679553,0.688757,-0.713301,0.667282,-0.656544
3.9085,0.020093,0.003275,-1.575398,1.566194,0.0000,0.0000,0.0000,0.002470,-1.576932,1.566194,1.8182,1.3841,0.6241,0.001534,0.705631,-0.679553,0.688757,-0.710233,0.667282,-0.656544
3.9285,0.020092,0.003214,-1.575398,1.566194,0.0000,0.0000,0.0000,0.002451,-1.576932,1.566194,1.7599,1.3585,0.6113,0.001534,0.704097,-0.679553,0.688757,-0.708699,0.667282,-0.656544
3.9486,0.020089,0.003154,-1.575398,1.566194,0.0000,0.0000,0.0000,0.002430,-1.576932,1.566194,1.7665,1.3919,0.6120,0.001534,0.702563,-0.679553,0.688757,-0.708699,0.667282,-0.655010
3.9687,0.020084,0.003094,-1.575398,1.566194,0.0000,0.0000,0.0000,0.002401,-1.576932,1.566194,1.6584,1.3672,0.5539,0.001534,0.699495,-0.679553,0.688757,-0.707165,0.667282,-0.655010
3.9888,0.020078,0.003034,-1.575398,1.566194,0.0000,0.0000,0.0000,0.002363,-1.575398,1.566194,1.4908,1.2348,0.4697,0.000000,0.696427,-0.679553,0.688757,-0.702563,0.667282,-0.656544
4.0089,0.020085,0.002973,-1.575398,1.566194,0.0000,0.0000,0.0000,0.002377,-1.575398,1.566194,1.5562,1.2346,0.5261,0.000000,0.697961,-0.679553,0.688757,-0.702563,0.667282,-0.656544
4.0290,0.020083,0.002913,-1.575398,1.566194,0.0000,0.0000,0.0000,0.002342,-1.576932,1.566194,1.5385,1.2167,0.6634,0.001534,0.696427,-0.679553,0.688757,-0.701029,0.667282,-0.655010
4.0491,0.020088,0.002853,-1.575398,1.566194,0.0000,0.0000,0.0000,0.002302,-1.575398,1.566194,1.4218,1.1489,0.6564,0.001534,0.693359,-0.679553,0.688757,-0.697961,0.667282,-0.655010
4.0691,0.020090,0.002793,-1.575398,1.566194,0.0000,0.0000,0.0000,0.002285,-1.576932,1.566194,1.2783,1.1187,0.5434,0.001534,0.690291,-0.679553,0.688757,-0.696427,0.667282,-0.656544
4.0892,0.020079,0.002732,-1.575398,1.566194,0.0000,0.0000,0.0000,0.002287,-1.575398,1.566194,1.2933,1.1219,0.4673,0.000000,0.690291,-0.679553,0.688757,-0.696427,0.667282,-0.656544
4.1093,0.020082,0.002672,-1.575398,1.566194,0.0000,0.0000,0.0000,0.002287,-1.576932,1.566194,1.2912,1.1215,0.5535,0.001534,0.690291,-0.679553,0.688757,-0.696427,0.667282,-0.656544
4.1295,0.020173,0.002612,-1.575398,1.566194,0.0000,0.0000,0.0000,0.002252,-1.575398,1.566194,1.2813,1.1035,0.5216,0.000000,0.688757,-0.679553,0.688757,-0.694893,0.667282,-0.655010
4.1496,0.020095,0.002551,-1.575398,1.566194,0.0000,0.0000,0.0000,0.002234,-1.576932,1.566194,1.1635,1.0052,0.6025,0.001534,0.687223,-0.679553,0.688757,-0.691825,0.667282,-0.656544
4.1699,0.020355,0.002490,-1.575398,1.566194,0.0000,0.0000,0.0000,0.002225,-1.575398,1.566194,1.1278,1.0299,0.5467,0.001534,0.685689,-0.679553,0.688757,-0.691825,0.667282,-0.656544
4.1900,0.020085,0.002430,-1.575398,1.566194,0.0000,0.0000,0.0000,0.002166,-1.575398,1.566194,1.1429,0.9109,0.4067,0.000000,0.684155,-0.679553,0.685689,-0.690291,0.667282,-0.655010
4.2103,0.020275,0.002369,-1.575398,1.566194,0.0000,0.0000,0.0000,0.002126,-1.576932,1.566194,1.0450,0.8540,0.3865,0.001534,0.681087,-0.679553,0.684155,-0.688757,0.667282,-0.655010
4.2304,0.020084,0.002309,-1.575398,1.566194,0.0000,0.0000,0.0000,0.002107,-1.575398,1.566194,0.9582,0.7601,0.1968,0.000000,0.679553,-0.679553,0.682621,-0.687223,0.667282,-0.656544
4.2505,0.020091,0.002249,-1.575398,1.566194,0.0000,0.0000,0.0000,0.002098,-1.575398,1.566194,0.9563,0.7208,0.2631,0.000000,0.679553,-0.679553,0.682621,-0.685689,0.667282,-0.656544
4.2706,0.020088,0.002188,-1.575398,1.566194,0.0000,0.0000,0.0000,0.002050,-1.575398,1.566194,1.0157,0.5932,0.2549,0.000000,0.679553,-0.679553,0.679553,-0.684155,0.667282,-0.655010
4.2907,0.020104,0.002128,-1.575398,1.566194,0.0000,0.0000,0.0000,0.001985,-1.575398,1.566194,0.9128,0.4385,0.2300,0.001534,0.676486,-0.679553,0.676486,-0.681087,0.667282,-0.655010
4.3109,0.020251,0.002067,-1.575398,1.566194,0.0000,0.0000,0.0000,0.001944,-1.575398,1.566194,0.7788,0.4694,0.2415,0.001534,0.673418,-0.678020,0.676486,-0.679553,0.667282,-0.655010
4.3310,0.020089,0.002007,-1.575398,1.566194,0.0000,0.0000,0.0000,0.001925,-1.575398,1.566194,0.6211,0.5340,0.2405,0.001534,0.671884,-0.674952,0.676486,-0.679553,0.667282,-0.656544
4.3511,0.020092,0.001947,-1.575398,1.566194,0.0000,0.0000,0.0000,0.001879,-1.575398,1.566194,0.5841,0.4971,0.2401,0.001534,0.671884,-0.671884,0.673418,-0.679553,0.667282,-0.656544
4.3713,0.020199,0.001886,-1.575398,1.566194,0.0000,0.0000,0.0000,0.001848,-1.575398,1.566194,0.5771,0.3528,0.2077,0.000000,0.671884,-0.671884,0.671884,-0.676486,0.667282,-0.656544
4.3914,0.020081,0.001826,-1.575398,1.566194,0.0000,0.0000,0.0000,0.001780,-1.575398,1.566194,0.5189,0.2652,0.2890,0.001534,0.668816,-0.671884,0.670350,-0.673418,0.667282,-0.655010
4.4116,0.020257,0.001765,-1.575398,1.566194,0.0000,0.0000,0.0000,0.001788,-1.575398,1.566194,0.4657,0.2089,0.2018,0.000000,0.668816,-0.671884,0.670350,-0.671884,0.667282,-0.656544
4.4317,0.020120,0.001705,-1.575398,1.566194,0.0000,0.0000,0.0000,0.001763,-1.575398,1.566194,0.3854,0.2642,0.2018,0.000000,0.667282,-0.670350,0.670350,-0.671884,0.667282,-0.656544
4.4518,0.020080,0.001645,-1.575398,1.566194,0.0000,0.0000,0.0000,0.001706,-1.576932,1.566194,0.2915,0.2432,0.1458,0.000000,0.665748,-0.667282,0.667282,-0.671884,0.667282,-0.656544
4.4719,0.020085,0.001584,-1.575398,1.566194,0.0000,0.0000,0.0000,0.001651,-1.575398,1.566194,0.2638,0.2116,0.2950,0.001534,0.664214,-0.665748,0.665748,-0.670350,0.667282,-0.655010
4.4920,0.020086,0.001524,-1.575398,1.566194,0.0000,0.0000,0.0000,0.001597,-1.575398,1.566194,0.1321,0.1804,0.1449,0.000000,0.661146,-0.664214,0.664214,-0.668816,0.667282,-0.655010
4.5121,0.020097,0.001464,-1.575398,1.566194,0.0000,0.0000,0.0000,0.001580,-1.575398,1.566194,0.0865,0.1868,0.2394,0.001534,0.661146,-0.662680,0.664214,-0.667282,0.665748,-0.656544
4.5322,0.020095,0.001403,-1.575398,1.566194,0.0000,0.0000,0.0000,0.001486,-1.575398,1.566194,0.1666,0.0867,0.1273,0.001534,0.659612,-0.662680,0.661146,-0.664214,0.662680,-0.655010
4.5523,0.020086,0.001343,-1.575398,1.566194,0.0000,0.0000,0.0000,0.001448,-1.575398,1.566194,0.1474,0.2151,0.0279,0.001534,0.658078,-0.661146,0.661146,-0.664214,0.659612,-0.655010
4.5724,0.020085,0.001283,-1.575398,1.566194,0.0000,0.0000,0.0000,0.001404,-1.576932,1.566194,0.1496,0.1708,-0.0496,0.000000,0.658078,-0.659612,0.659612,-0.662680,0.658078,-0.655010
4.5925,0.020092,0.001223,-1.575398,1.566194,0.0000,0.0000,0.0000,0.001263,-1.575398,1.566194,0.1223,0.2224,-0.0507,0.000000,0.653476,-0.656544,0.656544,-0.661146,0.656544,-0.650408
4.6125,0.020089,0.001162,-1.575398,1.566194,0.0000,0.0000,0.0000,0.001242,-1.575398,1.566194,0.0008,0.1331,0.0928,0.001534,0.651942,-0.655010,0.655010,-0.659612,0.658078,-0.650408
4.6326,0.020095,0.001102,-1.575398,1.566194,0.0000,0.0000,0.0000,0.001208,-1.576932,1.566194,0.0138,0.1428,0.1655,0.000000,0.651942,-0.653476,0.655010,-0.658078,0.658078,-0.648874
4.6527,0.020082,0.001042,-1.575398,1.566194,0.0000,0.0000,0.0000,0.001127,-1.575398,1.566194,0.1095,0.2419,0.1810,0.001534,0.650408,-0.651942,0.653476,-0.658078,0.655010,-0.645806
4.6728,0.020086,0.000982,-1.575398,1.566194,0.0000,0.0000,0.0000,0.001064,-1.575398,1.566194,0.1540,0.2689,0.1888,0.001534,0.650408,-0.650408,0.653476,-0.655010,0.650408,-0.645806
4.6929,0.020084,0.000921,-1.575398,1.566194,0.0000,0.0000,0.0000,0.001046,-1.575398,1.566194,0.1494,0.1662,0.1879,0.001534,0.650408,-0.650408,0.651942,-0.653476,0.650408,-0.645806
4.7130,0.020090,0.000861,-1.575398,1.566194,0.0000,0.0000,0.0000,0.000987,-1.575398,1.566194,0.2092,0.1426,0.0218,0.001534,0.648874,-0.650408,0.648874,-0.653476,0.648874,-0.644272
4.7331,0.020093,0.000801,-1.575398,1.566194,0.0000,0.0000,0.0000,0.000909,-1.576932,1.566194,0.0948,0.2264,-0.1040,0.000000,0.644272,-0.648874,0.648874,-0.651942,0.647340,-0.642738
4.7532,0.020085,0.000741,-1.575398,1.566194,0.0000,0.0000,0.0000,0.000844,-1.575398,1.566194,0.0308,0.2180,0.0104,0.000000,0.642738,-0.645806,0.647340,-0.650408,0.647340,-0.641204
4.7732,0.020083,0.000680,-1.575398,1.566194,0.0000,0.0000,0.0000,0.000827,-1.576932,1.566194,0.0101,0.2033,-0.0016,0.000000,0.642738,-0.644272,0.645806,-0.650408,0.647340,-0.641204
4.7933,0.020088,0.000620,-1.575398,1.566194,0.0000,0.0000,0.0000,0.000720,-1.575398,1.566194,0.0610,0.1208,0.0549,0.000000,0.641204,-0.642738,0.642738,-0.647340,0.645806,-0.638136
4.8134,0.020086,0.000560,-1.575398,1.566194,0.0000,0.0000,0.0000,0.000658,-1.575398,1.566194,0.2295,0.1296,0.1369,0.001534,0.641204,-0.642738,0.641204,-0.645806,0.642738,-0.635068
4.8335,0.020083,0.000500,-1.575398,1.566194,0.0000,0.0000,0.0000,0.000604,-1.576932,1.566194,0.1037,0.1786,0.0824,0.001534,0.638136,-0.641204,0.641204,-0.644272,0.641204,-0.635068
4.8536,0.020055,0.000439,-1.575398,1.566194,0.0000,0.0000,0.0000,0.000525,-1.575398,1.566194,0.0788,0.2082,0.1432,0.001534,0.636602,-0.638136,0.639670,-0.642738,0.639670,-0.633534
4.8736,0.020089,0.000379,-1.575398,1.566194,0.0000,0.0000,0.0000,0.000485,-1.575398,1.566194,-0.0057,0.1550,0.1368,0.001534,0.635068,-0.636602,0.638136,-0.641204,0.639670,-0.633534
4.8937,0.020096,0.000319,-1.575398,1.566194,0.0000,0.0000,0.0000,0.000391,-1.576932,1.566194,0.0837,0.1264,0.0273,0.001534,0.633534,-0.635068,0.633534,-0.641204,0.638136,-0.630466
4.9138,0.020106,0.000258,-1.575398,1.566194,0.0000,0.0000,0.0000,0.000340,-1.576932,1.566194,0.1509,0.0290,0.0937,0.001534,0.633534,-0.635068,0.632000,-0.638136,0.636602,-0.628932
4.9339,0.020099,0.000198,-1.575398,1.566194,0.0000,0.0000,0.0000,0.000345,-1.575398,1.566194,0.0843,0.1051,0.0869,0.001534,0.632000,-0.635068,0.633534,-0.638136,0.636602,-0.628932
4.9540,0.020086,0.000138,-1.575398,1.566194,0.0000,0.0000,0.0000,0.000284,-1.575398,1.566194,0.0808,0.1477,0.0547,0.000000,0.630466,-0.633534,0.633534,-0.636602,0.635068,-0.627398
4.9741,0.020084,0.000078,-1.575398,1.566194,0.0000,0.0000,0.0000,0.000218,-1.575398,1.566194,0.0812,0.1434,0.0488,0.000000,0.628932,-0.632000,0.632000,-0.635068,0.633534,-0.625864
4.9942,0.020085,0.000017,-1.575398,1.566194,0.0000,0.0000,0.0000,0.000103,-1.575398,1.566194,0.1408,0.1787,0.0493,0.000000,0.627398,-0.628932,0.628932,-0.633534,0.630466,-0.622796
5.0143,0.020091,-0.000043,-1.575398,1.566194,0.0000,0.0000,0.0000,0.000115,-1.576932,1.566194,0.1346,0.1750,0.1372,0.001534,0.627398,-0.628932,0.628932,-0.633534,0.630466,-0.622796
5.0344,0.020100,-0.000103,-1.575398,1.566194,0.0000,0.0000,0.0000,0.000028,-1.575398,1.566194,0.0096,0.1916,0.1919,0.001534,0.624330,-0.625864,0.627398,-0.632000,0.630466,-0.621262
5.0545,0.020089,-0.000163,-1.575398,1.566194,0.0000,0.0000,0.0000,-0.000048,-1.575398,1.566194,-0.0584,0.0543,0.1316,0.001534,0.621262,-0.625864,0.625864,-0.627398,0.628932,-0.621262
5.0746,0.020103,-0.000224,-1.575398,1.566194,0.0000,0.0000,0.0000,-0.000048,-1.575398,1.566194,-0.0584,0.0543,0.1316,0.001534,0.619728,-0.624330,0.624330,-0.625864,0.624330,-0.618194
5.0948,0.020264,-0.000285,-1.575398,1.566194,0.0000,0.0000,0.0000,-0.000150,-1.575398,1.566194,0.0743,0.1537,0.0831,0.000000,0.621262,-0.621262,0.621262,-0.627398,0.621262,-0.615126
5.1150,0.020109,-0.000345,-1.575398,1.566194,0.0000,0.0000,0.0000,-0.000243,-1.576932,1.566194,0.2120,0.2193,0.0543,0.000000,0.619728,-0.621262,0.621262,-0.625864,0.621262,-0.613592
5.1351,0.020118,-0.000405,-1.575398,1.566194,0.0000,0.0000,0.0000,-0.000325,-1.575398,1.566194,0.0184,0.1530,-0.0060,0.000000,0.615126,-0.619728,0.619728,-0.622796,0.621262,-0.613592
5.1553,0.020242,-0.000466,-1.575398,1.566194,0.0000,0.0000,0.0000,-0.000353,-1.576932,1.566194,-0.1194,0.0934,0.1429,0.001534,0.613592,-0.618194,0.619728,-0.619728,0.621262,-0.615126
5.1755,0.020160,-0.000526,-1.575398,1.566194,0.0000,0.0000,0.0000,-0.000400,-1.575398,1.566194,-0.0345,0.1158,0.2456,0.001534,0.613592,-0.616660,0.618194,-0.619728,0.621262,-0.612058
5.1956,0.020101,-0.000587,-1.575398,1.566194,0.0000,0.0000,0.0000,-0.000419,-1.576932,1.566194,0.1918,0.2497,0.2348,0.001534,0.615126,-0.616660,0.618194,-0.621262,0.618194,-0.608990
5.2157,0.020109,-0.000647,-1.575398,1.566194,0.0000,0.0000,0.0000,-0.000527,-1.576932,1.566194,0.2559,0.2542,0.0724,0.001534,0.613592,-0.615126,0.615126,-0.619728,0.613592,-0.607456
5.2358,0.020117,-0.000707,-1.575398,1.566194,0.0000,0.0000,0.0000,-0.000614,-1.576932,1.566194,0.1613,0.1341,0.0891,0.001534,0.610524,-0.613592,0.612058,-0.616660,0.613592,-0.605922
5.2559,0.020142,-0.000768,-1.575398,1.566194,0.0000,0.0000,0.0000,-0.000642,-1.575398,1.566194,0.0729,0.1467,0.0539,0.000000,0.608990,-0.612058,0.612058,-0.615126,0.613592,-0.605922
5.2760,0.020097,-0.000828,-1.575398,1.566194,0.0000,0.0000,0.0000,-0.000676,-1.575398,1.566194,-0.0162,0.1454,0.1029,0.000000,0.607456,-0.610524,0.612058,-0.613592,0.613592,-0.605922
5.2963,0.020302,-0.000889,-1.575398,1.566194,0.0000,0.0000,0.0000,-0.000758,-1.575398,1.566194,0.0633,0.1988,0.0432,0.000000,0.607456,-0.607456,0.608990,-0.613592,0.610524,-0.604388
5.3164,0.020103,-0.000949,-1.575398,1.566194,0.0000,0.0000,0.0000,-0.000897,-1.575398,1.566194,0.1430,0.1752,0.1372,0.001534,0.604388,-0.605922,0.605922,-0.610524,0.607456,-0.599786
5.3366,0.020127,-0.001010,-1.575398,1.566194,0.0000,0.0000,0.0000,-0.000907,-1.575398,1.566194,0.1737,0.1433,0.1573,0.000000,0.604388,-0.605922,0.605922,-0.608990,0.607456,-0.598253
5.3567,0.020097,-0.001070,-1.575398,1.566194,0.0000,0.0000,0.0000,-0.000943,-1.575398,1.566194,0.1493,0.1464,0.0918,0.000000,0.602854,-0.605922,0.605922,-0.607456,0.605922,-0.598253
5.3768,0.020096,-0.001130,-1.575398,1.566194,0.0000,0.0000,0.0000,-0.000989,-1.575398,1.566194,0.0247,0.1621,0.0780,0.001534,0.599786,-0.604388,0.604388,-0.607456,0.605922,-0.598253
5.3969,0.020095,-0.001191,-1.575398,1.566194,0.0000,0.0000,0.0000,-0.001021,-1.575398,1.566194,0.0482,0.1790,-0.0536,0.000000,0.599786,-0.602854,0.602854,-0.607456,0.604388,-0.598253
5.4170,0.020099,-0.001251,-1.575398,1.566194,0.0000,0.0000,0.0000,-0.001021,-1.575398,1.566194,0.0482,0.1790,-0.0536,0.000000,0.598253,-0.601320,0.601320,-0.605922,0.602854,-0.595185
5.4371,0.020104,-0.001311,-1.575398,1.566194,0.0000,0.0000,0.0000,-0.001193,-1.575398,1.566194,0.1010,0.1093,0.1073,0.000000,0.598253,-0.598253,0.598253,-0.602854,0.601320,-0.593651
5.4572,0.020100,-0.001371,-1.575398,1.566194,0.0000,0.0000,0.0000,-0.001233,-1.575398,1.566194,0.1287,0.1343,0.1845,0.001534,0.596719,-0.598253,0.598253,-0.601320,0.599786,-0.592117
5.4773,0.020098,-0.001432,-1.575398,1.566194,0.0000,0.0000,0.0000,-0.001303,-1.576932,1.566194,0.1259,0.1318,0.1856,0.001534,0.595185,-0.596719,0.596719,-0.599786,0.598253,-0.590583
5.4973,0.020089,-0.001492,-1.575398,1.566194,0.0000,0.0000,0.0000,-0.001394,-1.576932,1.566194,0.1546,0.2504,0.1855,0.001534,0.592117,-0.595185,0.596719,-0.598253,0.595185,-0.587515
5.5174,0.020092,-0.001552,-1.575398,1.566194,0.0000,0.0000,0.0000,-0.001447,-1.575398,1.566194,0.0737,0.1362,0.1313,0.001534,0.590583,-0.593651,0.593651,-0.596719,0.595185,-0.587515
5.5375,0.020101,-0.001613,-1.575398,1.566194,0.0000,0.0000,0.0000,-0.001516,-1.576932,1.566194,0.0144,0.1297,0.0290,0.001534,0.587515,-0.592117,0.590583,-0.596719,0.595185,-0.585981
5.5576,0.020092,-0.001673,-1.575398,1.566194,0.0000,0.0000,0.0000,-0.001582,-1.575398,1.566194,0.0098,0.1486,-0.0681,0.001534,0.585981,-0.590583,0.589049,-0.595185,0.592117,-0.585981
5.5777,0.020098,-0.001733,-1.575398,1.566194,0.0000,0.0000,0.0000,-0.001600,-1.575398,1.566194,0.0494,0.1122,0.0498,0.001534,0.585981,-0.590583,0.589049,-0.593651,0.592117,-0.584447
5.5979,0.020150,-0.001794,-1.575398,1.566194,0.0000,0.0000,0.0000,-0.001600,-1.576932,1.566194,0.0494,0.1122,0.0498,0.001534,0.585981,-0.589049,0.589049,-0.592117,0.590583,-0.582913
5.6180,0.020108,-0.001854,-1.575398,1.566194,0.0000,0.0000,0.0000,-0.001648,-1.576932,1.566194,0.0846,0.1509,0.1453,0.001534,0.585981,-0.589049,0.589049,-0.592117,0.590583,-0.582913
5.6381,0.020094,-0.001914,-1.575398,1.566194,0.0000,0.0000,0.0000,-0.001809,-1.575398,1.566194,0.0876,0.3450,0.1363,0.001534,0.581379,-0.584447,0.587515,-0.590583,0.585981,-0.578311
5.6582,0.020120,-0.001975,-1.575398,1.566194,0.0000,0.0000,0.0000,-0.001935,-1.575398,1.566194,-0.0290,0.2111,0.0825,0.001534,0.576777,-0.582913,0.584447,-0.585981,0.584447,-0.576777
5.6783,0.020109,-0.002035,-1.575398,1.566194,0.0000,0.0000,0.0000,-0.001934,-1.575398,1.566194,-0.1160,0.1922,0.1419,0.001534,0.576777,-0.581379,0.584447,-0.584447,0.584447,-0.578311
5.6984,0.020108,-0.002095,-1.575398,1.566194,0.0000,0.0000,0.0000,-0.001934,-1.575398,1.566194,-0.1160,0.1922,0.1419,0.001534,0.576777,-0.581379,0.584447,-0.584447,0.584447,-0.578311
5.7185,0.020111,-0.002156,-1.575398,1.566194,0.0000,0.0000,0.0000,-0.001972,-1.575398,1.566194,-0.1066,0.1941,0.2968,0.001534,0.576777,-0.579845,0.584447,-0.582913,0.584447,-0.576777
5.7386,0.020097,-0.002216,-1.575398,1.566194,0.0000,0.0000,0.0000,-0.002042,-1.576932,1.566194,-0.0655,0.1947,0.3876,0.001534,0.576777,-0.576777,0.581379,-0.582913,0.584447,-0.573709
5.7587,0.020111,-0.002276,-1.575398,1.566194,0.0000,0.0000,0.0000,-0.002097,-1.575398,1.566194,0.0578,0.1783,0.3244,0.001534,0.576777,-0.576777,0.579845,-0.581379,0.581379,-0.572175
5.7791,0.020341,-0.002337,-1.575398,1.566194,0.0000,0.0000,0.0000,-0.002203,-1.576932,1.566194,-0.0646,0.1615,0.2773,0.001534,0.570641,-0.575243,0.578311,-0.576777,0.578311,-0.570641
5.7992,0.020126,-0.002398,-1.575398,1.566194,0.0000,0.0000,0.0000,-0.002229,-1.576932,1.566194,-0.0730,0.1631,0.2286,0.001534,0.570641,-0.575243,0.578311,-0.576777,0.578311,-0.570641
5.8193,0.020095,-0.002458,-1.575398,1.566194,0.0000,0.0000,0.0000,-0.002251,-1.575398,1.566194,-0.1116,0.1283,0.1266,0.001534,0.569107,-0.575243,0.576777,-0.576777,0.578311,-0.570641
5.8394,0.020100,-0.002518,-1.575398,1.566194,0.0000,0.0000,0.0000,-0.002286,-1.575398,1.566194,-0.0579,0.2180,0.1906,0.000000,0.569107,-0.569107,0.573709,-0.575243,0.576777,-0.566039
5.8600,0.020619,-0.002580,-1.575398,1.566194,0.0000,0.0000,0.0000,-0.002558,-1.576932,1.566194,-0.0804,0.2139,0.4288,0.001534,0.566039,-0.564505,0.570641,-0.570641,0.572175,-0.562971
5.8801,0.020104,-0.002640,-1.575398,1.566194,0.0000,0.0000,0.0000,-0.002558,-1.575398,1.566194,-0.0804,0.2139,0.4288,0.001534,0.562971,-0.562971,0.569107,-0.569107,0.570641,-0.561437
5.9007,0.020596,-0.002702,-1.575398,1.566194,0.0000,0.0000,0.0000,-0.002627,-1.575398,1.566194,-0.1292,0.2283,0.3719,0.001534,0.562971,-0.562971,0.569107,-0.569107,0.570641,-0.561437
5.9208,0.020104,-0.002762,-1.575398,1.566194,0.0000,0.0000,0.0000,-0.002657,-1.575398,1.566194,-0.0850,0.2948,0.3244,0.001534,0.561437,-0.562971,0.566039,-0.566039,0.567573,-0.558369
5.9409,0.020112,-0.002823,-1.575398,1.566194,0.0000,0.0000,0.0000,-0.002729,-1.576932,1.566194,-0.0004,0.1340,0.3293,0.001534,0.559903,-0.562971,0.564505,-0.566039,0.566039,-0.556835
5.9610,0.020101,-0.002883,-1.575398,1.566194,0.0000,0.0000,0.0000,-0.002772,-1.575398,1.566194,0.0404,0.1674,0.2221,0.001534,0.559903,-0.561437,0.564505,-0.566039,0.566039,-0.556835
5.9811,0.020104,-0.002943,-1.575398,1.566194,0.0000,0.0000,0.0000,-0.002780,-1.575398,1.566194,-0.0032,0.1988,0.2865,0.001534,0.558369,-0.561437,0.562971,-0.564505,0.566039,-0.556835
6.0012,0.020107,-0.003004,-1.575398,1.566194,0.0000,0.0000,0.0000,-0.002816,-1.575398,1.566194,-0.0484,0.1092,0.2266,0.001534,0.556835,-0.558369,0.562971,-0.561437,0.562971,-0.553767
6.0215,0.020245,-0.003064,-1.575398,1.566194,0.0000,0.0000,0.0000,-0.003038,-1.576932,1.566194,-0.0579,0.2299,0.2682,0.001534,0.553767,-0.555301,0.559903,-0.559903,0.559903,-0.552233
6.0416,0.020136,-0.003125,-1.575398,1.566194,0.0000,0.0000,0.0000,-0.003038,-1.576932,1.566194,-0.0430,0.1759,0.2280,0.001534,0.553767,-0.555301,0.558369,-0.559903,0.559903,-0.552233
6.0617,0.020097,-0.003185,-1.575398,1.566194,0.0000,0.0000,0.0000,-0.003088,-1.575398,1.566194,-0.0156,0.1982,0.2322,0.001534,0.552233,-0.555301,0.558369,-0.558369,0.558369,-0.550699
6.0818,0.020118,-0.003246,-1.575398,1.566194,0.0000,0.0000,0.0000,-0.003088,-1.576932,1.566194,-0.0156,0.1982,0.2322,0.001534,0.549165,-0.552233,0.555301,-0.556835,0.556835,-0.547631
6.1020,0.020119,-0.003306,-1.575398,1.566194,0.0000,0.0000,0.0000,-0.003208,-1.575398,1.566194,-0.0475,0.2129,0.2315,0.001534,0.547631,-0.552233,0.553767,-0.553767,0.556835,-0.546097
6.1221,0.020166,-0.003366,-1.575398,1.566194,0.0000,0.0000,0.0000,-0.003259,-1.575398,1.566194,-0.0542,0.0902,0.2846,0.001534,0.547631,-0.549165,0.552233,-0.553767,0.555301,-0.544563
6.1422,0.020118,-0.003427,-1.575398,1.566194,0.0000,0.0000,0.0000,-0.003316,-1.576932,1.566194,-0.0328,0.1730,0.3317,0.001534,0.546097,-0.547631,0.552233,-0.552233,0.550699,-0.544563
6.1624,0.020110,-0.003487,-1.575398,1.566194,0.0000,0.0000,0.0000,-0.003390,-1.575398,1.566194,-0.0581,0.2936,0.2851,0.001534,0.546097,-0.546097,0.552233,-0.552233,0.550699,-0.544563
6.1829,0.020546,-0.003549,-1.575398,1.566194,0.0000,0.0000,0.0000,-0.003390,-1.575398,1.566194,-0.0581,0.2936,0.2851,0.001534,0.546097,-0.546097,0.552233,-0.552233,0.550699,-0.544563
6.2030,0.020109,-0.003609,-1.575398,1.566194,0.0000,0.0000,0.0000,-0.003439,-1.575398,1.566194,-0.0536,0.2215,0.1906,0.001534,0.543029,-0.546097,0.546097,-0.547631,0.550699,-0.541495
6.2231,0.020086,-0.003669,-1.575398,1.566194,0.0000,0.0000,0.0000,-0.003576,-1.576932,1.566194,-0.0948,0.1472,0.1788,0.001534,0.539961,-0.544563,0.546097,-0.547631,0.549165,-0.539961
6.2432,0.020106,-0.003730,-1.575398,1.566194,0.0000,0.0000,0.0000,-0.003576,-1.576932,1.566194,-0.0948,0.1472,0.1788,0.001534,0.539961,-0.544563,0.546097,-0.547631,0.549165,-0.539961
6.2633,0.020099,-0.003790,-1.575398,1.566194,0.0000,0.0000,0.0000,-0.003658,-1.576932,1.566194,-0.0891,0.2359,0.3418,0.001534,0.538427,-0.539961,0.544563,-0.544563,0.546097,-0.535359
6.2834,0.020105,-0.003850,-1.575398,1.566194,0.0000,0.0000,0.0000,-0.003712,-1.575398,1.566194,-0.0398,0.2101,0.3774,0.001534,0.536893,-0.538427,0.543029,-0.541495,0.544563,-0.533825
6.3035,0.020109,-0.003911,-1.575398,1.566194,0.0000,0.0000,0.0000,-0.003794,-1.575398,1.566194,-0.0551,0.1612,0.4262,0.001534,0.536893,-0.538427,0.543029,-0.541495,0.544563,-0.533825
6.3236,0.020097,-0.003971,-1.575398,1.566194,0.0000,0.0000,0.0000,-0.003873,-1.575398,1.566194,-0.0541,0.1326,0.2629,0.001534,0.533825,-0.536893,0.539961,-0.538427,0.539961,-0.532291
6.3437,0.020105,-0.004031,-1.575398,1.566194,0.0000,0.0000,0.0000,-0.003915,-1.575398,1.566194,-0.0248,0.1523,0.2799,0.001534,0.533825,-0.536893,0.539961,-0.538427,0.539961,-0.532291
6.3638,0.020095,-0.004091,-1.575398,1.566194,0.0000,0.0000,0.0000,-0.003911,-1.576932,1.566194,-0.0678,0.2189,0.1728,0.001534,0.532291,-0.536893,0.539961,-0.539961,0.539961,-0.532291
6.3839,0.020099,-0.004152,-1.575398,1.566194,0.0000,0.0000,0.0000,-0.003986,-1.575398,1.566194,-0.0821,0.1437,0.2890,0.001534,0.530757,-0.532291,0.536893,-0.538427,0.538427,-0.527689
6.4050,0.021128,-0.004215,-1.575398,1.566194,0.0000,0.0000,0.0000,-0.004136,-1.575398,1.566194,-0.0962,0.2239,0.3248,0.001534,0.527689,-0.530757,0.535359,-0.535359,0.536893,-0.526155
6.4251,0.020093,-0.004275,-1.575398,1.566194,0.0000,0.0000,0.0000,-0.004227,-1.576932,1.566194,0.0002,0.1436,0.3251,0.001534,0.527689,-0.529223,0.532291,-0.532291,0.533825,-0.524621
6.4452,0.020112,-0.004336,-1.575398,1.566194,0.0000,0.0000,0.0000,-0.004227,-1.575398,1.566194,0.0002,0.1436,0.3251,0.001534,0.526155,-0.529223,0.532291,-0.530757,0.532291,-0.524621
6.4654,0.020113,-0.004396,-1.575398,1.566194,0.0000,0.0000,0.0000,-0.004255,-1.575398,1.566194,-0.0306,0.1516,0.2726,0.001534,0.524621,-0.526155,0.530757,-0.530757,0.530757,-0.523087
6.4855,0.020096,-0.004456,-1.575398,1.566194,0.0000,0.0000,0.0000,-0.004327,-1.575398,1.566194,-0.0570,0.2377,0.2778,0.001534,0.523087,-0.524621,0.527689,-0.529223,0.530757,-0.520019
6.5056,0.020101,-0.004517,-1.575398,1.566194,0.0000,0.0000,0.0000,-0.004408,-1.575398,1.566194,-0.0334,0.1595,0.3294,0.001534,0.521553,-0.523087,0.524621,-0.527689,0.529223,-0.518486
6.5257,0.020103,-0.004577,-1.575398,1.566194,0.0000,0.0000,0.0000,-0.004467,-1.575398,1.566194,-0.0366,0.1723,0.3299,0.001534,0.521553,-0.523087,0.526155,-0.527689,0.529223,-0.518486
6.5458,0.020099,-0.004637,-1.575398,1.566194,0.0000,0.0000,0.0000,-0.004467,-1.575398,1.566194,-0.0366,0.1723,0.3299,0.001534,0.521553,-0.523087,0.526155,-0.527689,0.529223,-0.518486
6.5659,0.020095,-0.004698,-1.575398,1.566194,0.0000,0.0000,0.0000,-0.004507,-1.575398,1.566194,-0.0562,0.1661,0.2715,0.001534,0.520019,-0.523087,0.526155,-0.526155,0.527689,-0.518486
