t,loop_dt,cmd_z,cmd_ant_l,cmd_ant_r,cmd_roll,cmd_pitch,cmd_yaw,pres_z,pres_ant_l,pres_ant_r,pres_roll,pres_pitch,pres_yaw,pres_j0,pres_j1,pres_j2,pres_j3,pres_j4,pres_j5,pres_j6
0.0000,0.000001,-0.005000,-1.576932,1.566194,0.0000,0.0000,0.0000,-0.002672,-1.576932,1.566194,0.8647,0.7090,-0.5869,0.001534,0.578311,-0.555301,0.549165,-0.595185,0.558369,-0.556835
0.0201,0.020087,-0.004900,-1.576932,1.566194,0.0000,0.0000,0.0000,-0.002672,-1.576932,1.566194,0.8647,0.7090,-0.5869,0.001534,0.578311,-0.555301,0.549165,-0.595185,0.558369,-0.556835
0.0402,0.020090,-0.004799,-1.576932,1.566194,0.0000,0.0000,0.0000,-0.002672,-1.576932,1.566194,0.8647,0.7090,-0.5869,0.001534,0.578311,-0.555301,0.549165,-0.595185,0.558369,-0.556835
0.0603,0.020090,-0.004699,-1.576932,1.566194,0.0000,0.0000,0.0000,-0.002672,-1.576932,1.566194,0.8647,0.7090,-0.5869,0.001534,0.578311,-0.555301,0.549165,-0.595185,0.558369,-0.556835
0.0804,0.020084,-0.004598,-1.576932,1.566194,0.0000,0.0000,0.0000,-0.003178,-1.576932,1.566194,0.7904,0.6586,-0.5314,0.001534,0.566039,-0.546097,0.539961,-0.582913,0.549165,-0.546097
0.1005,0.020146,-0.004498,-1.576932,1.566194,0.0000,0.0000,0.0000,-0.004017,-1.576932,1.566194,0.6919,0.5656,-0.3214,0.001534,0.546097,-0.529223,0.524621,-0.559903,0.532291,-0.527689
0.1206,0.020088,-0.004397,-1.576932,1.566194,0.0000,0.0000,0.0000,-0.004827,-1.576932,1.566194,0.5079,0.6299,-0.1313,0.001534,0.524621,-0.510816,0.510816,-0.538427,0.515418,-0.509282
0.1407,0.020082,-0.004297,-1.576932,1.566194,0.0000,0.0000,0.0000,-0.005303,-1.576932,1.566194,0.1909,0.5033,0.0057,0.001534,0.507748,-0.501612,0.504680,-0.520019,0.506214,-0.500078
0.1607,0.020076,-0.004196,-1.576932,1.566194,0.0000,0.0000,0.0000,-0.005428,-1.576932,1.566194,0.0102,0.2910,0.3027,0.001534,0.501612,-0.500078,0.504680,-0.509282,0.506214,-0.497010
0.1808,0.020079,-0.004096,-1.576932,1.566194,0.0000,0.0000,0.0000,-0.005415,-1.576932,1.566194,-0.0013,0.2943,0.2721,0.001534,0.500078,-0.501612,0.506214,-0.507748,0.506214,-0.497010
0.2009,0.020082,-0.003995,-1.576932,1.566194,0.0000,0.0000,0.0000,-0.005404,-1.576932,1.566194,0.0203,0.3641,0.3268,0.001534,0.501612,-0.500078,0.506214,-0.509282,0.506214,-0.497010
0.2210,0.020074,-0.003895,-1.576932,1.566194,0.0000,0.0000,0.0000,-0.005392,-1.576932,1.566194,0.0581,0.3218,0.2695,0.001534,0.501612,-0.501612,0.506214,-0.509282,0.506214,-0.497010
0.2411,0.020084,-0.003795,-1.576932,1.566194,0.0000,0.0000,0.0000,-0.005394,-1.576932,1.566194,-0.0158,0.3438,0.1716,0.001534,0.501612,-0.500078,0.504680,-0.510816,0.506214,-0.498544
0.2611,0.020076,-0.003694,-1.576932,1.566194,0.0000,0.0000,0.0000,-0.005393,-1.576932,1.566194,-0.0081,0.3415,0.1818,0.001534,0.501612,-0.500078,0.504680,-0.510816,0.506214,-0.498544
0.2812,0.020080,-0.003594,-1.576932,1.566194,0.0000,0.0000,0.0000,-0.005381,-1.576932,1.566194,-0.0191,0.3938,0.2325,0.001534,0.501612,-0.500078,0.506214,-0.510816,0.506214,-0.498544
0.3013,0.020081,-0.003494,-1.576932,1.566194,0.0000,0.0000,0.0000,-0.005382,-1.576932,1.566194,-0.0180,0.3884,0.2272,0.001534,0.501612,-0.500078,0.506214,-0.510816,0.506214,-0.498544
0.3214,0.020074,-0.003393,-1.576932,1.566194,0.0000,0.0000,0.0000,-0.005382,-1.576932,1.566194,-0.0180,0.3884,0.2272,0.001534,0.501612,-0.500078,0.506214,-0.510816,0.506214,-0.498544
0.3415,0.020091,-0.003293,-1.576932,1.566194,0.0000,0.0000,0.0000,-0.005369,-1.576932,1.566194,0.0219,0.3539,0.1762,0.001534,0.501612,-0.501612,0.506214,-0.510816,0.506214,-0.498544
0.3615,0.020079,-0.003192,-1.576932,1.566194,0.0000,0.0000,0.0000,-0.005383,-1.576932,1.566194,-0.0222,0.3925,0.2331,0.001534,0.501612,-0.500078,0.506214,-0.510816,0.506214,-0.498544
0.3816,0.020087,-0.003092,-1.576932,1.566194,0.0000,0.0000,0.0000,-0.005395,-1.576932,1.566194,-0.0074,0.3365,0.1754,0.001534,0.501612,-0.500078,0.504680,-0.510816,0.506214,-0.498544
0.4017,0.020085,-0.002991,-1.576932,1.566194,0.0000,0.0000,0.0000,-0.005381,-1.576932,1.566194,-0.0192,0.3944,0.2332,0.001534,0.501612,-0.500078,0.506214,-0.510816,0.506214,-0.498544
0.4218,0.020073,-0.002891,-1.576932,1.566194,0.0000,0.0000,0.0000,-0.005382,-1.576932,1.566194,-0.0180,0.3883,0.2272,0.001534,0.501612,-0.500078,0.506214,-0.510816,0.506214,-0.498544
0.4419,0.020096,-0.002791,-1.576932,1.566194,0.0000,0.0000,0.0000,-0.005369,-1.576932,1.566194,0.0219,0.3539,0.1762,0.001534,0.501612,-0.501612,0.506214,-0.510816,0.506214,-0.498544
0.4620,0.020072,-0.002690,-1.576932,1.566194,0.0000,0.0000,0.0000,-0.005371,-1.576932,1.566194,0.0178,0.3575,0.1815,0.001534,0.501612,-0.501612,0.506214,-0.510816,0.506214,-0.498544
0.4820,0.020080,-0.002590,-1.576932,1.566194,0.0000,0.0000,0.0000,-0.005371,-1.576932,1.566194,0.0178,0.3575,0.1815,0.001534,0.501612,-0.501612,0.506214,-0.510816,0.506214,-0.498544
0.5022,0.020207,-0.002489,-1.576932,1.566194,0.0000,0.0000,0.0000,-0.005345,-1.576932,1.566194,-0.0115,0.3743,0.1808,0.001534,0.501612,-0.501612,0.506214,-0.512350,0.507748,-0.498544
0.5223,0.020079,-0.002388,-1.576932,1.566194,0.0000,0.0000,0.0000,-0.005323,-1.576932,1.566194,0.0520,0.4076,0.1808,0.001534,0.503146,-0.501612,0.506214,-0.513884,0.507748,-0.498544
0.5424,0.020098,-0.002288,-1.576932,1.566194,0.0000,0.0000,0.0000,-0.005288,-1.576932,1.566194,0.0557,0.4217,0.1289,0.001534,0.504680,-0.501612,0.506214,-0.515418,0.507748,-0.500078
0.5625,0.020079,-0.002188,-1.576932,1.566194,0.0000,0.0000,0.0000,-0.005255,-1.576932,1.566194,0.1262,0.5071,0.0822,0.001534,0.506214,-0.501612,0.506214,-0.518486,0.507748,-0.500078
0.5826,0.020081,-0.002087,-1.576932,1.566194,0.0000,0.0000,0.0000,-0.005197,-1.576932,1.566194,0.2507,0.6199,0.0350,0.001534,0.509282,-0.501612,0.506214,-0.523087,0.507748,-0.500078
0.6027,0.020077,-0.001987,-1.576932,1.566194,0.0000,0.0000,0.0000,-0.005155,-1.576932,1.566194,0.3593,0.6781,0.0401,0.001534,0.512350,-0.501612,0.506214,-0.526155,0.507748,-0.500078
0.6227,0.020078,-0.001886,-1.576932,1.566194,0.0000,0.0000,0.0000,-0.005112,-1.576932,1.566194,0.4697,0.7421,0.0398,0.001534,0.515418,-0.501612,0.506214,-0.529223,0.507748,-0.500078
0.6428,0.020087,-0.001786,-1.576932,1.566194,0.0000,0.0000,0.0000,-0.005058,-1.576932,1.566194,0.6003,0.8409,0.0916,0.001534,0.518486,-0.501612,0.506214,-0.533825,0.509282,-0.498544
0.6629,0.020079,-0.001686,-1.576932,1.566194,0.0000,0.0000,0.0000,-0.004992,-1.576932,1.566194,0.7090,0.8668,0.0872,0.001534,0.523087,-0.501612,0.506214,-0.536893,0.509282,-0.500078
0.6830,0.020083,-0.001585,-1.576932,1.566194,0.0000,0.0000,0.0000,-0.004963,-1.576932,1.566194,0.7987,0.8636,0.0362,0.001534,0.524621,-0.503146,0.506214,-0.538427,0.509282,-0.500078
0.7031,0.020077,-0.001485,-1.576932,1.566194,0.0000,0.0000,0.0000,-0.004870,-1.576932,1.566194,0.8307,0.8324,0.1455,0.001534,0.529223,-0.503146,0.506214,-0.541495,0.512350,-0.501612
0.7231,0.020075,-0.001384,-1.576932,1.566194,0.0000,0.0000,0.0000,-0.004756,-1.576932,1.566194,0.8488,0.7304,0.0298,0.001534,0.532291,-0.506214,0.506214,-0.544563,0.515418,-0.504680
0.7432,0.020087,-0.001284,-1.576932,1.566194,0.0000,0.0000,0.0000,-0.004630,-1.576932,1.566194,0.8071,0.7767,0.0937,0.001534,0.535359,-0.507748,0.509282,-0.547631,0.518486,-0.507748
0.7633,0.020085,-0.001183,-1.576932,1.566194,0.0000,0.0000,0.0000,-0.004428,-1.576932,1.566194,0.7111,0.7378,0.1391,0.001534,0.539961,-0.510816,0.513884,-0.550699,0.523087,-0.513884
0.7834,0.020096,-0.001083,-1.576932,1.566194,0.0000,0.0000,0.0000,-0.004260,-1.576932,1.566194,0.6721,0.8268,0.0816,0.001534,0.543029,-0.513884,0.518486,-0.555301,0.526155,-0.518486
0.8035,0.020072,-0.000983,-1.576932,1.566194,0.0000,0.0000,0.0000,-0.004087,-1.576932,1.566194,0.6559,0.8155,0.0353,0.001534,0.546097,-0.518486,0.523087,-0.558369,0.529223,-0.523087
0.8236,0.020083,-0.000882,-1.576932,1.566194,0.0000,0.0000,0.0000,-0.003915,-1.576932,1.566194,0.5865,0.9028,0.0925,0.001534,0.549165,-0.521553,0.529223,-0.561437,0.532291,-0.527689
0.8436,0.020080,-0.000782,-1.576932,1.566194,0.0000,0.0000,0.0000,-0.003742,-1.576932,1.566194,0.6628,0.8742,0.0347,0.001534,0.552233,-0.527689,0.533825,-0.564505,0.535359,-0.530757
0.8637,0.020077,-0.000681,-1.576932,1.566194,0.0000,0.0000,0.0000,-0.003634,-1.576932,1.566194,0.7228,0.9298,0.1475,0.001534,0.555301,-0.530757,0.538427,-0.566039,0.536893,-0.532291
0.8838,0.020098,-0.000581,-1.576932,1.566194,0.0000,0.0000,0.0000,-0.003508,-1.576932,1.566194,0.7568,0.9574,0.0837,0.001534,0.558369,-0.533825,0.541495,-0.569107,0.538427,-0.535359
0.9040,0.020150,-0.000480,-1.576932,1.566194,0.0000,0.0000,0.0000,-0.003420,-1.576932,1.566194,0.7821,0.9708,0.0909,0.001534,0.559903,-0.536893,0.544563,-0.570641,0.539961,-0.536893
0.9240,0.020082,-0.000380,-1.576932,1.566194,0.0000,0.0000,0.0000,-0.003303,-1.576932,1.566194,0.8471,1.0217,0.1974,0.001534,0.562971,-0.539961,0.549165,-0.572175,0.541495,-0.538427
0.9442,0.020189,-0.000279,-1.576932,1.566194,0.0000,0.0000,0.0000,-0.003227,-1.576932,1.566194,0.7907,0.9982,0.1331,0.001534,0.564505,-0.541495,0.550699,-0.573709,0.543029,-0.541495
0.9643,0.020078,-0.000178,-1.576932,1.566194,0.0000,0.0000,0.0000,-0.003173,-1.576932,1.566194,0.8967,0.9310,0.0872,0.001534,0.566039,-0.544563,0.550699,-0.575243,0.544563,-0.541495
0.9845,0.020226,-0.000077,-1.576932,1.566194,0.0000,0.0000,0.0000,-0.003102,-1.576932,1.566194,0.9047,1.0041,-0.0134,0.001534,0.566039,-0.547631,0.553767,-0.576777,0.544563,-0.543029
1.0046,0.020077,0.000023,-1.576932,1.566194,0.0000,0.0000,0.0000,-0.003047,-1.576932,1.566194,0.9826,1.0998,0.0516,0.001534,0.567573,-0.549165,0.556835,-0.578311,0.544563,-0.543029
1.0247,0.020081,0.000123,-1.576932,1.566194,0.0000,0.0000,0.0000,-0.003017,-1.576932,1.566194,0.9859,1.1070,-0.0079,0.001534,0.569107,-0.549165,0.556835,-0.579845,0.544563,-0.544563
1.0448,0.020124,0.000224,-1.576932,1.566194,0.0000,0.0000,0.0000,-0.002960,-1.576932,1.566194,0.9976,1.2260,-0.0543,0.001534,0.570641,-0.549165,0.558369,-0.582913,0.544563,-0.546097
1.0649,0.020078,0.000324,-1.576932,1.566194,0.0000,0.0000,0.0000,-0.002917,-1.576932,1.566194,1.1367,1.1777,-0.1546,0.001534,0.572175,-0.552233,0.558369,-0.584447,0.544563,-0.546097
1.0852,0.020300,0.000426,-1.576932,1.566194,0.0000,0.0000,0.0000,-0.002820,-1.576932,1.566194,1.1209,1.1130,-0.1452,0.001534,0.573709,-0.555301,0.559903,-0.585981,0.547631,-0.547631
1.1053,0.020078,0.000526,-1.576932,1.566194,0.0000,0.0000,0.0000,-0.002731,-1.576932,1.566194,1.1226,1.0858,-0.1460,0.001534,0.576777,-0.556835,0.561437,-0.587515,0.549165,-0.550699
1.1254,0.020078,0.000627,-1.576932,1.566194,0.0000,0.0000,0.0000,-0.002594,-1.576932,1.566194,1.1061,1.0169,-0.3607,0.001534,0.579845,-0.559903,0.561437,-0.592117,0.552233,-0.555301
1.1455,0.020125,0.000727,-1.576932,1.566194,0.0000,0.0000,0.0000,-0.002408,-1.576932,1.566194,1.0564,1.0081,-0.2325,0.001534,0.584447,-0.562971,0.566039,-0.595185,0.556835,-0.559903
1.1656,0.020078,0.000828,-1.576932,1.566194,0.0000,0.0000,0.0000,-0.002253,-1.576932,1.566194,1.0098,1.0263,-0.1401,0.001534,0.587515,-0.566039,0.570641,-0.598253,0.561437,-0.562971
1.1857,0.020125,0.000928,-1.576932,1.566194,0.0000,0.0000,0.0000,-0.002124,-1.576932,1.566194,1.0853,0.9761,-0.0420,0.001534,0.593651,-0.567573,0.572175,-0.601320,0.564505,-0.566039
1.2058,0.020078,0.001029,-1.576932,1.566194,0.0000,0.0000,0.0000,-0.002013,-1.576932,1.566194,0.9881,1.0317,-0.0535,0.001534,0.595185,-0.569107,0.575243,-0.604388,0.567573,-0.569107
1.2258,0.020086,0.001129,-1.576932,1.566194,0.0000,0.0000,0.0000,-0.001939,-1.576932,1.566194,1.0767,1.0954,0.0033,0.001534,0.598253,-0.570641,0.578311,-0.605922,0.567573,-0.570641
1.2459,0.020075,0.001230,-1.576932,1.566194,0.0000,0.0000,0.0000,-0.001825,-1.576932,1.566194,0.9882,1.1587,0.1041,0.001534,0.601320,-0.570641,0.581379,-0.608990,0.570641,-0.573709
1.2660,0.020098,0.001330,-1.576932,1.566194,0.0000,0.0000,0.0000,-0.001726,-1.576932,1.566194,0.9573,1.0849,0.1468,0.001534,0.604388,-0.572175,0.582913,-0.610524,0.573709,-0.576777
1.2861,0.020087,0.001431,-1.576932,1.566194,0.0000,0.0000,0.0000,-0.001649,-1.576932,1.566194,0.9114,1.2095,0.0879,0.001534,0.604388,-0.573709,0.585981,-0.613592,0.575243,-0.578311
1.3062,0.020078,0.001531,-1.576932,1.566194,0.0000,0.0000,0.0000,-0.001520,-1.576932,1.566194,0.8247,1.1470,0.2545,0.001534,0.607456,-0.575243,0.589049,-0.615126,0.579845,-0.581379
1.3263,0.020085,0.001631,-1.576932,1.566194,0.0000,0.0000,0.0000,-0.001409,-1.576932,1.566194,0.8710,1.1201,0.3458,0.001534,0.610524,-0.578311,0.592117,-0.616660,0.582913,-0.582913
1.3464,0.020087,0.001732,-1.576932,1.566194,0.0000,0.0000,0.0000,-0.001308,-1.576932,1.566194,0.7657,1.1223,0.3896,0.001534,0.612058,-0.579845,0.595185,-0.618194,0.585981,-0.585981
1.3664,0.020087,0.001832,-1.576932,1.566194,0.0000,0.0000,0.0000,-0.001183,-1.576932,1.566194,0.9047,1.1373,0.3330,0.001534,0.615126,-0.584447,0.598253,-0.621262,0.587515,-0.587515
1.3865,0.020090,0.001933,-1.576932,1.566194,0.0000,0.0000,0.0000,-0.001083,-1.576932,1.566194,0.8781,1.1175,0.3931,0.001534,0.616660,-0.587515,0.601320,-0.622796,0.590583,-0.589049
1.4066,0.020084,0.002033,-1.576932,1.566194,0.0000,0.0000,0.0000,-0.000981,-1.576932,1.566194,0.8596,1.1173,0.3332,0.001534,0.618194,-0.590583,0.604388,-0.624330,0.592117,-0.592117
1.4267,0.020085,0.002133,-1.576932,1.566194,0.0000,0.0000,0.0000,-0.000881,-1.576932,1.566194,0.9007,1.1829,0.2861,0.001534,0.619728,-0.593651,0.607456,-0.627398,0.593651,-0.593651
1.4468,0.020135,0.002234,-1.576932,1.566194,0.0000,0.0000,0.0000,-0.000803,-1.576932,1.566194,0.8750,1.2067,0.2368,0.001534,0.619728,-0.596719,0.610524,-0.628932,0.595185,-0.595185
1.4669,0.020078,0.002335,-1.576932,1.566194,0.0000,0.0000,0.0000,-0.000676,-1.576932,1.566194,0.9167,1.2369,0.1887,0.001534,0.622796,-0.599786,0.613592,-0.632000,0.596719,-0.598253
1.4871,0.020193,0.002436,-1.576932,1.566194,0.0000,0.0000,0.0000,-0.000581,-1.576932,1.566194,1.0025,1.2494,0.0322,0.001534,0.625864,-0.602854,0.615126,-0.635068,0.596719,-0.601320
1.5072,0.020129,0.002536,-1.576932,1.566194,0.0000,0.0000,0.0000,-0.000492,-1.576932,1.566194,0.9459,1.2607,-0.1704,0.001534,0.625864,-0.605922,0.616660,-0.638136,0.598253,-0.604388
1.5273,0.020098,0.002637,-1.576932,1.566194,0.0000,0.0000,0.0000,-0.000429,-1.576932,1.566194,1.0493,1.2606,-0.0392,0.001534,0.628932,-0.607456,0.618194,-0.639670,0.599786,-0.604388
1.5474,0.020090,0.002737,-1.576932,1.566194,0.0000,0.0000,0.0000,-0.000362,-1.576932,1.566194,1.0754,1.1950,0.0569,0.001534,0.632000,-0.608990,0.619728,-0.639670,0.601320,-0.605922
1.5675,0.020087,0.002838,-1.576932,1.566194,0.0000,0.0000,0.0000,-0.000248,-1.576932,1.566194,1.1230,1.1837,-0.0618,0.001534,0.635068,-0.612058,0.621262,-0.642738,0.602854,-0.608990
1.5876,0.020077,0.002938,-1.576932,1.566194,0.0000,0.0000,0.0000,-0.000175,-1.576932,1.566194,1.1294,1.2341,-0.1042,0.001534,0.636602,-0.613592,0.622796,-0.645806,0.604388,-0.610524
1.6077,0.020147,0.003039,-1.576932,1.566194,0.0000,0.0000,0.0000,-0.000075,-1.576932,1.566194,1.1079,1.1656,0.1728,0.001534,0.641204,-0.613592,0.624330,-0.647340,0.608990,-0.612058
1.6278,0.020082,0.003139,-1.576932,1.566194,0.0000,0.0000,0.0000,0.000035,-1.576932,1.566194,1.1194,1.2243,0.2536,0.001534,0.644272,-0.615126,0.627398,-0.650408,0.612058,-0.613592
1.6479,0.020093,0.003240,-1.576932,1.566194,0.0000,0.0000,0.0000,0.000120,-1.576932,1.566194,1.1458,1.2693,0.2473,0.001534,0.647340,-0.616660,0.630466,-0.651942,0.612058,-0.616660
1.6680,0.020085,0.003340,-1.576932,1.566194,0.0000,0.0000,0.0000,0.000218,-1.576932,1.566194,1.1266,1.1975,0.1920,0.001534,0.650408,-0.618194,0.630466,-0.655010,0.615126,-0.619728
1.6881,0.020075,0.003440,-1.576932,1.566194,0.0000,0.0000,0.0000,0.000341,-1.576932,1.566194,1.0612,1.1551,0.2511,0.001534,0.653476,-0.619728,0.632000,-0.658078,0.619728,-0.622796
1.7094,0.021283,0.003547,-1.576932,1.566194,0.0000,0.0000,0.0000,0.000450,-1.576932,1.566194,1.1039,1.1264,0.3556,0.001534,0.656544,-0.622796,0.635068,-0.659612,0.622796,-0.624330
1.7294,0.020075,0.003647,-1.576932,1.566194,0.0000,0.0000,0.0000,0.000572,-1.576932,1.566194,1.1106,1.2100,0.2894,0.001534,0.658078,-0.625864,0.638136,-0.664214,0.625864,-0.625864
1.7495,0.020091,0.003748,-1.576932,1.566194,0.0000,0.0000,0.0000,0.000703,-1.576932,1.566194,1.1692,1.1351,0.2971,0.001534,0.662680,-0.628932,0.639670,-0.667282,0.628932,-0.628932
1.7696,0.020076,0.003848,-1.576932,1.566194,0.0000,0.0000,0.0000,0.000748,-1.576932,1.566194,1.0965,1.0940,0.3500,0.001534,0.664214,-0.628932,0.639670,-0.668816,0.632000,-0.630466
1.7897,0.020080,0.003948,-1.576932,1.566194,0.0000,0.0000,0.0000,0.000801,-1.576932,1.566194,1.2122,1.0506,0.4007,0.001534,0.667282,-0.630466,0.639670,-0.670350,0.633534,-0.630466
1.8098,0.020090,0.004049,-1.576932,1.566194,0.0000,0.0000,0.0000,0.000863,-1.576932,1.566194,1.2612,1.2895,0.3969,0.001534,0.668816,-0.630466,0.642738,-0.674952,0.633534,-0.630466
1.8298,0.020076,0.004149,-1.576932,1.566194,0.0000,0.0000,0.0000,0.000953,-1.576932,1.566194,1.2652,1.3480,0.5077,0.001534,0.670350,-0.632000,0.645806,-0.678020,0.636602,-0.630466
1.8500,0.020115,0.004250,-1.576932,1.566194,0.0000,0.0000,0.0000,0.001062,-1.576932,1.566194,1.2740,1.3936,0.6074,0.001534,0.673418,-0.633534,0.648874,-0.681087,0.639670,-0.632000
1.8700,0.020083,0.004350,-1.576932,1.566194,0.0000,0.0000,0.0000,0.001302,-1.576932,1.566194,1.5485,1.4718,0.6602,0.001534,0.681087,-0.641204,0.656544,-0.685689,0.641204,-0.635068
1.8901,0.020097,0.004451,-1.576932,1.566194,0.0000,0.0000,0.0000,0.001277,-1.576932,1.566194,1.5196,1.4636,0.6546,0.001534,0.681087,-0.641204,0.656544,-0.685689,0.641204,-0.635068
1.9108,0.020706,0.004554,-1.576932,1.566194,0.0000,0.0000,0.0000,0.001569,-1.576932,1.566194,1.6342,1.5266,0.6593,0.001534,0.687223,-0.648874,0.664214,-0.691825,0.645806,-0.639670
1.9309,0.020089,0.004655,-1.576932,1.566194,0.0000,0.0000,0.0000,0.001709,-1.576932,1.566194,1.6377,1.5481,0.5501,0.001534,0.690291,-0.653476,0.668816,-0.694893,0.647340,-0.644272
1.9510,0.020105,0.004755,-1.576932,1.566194,0.0000,0.0000,0.0000,0.001815,-1.576932,1.566194,1.6626,1.5282,0.5634,0.001534,0.693359,-0.656544,0.671884,-0.696427,0.648874,-0.647340
1.9711,0.020088,0.004856,-1.576932,1.566194,0.0000,0.0000,0.0000,0.001912,-1.576932,1.566194,1.8104,1.5283,0.5101,0.001534,0.696427,-0.661146,0.674952,-0.697961,0.648874,-0.648874
1.9912,0.020083,0.004956,-1.576932,1.566194,0.0000,0.0000,0.0000,0.001933,-1.576932,1.566194,1.9800,1.5474,0.4640,0.001534,0.699495,-0.662680,0.674952,-0.699495,0.647340,-0.648874
2.0113,0.020090,0.004944,-1.576932,1.566194,0.0000,0.0000,0.0000,0.002019,-1.576932,1.566194,2.0612,1.4932,0.5259,0.001534,0.701029,-0.667282,0.678020,-0.699495,0.648874,-0.648874
2.0314,0.020091,0.004843,-1.576932,1.566194,0.0000,0.0000,0.0000,0.002115,-1.576932,1.566194,2.2627,1.5632,0.4682,0.001534,0.704097,-0.671884,0.681087,-0.702563,0.648874,-0.648874
2.0515,0.020088,0.004743,-1.576932,1.566194,0.0000,0.0000,0.0000,0.002175,-1.576932,1.566194,2.4131,1.5570,0.4776,0.001534,0.707165,-0.674952,0.682621,-0.704097,0.648874,-0.648874
2.0716,0.020081,0.004642,-1.576932,1.566194,0.0000,0.0000,0.0000,0.002299,-1.576932,1.566194,2.4609,1.6712,0.4259,0.001534,0.710233,-0.678020,0.687223,-0.707165,0.648874,-0.651942
2.0916,0.020082,0.004542,-1.576932,1.566194,0.0000,0.0000,0.0000,0.002355,-1.576932,1.566194,2.5918,1.7223,0.3221,0.001534,0.711767,-0.681087,0.688757,-0.710233,0.648874,-0.651942
2.1117,0.020088,0.004441,-1.576932,1.566194,0.0000,0.0000,0.0000,0.002407,-1.576932,1.566194,2.6158,1.7489,0.2790,0.001534,0.713301,-0.682621,0.690291,-0.711767,0.648874,-0.653476
2.1318,0.020086,0.004341,-1.576932,1.566194,0.0000,0.0000,0.0000,0.002438,-1.576932,1.566194,2.6502,1.6805,0.2278,0.001534,0.714835,-0.684155,0.690291,-0.711767,0.648874,-0.655010
2.1519,0.020082,0.004241,-1.576932,1.566194,0.0000,0.0000,0.0000,0.002421,-1.576932,1.566194,2.6859,1.7206,0.1792,0.001534,0.714835,-0.684155,0.690291,-0.711767,0.647340,-0.655010
2.1720,0.020090,0.004140,-1.576932,1.566194,0.0000,0.0000,0.0000,0.002462,-1.576932,1.566194,2.6321,1.6314,0.1251,0.001534,0.714835,-0.685689,0.690291,-0.711767,0.648874,-0.656544
2.1921,0.020080,0.004040,-1.576932,1.566194,0.0000,0.0000,0.0000,0.002445,-1.576932,1.566194,2.6858,1.6581,0.1874,0.001534,0.714835,-0.685689,0.690291,-0.711767,0.648874,-0.655010
2.2122,0.020093,0.003939,-1.576932,1.566194,0.0000,0.0000,0.0000,0.002446,-1.576932,1.566194,2.6714,1.6710,0.0703,0.001534,0.714835,-0.685689,0.690291,-0.711767,0.647340,-0.656544
2.2323,0.020106,0.003839,-1.576932,1.566194,0.0000,0.0000,0.0000,0.002446,-1.576932,1.566194,2.6730,1.6697,0.0825,0.001534,0.714835,-0.685689,0.690291,-0.711767,0.647340,-0.656544
2.2524,0.020098,0.003738,-1.576932,1.566194,0.0000,0.0000,0.0000,0.002434,-1.576932,1.566194,2.7209,1.6871,0.1378,0.001534,0.714835,-0.685689,0.690291,-0.711767,0.647340,-0.655010
2.2724,0.020084,0.003638,-1.576932,1.566194,0.0000,0.0000,0.0000,0.002460,-1.576932,1.566194,2.6284,1.6349,0.1294,0.001534,0.714835,-0.685689,0.690291,-0.711767,0.648874,-0.656544
2.2925,0.020078,0.003537,-1.576932,1.566194,0.0000,0.0000,0.0000,0.002432,-1.576932,1.566194,2.7255,1.6907,0.1329,0.001534,0.714835,-0.685689,0.690291,-0.711767,0.647340,-0.655010
2.3126,0.020098,0.003437,-1.576932,1.566194,0.0000,0.0000,0.0000,0.002415,-1.576932,1.566194,2.6201,1.7123,0.0180,0.001534,0.711767,-0.685689,0.690291,-0.711767,0.647340,-0.655010
2.3327,0.020085,0.003336,-1.576932,1.566194,0.0000,0.0000,0.0000,0.002399,-1.576932,1.566194,2.4484,1.7184,-0.0877,0.001534,0.707165,-0.685689,0.690291,-0.711767,0.648874,-0.655010
2.3528,0.020079,0.003236,-1.576932,1.566194,0.0000,0.0000,0.0000,0.002403,-1.576932,1.566194,2.3703,1.7148,-0.1905,0.001534,0.705631,-0.685689,0.690291,-0.711767,0.648874,-0.656544
2.3729,0.020090,0.003136,-1.576932,1.566194,0.0000,0.0000,0.0000,0.002357,-1.576932,1.566194,2.4056,1.7313,-0.1787,0.001534,0.704097,-0.685689,0.690291,-0.710233,0.647340,-0.655010
2.3930,0.020081,0.003035,-1.576932,1.566194,0.0000,0.0000,0.0000,0.002376,-1.576932,1.566194,2.2666,1.6935,-0.2395,0.001534,0.702563,-0.685689,0.690291,-0.710233,0.648874,-0.656544
2.4131,0.020093,0.002935,-1.576932,1.566194,0.0000,0.0000,0.0000,0.002309,-1.576932,1.566194,2.1968,1.5982,-0.1238,0.001534,0.699495,-0.685689,0.690291,-0.705631,0.648874,-0.655010
2.4331,0.020088,0.002834,-1.576932,1.566194,0.0000,0.0000,0.0000,0.002273,-1.576932,1.566194,2.0842,1.5400,-0.1384,0.001534,0.696427,-0.685689,0.690291,-0.702563,0.648874,-0.655010
2.4532,0.020038,0.002734,-1.576932,1.566194,0.0000,0.0000,0.0000,0.002244,-1.576932,1.566194,2.0148,1.4809,-0.1933,0.001534,0.694893,-0.685689,0.690291,-0.699495,0.647340,-0.656544
2.4733,0.020104,0.002634,-1.576932,1.566194,0.0000,0.0000,0.0000,0.002202,-1.576932,1.566194,1.9624,1.4842,-0.1891,0.001534,0.691825,-0.685689,0.690291,-0.697961,0.647340,-0.655010
2.4934,0.020078,0.002533,-1.576932,1.566194,0.0000,0.0000,0.0000,0.002185,-1.576932,1.566194,1.8804,1.3669,-0.1934,0.001534,0.690291,-0.685689,0.688757,-0.696427,0.648874,-0.655010
2.5135,0.020092,0.002433,-1.576932,1.566194,0.0000,0.0000,0.0000,0.002142,-1.576932,1.566194,1.7600,1.3291,-0.3059,0.001534,0.687223,-0.685689,0.688757,-0.693359,0.647340,-0.656544
2.5335,0.020087,0.002332,-1.576932,1.566194,0.0000,0.0000,0.0000,0.002125,-1.576932,1.566194,1.6260,1.2805,-0.2973,0.001534,0.684155,-0.685689,0.688757,-0.691825,0.648874,-0.656544
2.5536,0.020081,0.002232,-1.576932,1.566194,0.0000,0.0000,0.0000,0.002044,-1.576932,1.566194,1.6779,1.1543,-0.3555,0.001534,0.682621,-0.685689,0.685689,-0.688757,0.647340,-0.655010
2.5737,0.020093,0.002131,-1.576932,1.566194,0.0000,0.0000,0.0000,0.001982,-1.576932,1.566194,1.5585,0.9363,-0.3543,0.001534,0.681087,-0.684155,0.681087,-0.685689,0.648874,-0.655010
2.5938,0.020084,0.002031,-1.576932,1.566194,0.0000,0.0000,0.0000,0.001917,-1.576932,1.566194,1.3900,0.9769,-0.4663,0.001534,0.678020,-0.681087,0.679553,-0.684155,0.647340,-0.656544
2.6139,0.020084,0.001931,-1.576932,1.566194,0.0000,0.0000,0.0000,0.001841,-1.576932,1.566194,1.1988,1.0070,-0.3998,0.001534,0.674952,-0.676486,0.678020,-0.682621,0.647340,-0.656544
2.6340,0.020088,0.001830,-1.576932,1.566194,0.0000,0.0000,0.0000,0.001754,-1.576932,1.566194,1.0465,0.9054,-0.4088,0.001534,0.671884,-0.673418,0.674952,-0.679553,0.647340,-0.656544
2.6540,0.020076,0.001730,-1.576932,1.566194,0.0000,0.0000,0.0000,0.001681,-1.576932,1.566194,0.8775,0.7002,-0.3552,0.001534,0.668816,-0.671884,0.671884,-0.674952,0.648874,-0.656544
2.6741,0.020089,0.001629,-1.576932,1.566194,0.0000,0.0000,0.0000,0.001653,-1.576932,1.566194,0.8574,0.6566,-0.3056,0.001534,0.668816,-0.670350,0.670350,-0.673418,0.648874,-0.656544
2.6948,0.020690,0.001526,-1.576932,1.566194,0.0000,0.0000,0.0000,0.001584,-1.576932,1.566194,0.7634,0.6614,-0.4223,0.001534,0.665748,-0.668816,0.668816,-0.671884,0.647340,-0.656544
2.7157,0.020873,0.001422,-1.576932,1.566194,0.0000,0.0000,0.0000,0.001483,-1.576932,1.566194,0.6116,0.5122,-0.4673,0.001534,0.662680,-0.665748,0.664214,-0.668816,0.647340,-0.656544
2.7358,0.020083,0.001321,-1.576932,1.566194,0.0000,0.0000,0.0000,0.001422,-1.576932,1.566194,0.4549,0.5280,-0.4632,0.001534,0.659612,-0.662680,0.662680,-0.667282,0.647340,-0.656544
2.7559,0.020081,0.001221,-1.576932,1.566194,0.0000,0.0000,0.0000,0.001417,-1.576932,1.566194,0.3840,0.4769,-0.2974,0.001534,0.659612,-0.661146,0.662680,-0.665748,0.648874,-0.656544
2.7760,0.020095,0.001120,-1.576932,1.566194,0.0000,0.0000,0.0000,0.001273,-1.576932,1.566194,0.3645,0.3986,-0.3147,0.001534,0.656544,-0.658078,0.658078,-0.662680,0.647340,-0.653476
2.7960,0.020085,0.001020,-1.576932,1.566194,0.0000,0.0000,0.0000,0.001168,-1.576932,1.566194,0.2904,0.3387,-0.2023,0.001534,0.653476,-0.655010,0.655010,-0.659612,0.647340,-0.650408
2.8161,0.020094,0.000919,-1.576932,1.566194,0.0000,0.0000,0.0000,0.001119,-1.576932,1.566194,0.2383,0.3113,-0.0477,0.001534,0.651942,-0.653476,0.655010,-0.656544,0.647340,-0.648874
2.8362,0.020080,0.000819,-1.576932,1.566194,0.0000,0.0000,0.0000,0.000968,-1.576932,1.566194,0.1785,0.2274,-0.0088,0.001534,0.647340,-0.650408,0.650408,-0.653476,0.647340,-0.644272
2.8563,0.020083,0.000719,-1.576932,1.566194,0.0000,0.0000,0.0000,0.000911,-1.576932,1.566194,0.1574,0.1519,-0.0130,0.001534,0.645806,-0.648874,0.647340,-0.651942,0.647340,-0.642738
2.8764,0.020093,0.000618,-1.576932,1.566194,0.0000,0.0000,0.0000,0.000892,-1.576932,1.566194,0.0836,0.1914,0.0979,0.001534,0.644272,-0.647340,0.647340,-0.651942,0.648874,-0.641204
2.8965,0.020100,0.000518,-1.576932,1.566194,0.0000,0.0000,0.0000,0.000774,-1.576932,1.566194,0.0429,0.2407,0.1968,0.001534,0.642738,-0.642738,0.645806,-0.648874,0.645806,-0.639670
2.9166,0.020088,0.000417,-1.576932,1.566194,0.0000,0.0000,0.0000,0.000665,-1.576932,1.566194,0.0088,0.1011,0.0762,0.001534,0.639670,-0.641204,0.641204,-0.645806,0.644272,-0.638136
2.9367,0.020084,0.000317,-1.576932,1.566194,0.0000,0.0000,0.0000,0.000543,-1.576932,1.566194,0.0885,0.1475,0.1438,0.001534,0.636602,-0.639670,0.639670,-0.642738,0.641204,-0.633534
2.9567,0.020078,0.000216,-1.576932,1.566194,0.0000,0.0000,0.0000,0.000458,-1.576932,1.566194,0.2269,0.1273,0.1367,0.001534,0.636602,-0.638136,0.636602,-0.641204,0.638136,-0.630466
2.9768,0.020105,0.000116,-1.576932,1.566194,0.0000,0.0000,0.0000,0.000406,-1.576932,1.566194,0.0490,0.1795,0.0823,0.001534,0.633534,-0.635068,0.635068,-0.641204,0.638136,-0.630466
2.9969,0.020082,0.000015,-1.576932,1.566194,0.0000,0.0000,0.0000,0.000253,-1.576932,1.566194,0.0459,0.1054,0.0331,0.001534,0.628932,-0.633534,0.632000,-0.636602,0.635068,-0.627398
3.0170,0.020087,-0.000085,-1.576932,1.566194,0.0000,0.0000,0.0000,0.000123,-1.576932,1.566194,-0.0024,0.1983,0.1480,0.001534,0.625864,-0.628932,0.630466,-0.633534,0.632000,-0.624330
3.0371,0.020075,-0.000185,-1.576932,1.566194,0.0000,0.0000,0.0000,0.000039,-1.576932,1.566194,0.1218,0.2581,0.1359,0.001534,0.625864,-0.625864,0.627398,-0.633534,0.628932,-0.621262
3.0572,0.020096,-0.000286,-1.576932,1.566194,0.0000,0.0000,0.0000,0.000024,-1.576932,1.566194,0.0877,0.1512,0.2469,0.001534,0.625864,-0.625864,0.627398,-0.630466,0.628932,-0.621262
3.0773,0.020082,-0.000386,-1.576932,1.566194,0.0000,0.0000,0.0000,-0.000157,-1.576932,1.566194,0.1189,0.0773,0.0710,0.001534,0.621262,-0.624330,0.622796,-0.625864,0.624330,-0.618194
3.0973,0.020081,-0.000487,-1.576932,1.566194,0.0000,0.0000,0.0000,-0.000285,-1.576932,1.566194,0.0281,0.2367,0.0892,0.001534,0.616660,-0.619728,0.621262,-0.624330,0.621262,-0.615126
3.1174,0.020083,-0.000587,-1.576932,1.566194,0.0000,0.0000,0.0000,-0.000321,-1.576932,1.566194,0.0483,0.1699,0.1966,0.001534,0.616660,-0.618194,0.619728,-0.622796,0.621262,-0.613592
3.1375,0.020080,-0.000688,-1.576932,1.566194,0.0000,0.0000,0.0000,-0.000391,-1.576932,1.566194,0.1339,0.1586,0.1853,0.001534,0.615126,-0.618194,0.618194,-0.621262,0.619728,-0.610524
3.1576,0.020078,-0.000788,-1.576932,1.566194,0.0000,0.0000,0.0000,-0.000579,-1.576932,1.566194,0.0862,0.1945,0.0773,0.001534,0.610524,-0.613592,0.613592,-0.618194,0.615126,-0.607456
3.1777,0.020087,-0.000888,-1.576932,1.566194,0.0000,0.0000,0.0000,-0.000658,-1.576932,1.566194,0.0422,0.1751,0.1974,0.001534,0.608990,-0.610524,0.612058,-0.615126,0.613592,-0.605922
3.1978,0.020086,-0.000989,-1.576932,1.566194,0.0000,0.0000,0.0000,-0.000723,-1.576932,1.566194,0.1346,0.1957,0.1849,0.001534,0.608990,-0.608990,0.610524,-0.613592,0.610524,-0.604388
3.2179,0.020088,-0.001089,-1.576932,1.566194,0.0000,0.0000,0.0000,-0.000815,-1.576932,1.566194,0.1532,0.1407,0.1861,0.001534,0.605922,-0.608990,0.608990,-0.610524,0.608990,-0.601320
3.2379,0.020076,-0.001190,-1.576932,1.566194,0.0000,0.0000,0.0000,-0.000965,-1.576932,1.566194,0.0738,0.1142,0.1316,0.001534,0.602854,-0.604388,0.604388,-0.607456,0.605922,-0.599786
3.2580,0.020077,-0.001290,-1.576932,1.566194,0.0000,0.0000,0.0000,-0.001036,-1.576932,1.566194,0.0925,0.2003,0.0829,0.001534,0.599786,-0.602854,0.602854,-0.607456,0.604388,-0.596719
3.2781,0.020079,-0.001390,-1.576932,1.566194,0.0000,0.0000,0.0000,-0.001114,-1.576932,1.566194,0.0519,0.2263,0.1421,0.001534,0.598253,-0.599786,0.601320,-0.605922,0.602854,-0.595185
3.2982,0.020123,-0.001491,-1.576932,1.566194,0.0000,0.0000,0.0000,-0.001205,-1.576932,1.566194,0.0560,0.1220,0.1359,0.001534,0.596719,-0.598253,0.598253,-0.602854,0.601320,-0.593651
3.3183,0.020076,-0.001591,-1.576932,1.566194,0.0000,0.0000,0.0000,-0.001294,-1.576932,1.566194,0.0839,0.0799,0.1365,0.001534,0.593651,-0.598253,0.596719,-0.599786,0.599786,-0.590583
3.3384,0.020079,-0.001692,-1.576932,1.566194,0.0000,0.0000,0.0000,-0.001469,-1.576932,1.566194,0.1198,0.1884,0.0825,0.001534,0.590583,-0.593651,0.593651,-0.596719,0.593651,-0.587515
3.3584,0.020079,-0.001792,-1.576932,1.566194,0.0000,0.0000,0.0000,-0.001525,-1.576932,1.566194,0.1269,0.1959,0.1960,0.001534,0.590583,-0.590583,0.592117,-0.595185,0.592117,-0.585981
3.3785,0.020079,-0.001893,-1.576932,1.566194,0.0000,0.0000,0.0000,-0.001606,-1.576932,1.566194,0.0374,0.1072,0.0224,0.001534,0.585981,-0.590583,0.589049,-0.593651,0.592117,-0.584447
3.3986,0.020084,-0.001993,-1.576932,1.566194,0.0000,0.0000,0.0000,-0.001759,-1.576932,1.566194,-0.0032,0.1330,-0.0133,0.001534,0.581379,-0.587515,0.585981,-0.590583,0.589049,-0.581379
3.4187,0.020076,-0.002093,-1.576932,1.566194,0.0000,0.0000,0.0000,-0.001915,-1.576932,1.566194,-0.0481,0.2860,0.0979,0.001534,0.578311,-0.581379,0.584447,-0.587515,0.584447,-0.578311
3.4388,0.020091,-0.002194,-1.576932,1.566194,0.0000,0.0000,0.0000,-0.001974,-1.576932,1.566194,-0.1425,0.2705,0.3011,0.001534,0.576777,-0.578311,0.584447,-0.584447,0.584447,-0.576777
3.4588,0.020077,-0.002294,-1.576932,1.566194,0.0000,0.0000,0.0000,-0.002005,-1.576932,1.566194,-0.0828,0.1863,0.3337,0.001534,0.576777,-0.578311,0.582913,-0.582913,0.584447,-0.575243
3.4789,0.020073,-0.002395,-1.576932,1.566194,0.0000,0.0000,0.0000,-0.002138,-1.576932,1.566194,-0.0001,0.2467,0.4907,0.001534,0.575243,-0.575243,0.581379,-0.579845,0.581379,-0.570641
3.4990,0.020082,-0.002495,-1.576932,1.566194,0.0000,0.0000,0.0000,-0.002323,-1.576932,1.566194,0.0303,0.1035,0.2597,0.001534,0.570641,-0.573709,0.575243,-0.575243,0.576777,-0.567573
3.5191,0.020075,-0.002595,-1.576932,1.566194,0.0000,0.0000,0.0000,-0.002341,-1.576932,1.566194,-0.0516,0.1183,0.2302,0.001534,0.569107,-0.572175,0.573709,-0.575243,0.576777,-0.567573
3.5392,0.020122,-0.002696,-1.576932,1.566194,0.0000,0.0000,0.0000,-0.002389,-1.576932,1.566194,-0.1322,0.2377,0.2329,0.001534,0.567573,-0.569107,0.573709,-0.575243,0.575243,-0.567573
3.5593,0.020078,-0.002796,-1.576932,1.566194,0.0000,0.0000,0.0000,-0.002520,-1.576932,1.566194,-0.1344,0.2767,0.1979,0.000000,0.564505,-0.566039,0.572175,-0.572175,0.572175,-0.564505
3.5794,0.020086,-0.002897,-1.576932,1.566194,0.0000,0.0000,0.0000,-0.002719,-1.576932,1.566194,0.0254,0.0665,0.1389,0.000000,0.561437,-0.564505,0.564505,-0.567573,0.569107,-0.558369
3.5994,0.020077,-0.002997,-1.576932,1.566194,0.0000,0.0000,0.0000,-0.002785,-1.576932,1.566194,-0.0304,0.1232,0.1981,0.000000,0.559903,-0.561437,0.562971,-0.566039,0.567573,-0.556835
3.6195,0.020078,-0.003098,-1.576932,1.566194,0.0000,0.0000,0.0000,-0.002828,-1.576932,1.566194,0.0933,0.1521,0.1919,0.000000,0.559903,-0.561437,0.562971,-0.564505,0.564505,-0.555301
3.6396,0.020088,-0.003198,-1.576932,1.566194,0.0000,0.0000,0.0000,-0.002898,-1.576932,1.566194,0.0095,0.2350,0.0861,0.000000,0.556835,-0.559903,0.562971,-0.562971,0.561437,-0.555301
3.6597,0.020076,-0.003298,-1.576932,1.566194,0.0000,0.0000,0.0000,-0.003103,-1.576932,1.566194,-0.0996,0.1922,0.2560,0.000000,0.552233,-0.553767,0.558369,-0.558369,0.559903,-0.550699
3.6798,0.020084,-0.003399,-1.576932,1.566194,0.0000,0.0000,0.0000,-0.003182,-1.576932,1.566194,-0.1280,0.1619,0.1321,0.000000,0.549165,-0.552233,0.555301,-0.556835,0.558369,-0.549165
3.6998,0.020076,-0.003499,-1.576932,1.566194,0.0000,0.0000,0.0000,-0.003211,-1.576932,1.566194,-0.0460,0.1651,0.1980,0.000000,0.549165,-0.552233,0.555301,-0.555301,0.556835,-0.547631
3.7199,0.020095,-0.003600,-1.576932,1.566194,0.0000,0.0000,0.0000,-0.003321,-1.576932,1.566194,-0.0443,0.1469,0.1379,0.000000,0.546097,-0.550699,0.552233,-0.553767,0.555301,-0.544563
3.7400,0.020087,-0.003700,-1.576932,1.566194,0.0000,0.0000,0.0000,-0.003521,-1.576932,1.566194,0.0450,0.2371,0.3022,0.000000,0.544563,-0.544563,0.549165,-0.549165,0.549165,-0.539961
3.7601,0.020077,-0.003801,-1.576932,1.566194,0.0000,0.0000,0.0000,-0.003576,-1.576932,1.566194,-0.0644,0.2275,0.1793,0.000000,0.541495,-0.543029,0.547631,-0.547631,0.547631,-0.539961
3.7802,0.020082,-0.003901,-1.576932,1.566194,0.0000,0.0000,0.0000,-0.003633,-1.576932,1.566194,-0.1029,0.1757,0.1394,0.000000,0.538427,-0.543029,0.546097,-0.546097,0.547631,-0.538427
3.8003,0.020085,-0.004001,-1.576932,1.566194,0.0000,0.0000,0.0000,-0.003727,-1.576932,1.566194,-0.0281,0.1648,0.2487,0.000000,0.538427,-0.539961,0.543029,-0.544563,0.546097,-0.535359
3.8203,0.020074,-0.004102,-1.576932,1.566194,0.0000,0.0000,0.0000,-0.003905,-1.576932,1.566194,-0.0464,0.1842,0.2894,0.000000,0.535359,-0.535359,0.539961,-0.539961,0.541495,-0.532291
3.8404,0.020080,-0.004202,-1.576932,1.566194,0.0000,0.0000,0.0000,-0.003974,-1.576932,1.566194,-0.0946,0.1990,0.2324,0.000000,0.532291,-0.533825,0.538427,-0.538427,0.539961,-0.530757
3.8605,0.020079,-0.004303,-1.576932,1.566194,0.0000,0.0000,0.0000,-0.004030,-1.576932,1.566194,-0.0999,0.2492,0.2907,0.000000,0.530757,-0.532291,0.538427,-0.536893,0.538427,-0.529223
3.8806,0.020133,-0.004403,-1.576932,1.566194,0.0000,0.0000,0.0000,-0.004112,-1.576932,1.566194,-0.0492,0.2611,0.3368,0.000000,0.529223,-0.530757,0.536893,-0.535359,0.536893,-0.526155
3.9007,0.020078,-0.004504,-1.576932,1.566194,0.0000,0.0000,0.0000,-0.004329,-1.576932,1.566194,-0.0153,0.1915,0.1218,0.000000,0.524621,-0.527689,0.530757,-0.530757,0.530757,-0.523087
3.9208,0.020082,-0.004604,-1.576932,1.566194,0.0000,0.0000,0.0000,-0.004329,-1.576932,1.566194,-0.0153,0.1915,0.1218,0.000000,0.524621,-0.526155,0.529223,-0.530757,0.529223,-0.521553
3.9409,0.020136,-0.004705,-1.576932,1.566194,0.0000,0.0000,0.0000,-0.004417,-1.576932,1.566194,-0.0041,0.1947,0.1939,0.000000,0.523087,-0.524621,0.527689,-0.529223,0.529223,-0.520019
3.9610,0.020085,-0.004805,-1.576932,1.566194,0.0000,0.0000,0.0000,-0.004537,-1.576932,1.566194,-0.0996,0.1289,0.0841,0.000000,0.518486,-0.523087,0.524621,-0.526155,0.527689,-0.518486
3.9813,0.020274,-0.004906,-1.576932,1.566194,0.0000,0.0000,0.0000,-0.004625,-1.576932,1.566194,-0.1396,0.1189,0.1999,0.000000,0.516952,-0.520019,0.523087,-0.523087,0.526155,-0.516952
4.0014,0.020091,-0.004993,-1.576932,1.566194,0.0000,0.0000,0.0000,-0.004754,-1.576932,1.566194,-0.0560,0.3276,0.2395,0.000000,0.513884,-0.516952,0.523087,-0.521553,0.521553,-0.512350
4.0215,0.020078,-0.004893,-1.576932,1.566194,0.0000,0.0000,0.0000,-0.004816,-1.576932,1.566194,-0.0043,0.2374,0.2352,0.000000,0.513884,-0.515418,0.520019,-0.520019,0.520019,-0.510816
4.0415,0.020083,-0.004792,-1.576932,1.566194,0.0000,0.0000,0.0000,-0.004924,-1.576932,1.566194,0.0907,0.0734,0.1833,0.000000,0.512350,-0.515418,0.515418,-0.516952,0.518486,-0.507748
4.0618,0.020225,-0.004691,-1.576932,1.566194,0.0000,0.0000,0.0000,-0.005039,-1.576932,1.566194,-0.1097,0.0381,0.0848,0.000000,0.507748,-0.512350,0.512350,-0.513884,0.516952,-0.507748
4.0819,0.020086,-0.004591,-1.576932,1.566194,0.0000,0.0000,0.0000,-0.005178,-1.576932,1.566194,-0.1496,0.2848,0.0946,0.000000,0.503146,-0.507748,0.512350,-0.512350,0.512350,-0.504680
4.1019,0.020078,-0.004490,-1.576932,1.566194,0.0000,0.0000,0.0000,-0.005213,-1.576932,1.566194,-0.1753,0.3121,0.0931,0.000000,0.503146,-0.504680,0.510816,-0.512350,0.510816,-0.504680
4.1220,0.020077,-0.004390,-1.576932,1.566194,0.0000,0.0000,0.0000,-0.005222,-1.576932,1.566194,-0.1224,0.3264,0.1452,0.000000,0.503146,-0.504680,0.510816,-0.512350,0.510816,-0.503146
4.1421,0.020093,-0.004289,-1.576932,1.566194,0.0000,0.0000,0.0000,-0.005209,-1.576932,1.566194,-0.1381,0.3769,0.1917,0.000000,0.503146,-0.504680,0.512350,-0.512350,0.510816,-0.503146
4.1622,0.020080,-0.004189,-1.576932,1.566194,0.0000,0.0000,0.0000,-0.005210,-1.576932,1.566194,-0.1365,0.3716,0.1868,0.000000,0.503146,-0.504680,0.512350,-0.512350,0.510816,-0.503146
4.1824,0.020259,-0.004088,-1.576932,1.566194,0.0000,0.0000,0.0000,-0.005210,-1.576932,1.566194,-0.1365,0.3716,0.1868,0.000000,0.503146,-0.504680,0.512350,-0.512350,0.510816,-0.503146
4.2025,0.020073,-0.003987,-1.576932,1.566194,0.0000,0.0000,0.0000,-0.005210,-1.576932,1.566194,-0.1365,0.3716,0.1868,0.000000,0.503146,-0.504680,0.512350,-0.512350,0.510816,-0.503146
4.2226,0.020075,-0.003887,-1.576932,1.566194,0.0000,0.0000,0.0000,-0.005210,-1.576932,1.566194,-0.1365,0.3716,0.1868,0.000000,0.503146,-0.504680,0.512350,-0.512350,0.510816,-0.503146
4.2427,0.020089,-0.003787,-1.576932,1.566194,0.0000,0.0000,0.0000,-0.005210,-1.576932,1.566194,-0.1365,0.3716,0.1868,0.000000,0.503146,-0.504680,0.512350,-0.512350,0.510816,-0.503146
4.2628,0.020074,-0.003686,-1.576932,1.566194,0.0000,0.0000,0.0000,-0.005210,-1.576932,1.566194,-0.1365,0.3716,0.1868,0.000000,0.503146,-0.504680,0.512350,-0.512350,0.510816,-0.503146
4.2830,0.020216,-0.003585,-1.576932,1.566194,0.0000,0.0000,0.0000,-0.005210,-1.576932,1.566194,-0.1365,0.3716,0.1868,0.000000,0.503146,-0.504680,0.512350,-0.512350,0.510816,-0.503146
4.3030,0.020080,-0.003485,-1.576932,1.566194,0.0000,0.0000,0.0000,-0.005198,-1.576932,1.566194,-0.0864,0.3551,0.2393,0.000000,0.504680,-0.504680,0.512350,-0.512350,0.510816,-0.503146
4.3231,0.020081,-0.003384,-1.576932,1.566194,0.0000,0.0000,0.0000,-0.005211,-1.576932,1.566194,-0.1418,0.3738,0.1819,0.000000,0.503146,-0.504680,0.512350,-0.512350,0.510816,-0.503146
4.3433,0.020154,-0.003284,-1.576932,1.566194,0.0000,0.0000,0.0000,-0.005210,-1.576932,1.566194,-0.1361,0.3719,0.1878,0.000000,0.503146,-0.504680,0.512350,-0.512350,0.510816,-0.503146
4.3634,0.020078,-0.003183,-1.576932,1.566194,0.0000,0.0000,0.0000,-0.005198,-1.576932,1.566194,-0.0865,0.3551,0.2392,0.000000,0.504680,-0.504680,0.512350,-0.512350,0.510816,-0.503146
4.3835,0.020154,-0.003082,-1.576932,1.566194,0.0000,0.0000,0.0000,-0.005199,-1.576932,1.566194,-0.0917,0.3569,0.2338,0.000000,0.504680,-0.504680,0.512350,-0.512350,0.510816,-0.503146
4.4036,0.020074,-0.002982,-1.576932,1.566194,0.0000,0.0000,0.0000,-0.005199,-1.576932,1.566194,-0.0917,0.3569,0.2338,0.000000,0.504680,-0.504680,0.512350,-0.512350,0.510816,-0.503146
4.4237,0.020085,-0.002882,-1.576932,1.566194,0.0000,0.0000,0.0000,-0.005199,-1.576932,1.566194,-0.0917,0.3569,0.2338,0.000000,0.504680,-0.504680,0.512350,-0.512350,0.510816,-0.503146
4.4439,0.020210,-0.002781,-1.576932,1.566194,0.0000,0.0000,0.0000,-0.005186,-1.576932,1.566194,-0.0809,0.4087,0.1824,0.000000,0.504680,-0.504680,0.512350,-0.513884,0.510816,-0.503146
4.4640,0.020087,-0.002680,-1.576932,1.566194,0.0000,0.0000,0.0000,-0.005187,-1.576932,1.566194,-0.0821,0.4033,0.1877,0.000000,0.504680,-0.504680,0.512350,-0.513884,0.510816,-0.503146
4.4843,0.020374,-0.002578,-1.576932,1.566194,0.0000,0.0000,0.0000,-0.005187,-1.576932,1.566194,-0.0821,0.4033,0.1877,0.000000,0.504680,-0.504680,0.512350,-0.513884,0.510816,-0.503146
4.5044,0.020074,-0.002478,-1.576932,1.566194,0.0000,0.0000,0.0000,-0.005187,-1.576932,1.566194,-0.0821,0.4033,0.1877,0.000000,0.504680,-0.504680,0.512350,-0.513884,0.510816,-0.503146
4.5245,0.020082,-0.002377,-1.576932,1.566194,0.0000,0.0000,0.0000,-0.005175,-1.576932,1.566194,-0.0717,0.4559,0.1351,0.000000,0.504680,-0.504680,0.512350,-0.515418,0.510816,-0.503146
4.5446,0.020143,-0.002277,-1.576932,1.566194,0.0000,0.0000,0.0000,-0.005176,-1.576932,1.566194,-0.0728,0.4504,0.1406,0.000000,0.504680,-0.504680,0.512350,-0.515418,0.510816,-0.503146
4.5647,0.020086,-0.002176,-1.576932,1.566194,0.0000,0.0000,0.0000,-0.005126,-1.576932,1.566194,-0.0726,0.4851,0.1401,0.000000,0.504680,-0.506214,0.513884,-0.516952,0.512350,-0.503146
4.5849,0.020213,-0.002075,-1.576932,1.566194,0.0000,0.0000,0.0000,-0.005119,-1.576932,1.566194,-0.0922,0.6204,0.0874,0.000000,0.504680,-0.504680,0.513884,-0.520019,0.512350,-0.503146
4.6050,0.020084,-0.001975,-1.576932,1.566194,0.0000,0.0000,0.0000,-0.005082,-1.576932,1.566194,0.0104,0.6061,0.0413,0.000000,0.506214,-0.506214,0.513884,-0.521553,0.512350,-0.503146
4.6251,0.020080,-0.001874,-1.576932,1.566194,0.0000,0.0000,0.0000,-0.005036,-1.576932,1.566194,-0.0196,0.7455,-0.1628,0.000000,0.506214,-0.506214,0.513884,-0.526155,0.512350,-0.504680
4.6452,0.020093,-0.001774,-1.576932,1.566194,0.0000,0.0000,0.0000,-0.005036,-1.576932,1.566194,-0.0196,0.7455,-0.1628,0.000000,0.507748,-0.506214,0.513884,-0.527689,0.512350,-0.506214
4.6653,0.020079,-0.001674,-1.576932,1.566194,0.0000,0.0000,0.0000,-0.004920,-1.576932,1.566194,0.0252,0.8342,-0.3476,0.000000,0.510816,-0.506214,0.513884,-0.532291,0.512350,-0.509282
4.6855,0.020267,-0.001572,-1.576932,1.566194,0.0000,0.0000,0.0000,-0.004830,-1.576932,1.566194,0.0147,0.8764,-0.4372,0.000000,0.513884,-0.506214,0.513884,-0.536893,0.513884,-0.512350
4.7056,0.020082,-0.001472,-1.576932,1.566194,0.0000,0.0000,0.0000,-0.004742,-1.576932,1.566194,0.0484,0.8550,-0.4286,0.000000,0.518486,-0.506214,0.513884,-0.539961,0.515418,-0.515418
4.7257,0.020080,-0.001371,-1.576932,1.566194,0.0000,0.0000,0.0000,-0.004615,-1.576932,1.566194,0.1065,0.9284,-0.2734,0.000000,0.524621,-0.506214,0.516952,-0.543029,0.516952,-0.518486
4.7459,0.020170,-0.001271,-1.576932,1.566194,0.0000,0.0000,0.0000,-0.004479,-1.576932,1.566194,0.0211,0.9569,-0.1868,0.000000,0.529223,-0.506214,0.520019,-0.546097,0.520019,-0.523087
4.7660,0.020125,-0.001170,-1.576932,1.566194,0.0000,0.0000,0.0000,-0.004345,-1.576932,1.566194,-0.0494,0.9900,-0.0928,0.000000,0.533825,-0.506214,0.523087,-0.549165,0.523087,-0.527689
4.7863,0.020249,-0.001069,-1.576932,1.566194,0.0000,0.0000,0.0000,-0.004200,-1.576932,1.566194,-0.0336,1.0762,0.1588,0.000000,0.539961,-0.506214,0.527689,-0.552233,0.526155,-0.530757
4.8065,0.020218,-0.000968,-1.576932,1.566194,0.0000,0.0000,0.0000,-0.004200,-1.576932,1.566194,-0.0336,1.0762,0.1588,0.000000,0.544563,-0.509282,0.532291,-0.555301,0.529223,-0.533825
4.8265,0.020081,-0.000867,-1.576932,1.566194,0.0000,0.0000,0.0000,-0.003881,-1.576932,1.566194,0.0473,1.1191,0.4416,0.000000,0.549165,-0.512350,0.536893,-0.558369,0.533825,-0.535359
4.8467,0.020109,-0.000767,-1.576932,1.566194,0.0000,0.0000,0.0000,-0.003745,-1.576932,1.566194,0.0723,1.0302,0.4223,0.000000,0.552233,-0.516952,0.539961,-0.559903,0.536893,-0.538427
4.8667,0.020080,-0.000666,-1.576932,1.566194,0.0000,0.0000,0.0000,-0.003622,-1.576932,1.566194,0.1196,1.0571,0.4782,0.000000,0.555301,-0.520019,0.543029,-0.562971,0.539961,-0.539961
4.8869,0.020119,-0.000566,-1.576932,1.566194,0.0000,0.0000,0.0000,-0.003482,-1.576932,1.566194,0.1441,1.1041,0.4737,0.000000,0.556835,-0.524621,0.547631,-0.566039,0.543029,-0.541495
4.9071,0.020203,-0.000465,-1.576932,1.566194,0.0000,0.0000,0.0000,-0.003482,-1.576932,1.566194,0.1441,1.1041,0.4737,0.000000,0.558369,-0.529223,0.550699,-0.569107,0.544563,-0.543029
4.9271,0.020077,-0.000364,-1.576932,1.566194,0.0000,0.0000,0.0000,-0.003281,-1.576932,1.566194,0.4226,1.1448,0.3845,0.000000,0.561437,-0.533825,0.553767,-0.570641,0.544563,-0.543029
4.9473,0.020203,-0.000263,-1.576932,1.566194,0.0000,0.0000,0.0000,-0.003203,-1.576932,1.566194,0.5699,1.1952,0.4390,0.000000,0.564505,-0.536893,0.556835,-0.572175,0.544563,-0.543029
4.9674,0.020080,-0.000163,-1.576932,1.566194,0.0000,0.0000,0.0000,-0.003173,-1.576932,1.566194,0.6459,1.1706,0.2753,0.000000,0.564505,-0.539961,0.556835,-0.573709,0.544563,-0.543029
4.9875,0.020074,-0.000063,-1.576932,1.566194,0.0000,0.0000,0.0000,-0.003112,-1.576932,1.566194,0.6778,1.1712,0.2397,0.000000,0.564505,-0.543029,0.558369,-0.575243,0.546097,-0.543029
5.0077,0.020249,0.000039,-1.576932,1.566194,0.0000,0.0000,0.0000,-0.003056,-1.576932,1.566194,0.7748,1.1016,0.1910,0.000000,0.566039,-0.546097,0.558369,-0.576777,0.547631,-0.543029
5.0278,0.020078,0.000139,-1.576932,1.566194,0.0000,0.0000,0.0000,-0.002998,-1.576932,1.566194,0.8547,1.0197,0.0368,0.000000,0.566039,-0.550699,0.558369,-0.578311,0.549165,-0.543029
5.0480,0.020138,0.000240,-1.576932,1.566194,0.0000,0.0000,0.0000,-0.002866,-1.576932,1.566194,0.7962,1.0434,-0.0008,0.000000,0.567573,-0.553767,0.561437,-0.581379,0.552233,-0.546097
5.0682,0.020265,0.000341,-1.576932,1.566194,0.0000,0.0000,0.0000,-0.002745,-1.576932,1.566194,0.8252,1.0040,-0.2633,0.000000,0.570641,-0.556835,0.561437,-0.585981,0.553767,-0.550699
5.0884,0.020158,0.000442,-1.576932,1.566194,0.0000,0.0000,0.0000,-0.002608,-1.576932,1.566194,0.8219,1.0073,-0.2362,0.000000,0.573709,-0.559903,0.564505,-0.589049,0.556835,-0.553767
5.1085,0.020083,0.000542,-1.576932,1.566194,0.0000,0.0000,0.0000,-0.002462,-1.576932,1.566194,0.8625,1.1427,-0.2919,0.000000,0.576777,-0.562971,0.569107,-0.593651,0.558369,-0.556835
5.1285,0.020080,0.000643,-1.576932,1.566194,0.0000,0.0000,0.0000,-0.002341,-1.576932,1.566194,0.8480,1.1130,-0.2320,0.000000,0.581379,-0.564505,0.572175,-0.595185,0.559903,-0.561437
5.1487,0.020119,0.000743,-1.576932,1.566194,0.0000,0.0000,0.0000,-0.002257,-1.576932,1.566194,0.8721,1.0811,-0.3456,0.000000,0.584447,-0.566039,0.572175,-0.598253,0.561437,-0.564505
5.1688,0.020093,0.000844,-1.576932,1.566194,0.0000,0.0000,0.0000,-0.002154,-1.576932,1.566194,0.8296,1.0168,-0.2811,0.000000,0.587515,-0.567573,0.573709,-0.599786,0.564505,-0.567573
5.1889,0.020106,0.000944,-1.576932,1.566194,0.0000,0.0000,0.0000,-0.002006,-1.576932,1.566194,0.9732,1.0251,-0.2324,0.000000,0.593651,-0.570641,0.576777,-0.602854,0.566039,-0.570641
5.2090,0.020134,0.001045,-1.576932,1.566194,0.0000,0.0000,0.0000,-0.002006,-1.576932,1.566194,0.9732,1.0251,-0.2324,0.000000,0.596719,-0.570641,0.578311,-0.604388,0.567573,-0.573709
5.2291,0.020104,0.001146,-1.576932,1.566194,0.0000,0.0000,0.0000,-0.001896,-1.576932,1.566194,0.9254,1.0946,-0.1885,0.000000,0.598253,-0.570641,0.579845,-0.605922,0.567573,-0.575243
5.2492,0.020099,0.001246,-1.576932,1.566194,0.0000,0.0000,0.0000,-0.001840,-1.576932,1.566194,0.9648,0.9857,-0.2408,0.000000,0.601320,-0.572175,0.579845,-0.605922,0.567573,-0.578311
5.2693,0.020091,0.001346,-1.576932,1.566194,0.0000,0.0000,0.0000,-0.001798,-1.576932,1.566194,0.9615,1.0657,-0.2348,0.000000,0.602854,-0.572175,0.581379,-0.607456,0.567573,-0.579845
5.2894,0.020116,0.001447,-1.576932,1.566194,0.0000,0.0000,0.0000,-0.001798,-1.576932,1.566194,0.9615,1.0657,-0.2348,0.000000,0.604388,-0.575243,0.582913,-0.608990,0.569107,-0.579845
5.3095,0.020113,0.001548,-1.576932,1.566194,0.0000,0.0000,0.0000,-0.001608,-1.576932,1.566194,0.9791,1.0070,-0.2360,0.000000,0.605922,-0.578311,0.585981,-0.610524,0.572175,-0.582913
5.3296,0.020095,0.001648,-1.576932,1.566194,0.0000,0.0000,0.0000,-0.001472,-1.576932,1.566194,0.9860,1.0098,-0.2362,0.000000,0.608990,-0.581379,0.589049,-0.613592,0.575243,-0.585981
5.3497,0.020111,0.001749,-1.576932,1.566194,0.0000,0.0000,0.0000,-0.001323,-1.576932,1.566194,1.0096,0.9586,-0.0745,0.000000,0.612058,-0.585981,0.593651,-0.615126,0.579845,-0.587515
5.3698,0.020102,0.001849,-1.576932,1.566194,0.0000,0.0000,0.0000,-0.001190,-1.576932,1.566194,1.0068,1.0978,-0.0915,0.000000,0.613592,-0.589049,0.598253,-0.619728,0.582913,-0.589049
5.3899,0.020102,0.001950,-1.576932,1.566194,0.0000,0.0000,0.0000,-0.001190,-1.576932,1.566194,1.0068,1.0978,-0.0915,0.000000,0.613592,-0.589049,0.598253,-0.619728,0.582913,-0.589049
5.4100,0.020112,0.002050,-1.576932,1.566194,0.0000,0.0000,0.0000,-0.001030,-1.576932,1.566194,1.0434,1.0820,0.0185,0.000000,0.618194,-0.595185,0.605922,-0.625864,0.590583,-0.593651
5.4301,0.020102,0.002151,-1.576932,1.566194,0.0000,0.0000,0.0000,-0.000800,-1.576932,1.566194,0.9996,1.1608,-0.0461,0.000000,0.621262,-0.598253,0.608990,-0.628932,0.592117,-0.596719
5.4502,0.020104,0.002251,-1.576932,1.566194,0.0000,0.0000,0.0000,-0.000665,-1.576932,1.566194,1.0030,1.1404,0.0675,0.000000,0.624330,-0.601320,0.612058,-0.632000,0.596719,-0.598253
5.4704,0.020106,0.002352,-1.576932,1.566194,0.0000,0.0000,0.0000,-0.000543,-1.576932,1.566194,0.9437,1.1734,-0.1079,0.000000,0.625864,-0.604388,0.615126,-0.635068,0.598253,-0.602854
5.4905,0.020121,0.002452,-1.576932,1.566194,0.0000,0.0000,0.0000,-0.000543,-1.576932,1.566194,0.9437,1.1734,-0.1079,0.000000,0.625864,-0.604388,0.615126,-0.635068,0.598253,-0.602854
5.5108,0.020371,0.002554,-1.576932,1.566194,0.0000,0.0000,0.0000,-0.000470,-1.576932,1.566194,0.9100,1.1357,-0.0361,0.000000,0.627398,-0.605922,0.616660,-0.636602,0.601320,-0.604388
5.5309,0.020093,0.002655,-1.576932,1.566194,0.0000,0.0000,0.0000,-0.000380,-1.576932,1.566194,0.9226,1.0901,0.0652,0.000000,0.630466,-0.607456,0.618194,-0.638136,0.604388,-0.605922
5.5511,0.020118,0.002755,-1.576932,1.566194,0.0000,0.0000,0.0000,-0.000332,-1.576932,1.566194,1.0311,1.2151,0.1110,0.000000,0.633534,-0.607456,0.619728,-0.641204,0.604388,-0.605922
5.5711,0.020072,0.002856,-1.576932,1.566194,0.0000,0.0000,0.0000,-0.000213,-1.576932,1.566194,1.0276,1.3266,-0.0444,0.000000,0.636602,-0.608990,0.622796,-0.645806,0.604388,-0.610524
5.5912,0.020092,0.002956,-1.576932,1.566194,0.0000,0.0000,0.0000,-0.000147,-1.576932,1.566194,1.1113,1.3419,-0.0380,0.000000,0.639670,-0.610524,0.624330,-0.647340,0.604388,-0.612058
5.6113,0.020105,0.003057,-1.576932,1.566194,0.0000,0.0000,0.0000,-0.000147,-1.576932,1.566194,1.1113,1.3419,-0.0380,0.000000,0.639670,-0.610524,0.624330,-0.647340,0.604388,-0.612058
5.6314,0.020090,0.003157,-1.576932,1.566194,0.0000,0.0000,0.0000,-0.000045,-1.576932,1.566194,1.0625,1.2737,0.0152,0.000000,0.645806,-0.615126,0.628932,-0.651942,0.608990,-0.618194
5.6515,0.020093,0.003258,-1.576932,1.566194,0.0000,0.0000,0.0000,0.000078,-1.576932,1.566194,1.1066,1.3133,-0.0440,0.000000,0.645806,-0.615126,0.628932,-0.651942,0.608990,-0.618194
5.6716,0.020095,0.003358,-1.576932,1.566194,0.0000,0.0000,0.0000,0.000187,-1.576932,1.566194,1.1008,1.2078,-0.0383,0.000000,0.648874,-0.618194,0.630466,-0.653476,0.612058,-0.621262
5.6917,0.020093,0.003458,-1.576932,1.566194,0.0000,0.0000,0.0000,0.000309,-1.576932,1.566194,1.0619,1.2527,0.0156,0.000000,0.651942,-0.619728,0.633534,-0.656544,0.615126,-0.624330
5.7118,0.020075,0.003559,-1.576932,1.566194,0.0000,0.0000,0.0000,0.000455,-1.576932,1.566194,1.0624,1.2812,0.1747,0.000000,0.655010,-0.622796,0.638136,-0.659612,0.619728,-0.625864
5.7319,0.020101,0.003659,-1.576932,1.566194,0.0000,0.0000,0.0000,0.000550,-1.576932,1.566194,1.1097,1.1944,0.2134,0.000000,0.661146,-0.628932,0.642738,-0.664214,0.627398,-0.628932
5.7520,0.020151,0.003760,-1.576932,1.566194,0.0000,0.0000,0.0000,0.000686,-1.576932,1.566194,1.1131,1.1863,0.3193,0.000000,0.661146,-0.628932,0.642738,-0.664214,0.627398,-0.628932
5.7721,0.020103,0.003861,-1.576932,1.566194,0.0000,0.0000,0.0000,0.000802,-1.576932,1.566194,1.1338,1.2878,0.3639,0.000000,0.665748,-0.633534,0.648874,-0.670350,0.633534,-0.630466
5.7922,0.020098,0.003961,-1.576932,1.566194,0.0000,0.0000,0.0000,0.000888,-1.576932,1.566194,1.1675,1.2757,0.4701,0.000000,0.665748,-0.633534,0.648874,-0.670350,0.633534,-0.630466
5.8123,0.020105,0.004062,-1.576932,1.566194,0.0000,0.0000,0.0000,0.000986,-1.576932,1.566194,1.2992,1.3437,0.5168,0.000000,0.668816,-0.636602,0.651942,-0.673418,0.635068,-0.630466
5.8324,0.020103,0.004162,-1.576932,1.566194,0.0000,0.0000,0.0000,0.001056,-1.576932,1.566194,1.3162,1.3904,0.6782,0.000000,0.671884,-0.636602,0.653476,-0.676486,0.638136,-0.630466
5.8525,0.020097,0.004263,-1.576932,1.566194,0.0000,0.0000,0.0000,0.001119,-1.576932,1.566194,1.3469,1.3689,0.6605,0.000000,0.673418,-0.638136,0.653476,-0.679553,0.641204,-0.630466
5.8726,0.020095,0.004363,-1.576932,1.566194,0.0000,0.0000,0.0000,0.001196,-1.576932,1.566194,1.5058,1.4218,0.7216,0.000000,0.676486,-0.641204,0.656544,-0.681087,0.641204,-0.630466
5.8927,0.020105,0.004464,-1.576932,1.566194,0.0000,0.0000,0.0000,0.001258,-1.576932,1.566194,1.5764,1.5653,0.7180,0.000000,0.678020,-0.642738,0.659612,-0.684155,0.641204,-0.630466
5.9128,0.020103,0.004564,-1.576932,1.566194,0.0000,0.0000,0.0000,0.001306,-1.576932,1.566194,1.7276,1.5857,0.6655,0.000000,0.681087,-0.644272,0.659612,-0.687223,0.641204,-0.630466
5.9329,0.020090,0.004665,-1.576932,1.566194,0.0000,0.0000,0.0000,0.001371,-1.576932,1.566194,1.8079,1.5868,0.7839,0.000000,0.684155,-0.645806,0.661146,-0.688757,0.642738,-0.630466
5.9530,0.020088,0.004765,-1.576932,1.566194,0.0000,0.0000,0.0000,0.001444,-1.576932,1.566194,1.9573,1.5542,0.7175,0.000000,0.687223,-0.648874,0.661146,-0.691825,0.644272,-0.630466
5.9731,0.020095,0.004866,-1.576932,1.566194,0.0000,0.0000,0.0000,0.001518,-1.576932,1.566194,2.0756,1.5260,0.7820,0.000000,0.690291,-0.651942,0.662680,-0.693359,0.645806,-0.630466
5.9932,0.020088,0.004966,-1.576932,1.566194,0.0000,0.0000,0.0000,0.001625,-1.576932,1.566194,2.1325,1.6478,0.8883,0.000000,0.693359,-0.653476,0.665748,-0.697961,0.648874,-0.630466
6.0133,0.020090,0.004934,-1.576932,1.566194,0.0000,0.0000,0.0000,0.001778,-1.576932,1.566194,2.2616,1.6660,0.7699,0.000000,0.697961,-0.658078,0.668816,-0.702563,0.650408,-0.633534
6.0334,0.020094,0.004833,-1.576932,1.566194,0.0000,0.0000,0.0000,0.001942,-1.576932,1.566194,2.2832,1.5953,0.7284,0.000000,0.702563,-0.662680,0.671884,-0.705631,0.653476,-0.638136
6.0535,0.020089,0.004733,-1.576932,1.566194,0.0000,0.0000,0.0000,0.002120,-1.576932,1.566194,2.2447,1.6465,0.7353,0.000000,0.705631,-0.667282,0.678020,-0.708699,0.656544,-0.642738
6.0736,0.020097,0.004632,-1.576932,1.566194,0.0000,0.0000,0.0000,0.002306,-1.576932,1.566194,2.2330,1.5895,0.7917,0.000000,0.710233,-0.671884,0.682621,-0.711767,0.661146,-0.647340
6.0937,0.020087,0.004532,-1.576932,1.566194,0.0000,0.0000,0.0000,0.002455,-1.576932,1.566194,2.2210,1.5404,0.6743,0.000000,0.713301,-0.676486,0.685689,-0.714835,0.664214,-0.651942
6.1137,0.020087,0.004431,-1.576932,1.566194,0.0000,0.0000,0.0000,0.002583,-1.576932,1.566194,2.2102,1.5584,0.5763,0.000000,0.716369,-0.679553,0.688757,-0.717903,0.665748,-0.656544
6.1338,0.020089,0.004331,-1.576932,1.566194,0.0000,0.0000,0.0000,0.002630,-1.576932,1.566194,2.1614,1.4404,0.5292,0.000000,0.717903,-0.681087,0.688757,-0.717903,0.667282,-0.659612
6.1539,0.020078,0.004230,-1.576932,1.566194,0.0000,0.0000,0.0000,0.002635,-1.576932,1.566194,2.2141,1.4396,0.5915,0.000000,0.719437,-0.681087,0.688757,-0.717903,0.667282,-0.659612
6.1740,0.020080,0.004130,-1.576932,1.566194,0.0000,0.0000,0.0000,0.002648,-1.576932,1.566194,2.2460,1.4047,0.5286,0.000000,0.719437,-0.682621,0.688757,-0.717903,0.667282,-0.659612
6.1941,0.020077,0.004030,-1.576932,1.566194,0.0000,0.0000,0.0000,0.002646,-1.576932,1.566194,2.2427,1.4084,0.5352,0.000000,0.719437,-0.682621,0.688757,-0.717903,0.667282,-0.659612
6.2141,0.020083,0.003929,-1.576932,1.566194,0.0000,0.0000,0.0000,0.002646,-1.576932,1.566194,2.2427,1.4084,0.5352,0.000000,0.719437,-0.682621,0.688757,-0.717903,0.667282,-0.659612
6.2342,0.020084,0.003829,-1.576932,1.566194,0.0000,0.0000,0.0000,0.002646,-1.576932,1.566194,2.2427,1.4084,0.5352,0.000000,0.719437,-0.682621,0.688757,-0.717903,0.667282,-0.659612
6.2543,0.020077,0.003728,-1.576932,1.566194,0.0000,0.0000,0.0000,0.002646,-1.576932,1.566194,2.2427,1.4084,0.5352,0.000000,0.719437,-0.682621,0.688757,-0.717903,0.667282,-0.659612
6.2744,0.020082,0.003628,-1.576932,1.566194,0.0000,0.0000,0.0000,0.002646,-1.576932,1.566194,2.2427,1.4084,0.5352,0.000000,0.719437,-0.682621,0.688757,-0.717903,0.667282,-0.659612
6.2945,0.020077,0.003528,-1.576932,1.566194,0.0000,0.0000,0.0000,0.002627,-1.576932,1.566194,2.1477,1.4343,0.4199,0.000000,0.716369,-0.682621,0.688757,-0.717903,0.667282,-0.659612
6.3145,0.020084,0.003427,-1.576932,1.566194,0.0000,0.0000,0.0000,0.002609,-1.576932,1.566194,2.0622,1.4581,0.3173,0.000000,0.713301,-0.682621,0.688757,-0.717903,0.667282,-0.659612
6.3346,0.020079,0.003327,-1.576932,1.566194,0.0000,0.0000,0.0000,0.002591,-1.576932,1.566194,1.9754,1.4824,0.2136,0.000000,0.710233,-0.682621,0.688757,-0.717903,0.667282,-0.659612
6.3547,0.020074,0.003226,-1.576932,1.566194,0.0000,0.0000,0.0000,0.002552,-1.576932,1.566194,1.8648,1.4106,0.2221,0.000000,0.707165,-0.682621,0.688757,-0.714835,0.667282,-0.659612
6.3748,0.020102,0.003126,-1.576932,1.566194,0.0000,0.0000,0.0000,0.002514,-1.576932,1.566194,1.7568,1.3489,0.2191,0.000000,0.704097,-0.682621,0.688757,-0.711767,0.667282,-0.659612
6.3949,0.020077,0.003026,-1.576932,1.566194,0.0000,0.0000,0.0000,0.002497,-1.576932,1.566194,1.7445,1.2585,0.3313,0.000000,0.704097,-0.682621,0.688757,-0.708699,0.667282,-0.659612
6.4150,0.020080,0.002925,-1.576932,1.566194,0.0000,0.0000,0.0000,0.002446,-1.576932,1.566194,1.6151,1.1501,0.3734,0.000000,0.701029,-0.682621,0.688757,-0.704097,0.667282,-0.659612
6.4350,0.020078,0.002825,-1.576932,1.566194,0.0000,0.0000,0.0000,0.002451,-1.576932,1.566194,1.6286,1.1613,0.3690,0.000000,0.701029,-0.682621,0.688757,-0.704097,0.667282,-0.659612
6.4551,0.020074,0.002724,-1.576932,1.566194,0.0000,0.0000,0.0000,0.002375,-1.576932,1.566194,1.4013,1.0703,0.3099,0.000000,0.694893,-0.682621,0.688757,-0.699495,0.667282,-0.659612
6.4752,0.020083,0.002624,-1.576932,1.566194,0.0000,0.0000,0.0000,0.002373,-1.576932,1.566194,1.2806,1.0919,0.1464,0.000000,0.691825,-0.682621,0.688757,-0.699495,0.667282,-0.661146
6.4953,0.020079,0.002524,-1.576932,1.566194,0.0000,0.0000,0.0000,0.002351,-1.576932,1.566194,1.2339,1.0554,0.1627,0.000000,0.690291,-0.682621,0.688757,-0.697961,0.667282,-0.661146
6.5154,0.020081,0.002423,-1.576932,1.566194,0.0000,0.0000,0.0000,0.002262,-1.576932,1.566194,1.0982,0.9237,0.2709,0.000000,0.685689,-0.682621,0.688757,-0.691825,0.667282,-0.659612
6.5354,0.020076,0.002323,-1.576932,1.566194,0.0000,0.0000,0.0000,0.002238,-1.576932,1.566194,0.9457,0.8526,0.2023,0.000000,0.682621,-0.682621,0.688757,-0.688757,0.667282,-0.661146
6.5555,0.020080,0.002222,-1.576932,1.566194,0.0000,0.0000,0.0000,0.002240,-1.576932,1.566194,0.9616,0.8601,0.2094,0.000000,0.682621,-0.682621,0.688757,-0.688757,0.667282,-0.661146
