t,loop_dt,cmd_z,cmd_ant_l,cmd_ant_r,cmd_roll,cmd_pitch,cmd_yaw,pres_z,pres_ant_l,pres_ant_r,pres_roll,pres_pitch,pres_yaw,pres_j0,pres_j1,pres_j2,pres_j3,pres_j4,pres_j5,pres_j6
0.0000,0.000001,-0.005000,-1.576932,1.566194,0.0000,0.0000,0.0000,-0.000309,-1.576932,1.566194,0.2094,0.3543,0.2458,0.000000,0.615126,-0.619728,0.621262,-0.627398,0.624330,-0.605922
0.0201,0.020085,-0.004839,-1.576932,1.566194,0.0000,0.0000,0.0000,-0.000309,-1.576932,1.566194,0.2094,0.3543,0.2458,0.000000,0.615126,-0.619728,0.621262,-0.627398,0.624330,-0.605922
0.0402,0.020075,-0.004679,-1.576932,1.566194,0.0000,0.0000,0.0000,-0.000309,-1.576932,1.566194,0.2094,0.3543,0.2458,0.000000,0.615126,-0.619728,0.621262,-0.627398,0.624330,-0.605922
0.0602,0.020082,-0.004518,-1.576932,1.566194,0.0000,0.0000,0.0000,-0.000456,-1.576932,1.566194,0.2094,0.3544,0.2461,0.000000,0.612058,-0.616660,0.618194,-0.624330,0.621262,-0.602854
0.0803,0.020081,-0.004357,-1.576932,1.566194,0.0000,0.0000,0.0000,-0.001544,-1.576932,1.566194,0.0825,0.4438,0.1354,0.000000,0.587515,-0.592117,0.595185,-0.602854,0.598253,-0.581379
0.1004,0.020079,-0.004197,-1.576932,1.566194,0.0000,0.0000,0.0000,-0.001433,-1.576932,1.566194,0.0951,0.4350,0.1467,0.000000,0.587515,-0.592117,0.595185,-0.602854,0.598253,-0.581379
0.1205,0.020086,-0.004036,-1.576932,1.566194,0.0000,0.0000,0.0000,-0.003113,-1.576932,1.566194,0.1424,0.3937,0.1960,0.000000,0.555301,-0.556835,0.559903,-0.567573,0.562971,-0.547631
0.1406,0.020087,-0.003875,-1.576932,1.566194,0.0000,0.0000,0.0000,-0.004193,-1.576932,1.566194,0.0772,0.4358,0.1886,0.000000,0.529223,-0.530757,0.535359,-0.541495,0.536893,-0.523087
0.1607,0.020083,-0.003715,-1.576932,1.566194,0.0000,0.0000,0.0000,-0.005452,-1.576932,1.566194,0.0524,0.4188,0.3419,0.000000,0.503146,-0.501612,0.509282,-0.510816,0.507748,-0.497010
0.1807,0.020079,-0.003554,-1.576932,1.566194,0.0000,0.0000,0.0000,-0.005324,-1.576932,1.566194,-0.0057,0.3508,0.3265,0.000000,0.503146,-0.501612,0.509282,-0.509282,0.507748,-0.498544
0.2008,0.020084,-0.003393,-1.576932,1.566194,0.0000,0.0000,0.0000,-0.005325,-1.576932,1.566194,0.0505,0.3410,0.3800,0.000000,0.504680,-0.501612,0.509282,-0.509282,0.507748,-0.498544
0.2209,0.020090,-0.003233,-1.576932,1.566194,0.0000,0.0000,0.0000,-0.005312,-1.576932,1.566194,0.0548,0.3942,0.3225,0.000000,0.504680,-0.501612,0.509282,-0.510816,0.507748,-0.498544
0.2410,0.020086,-0.003072,-1.576932,1.566194,0.0000,0.0000,0.0000,-0.005314,-1.576932,1.566194,0.0544,0.3886,0.3285,0.000000,0.504680,-0.501612,0.509282,-0.510816,0.507748,-0.498544
0.2611,0.020085,-0.002911,-1.576932,1.566194,0.0000,0.0000,0.0000,-0.005314,-1.576932,1.566194,0.0544,0.3886,0.3285,0.000000,0.504680,-0.501612,0.509282,-0.510816,0.507748,-0.498544
0.2812,0.020081,-0.002751,-1.576932,1.566194,0.0000,0.0000,0.0000,-0.005314,-1.576932,1.566194,0.0544,0.3886,0.3285,0.000000,0.504680,-0.501612,0.509282,-0.510816,0.507748,-0.498544
0.3012,0.020050,-0.002590,-1.576932,1.566194,0.0000,0.0000,0.0000,-0.005314,-1.576932,1.566194,0.0544,0.3886,0.3285,0.000000,0.504680,-0.501612,0.509282,-0.510816,0.507748,-0.498544
0.3213,0.020080,-0.002430,-1.576932,1.566194,0.0000,0.0000,0.0000,-0.005301,-1.576932,1.566194,0.1046,0.3724,0.3799,0.000000,0.506214,-0.501612,0.509282,-0.510816,0.507748,-0.498544
0.3414,0.020082,-0.002269,-1.576932,1.566194,0.0000,0.0000,0.0000,-0.005277,-1.576932,1.566194,0.0592,0.4087,0.2708,0.000000,0.506214,-0.501612,0.509282,-0.512350,0.507748,-0.500078
0.3615,0.020078,-0.002108,-1.576932,1.566194,0.0000,0.0000,0.0000,-0.005279,-1.576932,1.566194,0.0640,0.4049,0.2822,0.000000,0.506214,-0.501612,0.509282,-0.512350,0.507748,-0.500078
0.3815,0.020079,-0.001948,-1.576932,1.566194,0.0000,0.0000,0.0000,-0.005254,-1.576932,1.566194,0.0840,0.5093,0.1770,0.000000,0.506214,-0.501612,0.509282,-0.515418,0.507748,-0.500078
0.4016,0.020076,-0.001787,-1.576932,1.566194,0.0000,0.0000,0.0000,-0.005219,-1.576932,1.566194,0.0420,0.5677,0.2396,0.000000,0.506214,-0.501612,0.510816,-0.516952,0.509282,-0.500078
0.4217,0.020083,-0.001626,-1.576932,1.566194,0.0000,0.0000,0.0000,-0.005186,-1.576932,1.566194,0.0773,0.7173,0.0768,0.000000,0.506214,-0.501612,0.510816,-0.521553,0.509282,-0.500078
0.4418,0.020079,-0.001466,-1.576932,1.566194,0.0000,0.0000,0.0000,-0.005153,-1.576932,1.566194,0.1448,0.7883,0.0416,0.000000,0.507748,-0.501612,0.510816,-0.524621,0.509282,-0.500078
0.4618,0.020073,-0.001305,-1.576932,1.566194,0.0000,0.0000,0.0000,-0.004981,-1.576932,1.566194,0.2088,0.9723,0.1489,0.000000,0.512350,-0.503146,0.515418,-0.530757,0.512350,-0.501612
0.4819,0.020089,-0.001145,-1.576932,1.566194,0.0000,0.0000,0.0000,-0.004812,-1.576932,1.566194,0.2735,1.0392,0.0856,0.000000,0.516952,-0.506214,0.518486,-0.536893,0.515418,-0.504680
0.5020,0.020073,-0.000984,-1.576932,1.566194,0.0000,0.0000,0.0000,-0.004566,-1.576932,1.566194,0.3173,1.1185,0.1450,0.000000,0.523087,-0.510816,0.524621,-0.543029,0.520019,-0.509282
0.5221,0.020080,-0.000823,-1.576932,1.566194,0.0000,0.0000,0.0000,-0.004279,-1.576932,1.566194,0.3338,1.1794,0.1913,0.000000,0.530757,-0.515418,0.530757,-0.550699,0.526155,-0.515418
0.5422,0.020083,-0.000663,-1.576932,1.566194,0.0000,0.0000,0.0000,-0.004071,-1.576932,1.566194,0.3823,1.1557,0.2400,0.000000,0.536893,-0.520019,0.535359,-0.555301,0.530757,-0.520019
0.5622,0.020074,-0.000502,-1.576932,1.566194,0.0000,0.0000,0.0000,-0.003843,-1.576932,1.566194,0.3775,1.1232,0.2357,0.000000,0.543029,-0.524621,0.539961,-0.559903,0.535359,-0.526155
0.5823,0.020093,-0.000341,-1.576932,1.566194,0.0000,0.0000,0.0000,-0.003665,-1.576932,1.566194,0.4074,1.1084,0.2376,0.000000,0.547631,-0.529223,0.544563,-0.562971,0.538427,-0.530757
0.6024,0.020080,-0.000181,-1.576932,1.566194,0.0000,0.0000,0.0000,-0.003411,-1.576932,1.566194,0.4653,1.1103,0.2387,0.000000,0.555301,-0.533825,0.549165,-0.569107,0.543029,-0.536893
0.6225,0.020090,-0.000020,-1.576932,1.566194,0.0000,0.0000,0.0000,-0.003250,-1.576932,1.566194,0.4993,1.0402,0.1868,0.000000,0.559903,-0.538427,0.552233,-0.572175,0.546097,-0.541495
0.6426,0.020087,0.000141,-1.576932,1.566194,0.0000,0.0000,0.0000,-0.003105,-1.576932,1.566194,0.5454,1.0310,0.2462,0.000000,0.564505,-0.541495,0.555301,-0.575243,0.549165,-0.544563
0.6627,0.020121,0.000302,-1.576932,1.566194,0.0000,0.0000,0.0000,-0.002931,-1.576932,1.566194,0.5198,1.0299,0.1877,0.000000,0.567573,-0.546097,0.559903,-0.578311,0.552233,-0.549165
0.6828,0.020091,0.000462,-1.576932,1.566194,0.0000,0.0000,0.0000,-0.002777,-1.576932,1.566194,0.6217,0.9976,0.3018,0.000000,0.573709,-0.549165,0.562971,-0.581379,0.555301,-0.552233
0.7029,0.020075,0.000623,-1.576932,1.566194,0.0000,0.0000,0.0000,-0.002605,-1.576932,1.566194,0.5901,0.9989,0.2374,0.000000,0.576777,-0.553767,0.567573,-0.584447,0.558369,-0.556835
0.7230,0.020081,0.000784,-1.576932,1.566194,0.0000,0.0000,0.0000,-0.002449,-1.576932,1.566194,0.5933,0.9647,0.2448,0.000000,0.581379,-0.556835,0.570641,-0.587515,0.561437,-0.561437
0.7430,0.020083,0.000944,-1.576932,1.566194,0.0000,0.0000,0.0000,-0.002304,-1.576932,1.566194,0.6837,1.0174,0.0850,0.000000,0.584447,-0.561437,0.573709,-0.592117,0.562971,-0.564505
0.7631,0.020072,0.001105,-1.576932,1.566194,0.0000,0.0000,0.0000,-0.002148,-1.576932,1.566194,0.7729,0.9796,0.2104,0.000000,0.590583,-0.564505,0.576777,-0.595185,0.566039,-0.567573
0.7832,0.020096,0.001266,-1.576932,1.566194,0.0000,0.0000,0.0000,-0.002041,-1.576932,1.566194,0.8525,1.0346,0.1987,0.000000,0.593651,-0.567573,0.579845,-0.598253,0.567573,-0.569107
0.8033,0.020072,0.001426,-1.576932,1.566194,0.0000,0.0000,0.0000,-0.001892,-1.576932,1.566194,0.8553,1.0788,0.1465,0.000000,0.596719,-0.570641,0.582913,-0.602854,0.570641,-0.572175
0.8234,0.020084,0.001587,-1.576932,1.566194,0.0000,0.0000,0.0000,-0.001746,-1.576932,1.566194,0.8054,1.0559,0.0980,0.000000,0.599786,-0.573709,0.585981,-0.605922,0.573709,-0.576777
0.8434,0.020082,0.001748,-1.576932,1.566194,0.0000,0.0000,0.0000,-0.001563,-1.576932,1.566194,0.8478,1.0242,0.2115,0.000000,0.604388,-0.578311,0.590583,-0.608990,0.578311,-0.579845
0.8635,0.020073,0.001908,-1.576932,1.566194,0.0000,0.0000,0.0000,-0.001422,-1.576932,1.566194,0.8544,1.0773,0.1459,0.000000,0.607456,-0.581379,0.593651,-0.613592,0.581379,-0.582913
0.8836,0.020092,0.002069,-1.576932,1.566194,0.0000,0.0000,0.0000,-0.001240,-1.576932,1.566194,0.8023,1.0553,0.2610,0.000000,0.612058,-0.584447,0.598253,-0.616660,0.585981,-0.587515
0.9037,0.020078,0.002230,-1.576932,1.566194,0.0000,0.0000,0.0000,-0.001051,-1.576932,1.566194,0.8791,1.0733,0.1952,0.000000,0.616660,-0.589049,0.601320,-0.622796,0.590583,-0.590583
0.9238,0.020082,0.002390,-1.576932,1.566194,0.0000,0.0000,0.0000,-0.000885,-1.576932,1.566194,0.8494,1.0689,0.1485,0.000000,0.619728,-0.593651,0.605922,-0.625864,0.593651,-0.595185
0.9439,0.020081,0.002551,-1.576932,1.566194,0.0000,0.0000,0.0000,-0.000729,-1.576932,1.566194,0.8799,1.0844,0.1543,0.000000,0.622796,-0.598253,0.610524,-0.628932,0.596719,-0.598253
0.9639,0.020075,0.002711,-1.576932,1.566194,0.0000,0.0000,0.0000,-0.000598,-1.576932,1.566194,0.8761,1.0818,0.1539,0.000000,0.625864,-0.601320,0.613592,-0.632000,0.599786,-0.601320
0.9840,0.020086,0.002872,-1.576932,1.566194,0.0000,0.0000,0.0000,-0.000391,-1.576932,1.566194,0.8757,1.0807,0.1542,0.000000,0.630466,-0.605922,0.618194,-0.636602,0.604388,-0.605922
1.0041,0.020075,0.003033,-1.576932,1.566194,0.0000,0.0000,0.0000,-0.000255,-1.576932,1.566194,0.9241,1.0647,0.2098,0.000000,0.635068,-0.608990,0.621262,-0.639670,0.607456,-0.608990
1.0242,0.020082,0.003193,-1.576932,1.566194,0.0000,0.0000,0.0000,-0.000111,-1.576932,1.566194,0.9300,1.1154,0.1495,0.000000,0.638136,-0.612058,0.624330,-0.644272,0.610524,-0.612058
1.0442,0.020057,0.003354,-1.576932,1.566194,0.0000,0.0000,0.0000,0.000057,-1.576932,1.566194,1.0050,1.1096,0.2123,0.000000,0.642738,-0.616660,0.628932,-0.647340,0.613592,-0.615126
1.0643,0.020085,0.003515,-1.576932,1.566194,0.0000,0.0000,0.0000,0.000222,-1.576932,1.566194,0.9570,1.0433,0.2603,0.000000,0.647340,-0.619728,0.632000,-0.650408,0.618194,-0.619728
1.0844,0.020094,0.003675,-1.576932,1.566194,0.0000,0.0000,0.0000,0.000387,-1.576932,1.566194,0.9129,1.1323,0.2007,0.000000,0.650408,-0.622796,0.636602,-0.655010,0.621262,-0.624330
1.1045,0.020079,0.003836,-1.576932,1.566194,0.0000,0.0000,0.0000,0.000526,-1.576932,1.566194,0.9748,1.0906,0.3726,0.000000,0.655010,-0.625864,0.639670,-0.658078,0.625864,-0.625864
1.1246,0.020089,0.003997,-1.576932,1.566194,0.0000,0.0000,0.0000,0.000681,-1.576932,1.566194,1.0179,1.1087,0.2452,0.000000,0.658078,-0.630466,0.642738,-0.662680,0.628932,-0.628932
1.1447,0.020079,0.004157,-1.576932,1.566194,0.0000,0.0000,0.0000,0.000858,-1.576932,1.566194,1.0223,1.1572,0.3696,0.000000,0.662680,-0.633534,0.647340,-0.667282,0.633534,-0.632000
1.1647,0.020085,0.004318,-1.576932,1.566194,0.0000,0.0000,0.0000,0.000995,-1.576932,1.566194,1.0694,1.1364,0.4132,0.000000,0.667282,-0.636602,0.650408,-0.670350,0.636602,-0.635068
1.1854,0.020645,0.004483,-1.576932,1.566194,0.0000,0.0000,0.0000,0.001160,-1.576932,1.566194,1.1217,1.2063,0.5761,0.000000,0.671884,-0.639670,0.655010,-0.674952,0.641204,-0.636602
1.2055,0.020074,0.004644,-1.576932,1.566194,0.0000,0.0000,0.0000,0.001347,-1.576932,1.566194,1.1264,1.1473,0.5043,0.000000,0.676486,-0.644272,0.658078,-0.679553,0.645806,-0.641204
1.2255,0.020088,0.004804,-1.576932,1.566194,0.0000,0.0000,0.0000,0.001508,-1.576932,1.566194,1.1635,1.2163,0.4577,0.000000,0.679553,-0.648874,0.662680,-0.684155,0.648874,-0.644272
1.2456,0.020074,0.004965,-1.576932,1.566194,0.0000,0.0000,0.0000,0.001679,-1.576932,1.566194,1.2551,1.2780,0.5769,0.000000,0.685689,-0.651942,0.667282,-0.688757,0.651942,-0.647340
1.2657,0.020075,0.004874,-1.576932,1.566194,0.0000,0.0000,0.0000,0.001816,-1.576932,1.566194,1.3787,1.2385,0.6224,0.000000,0.690291,-0.656544,0.670350,-0.691825,0.655010,-0.648874
1.2862,0.020535,0.004710,-1.576932,1.566194,0.0000,0.0000,0.0000,0.001956,-1.576932,1.566194,1.4530,1.2883,0.4524,0.000000,0.693359,-0.661146,0.673418,-0.696427,0.656544,-0.651942
1.3063,0.020088,0.004549,-1.576932,1.566194,0.0000,0.0000,0.0000,0.002095,-1.576932,1.566194,1.4917,1.2677,0.5276,0.000000,0.697961,-0.664214,0.676486,-0.699495,0.659612,-0.655010
1.3264,0.020084,0.004389,-1.576932,1.566194,0.0000,0.0000,0.0000,0.002283,-1.576932,1.566194,1.5335,1.2849,0.5772,0.000000,0.702563,-0.668816,0.681087,-0.704097,0.664214,-0.658078
1.3465,0.020079,0.004228,-1.576932,1.566194,0.0000,0.0000,0.0000,0.002429,-1.576932,1.566194,1.6129,1.2330,0.5738,0.000000,0.707165,-0.673418,0.684155,-0.707165,0.667282,-0.661146
1.3666,0.020082,0.004067,-1.576932,1.566194,0.0000,0.0000,0.0000,0.002549,-1.576932,1.566194,1.5808,1.1672,0.5177,0.000000,0.708699,-0.678020,0.687223,-0.708699,0.670350,-0.664214
1.3867,0.020086,0.003907,-1.576932,1.566194,0.0000,0.0000,0.0000,0.002595,-1.576932,1.566194,1.6216,1.2063,0.4689,0.000000,0.710233,-0.679553,0.688757,-0.710233,0.670350,-0.665748
1.4067,0.020087,0.003746,-1.576932,1.566194,0.0000,0.0000,0.0000,0.002600,-1.576932,1.566194,1.6650,1.1886,0.5311,0.000000,0.711767,-0.679553,0.688757,-0.710233,0.670350,-0.665748
1.4268,0.020084,0.003585,-1.576932,1.566194,0.0000,0.0000,0.0000,0.002600,-1.576932,1.566194,1.6605,1.1904,0.5246,0.000000,0.711767,-0.679553,0.688757,-0.710233,0.670350,-0.665748
1.4469,0.020080,0.003425,-1.576932,1.566194,0.0000,0.0000,0.0000,0.002600,-1.576932,1.566194,1.6605,1.1904,0.5246,0.000000,0.711767,-0.679553,0.688757,-0.710233,0.670350,-0.665748
1.4670,0.020074,0.003264,-1.576932,1.566194,0.0000,0.0000,0.0000,0.002600,-1.576932,1.566194,1.6605,1.1904,0.5246,0.000000,0.711767,-0.679553,0.688757,-0.710233,0.670350,-0.665748
1.4871,0.020080,0.003104,-1.576932,1.566194,0.0000,0.0000,0.0000,0.002590,-1.576932,1.566194,1.6133,1.2038,0.4682,0.000000,0.710233,-0.679553,0.688757,-0.710233,0.670350,-0.665748
1.5071,0.020082,0.002943,-1.576932,1.566194,0.0000,0.0000,0.0000,0.002580,-1.576932,1.566194,1.5706,1.2161,0.4170,0.000000,0.708699,-0.679553,0.688757,-0.710233,0.670350,-0.665748
1.5272,0.020076,0.002782,-1.576932,1.566194,0.0000,0.0000,0.0000,0.002550,-1.576932,1.566194,1.4318,1.2562,0.2512,0.000000,0.704097,-0.679553,0.688757,-0.710233,0.670350,-0.665748
1.5473,0.020075,0.002622,-1.576932,1.566194,0.0000,0.0000,0.0000,0.002500,-1.576932,1.566194,1.2792,1.1971,0.2098,0.000000,0.699495,-0.679553,0.688757,-0.707165,0.670350,-0.665748
1.5674,0.020090,0.002461,-1.576932,1.566194,0.0000,0.0000,0.0000,0.002419,-1.576932,1.566194,1.0571,1.0659,0.2111,0.000000,0.693359,-0.679553,0.688757,-0.701029,0.670350,-0.665748
1.5875,0.020162,0.002300,-1.576932,1.566194,0.0000,0.0000,0.0000,0.002360,-1.576932,1.566194,0.9022,0.9767,0.2090,0.000000,0.688757,-0.679553,0.688757,-0.696427,0.670350,-0.665748
1.6076,0.020049,0.002139,-1.576932,1.566194,0.0000,0.0000,0.0000,0.002321,-1.576932,1.566194,0.8366,0.8539,0.3205,0.000000,0.687223,-0.679553,0.688757,-0.691825,0.670350,-0.665748
1.6279,0.020268,0.001977,-1.576932,1.566194,0.0000,0.0000,0.0000,0.002267,-1.576932,1.566194,0.7363,0.7488,0.2513,0.000000,0.684155,-0.679553,0.687223,-0.688757,0.670350,-0.665748
1.6480,0.020094,0.001816,-1.576932,1.566194,0.0000,0.0000,0.0000,0.002167,-1.576932,1.566194,0.6614,0.4453,0.0879,0.000000,0.681087,-0.679553,0.681087,-0.684155,0.670350,-0.665748
1.6681,0.020120,0.001655,-1.576932,1.566194,0.0000,0.0000,0.0000,0.002047,-1.576932,1.566194,0.4387,0.2752,0.0232,0.001534,0.674952,-0.678020,0.676486,-0.679553,0.670350,-0.665748
1.6884,0.020376,0.001492,-1.576932,1.566194,0.0000,0.0000,0.0000,0.001940,-1.576932,1.566194,0.2148,0.2242,-0.1851,0.001534,0.668816,-0.674952,0.671884,-0.678020,0.670350,-0.665748
1.7085,0.020079,0.001332,-1.576932,1.566194,0.0000,0.0000,0.0000,0.001820,-1.576932,1.566194,0.0293,0.2335,-0.1953,0.000000,0.665748,-0.668816,0.668816,-0.674952,0.668816,-0.665748
1.7286,0.020082,0.001171,-1.576932,1.566194,0.0000,0.0000,0.0000,0.001665,-1.576932,1.566194,-0.0162,0.1155,-0.0680,-0.001534,0.662680,-0.664214,0.664214,-0.670350,0.668816,-0.661146
1.7487,0.020093,0.001010,-1.576932,1.566194,0.0000,0.0000,0.0000,0.001513,-1.576932,1.566194,0.0264,0.0941,0.0209,-0.001534,0.659612,-0.661146,0.661146,-0.665748,0.665748,-0.656544
1.7688,0.020078,0.000850,-1.576932,1.566194,0.0000,0.0000,0.0000,0.001324,-1.576932,1.566194,0.1838,0.1467,0.1548,0.000000,0.656544,-0.658078,0.658078,-0.661146,0.659612,-0.650408
1.7889,0.020103,0.000689,-1.576932,1.566194,0.0000,0.0000,0.0000,0.001176,-1.576932,1.566194,0.1083,0.1445,0.2378,0.001534,0.653476,-0.653476,0.655010,-0.656544,0.655010,-0.648874
1.8090,0.020078,0.000528,-1.576932,1.566194,0.0000,0.0000,0.0000,0.001034,-1.576932,1.566194,0.0676,0.1605,0.2706,0.003068,0.648874,-0.650408,0.651942,-0.653476,0.651942,-0.645806
1.8293,0.020310,0.000366,-1.576932,1.566194,0.0000,0.0000,0.0000,0.000880,-1.576932,1.566194,0.0609,0.2090,0.1657,0.003068,0.644272,-0.647340,0.648874,-0.650408,0.647340,-0.642738
1.8494,0.020097,0.000205,-1.576932,1.566194,0.0000,0.0000,0.0000,0.000678,-1.576932,1.566194,0.0937,0.1860,0.0885,0.001534,0.639670,-0.642738,0.642738,-0.647340,0.644272,-0.636602
1.8695,0.020106,0.000044,-1.576932,1.566194,0.0000,0.0000,0.0000,0.000553,-1.576932,1.566194,0.1114,0.1886,-0.0229,0.001534,0.636602,-0.639670,0.638136,-0.645806,0.641204,-0.633534
1.8896,0.020099,-0.000117,-1.576932,1.566194,0.0000,0.0000,0.0000,0.000348,-1.576932,1.566194,0.0995,0.2080,0.1210,0.000000,0.633534,-0.633534,0.635068,-0.639670,0.636602,-0.628932
1.9097,0.020102,-0.000277,-1.576932,1.566194,0.0000,0.0000,0.0000,0.000211,-1.576932,1.566194,0.0793,0.1371,0.0419,0.000000,0.628932,-0.632000,0.632000,-0.635068,0.633534,-0.625864
1.9298,0.020097,-0.000438,-1.576932,1.566194,0.0000,0.0000,0.0000,0.000006,-1.576932,1.566194,0.0604,0.1449,0.1597,0.000000,0.624330,-0.627398,0.628932,-0.628932,0.628932,-0.621262
1.9499,0.020082,-0.000599,-1.576932,1.566194,0.0000,0.0000,0.0000,-0.000083,-1.576932,1.566194,0.1603,0.1444,0.0925,0.000000,0.622796,-0.625864,0.625864,-0.627398,0.625864,-0.618194
1.9699,0.020079,-0.000759,-1.576932,1.566194,0.0000,0.0000,0.0000,-0.000220,-1.576932,1.566194,0.1819,0.1635,0.0993,0.000000,0.621262,-0.621262,0.621262,-0.625864,0.622796,-0.615126
1.9900,0.020096,-0.000920,-1.576932,1.566194,0.0000,0.0000,0.0000,-0.000450,-1.576932,1.566194,0.0813,0.1936,-0.0107,0.000000,0.613592,-0.616660,0.616660,-0.621262,0.618194,-0.610524
2.0102,0.020153,-0.001081,-1.576932,1.566194,0.0000,0.0000,0.0000,-0.000659,-1.576932,1.566194,0.0251,0.1407,0.0550,0.000000,0.608990,-0.610524,0.610524,-0.616660,0.615126,-0.605922
2.0303,0.020085,-0.001242,-1.576932,1.566194,0.0000,0.0000,0.0000,-0.000748,-1.576932,1.566194,0.0096,0.1461,-0.0061,0.000000,0.605922,-0.608990,0.608990,-0.613592,0.612058,-0.604388
2.0503,0.020062,-0.001403,-1.576932,1.566194,0.0000,0.0000,0.0000,-0.000849,-1.576932,1.566194,0.0396,0.2313,0.1632,0.000000,0.604388,-0.605922,0.608990,-0.610524,0.608990,-0.601320
2.0705,0.020191,-0.001564,-1.576932,1.566194,0.0000,0.0000,0.0000,-0.001035,-1.576932,1.566194,0.2724,0.2578,0.1455,0.000000,0.602854,-0.602854,0.604388,-0.607456,0.602854,-0.595185
2.0906,0.020094,-0.001725,-1.576932,1.566194,0.0000,0.0000,0.0000,-0.001287,-1.576932,1.566194,0.2097,0.1191,0.0386,0.000000,0.596719,-0.598253,0.596719,-0.601320,0.598253,-0.590583
2.1109,0.020252,-0.001887,-1.576932,1.566194,0.0000,0.0000,0.0000,-0.001433,-1.576932,1.566194,0.1563,0.0988,0.0495,0.000000,0.592117,-0.595185,0.593651,-0.596719,0.595185,-0.587515
2.1309,0.020082,-0.002048,-1.576932,1.566194,0.0000,0.0000,0.0000,-0.001554,-1.576932,1.566194,-0.0644,0.2192,-0.0056,0.000000,0.585981,-0.590583,0.592117,-0.595185,0.593651,-0.585981
2.1510,0.020098,-0.002208,-1.576932,1.566194,0.0000,0.0000,0.0000,-0.001702,-1.576932,1.566194,-0.0598,0.2419,-0.0539,0.000000,0.582913,-0.585981,0.587515,-0.593651,0.590583,-0.582913
2.1711,0.020082,-0.002369,-1.576932,1.566194,0.0000,0.0000,0.0000,-0.001934,-1.576932,1.566194,0.0280,0.2911,-0.0488,0.000000,0.578311,-0.581379,0.582913,-0.589049,0.584447,-0.576777
2.1912,0.020114,-0.002530,-1.576932,1.566194,0.0000,0.0000,0.0000,-0.002059,-1.576932,1.566194,0.0481,0.2012,0.2728,0.000000,0.576777,-0.578311,0.581379,-0.582913,0.582913,-0.572175
2.2113,0.020083,-0.002691,-1.576932,1.566194,0.0000,0.0000,0.0000,-0.002195,-1.576932,1.566194,-0.0346,0.1425,0.3464,0.000000,0.573709,-0.575243,0.579845,-0.576777,0.579845,-0.570641
2.2314,0.020083,-0.002851,-1.576932,1.566194,0.0000,0.0000,0.0000,-0.002404,-1.576932,1.566194,-0.0863,0.0808,0.3380,0.000000,0.569107,-0.570641,0.575243,-0.570641,0.575243,-0.567573
2.2515,0.020095,-0.003012,-1.576932,1.566194,0.0000,0.0000,0.0000,-0.002507,-1.576932,1.566194,-0.0811,0.1899,0.4263,0.001534,0.566039,-0.567573,0.573709,-0.569107,0.572175,-0.564505
2.2716,0.020087,-0.003173,-1.576932,1.566194,0.0000,0.0000,0.0000,-0.002633,-1.576932,1.566194,-0.0399,0.0769,0.3724,0.001534,0.564505,-0.564505,0.567573,-0.567573,0.570641,-0.561437
2.2917,0.020092,-0.003333,-1.576932,1.566194,0.0000,0.0000,0.0000,-0.002832,-1.576932,1.566194,0.0155,0.1901,0.2175,0.001534,0.558369,-0.561437,0.562971,-0.566039,0.566039,-0.555301
2.3118,0.020086,-0.003494,-1.576932,1.566194,0.0000,0.0000,0.0000,-0.002960,-1.576932,1.566194,-0.0407,0.2644,0.0207,0.001534,0.553767,-0.558369,0.559903,-0.564505,0.561437,-0.553767
2.3319,0.020084,-0.003655,-1.576932,1.566194,0.0000,0.0000,0.0000,-0.003196,-1.576932,1.566194,-0.0846,0.2408,0.1473,0.001534,0.549165,-0.552233,0.555301,-0.558369,0.556835,-0.549165
2.3519,0.020091,-0.003816,-1.576932,1.566194,0.0000,0.0000,0.0000,-0.003297,-1.576932,1.566194,-0.1006,0.1737,0.1524,0.000000,0.546097,-0.550699,0.553767,-0.553767,0.555301,-0.546097
2.3720,0.020086,-0.003976,-1.576932,1.566194,0.0000,0.0000,0.0000,-0.003411,-1.576932,1.566194,-0.0195,0.1473,0.3541,0.000000,0.546097,-0.547631,0.552233,-0.549165,0.552233,-0.543029
2.3921,0.020086,-0.004137,-1.576932,1.566194,0.0000,0.0000,0.0000,-0.003838,-1.576932,1.566194,-0.0764,0.2029,0.3666,0.001534,0.536893,-0.536893,0.541495,-0.543029,0.544563,-0.533825
2.4122,0.020081,-0.004298,-1.576932,1.566194,0.0000,0.0000,0.0000,-0.003881,-1.576932,1.566194,-0.1206,0.2139,0.3215,0.001534,0.533825,-0.535359,0.539961,-0.541495,0.543029,-0.532291
2.4323,0.020082,-0.004458,-1.576932,1.566194,0.0000,0.0000,0.0000,-0.004115,-1.576932,1.566194,-0.0873,0.2298,0.1682,0.001534,0.527689,-0.532291,0.535359,-0.536893,0.536893,-0.527689
2.4524,0.020082,-0.004619,-1.576932,1.566194,0.0000,0.0000,0.0000,-0.004242,-1.576932,1.566194,-0.0613,0.1417,0.0963,0.000000,0.524621,-0.530757,0.532291,-0.532291,0.533825,-0.524621
2.4726,0.020239,-0.004781,-1.576932,1.566194,0.0000,0.0000,0.0000,-0.004341,-1.576932,1.566194,-0.0139,0.2377,0.1468,0.000000,0.523087,-0.527689,0.530757,-0.530757,0.530757,-0.521553
2.4927,0.020088,-0.004941,-1.576932,1.566194,0.0000,0.0000,0.0000,-0.004570,-1.576932,1.566194,-0.0187,0.1943,0.2979,0.000000,0.520019,-0.521553,0.526155,-0.524621,0.526155,-0.516952
2.5128,0.020084,-0.004898,-1.576932,1.566194,0.0000,0.0000,0.0000,-0.004747,-1.576932,1.566194,-0.1188,0.1648,0.1773,0.000000,0.515418,-0.516952,0.521553,-0.520019,0.521553,-0.515418
2.5328,0.020075,-0.004737,-1.576932,1.566194,0.0000,0.0000,0.0000,-0.004931,-1.576932,1.566194,-0.0377,0.1855,0.2934,0.000000,0.512350,-0.512350,0.516952,-0.516952,0.518486,-0.509282
2.5529,0.020080,-0.004577,-1.576932,1.566194,0.0000,0.0000,0.0000,-0.005025,-1.576932,1.566194,-0.1660,0.2525,0.1248,0.000000,0.507748,-0.509282,0.513884,-0.516952,0.516952,-0.507748
2.5730,0.020085,-0.004416,-1.576932,1.566194,0.0000,0.0000,0.0000,-0.005116,-1.576932,1.566194,-0.0330,0.2107,0.1424,0.000000,0.506214,-0.509282,0.512350,-0.513884,0.513884,-0.504680
2.5931,0.020085,-0.004255,-1.576932,1.566194,0.0000,0.0000,0.0000,-0.005107,-1.576932,1.566194,-0.0170,0.1280,0.1407,0.000000,0.506214,-0.510816,0.512350,-0.512350,0.513884,-0.504680
2.6132,0.020080,-0.004095,-1.576932,1.566194,0.0000,0.0000,0.0000,-0.005108,-1.576932,1.566194,-0.0187,0.1366,0.1409,0.000000,0.506214,-0.510816,0.512350,-0.512350,0.513884,-0.504680
2.6333,0.020084,-0.003934,-1.576932,1.566194,0.0000,0.0000,0.0000,-0.005095,-1.576932,1.566194,0.0317,0.1187,0.1928,0.000000,0.507748,-0.510816,0.512350,-0.512350,0.513884,-0.504680
2.6533,0.020079,-0.003773,-1.576932,1.566194,0.0000,0.0000,0.0000,-0.005109,-1.576932,1.566194,-0.0238,0.1376,0.1355,0.000000,0.506214,-0.510816,0.512350,-0.512350,0.513884,-0.504680
2.6734,0.020089,-0.003613,-1.576932,1.566194,0.0000,0.0000,0.0000,-0.005107,-1.576932,1.566194,-0.0076,0.1536,0.2453,0.000000,0.507748,-0.509282,0.512350,-0.512350,0.513884,-0.504680
2.6935,0.020085,-0.003452,-1.576932,1.566194,0.0000,0.0000,0.0000,-0.005108,-1.576932,1.566194,-0.0093,0.1520,0.2338,0.000000,0.507748,-0.509282,0.512350,-0.512350,0.513884,-0.504680
2.7136,0.020074,-0.003291,-1.576932,1.566194,0.0000,0.0000,0.0000,-0.005108,-1.576932,1.566194,-0.0195,0.1341,0.1312,0.000000,0.506214,-0.510816,0.512350,-0.512350,0.513884,-0.504680
2.7337,0.020076,-0.003131,-1.576932,1.566194,0.0000,0.0000,0.0000,-0.005108,-1.576932,1.566194,-0.0184,0.1360,0.1419,0.000000,0.506214,-0.510816,0.512350,-0.512350,0.513884,-0.504680
2.7537,0.020083,-0.002970,-1.576932,1.566194,0.0000,0.0000,0.0000,-0.005095,-1.576932,1.566194,0.0317,0.1188,0.1927,0.000000,0.507748,-0.510816,0.512350,-0.512350,0.513884,-0.504680
2.7738,0.020061,-0.002810,-1.576932,1.566194,0.0000,0.0000,0.0000,-0.005096,-1.576932,1.566194,0.0265,0.1206,0.1874,0.000000,0.507748,-0.510816,0.512350,-0.512350,0.513884,-0.504680
2.7941,0.020251,-0.002648,-1.576932,1.566194,0.0000,0.0000,0.0000,-0.005058,-1.576932,1.566194,0.0370,0.1383,0.1360,0.000000,0.509282,-0.510816,0.512350,-0.513884,0.513884,-0.506214
2.8141,0.020081,-0.002487,-1.576932,1.566194,0.0000,0.0000,0.0000,-0.005075,-1.576932,1.566194,-0.0040,0.1715,0.1933,0.000000,0.509282,-0.509282,0.512350,-0.513884,0.513884,-0.506214
2.8342,0.020078,-0.002326,-1.576932,1.566194,0.0000,0.0000,0.0000,-0.005060,-1.576932,1.566194,0.0402,0.1330,0.1354,0.000000,0.509282,-0.510816,0.512350,-0.513884,0.513884,-0.506214
2.8543,0.020098,-0.002165,-1.576932,1.566194,0.0000,0.0000,0.0000,-0.005062,-1.576932,1.566194,0.0356,0.1370,0.1414,0.000000,0.509282,-0.510816,0.512350,-0.513884,0.513884,-0.506214
2.8744,0.020085,-0.002005,-1.576932,1.566194,0.0000,0.0000,0.0000,-0.005036,-1.576932,1.566194,0.0360,0.2405,0.1408,0.000000,0.509282,-0.510816,0.513884,-0.515418,0.513884,-0.506214
2.8945,0.020077,-0.001844,-1.576932,1.566194,0.0000,0.0000,0.0000,-0.005014,-1.576932,1.566194,0.0464,0.1780,0.2449,0.000000,0.510816,-0.510816,0.513884,-0.515418,0.515418,-0.506214
2.9146,0.020086,-0.001683,-1.576932,1.566194,0.0000,0.0000,0.0000,-0.004953,-1.576932,1.566194,0.1055,0.2193,0.0780,0.000000,0.512350,-0.512350,0.513884,-0.518486,0.515418,-0.507748
2.9346,0.020076,-0.001523,-1.576932,1.566194,0.0000,0.0000,0.0000,-0.004910,-1.576932,1.566194,0.1302,0.2672,0.0953,0.000000,0.513884,-0.512350,0.513884,-0.521553,0.516952,-0.507748
2.9548,0.020170,-0.001362,-1.576932,1.566194,0.0000,0.0000,0.0000,-0.004840,-1.576932,1.566194,0.2990,0.3846,-0.0104,0.000000,0.518486,-0.512350,0.513884,-0.526155,0.515418,-0.509282
2.9753,0.020525,-0.001197,-1.576932,1.566194,0.0000,0.0000,0.0000,-0.004748,-1.576932,1.566194,0.3129,0.3561,0.0007,0.000000,0.523087,-0.512350,0.513884,-0.529223,0.516952,-0.512350
2.9954,0.020084,-0.001037,-1.576932,1.566194,0.0000,0.0000,0.0000,-0.004623,-1.576932,1.566194,0.3443,0.5150,-0.1571,0.000000,0.527689,-0.512350,0.515418,-0.535359,0.516952,-0.516952
3.0156,0.020219,-0.000875,-1.576932,1.566194,0.0000,0.0000,0.0000,-0.004525,-1.576932,1.566194,0.3532,0.6887,-0.1931,0.000000,0.530757,-0.512350,0.518486,-0.539961,0.516952,-0.520019
3.0357,0.020076,-0.000714,-1.576932,1.566194,0.0000,0.0000,0.0000,-0.004325,-1.576932,1.566194,0.3652,0.8263,-0.2420,0.000000,0.536893,-0.513884,0.523087,-0.546097,0.518486,-0.526155
3.0563,0.020612,-0.000549,-1.576932,1.566194,0.0000,0.0000,0.0000,-0.004134,-1.576932,1.566194,0.3538,0.9331,-0.1848,0.000000,0.541495,-0.516952,0.529223,-0.550699,0.521553,-0.530757
3.0764,0.020078,-0.000389,-1.576932,1.566194,0.0000,0.0000,0.0000,-0.003891,-1.576932,1.566194,0.3757,0.9220,-0.1389,0.000000,0.547631,-0.521553,0.533825,-0.556835,0.527689,-0.535359
3.0965,0.020077,-0.000228,-1.576932,1.566194,0.0000,0.0000,0.0000,-0.003667,-1.576932,1.566194,0.4122,0.9584,-0.0379,0.000000,0.553767,-0.526155,0.539961,-0.561437,0.532291,-0.539961
3.1166,0.020087,-0.000067,-1.576932,1.566194,0.0000,0.0000,0.0000,-0.003464,-1.576932,1.566194,0.4174,0.9377,0.0568,0.000000,0.558369,-0.530757,0.544563,-0.566039,0.538427,-0.543029
3.1366,0.020077,0.000093,-1.576932,1.566194,0.0000,0.0000,0.0000,-0.003234,-1.576932,1.566194,0.4459,0.9559,0.0477,0.000000,0.562971,-0.536893,0.550699,-0.570641,0.543029,-0.547631
3.1569,0.020232,0.000255,-1.576932,1.566194,0.0000,0.0000,0.0000,-0.003070,-1.576932,1.566194,0.4922,0.8681,0.1023,0.000000,0.567573,-0.541495,0.553767,-0.573709,0.547631,-0.550699
3.1770,0.020084,0.000416,-1.576932,1.566194,0.0000,0.0000,0.0000,-0.002862,-1.576932,1.566194,0.6150,0.9285,0.2044,0.000000,0.572175,-0.547631,0.559903,-0.578311,0.552233,-0.552233
3.1971,0.020157,0.000577,-1.576932,1.566194,0.0000,0.0000,0.0000,-0.002671,-1.576932,1.566194,0.5524,0.9373,0.1403,0.000000,0.575243,-0.552233,0.564505,-0.582913,0.556835,-0.556835
3.2174,0.020237,0.000739,-1.576932,1.566194,0.0000,0.0000,0.0000,-0.002504,-1.576932,1.566194,0.6371,0.9362,0.2018,0.000000,0.579845,-0.556835,0.569107,-0.585981,0.559903,-0.559903
3.2374,0.020076,0.000899,-1.576932,1.566194,0.0000,0.0000,0.0000,-0.002372,-1.576932,1.566194,0.6664,1.0048,0.3032,0.000000,0.582913,-0.559903,0.573709,-0.589049,0.562971,-0.561437
3.2575,0.020090,0.001060,-1.576932,1.566194,0.0000,0.0000,0.0000,-0.002372,-1.576932,1.566194,0.6664,1.0048,0.3032,0.000000,0.587515,-0.564505,0.576777,-0.593651,0.566039,-0.564505
3.2776,0.020075,0.001221,-1.576932,1.566194,0.0000,0.0000,0.0000,-0.002071,-1.576932,1.566194,0.8422,1.0153,0.2489,0.000000,0.592117,-0.567573,0.579845,-0.596719,0.567573,-0.567573
3.2977,0.020083,0.001381,-1.576932,1.566194,0.0000,0.0000,0.0000,-0.001924,-1.576932,1.566194,0.8449,1.0634,0.1946,0.000000,0.595185,-0.570641,0.582913,-0.601320,0.570641,-0.570641
3.3178,0.020080,0.001542,-1.576932,1.566194,0.0000,0.0000,0.0000,-0.001791,-1.576932,1.566194,0.8442,1.0576,0.2006,0.000000,0.598253,-0.573709,0.585981,-0.604388,0.573709,-0.573709
3.3378,0.020076,0.001703,-1.576932,1.566194,0.0000,0.0000,0.0000,-0.001632,-1.576932,1.566194,0.8820,1.0931,0.3091,0.000000,0.602854,-0.576777,0.590583,-0.607456,0.576777,-0.576777
3.3581,0.020239,0.001865,-1.576932,1.566194,0.0000,0.0000,0.0000,-0.001475,-1.576932,1.566194,0.7885,1.0372,0.2970,0.000000,0.605922,-0.579845,0.593651,-0.610524,0.581379,-0.581379
3.3782,0.020078,0.002025,-1.576932,1.566194,0.0000,0.0000,0.0000,-0.001295,-1.576932,1.566194,0.8487,1.0247,0.1913,0.000000,0.610524,-0.584447,0.596719,-0.615126,0.584447,-0.585981
3.3982,0.020085,0.002186,-1.576932,1.566194,0.0000,0.0000,0.0000,-0.001153,-1.576932,1.566194,0.8307,1.0763,0.2571,0.000000,0.613592,-0.587515,0.601320,-0.618194,0.587515,-0.589049
3.4186,0.020326,0.002349,-1.576932,1.566194,0.0000,0.0000,0.0000,-0.000984,-1.576932,1.566194,0.9320,1.0700,0.1974,0.000000,0.618194,-0.592117,0.604388,-0.622796,0.590583,-0.592117
3.4386,0.020079,0.002509,-1.576932,1.566194,0.0000,0.0000,0.0000,-0.000842,-1.576932,1.566194,0.9095,1.1207,0.2586,0.000000,0.621262,-0.595185,0.608990,-0.625864,0.593651,-0.595185
3.4587,0.020094,0.002670,-1.576932,1.566194,0.0000,0.0000,0.0000,-0.000660,-1.576932,1.566194,0.9107,1.0129,0.2524,0.000000,0.625864,-0.599786,0.612058,-0.628932,0.598253,-0.599786
3.4788,0.020078,0.002831,-1.576932,1.566194,0.0000,0.0000,0.0000,-0.000469,-1.576932,1.566194,0.8608,1.0383,0.1984,0.000000,0.628932,-0.604388,0.616660,-0.633534,0.602854,-0.604388
3.4989,0.020081,0.002991,-1.576932,1.566194,0.0000,0.0000,0.0000,-0.000331,-1.576932,1.566194,0.9144,1.0195,0.2596,0.000000,0.633534,-0.607456,0.619728,-0.636602,0.605922,-0.607456
3.5190,0.020139,0.003152,-1.576932,1.566194,0.0000,0.0000,0.0000,-0.000162,-1.576932,1.566194,0.9470,0.9532,0.1995,0.000000,0.638136,-0.612058,0.622796,-0.639670,0.608990,-0.612058
3.5391,0.020083,0.003313,-1.576932,1.566194,0.0000,0.0000,0.0000,-0.000022,-1.576932,1.566194,0.9545,1.0094,0.1514,0.000000,0.641204,-0.615126,0.625864,-0.644272,0.612058,-0.615126
3.5595,0.020334,0.003476,-1.576932,1.566194,0.0000,0.0000,0.0000,-0.000022,-1.576932,1.566194,0.9545,1.0094,0.1514,0.000000,0.645806,-0.618194,0.630466,-0.647340,0.615126,-0.618194
3.5795,0.020078,0.003636,-1.576932,1.566194,0.0000,0.0000,0.0000,0.000336,-1.576932,1.566194,0.9853,1.0337,0.2558,0.000000,0.650408,-0.622796,0.635068,-0.651942,0.619728,-0.622796
3.5996,0.020078,0.003797,-1.576932,1.566194,0.0000,0.0000,0.0000,0.000483,-1.576932,1.566194,1.0454,1.0680,0.2582,0.000000,0.655010,-0.625864,0.638136,-0.656544,0.622796,-0.625864
3.6198,0.020153,0.003958,-1.576932,1.566194,0.0000,0.0000,0.0000,0.000639,-1.576932,1.566194,1.0377,0.9951,0.2576,0.000000,0.658078,-0.630466,0.641204,-0.659612,0.627398,-0.628932
3.6398,0.020081,0.004119,-1.576932,1.566194,0.0000,0.0000,0.0000,0.000789,-1.576932,1.566194,1.0574,1.1055,0.4792,0.000000,0.662680,-0.632000,0.645806,-0.664214,0.632000,-0.630466
3.6601,0.020280,0.004281,-1.576932,1.566194,0.0000,0.0000,0.0000,0.000789,-1.576932,1.566194,1.0574,1.1055,0.4792,0.000000,0.665748,-0.635068,0.648874,-0.667282,0.635068,-0.633534
3.6802,0.020074,0.004442,-1.576932,1.566194,0.0000,0.0000,0.0000,0.001073,-1.576932,1.566194,1.0906,1.1285,0.5717,0.000000,0.670350,-0.638136,0.653476,-0.670350,0.638136,-0.636602
3.7003,0.020084,0.004602,-1.576932,1.566194,0.0000,0.0000,0.0000,0.001226,-1.576932,1.566194,1.1457,1.1221,0.5602,0.000000,0.673418,-0.642738,0.656544,-0.674952,0.642738,-0.638136
3.7204,0.020093,0.004763,-1.576932,1.566194,0.0000,0.0000,0.0000,0.001402,-1.576932,1.566194,1.1887,1.1045,0.4519,0.000000,0.678020,-0.647340,0.659612,-0.679553,0.645806,-0.642738
3.7405,0.020081,0.004924,-1.576932,1.566194,0.0000,0.0000,0.0000,0.001574,-1.576932,1.566194,1.1928,1.1567,0.5756,0.000000,0.682621,-0.650408,0.664214,-0.684155,0.650408,-0.645806
3.7606,0.020097,0.004916,-1.576932,1.566194,0.0000,0.0000,0.0000,0.001747,-1.576932,1.566194,1.2777,1.1996,0.5651,0.000000,0.687223,-0.655010,0.668816,-0.688757,0.653476,-0.648874
3.7808,0.020284,0.004753,-1.576932,1.566194,0.0000,0.0000,0.0000,0.001894,-1.576932,1.566194,1.4138,1.2111,0.5685,0.000000,0.691825,-0.659612,0.671884,-0.693359,0.656544,-0.650408
3.8009,0.020079,0.004593,-1.576932,1.566194,0.0000,0.0000,0.0000,0.002068,-1.576932,1.566194,1.3980,1.2757,0.5702,0.000000,0.696427,-0.662680,0.676486,-0.697961,0.659612,-0.655010
3.8210,0.020095,0.004432,-1.576932,1.566194,0.0000,0.0000,0.0000,0.002254,-1.576932,1.566194,1.4717,1.2002,0.6275,0.000000,0.701029,-0.668816,0.681087,-0.701029,0.664214,-0.658078
3.8412,0.020174,0.004271,-1.576932,1.566194,0.0000,0.0000,0.0000,0.002401,-1.576932,1.566194,1.5479,1.1582,0.6234,0.000000,0.705631,-0.673418,0.684155,-0.704097,0.667282,-0.661146
3.8613,0.020080,0.004110,-1.576932,1.566194,0.0000,0.0000,0.0000,0.002401,-1.576932,1.566194,1.5479,1.1582,0.6234,0.000000,0.708699,-0.676486,0.687223,-0.707165,0.670350,-0.664214
3.8814,0.020129,0.003949,-1.576932,1.566194,0.0000,0.0000,0.0000,0.002574,-1.576932,1.566194,1.5766,1.1931,0.5699,0.000000,0.710233,-0.678020,0.688757,-0.708699,0.670350,-0.665748
3.9015,0.020078,0.003788,-1.576932,1.566194,0.0000,0.0000,0.0000,0.002592,-1.576932,1.566194,1.6577,1.1414,0.5766,0.000000,0.711767,-0.679553,0.688757,-0.708699,0.670350,-0.665748
3.9216,0.020137,0.003627,-1.576932,1.566194,0.0000,0.0000,0.0000,0.002590,-1.576932,1.566194,1.6493,1.1468,0.5759,0.000000,0.711767,-0.679553,0.688757,-0.708699,0.670350,-0.665748
3.9417,0.020075,0.003467,-1.576932,1.566194,0.0000,0.0000,0.0000,0.002590,-1.576932,1.566194,1.6493,1.1468,0.5759,0.000000,0.711767,-0.679553,0.688757,-0.708699,0.670350,-0.665748
3.9618,0.020076,0.003306,-1.576932,1.566194,0.0000,0.0000,0.0000,0.002590,-1.576932,1.566194,1.6493,1.1468,0.5759,0.000000,0.711767,-0.679553,0.688757,-0.708699,0.670350,-0.665748
3.9819,0.020097,0.003145,-1.576932,1.566194,0.0000,0.0000,0.0000,0.002590,-1.576932,1.566194,1.6493,1.1468,0.5759,0.000000,0.711767,-0.679553,0.688757,-0.708699,0.670350,-0.665748
4.0019,0.020082,0.002984,-1.576932,1.566194,0.0000,0.0000,0.0000,0.002570,-1.576932,1.566194,1.5549,1.1735,0.4618,0.000000,0.708699,-0.679553,0.688757,-0.708699,0.670350,-0.665748
4.0220,0.020104,0.002824,-1.576932,1.566194,0.0000,0.0000,0.0000,0.002541,-1.576932,1.566194,1.4216,1.2121,0.3026,0.000000,0.704097,-0.679553,0.688757,-0.708699,0.670350,-0.665748
4.0421,0.020084,0.002663,-1.576932,1.566194,0.0000,0.0000,0.0000,0.002501,-1.576932,1.566194,1.2803,1.2017,0.2044,0.000000,0.699495,-0.679553,0.688757,-0.707165,0.670350,-0.665748
4.0625,0.020357,0.002500,-1.576932,1.566194,0.0000,0.0000,0.0000,0.002430,-1.576932,1.566194,1.0686,1.1140,0.1556,0.000000,0.693359,-0.679553,0.688757,-0.702563,0.670350,-0.665748
4.0826,0.020087,0.002339,-1.576932,1.566194,0.0000,0.0000,0.0000,0.002382,-1.576932,1.566194,0.9603,1.0060,0.2154,0.000000,0.690291,-0.679553,0.688757,-0.697961,0.670350,-0.665748
4.1027,0.020129,0.002178,-1.576932,1.566194,0.0000,0.0000,0.0000,0.002330,-1.576932,1.566194,0.8418,0.8998,0.2639,0.000000,0.687223,-0.679553,0.688757,-0.693359,0.670350,-0.665748
4.1233,0.020629,0.002013,-1.576932,1.566194,0.0000,0.0000,0.0000,0.002301,-1.576932,1.566194,0.7838,0.8275,0.3142,0.000000,0.685689,-0.679553,0.688757,-0.690291,0.670350,-0.665748
4.1434,0.020083,0.001853,-1.576932,1.566194,0.0000,0.0000,0.0000,0.002223,-1.576932,1.566194,0.6827,0.6191,0.2509,0.000000,0.682621,-0.679553,0.685689,-0.685689,0.670350,-0.665748
4.1636,0.020221,0.001691,-1.576932,1.566194,0.0000,0.0000,0.0000,0.002101,-1.576932,1.566194,0.5706,0.2916,0.0626,0.001534,0.678020,-0.679553,0.678020,-0.681087,0.670350,-0.665748
4.1844,0.020733,0.001525,-1.576932,1.566194,0.0000,0.0000,0.0000,0.001970,-1.576932,1.566194,0.3618,0.0743,-0.2215,0.000000,0.671884,-0.678020,0.671884,-0.676486,0.670350,-0.665748
4.2044,0.020079,0.001364,-1.576932,1.566194,0.0000,0.0000,0.0000,0.001888,-1.576932,1.566194,0.0619,0.1648,-0.3125,0.000000,0.667282,-0.671884,0.668816,-0.676486,0.670350,-0.667282
4.2247,0.020214,0.001203,-1.576932,1.566194,0.0000,0.0000,0.0000,0.001742,-1.576932,1.566194,-0.1162,0.1903,-0.3348,-0.001534,0.662680,-0.665748,0.665748,-0.673418,0.668816,-0.665748
4.2447,0.020081,0.001042,-1.576932,1.566194,0.0000,0.0000,0.0000,0.001565,-1.576932,1.566194,-0.0496,0.2039,-0.2064,-0.003068,0.659612,-0.661146,0.662680,-0.668816,0.665748,-0.659612
4.2648,0.020080,0.000881,-1.576932,1.566194,0.0000,0.0000,0.0000,0.001403,-1.576932,1.566194,0.0676,0.1196,0.1371,-0.001534,0.658078,-0.658078,0.659612,-0.662680,0.662680,-0.653476
4.2849,0.020081,0.000721,-1.576932,1.566194,0.0000,0.0000,0.0000,0.001167,-1.576932,1.566194,0.1313,0.1290,0.2535,0.000000,0.653476,-0.653476,0.655010,-0.656544,0.656544,-0.647340
4.3050,0.020081,0.000560,-1.576932,1.566194,0.0000,0.0000,0.0000,0.001047,-1.576932,1.566194,0.2003,0.2964,0.2276,0.001534,0.650408,-0.650408,0.653476,-0.655010,0.650408,-0.644272
4.3254,0.020403,0.000397,-1.576932,1.566194,0.0000,0.0000,0.0000,0.000891,-1.576932,1.566194,0.0852,0.1604,0.1057,0.003068,0.644272,-0.648874,0.648874,-0.650408,0.647340,-0.642738
4.3455,0.020078,0.000236,-1.576932,1.566194,0.0000,0.0000,0.0000,0.000749,-1.576932,1.566194,0.0208,0.1062,0.0723,0.003068,0.639670,-0.645806,0.644272,-0.647340,0.645806,-0.639670
4.3655,0.020082,0.000076,-1.576932,1.566194,0.0000,0.0000,0.0000,0.000558,-1.576932,1.566194,0.0214,0.0965,0.0431,0.001534,0.636602,-0.639670,0.638136,-0.644272,0.642738,-0.635068
4.3856,0.020083,-0.000085,-1.576932,1.566194,0.0000,0.0000,0.0000,0.000383,-1.576932,1.566194,0.0046,0.1327,0.0591,0.000000,0.633534,-0.633534,0.633534,-0.641204,0.639670,-0.630466
4.4057,0.020084,-0.000246,-1.576932,1.566194,0.0000,0.0000,0.0000,0.000195,-1.576932,1.566194,0.0719,0.1794,-0.0945,-0.001534,0.628932,-0.630466,0.630466,-0.636602,0.633534,-0.625864
4.4258,0.020100,-0.000406,-1.576932,1.566194,0.0000,0.0000,0.0000,0.000093,-1.576932,1.566194,0.0439,0.1431,0.0221,-0.001534,0.627398,-0.627398,0.628932,-0.632000,0.630466,-0.624330
4.4459,0.020084,-0.000567,-1.576932,1.566194,0.0000,0.0000,0.0000,-0.000030,-1.576932,1.566194,0.1236,0.1790,0.1525,0.000000,0.624330,-0.625864,0.627398,-0.628932,0.627398,-0.619728
4.4660,0.020075,-0.000728,-1.576932,1.566194,0.0000,0.0000,0.0000,-0.000262,-1.576932,1.566194,0.1535,0.1410,-0.0708,0.000000,0.618194,-0.622796,0.621262,-0.624330,0.621262,-0.615126
4.4863,0.020379,-0.000891,-1.576932,1.566194,0.0000,0.0000,0.0000,-0.000421,-1.576932,1.566194,0.1121,0.2120,0.0070,0.000000,0.613592,-0.618194,0.618194,-0.621262,0.618194,-0.610524
4.5065,0.020151,-0.001052,-1.576932,1.566194,0.0000,0.0000,0.0000,-0.000564,-1.576932,1.566194,0.1099,0.2583,0.0532,0.000000,0.612058,-0.612058,0.613592,-0.619728,0.615126,-0.607456
4.5267,0.020227,-0.001214,-1.576932,1.566194,0.0000,0.0000,0.0000,-0.000672,-1.576932,1.566194,0.0222,0.2031,0.0483,0.000000,0.608990,-0.608990,0.610524,-0.616660,0.613592,-0.605922
4.5470,0.020314,-0.001376,-1.576932,1.566194,0.0000,0.0000,0.0000,-0.000894,-1.576932,1.566194,0.1085,0.1403,0.1031,0.000000,0.604388,-0.605922,0.605922,-0.610524,0.608990,-0.599786
4.5671,0.020072,-0.001537,-1.576932,1.566194,0.0000,0.0000,0.0000,-0.001031,-1.576932,1.566194,0.1665,0.0960,0.0431,0.000000,0.601320,-0.604388,0.602854,-0.605922,0.604388,-0.596719
4.5872,0.020119,-0.001698,-1.576932,1.566194,0.0000,0.0000,0.0000,-0.001090,-1.576932,1.566194,0.1888,0.1861,0.0494,0.000000,0.599786,-0.602854,0.602854,-0.604388,0.601320,-0.595185
4.6073,0.020077,-0.001858,-1.576932,1.566194,0.0000,0.0000,0.0000,-0.001342,-1.576932,1.566194,0.1090,0.1772,-0.0055,0.000000,0.593651,-0.596719,0.596719,-0.599786,0.596719,-0.590583
4.6274,0.020083,-0.002019,-1.576932,1.566194,0.0000,0.0000,0.0000,-0.001539,-1.576932,1.566194,0.0289,0.1601,0.0002,0.000000,0.587515,-0.592117,0.592117,-0.595185,0.593651,-0.585981
4.6478,0.020383,-0.002182,-1.576932,1.566194,0.0000,0.0000,0.0000,-0.001539,-1.576932,1.566194,0.0289,0.1601,0.0002,0.000000,0.582913,-0.587515,0.589049,-0.593651,0.592117,-0.582913
4.6678,0.020074,-0.002343,-1.576932,1.566194,0.0000,0.0000,0.0000,-0.001777,-1.576932,1.566194,-0.0687,0.1900,-0.0004,0.000000,0.581379,-0.584447,0.585981,-0.590583,0.589049,-0.581379
4.6884,0.020578,-0.002507,-1.576932,1.566194,0.0000,0.0000,0.0000,-0.002001,-1.576932,1.566194,-0.0411,0.2111,0.1606,0.000000,0.576777,-0.579845,0.582913,-0.584447,0.584447,-0.575243
4.7085,0.020079,-0.002668,-1.576932,1.566194,0.0000,0.0000,0.0000,-0.002163,-1.576932,1.566194,-0.0546,0.2275,0.1973,0.000000,0.573709,-0.575243,0.579845,-0.579845,0.579845,-0.572175
4.7286,0.020075,-0.002829,-1.576932,1.566194,0.0000,0.0000,0.0000,-0.002295,-1.576932,1.566194,0.0149,0.0721,0.3003,0.000000,0.572175,-0.573709,0.576777,-0.573709,0.576777,-0.569107
4.7487,0.020135,-0.002990,-1.576932,1.566194,0.0000,0.0000,0.0000,-0.002518,-1.576932,1.566194,0.0287,0.1914,0.3422,0.000000,0.567573,-0.567573,0.572175,-0.570641,0.572175,-0.562971
4.7688,0.020077,-0.003150,-1.576932,1.566194,0.0000,0.0000,0.0000,-0.002669,-1.576932,1.566194,-0.0412,0.2309,0.2304,0.000000,0.562971,-0.562971,0.567573,-0.569107,0.569107,-0.559903
4.7889,0.020087,-0.003311,-1.576932,1.566194,0.0000,0.0000,0.0000,-0.002815,-1.576932,1.566194,-0.1728,0.2253,0.1885,0.000000,0.556835,-0.559903,0.564505,-0.566039,0.567573,-0.556835
4.8090,0.020074,-0.003472,-1.576932,1.566194,0.0000,0.0000,0.0000,-0.003099,-1.576932,1.566194,0.0080,0.2446,0.0862,0.000000,0.552233,-0.555301,0.558369,-0.559903,0.558369,-0.550699
4.8290,0.020075,-0.003632,-1.576932,1.566194,0.0000,0.0000,0.0000,-0.003070,-1.576932,1.566194,-0.0106,0.2426,0.0968,0.000000,0.552233,-0.555301,0.558369,-0.559903,0.558369,-0.550699
4.8503,0.021305,-0.003803,-1.576932,1.566194,0.0000,0.0000,0.0000,-0.003497,-1.576932,1.566194,0.0600,0.1920,0.2010,0.000000,0.544563,-0.547631,0.550699,-0.549165,0.549165,-0.541495
4.8704,0.020079,-0.003963,-1.576932,1.566194,0.0000,0.0000,0.0000,-0.003541,-1.576932,1.566194,0.0735,0.1640,0.2428,0.000000,0.544563,-0.544563,0.547631,-0.547631,0.547631,-0.539961
4.8905,0.020052,-0.004124,-1.576932,1.566194,0.0000,0.0000,0.0000,-0.003749,-1.576932,1.566194,-0.0565,0.1143,0.2907,0.000000,0.538427,-0.539961,0.543029,-0.543029,0.546097,-0.535359
4.9106,0.020086,-0.004284,-1.576932,1.566194,0.0000,0.0000,0.0000,-0.003978,-1.576932,1.566194,-0.1329,0.1714,0.2849,0.000000,0.532291,-0.533825,0.538427,-0.538427,0.541495,-0.530757
4.9306,0.020078,-0.004445,-1.576932,1.566194,0.0000,0.0000,0.0000,-0.004117,-1.576932,1.566194,-0.1257,0.2691,0.1273,0.000000,0.527689,-0.530757,0.535359,-0.536893,0.536893,-0.527689
4.9507,0.020056,-0.004605,-1.576932,1.566194,0.0000,0.0000,0.0000,-0.004253,-1.576932,1.566194,-0.0972,0.2084,0.1436,0.000000,0.526155,-0.527689,0.532291,-0.532291,0.532291,-0.526155
4.9708,0.020078,-0.004766,-1.576932,1.566194,0.0000,0.0000,0.0000,-0.004353,-1.576932,1.566194,-0.0101,0.1970,0.2989,0.000000,0.524621,-0.526155,0.530757,-0.529223,0.530757,-0.521553
4.9909,0.020090,-0.004927,-1.576932,1.566194,0.0000,0.0000,0.0000,-0.004632,-1.576932,1.566194,0.0207,0.1637,0.2297,0.000000,0.518486,-0.521553,0.524621,-0.523087,0.524621,-0.515418
5.0109,0.020077,-0.004913,-1.576932,1.566194,0.0000,0.0000,0.0000,-0.004754,-1.576932,1.566194,-0.0726,0.1851,0.2365,0.000000,0.515418,-0.516952,0.521553,-0.520019,0.521553,-0.513884
5.0310,0.020080,-0.004752,-1.576932,1.566194,0.0000,0.0000,0.0000,-0.004804,-1.576932,1.566194,-0.0528,0.2350,0.1834,0.000000,0.513884,-0.515418,0.520019,-0.520019,0.520019,-0.512350
5.0511,0.020080,-0.004591,-1.576932,1.566194,0.0000,0.0000,0.0000,-0.005063,-1.576932,1.566194,-0.1242,0.2126,0.2403,0.000000,0.507748,-0.509282,0.513884,-0.515418,0.516952,-0.506214
5.0712,0.020084,-0.004431,-1.576932,1.566194,0.0000,0.0000,0.0000,-0.005226,-1.576932,1.566194,-0.1671,0.1281,0.1823,0.000000,0.503146,-0.506214,0.509282,-0.510816,0.513884,-0.503146
5.0913,0.020171,-0.004269,-1.576932,1.566194,0.0000,0.0000,0.0000,-0.005234,-1.576932,1.566194,-0.0727,0.1890,0.1881,0.000000,0.503146,-0.506214,0.509282,-0.510816,0.512350,-0.501612
5.1114,0.020078,-0.004109,-1.576932,1.566194,0.0000,0.0000,0.0000,-0.005233,-1.576932,1.566194,-0.0825,0.1827,0.1875,0.000000,0.503146,-0.506214,0.509282,-0.510816,0.512350,-0.501612
5.1315,0.020081,-0.003948,-1.576932,1.566194,0.0000,0.0000,0.0000,-0.005233,-1.576932,1.566194,-0.0825,0.1827,0.1875,0.000000,0.503146,-0.506214,0.509282,-0.510816,0.512350,-0.501612
5.1516,0.020083,-0.003787,-1.576932,1.566194,0.0000,0.0000,0.0000,-0.005233,-1.576932,1.566194,-0.0825,0.1827,0.1875,0.000000,0.503146,-0.506214,0.509282,-0.510816,0.512350,-0.501612
5.1717,0.020087,-0.003627,-1.576932,1.566194,0.0000,0.0000,0.0000,-0.005221,-1.576932,1.566194,-0.1318,0.1661,0.1358,0.000000,0.503146,-0.506214,0.509282,-0.510816,0.512350,-0.503146
5.1918,0.020175,-0.003465,-1.576932,1.566194,0.0000,0.0000,0.0000,-0.005221,-1.576932,1.566194,-0.1318,0.1661,0.1358,0.000000,0.503146,-0.506214,0.509282,-0.510816,0.512350,-0.501612
5.2119,0.020085,-0.003305,-1.576932,1.566194,0.0000,0.0000,0.0000,-0.005233,-1.576932,1.566194,-0.0821,0.1831,0.1870,0.000000,0.503146,-0.506214,0.509282,-0.510816,0.512350,-0.501612
5.2320,0.020078,-0.003144,-1.576932,1.566194,0.0000,0.0000,0.0000,-0.005233,-1.576932,1.566194,-0.0821,0.1831,0.1870,0.000000,0.503146,-0.506214,0.509282,-0.510816,0.512350,-0.501612
5.2521,0.020075,-0.002983,-1.576932,1.566194,0.0000,0.0000,0.0000,-0.005233,-1.576932,1.566194,-0.0821,0.1831,0.1870,0.000000,0.503146,-0.506214,0.509282,-0.510816,0.512350,-0.501612
5.2722,0.020082,-0.002823,-1.576932,1.566194,0.0000,0.0000,0.0000,-0.005233,-1.576932,1.566194,-0.0821,0.1831,0.1870,0.000000,0.503146,-0.506214,0.509282,-0.510816,0.512350,-0.501612
5.2924,0.020234,-0.002661,-1.576932,1.566194,0.0000,0.0000,0.0000,-0.005208,-1.576932,1.566194,-0.0816,0.1491,0.1877,0.000000,0.504680,-0.506214,0.509282,-0.510816,0.512350,-0.503146
5.3125,0.020048,-0.002500,-1.576932,1.566194,0.0000,0.0000,0.0000,-0.005211,-1.576932,1.566194,-0.0817,0.1526,0.1876,0.000000,0.504680,-0.506214,0.509282,-0.510816,0.512350,-0.503146
5.3325,0.020078,-0.002340,-1.576932,1.566194,0.0000,0.0000,0.0000,-0.005211,-1.576932,1.566194,-0.0817,0.1526,0.1876,0.000000,0.504680,-0.506214,0.509282,-0.510816,0.512350,-0.503146
5.3526,0.020081,-0.002179,-1.576932,1.566194,0.0000,0.0000,0.0000,-0.005211,-1.576932,1.566194,-0.0817,0.1526,0.1876,0.000000,0.504680,-0.506214,0.509282,-0.510816,0.512350,-0.503146
5.3727,0.020079,-0.002018,-1.576932,1.566194,0.0000,0.0000,0.0000,-0.005185,-1.576932,1.566194,-0.1113,0.1695,0.1876,0.000000,0.504680,-0.506214,0.509282,-0.512350,0.513884,-0.503146
5.3928,0.020086,-0.001858,-1.576932,1.566194,0.0000,0.0000,0.0000,-0.005163,-1.576932,1.566194,-0.0479,0.2028,0.1875,0.000000,0.506214,-0.506214,0.509282,-0.513884,0.513884,-0.503146
5.4129,0.020129,-0.001697,-1.576932,1.566194,0.0000,0.0000,0.0000,-0.005128,-1.576932,1.566194,-0.0740,0.2686,0.1353,0.000000,0.506214,-0.506214,0.509282,-0.516952,0.515418,-0.503146
5.4330,0.020083,-0.001536,-1.576932,1.566194,0.0000,0.0000,0.0000,-0.005081,-1.576932,1.566194,-0.1009,0.2447,0.1407,0.000000,0.507748,-0.506214,0.509282,-0.518486,0.516952,-0.504680
5.4531,0.020098,-0.001375,-1.576932,1.566194,0.0000,0.0000,0.0000,-0.004935,-1.576932,1.566194,0.0127,0.4385,0.0356,0.000000,0.512350,-0.507748,0.512350,-0.524621,0.516952,-0.507748
5.4733,0.020244,-0.001213,-1.576932,1.566194,0.0000,0.0000,0.0000,-0.004812,-1.576932,1.566194,0.0412,0.6260,-0.0058,0.000000,0.515418,-0.509282,0.516952,-0.529223,0.516952,-0.510816
5.4935,0.020145,-0.001052,-1.576932,1.566194,0.0000,0.0000,0.0000,-0.004562,-1.576932,1.566194,0.1000,0.7095,-0.1584,0.000000,0.521553,-0.513884,0.521553,-0.536893,0.520019,-0.516952
5.5135,0.020068,-0.000892,-1.576932,1.566194,0.0000,0.0000,0.0000,-0.004400,-1.576932,1.566194,0.1839,0.7190,0.0150,0.000000,0.527689,-0.516952,0.526155,-0.539961,0.523087,-0.520019
5.5336,0.020079,-0.000731,-1.576932,1.566194,0.0000,0.0000,0.0000,-0.004166,-1.576932,1.566194,0.2263,0.7694,-0.1077,0.000000,0.533825,-0.521553,0.530757,-0.546097,0.526155,-0.526155
5.5544,0.020739,-0.000565,-1.576932,1.566194,0.0000,0.0000,0.0000,-0.004166,-1.576932,1.566194,0.2263,0.7694,-0.1077,0.000000,0.539961,-0.526155,0.535359,-0.550699,0.529223,-0.530757
5.5744,0.020082,-0.000404,-1.576932,1.566194,0.0000,0.0000,0.0000,-0.003761,-1.576932,1.566194,0.3034,0.7795,-0.0959,0.000000,0.544563,-0.530757,0.539961,-0.555301,0.533825,-0.535359
5.5945,0.020079,-0.000244,-1.576932,1.566194,0.0000,0.0000,0.0000,-0.003570,-1.576932,1.566194,0.3835,0.7456,-0.0420,0.000000,0.550699,-0.535359,0.544563,-0.558369,0.536893,-0.539961
5.6146,0.020100,-0.000083,-1.576932,1.566194,0.0000,0.0000,0.0000,-0.003365,-1.576932,1.566194,0.4744,0.7497,0.0588,0.000000,0.556835,-0.539961,0.549165,-0.562971,0.541495,-0.543029
5.6347,0.020073,0.000078,-1.576932,1.566194,0.0000,0.0000,0.0000,-0.003187,-1.576932,1.566194,0.4746,0.8014,0.1543,0.000000,0.561437,-0.543029,0.553767,-0.567573,0.546097,-0.546097
5.6549,0.020185,0.000239,-1.576932,1.566194,0.0000,0.0000,0.0000,-0.003019,-1.576932,1.566194,0.5750,0.7954,0.0922,0.000000,0.566039,-0.547631,0.556835,-0.572175,0.549165,-0.549165
5.6750,0.020077,0.000400,-1.576932,1.566194,0.0000,0.0000,0.0000,-0.002862,-1.576932,1.566194,0.5519,0.7458,0.3118,0.000000,0.570641,-0.550699,0.561437,-0.573709,0.553767,-0.552233
5.6952,0.020194,0.000561,-1.576932,1.566194,0.0000,0.0000,0.0000,-0.002704,-1.576932,1.566194,0.6050,0.7665,0.1830,0.000000,0.573709,-0.555301,0.564505,-0.578311,0.556835,-0.555301
5.7153,0.020173,0.000723,-1.576932,1.566194,0.0000,0.0000,0.0000,-0.002534,-1.576932,1.566194,0.5882,0.7819,0.2507,0.000000,0.578311,-0.558369,0.569107,-0.581379,0.559903,-0.559903
5.7354,0.020082,0.000883,-1.576932,1.566194,0.0000,0.0000,0.0000,-0.002379,-1.576932,1.566194,0.6503,0.8149,0.2445,0.000000,0.582913,-0.561437,0.572175,-0.585981,0.562971,-0.562971
5.7555,0.020101,0.001044,-1.576932,1.566194,0.0000,0.0000,0.0000,-0.002379,-1.576932,1.566194,0.6503,0.8149,0.2445,0.000000,0.585981,-0.564505,0.575243,-0.589049,0.566039,-0.566039
5.7756,0.020086,0.001205,-1.576932,1.566194,0.0000,0.0000,0.0000,-0.002075,-1.576932,1.566194,0.7729,0.8962,0.1941,0.000000,0.590583,-0.569107,0.579845,-0.593651,0.567573,-0.569107
5.7957,0.020080,0.001365,-1.576932,1.566194,0.0000,0.0000,0.0000,-0.001971,-1.576932,1.566194,0.8293,0.8722,0.3074,0.000000,0.595185,-0.570641,0.581379,-0.596719,0.570641,-0.570641
5.8158,0.020136,0.001526,-1.576932,1.566194,0.0000,0.0000,0.0000,-0.001821,-1.576932,1.566194,0.7229,0.9431,0.3495,0.000000,0.598253,-0.572175,0.585981,-0.599786,0.573709,-0.575243
5.8359,0.020083,0.001687,-1.576932,1.566194,0.0000,0.0000,0.0000,-0.001639,-1.576932,1.566194,0.7941,0.9011,0.3459,0.000000,0.602854,-0.576777,0.589049,-0.604388,0.578311,-0.578311
5.8564,0.020484,0.001851,-1.576932,1.566194,0.0000,0.0000,0.0000,-0.001510,-1.576932,1.566194,0.7862,0.9050,0.3468,0.000000,0.605922,-0.579845,0.592117,-0.607456,0.581379,-0.581379
5.8765,0.020080,0.002012,-1.576932,1.566194,0.0000,0.0000,0.0000,-0.001301,-1.576932,1.566194,0.7864,0.9036,0.3475,0.000000,0.610524,-0.584447,0.596719,-0.612058,0.585981,-0.585981
5.8965,0.020078,0.002172,-1.576932,1.566194,0.0000,0.0000,0.0000,-0.001301,-1.576932,1.566194,0.7864,0.9036,0.3475,0.000000,0.613592,-0.587515,0.601320,-0.616660,0.589049,-0.589049
5.9166,0.020101,0.002333,-1.576932,1.566194,0.0000,0.0000,0.0000,-0.000969,-1.576932,1.566194,0.8136,0.9763,0.3497,0.000000,0.618194,-0.592117,0.605922,-0.619728,0.592117,-0.593651
5.9367,0.020076,0.002494,-1.576932,1.566194,0.0000,0.0000,0.0000,-0.000829,-1.576932,1.566194,0.8217,1.0290,0.2958,0.000000,0.621262,-0.595185,0.608990,-0.624330,0.595185,-0.596719
5.9568,0.020098,0.002654,-1.576932,1.566194,0.0000,0.0000,0.0000,-0.000647,-1.576932,1.566194,0.8576,0.9892,0.4112,0.000000,0.625864,-0.599786,0.613592,-0.627398,0.599786,-0.599786
5.9771,0.020293,0.002817,-1.576932,1.566194,0.0000,0.0000,0.0000,-0.000482,-1.576932,1.566194,0.8549,0.9906,0.2363,0.000000,0.628932,-0.604388,0.616660,-0.632000,0.602854,-0.604388
5.9972,0.020078,0.002977,-1.576932,1.566194,0.0000,0.0000,0.0000,-0.000341,-1.576932,1.566194,0.9034,0.9743,0.3102,0.000000,0.633534,-0.607456,0.619728,-0.635068,0.605922,-0.607456
6.0173,0.020094,0.003138,-1.576932,1.566194,0.0000,0.0000,0.0000,-0.000171,-1.576932,1.566194,0.8763,0.9737,0.2486,0.000000,0.636602,-0.612058,0.624330,-0.638136,0.608990,-0.612058
6.0374,0.020153,0.003299,-1.576932,1.566194,0.0000,0.0000,0.0000,-0.000007,-1.576932,1.566194,0.8996,0.9741,0.3100,0.000000,0.641204,-0.615126,0.627398,-0.642738,0.613592,-0.615126
6.0575,0.020105,0.003460,-1.576932,1.566194,0.0000,0.0000,0.0000,0.000159,-1.576932,1.566194,0.9725,0.9737,0.3602,0.000000,0.645806,-0.619728,0.632000,-0.645806,0.616660,-0.618194
6.0781,0.020543,0.003625,-1.576932,1.566194,0.0000,0.0000,0.0000,0.000311,-1.576932,1.566194,0.9269,1.0056,0.2453,0.000000,0.648874,-0.622796,0.635068,-0.650408,0.619728,-0.622796
6.0982,0.020157,0.003786,-1.576932,1.566194,0.0000,0.0000,0.0000,0.000477,-1.576932,1.566194,0.9289,1.0030,0.4231,0.000000,0.653476,-0.625864,0.639670,-0.653476,0.624330,-0.625864
6.1185,0.020285,0.003948,-1.576932,1.566194,0.0000,0.0000,0.0000,0.000630,-1.576932,1.566194,1.0151,0.9527,0.4060,0.000000,0.658078,-0.630466,0.642738,-0.656544,0.627398,-0.628932
6.1387,0.020191,0.004110,-1.576932,1.566194,0.0000,0.0000,0.0000,0.000794,-1.576932,1.566194,1.0262,0.9585,0.4635,0.000000,0.662680,-0.633534,0.645806,-0.661146,0.632000,-0.632000
6.1590,0.020340,0.004272,-1.576932,1.566194,0.0000,0.0000,0.0000,0.000922,-1.576932,1.566194,1.0613,1.0242,0.5695,0.000000,0.665748,-0.636602,0.650408,-0.664214,0.635068,-0.633534
6.1791,0.020041,0.004433,-1.576932,1.566194,0.0000,0.0000,0.0000,0.001088,-1.576932,1.566194,1.0778,1.0179,0.6146,0.000000,0.670350,-0.639670,0.653476,-0.668816,0.639670,-0.636602
6.1992,0.020103,0.004594,-1.576932,1.566194,0.0000,0.0000,0.0000,0.001264,-1.576932,1.566194,1.0750,1.0486,0.6106,0.000000,0.673418,-0.644272,0.658078,-0.673418,0.644272,-0.639670
6.2193,0.020141,0.004755,-1.576932,1.566194,0.0000,0.0000,0.0000,0.001399,-1.576932,1.566194,1.1457,1.0297,0.5567,0.000000,0.678020,-0.647340,0.659612,-0.678020,0.647340,-0.642738
6.2395,0.020180,0.004916,-1.576932,1.566194,0.0000,0.0000,0.0000,0.001589,-1.576932,1.566194,1.2122,1.1301,0.6209,0.000000,0.682621,-0.651942,0.665748,-0.682621,0.650408,-0.645806
6.2596,0.020087,0.004923,-1.576932,1.566194,0.0000,0.0000,0.0000,0.001723,-1.576932,1.566194,1.2521,1.1041,0.6716,0.000000,0.687223,-0.655010,0.668816,-0.685689,0.653476,-0.648874
6.2799,0.020281,0.004761,-1.576932,1.566194,0.0000,0.0000,0.0000,0.001851,-1.576932,1.566194,1.3068,1.1720,0.6676,0.000000,0.690291,-0.658078,0.671884,-0.690291,0.656544,-0.650408
6.3000,0.020081,0.004600,-1.576932,1.566194,0.0000,0.0000,0.0000,0.002030,-1.576932,1.566194,1.3257,1.1469,0.6704,0.000000,0.694893,-0.662680,0.676486,-0.693359,0.659612,-0.655010
6.3201,0.020188,0.004439,-1.576932,1.566194,0.0000,0.0000,0.0000,0.002214,-1.576932,1.566194,1.3699,1.1646,0.7277,0.000000,0.699495,-0.667282,0.681087,-0.697961,0.664214,-0.658078
6.3402,0.020080,0.004278,-1.576932,1.566194,0.0000,0.0000,0.0000,0.002384,-1.576932,1.566194,1.4990,1.1269,0.6118,0.000000,0.704097,-0.673418,0.684155,-0.702563,0.667282,-0.661146
6.3603,0.020086,0.004117,-1.576932,1.566194,0.0000,0.0000,0.0000,0.002498,-1.576932,1.566194,1.4719,1.0808,0.6807,0.000000,0.707165,-0.676486,0.687223,-0.704097,0.670350,-0.664214
6.3804,0.020086,0.003957,-1.576932,1.566194,0.0000,0.0000,0.0000,0.002545,-1.576932,1.566194,1.5121,1.1179,0.6189,0.000000,0.708699,-0.678020,0.688757,-0.705631,0.670350,-0.665748
6.4005,0.020079,0.003796,-1.576932,1.566194,0.0000,0.0000,0.0000,0.002553,-1.576932,1.566194,1.5455,1.0794,0.5692,0.000000,0.708699,-0.679553,0.688757,-0.705631,0.670350,-0.665748
6.4206,0.020098,0.003635,-1.576932,1.566194,0.0000,0.0000,0.0000,0.002552,-1.576932,1.566194,1.5420,1.0834,0.5744,0.000000,0.708699,-0.679553,0.688757,-0.705631,0.670350,-0.665748
6.4407,0.020079,0.003475,-1.576932,1.566194,0.0000,0.0000,0.0000,0.002565,-1.576932,1.566194,1.5042,1.0500,0.6289,0.000000,0.708699,-0.679553,0.688757,-0.705631,0.671884,-0.665748
6.4607,0.020078,0.003314,-1.576932,1.566194,0.0000,0.0000,0.0000,0.002563,-1.576932,1.566194,1.5081,1.0535,0.6232,0.000000,0.708699,-0.679553,0.688757,-0.705631,0.671884,-0.665748
6.4816,0.020901,0.003147,-1.576932,1.566194,0.0000,0.0000,0.0000,0.002551,-1.576932,1.566194,1.5459,1.0861,0.5688,0.000000,0.708699,-0.679553,0.688757,-0.705631,0.670350,-0.665748
6.5017,0.020075,0.002986,-1.576932,1.566194,0.0000,0.0000,0.0000,0.002542,-1.576932,1.566194,1.4943,1.0965,0.5174,0.000000,0.707165,-0.679553,0.688757,-0.705631,0.670350,-0.665748
6.5220,0.020277,0.002824,-1.576932,1.566194,0.0000,0.0000,0.0000,0.002522,-1.576932,1.566194,1.4043,1.1231,0.4088,0.000000,0.704097,-0.679553,0.688757,-0.705631,0.670350,-0.665748
6.5421,0.020082,0.002663,-1.576932,1.566194,0.0000,0.0000,0.0000,0.002492,-1.576932,1.566194,1.2704,1.1624,0.2494,0.000000,0.699495,-0.679553,0.688757,-0.705631,0.670350,-0.665748
6.5621,0.020079,0.002503,-1.576932,1.566194,0.0000,0.0000,0.0000,0.002452,-1.576932,1.566194,1.1290,1.1523,0.1516,0.000000,0.694893,-0.679553,0.688757,-0.704097,0.670350,-0.665748
