t,loop_dt,cmd_ant_l,cmd_ant_r,pres_ant_l,pres_ant_r,pres_z,pres_roll,pres_pitch,pres_yaw
0.0000,0.000001,-0.349066,0.349066,-0.177942,0.174874,-0.002751,0.6877,0.2581,-0.1947
0.0167,0.016745,-0.338106,0.338106,-0.177942,0.174874,-0.002763,0.6386,0.2960,-0.1414
0.0336,0.016837,-0.327086,0.327086,-0.176408,0.174874,-0.002749,0.5942,0.2742,-0.2001
0.0503,0.016745,-0.316127,0.316127,-0.176408,0.174874,-0.002749,0.5942,0.2742,-0.2001
0.0671,0.016752,-0.305162,0.305162,-0.214757,0.213223,-0.002750,0.6382,0.2102,-0.0870
0.0838,0.016752,-0.294198,0.294198,-0.286854,0.286854,-0.002726,0.6832,0.2319,-0.2055
0.1006,0.016748,-0.283236,0.283236,-0.352816,0.346680,-0.002715,0.6290,0.2119,-0.2463
0.1173,0.016744,-0.272278,0.272278,-0.358952,0.352816,-0.002703,0.5851,0.1963,-0.2953
0.1348,0.017475,-0.260840,0.260840,-0.337476,0.332874,-0.002691,0.5402,0.1803,-0.3434
0.1515,0.016741,-0.249883,0.249883,-0.337476,0.332874,-0.002691,0.5402,0.1803,-0.3434
0.1683,0.016759,-0.238914,0.238914,-0.306796,0.306796,-0.002679,0.4955,0.1644,-0.3916
0.1850,0.016743,-0.227956,0.227956,-0.277651,0.283786,-0.002668,0.5390,0.1304,-0.4399
0.2018,0.016746,-0.216996,0.216996,-0.254641,0.265379,-0.002643,0.5239,0.0809,-0.5414
0.2185,0.016745,-0.206036,0.206036,-0.240835,0.248505,-0.002633,0.4761,0.0686,-0.5841
0.2353,0.016756,-0.195069,0.195069,-0.230097,0.234699,-0.002622,0.5312,0.0540,-0.5262
0.2520,0.016744,-0.184111,0.184111,-0.230097,0.234699,-0.002622,0.5312,0.0540,-0.5262
0.2688,0.016755,-0.173145,0.173145,-0.217825,0.222427,-0.002636,0.4867,0.0911,-0.4789
0.2855,0.016740,-0.162189,0.162189,-0.207087,0.213223,-0.002610,0.5802,0.0359,-0.4837
0.3023,0.016741,-0.151232,0.151232,-0.197884,0.202485,-0.002625,0.5316,0.0772,-0.4298
0.3190,0.016744,-0.140274,0.140274,-0.185612,0.190214,-0.002599,0.6256,0.0216,-0.4353
0.3359,0.016907,-0.129208,0.129208,-0.170272,0.176408,-0.002602,0.6158,0.0274,-0.4347
0.3527,0.016749,-0.118246,0.118246,-0.170272,0.176408,-0.002602,0.6158,0.0274,-0.4347
0.3694,0.016757,-0.107278,0.107278,-0.154932,0.159534,-0.002602,0.6158,0.0274,-0.4347
0.3862,0.016728,-0.096329,0.096329,-0.141126,0.145728,-0.002602,0.6158,0.0274,-0.4347
0.4032,0.017012,-0.085195,0.085195,-0.130388,0.133456,-0.002603,0.6280,0.0466,-0.3278
0.4199,0.016749,-0.074233,0.074233,-0.118117,0.119651,-0.002590,0.6656,0.0090,-0.3924
0.4367,0.016762,-0.063263,0.063263,-0.102777,0.104311,-0.002591,0.6616,0.0130,-0.3857
0.4534,0.016745,-0.052303,0.052303,-0.102777,0.104311,-0.002591,0.6616,0.0130,-0.3857
0.4703,0.016858,-0.041270,0.041270,-0.087437,0.088971,-0.002604,0.6232,0.0481,-0.3330
0.4870,0.016749,-0.030308,0.030308,-0.072097,0.075165,-0.002590,0.6661,0.0089,-0.3919
0.5038,0.016749,-0.019346,0.019346,-0.061359,0.062893,-0.002591,0.6616,0.0130,-0.3857
0.5205,0.016748,-0.008384,0.008384,-0.047553,0.050621,-0.002604,0.6232,0.0481,-0.3329
0.5373,0.016768,0.000000,0.000000,-0.047553,0.050621,-0.002604,0.6232,0.0481,-0.3329
0.5540,0.016742,0.000000,0.000000,-0.032214,0.035282,-0.002590,0.6661,0.0089,-0.3919
0.5708,0.016761,0.000000,0.000000,-0.016874,0.021476,-0.002604,0.6227,0.0486,-0.3323
0.5875,0.016744,0.000000,0.000000,-0.003068,0.009204,-0.002590,0.6661,0.0088,-0.3919
0.6045,0.016950,0.000000,0.000000,0.004602,-0.001534,-0.002591,0.6616,0.0130,-0.3857
0.6212,0.016746,0.000000,0.000000,0.003068,-0.003068,-0.002604,0.6232,0.0481,-0.3329
0.6380,0.016772,0.000000,0.000000,-0.003068,0.001534,-0.002590,0.6661,0.0089,-0.3919
0.6548,0.016828,0.000000,0.000000,-0.003068,0.001534,-0.002590,0.6661,0.0089,-0.3919
0.6716,0.016764,-0.003228,0.003228,-0.003068,0.001534,-0.002590,0.6661,0.0089,-0.3919
0.6883,0.016742,-0.014186,0.014186,0.004602,-0.001534,-0.002604,0.6227,0.0486,-0.3323
0.7051,0.016755,-0.025152,0.025152,0.001534,-0.001534,-0.002603,0.6272,0.0444,-0.3385
0.7219,0.016758,-0.036120,0.036120,-0.003068,0.001534,-0.002603,0.6272,0.0444,-0.3385
0.7387,0.016841,-0.047142,0.047142,-0.006136,0.004602,-0.002590,0.6656,0.0093,-0.3913
0.7554,0.016738,-0.058098,0.058098,-0.006136,0.004602,-0.002590,0.6656,0.0093,-0.3913
0.7722,0.016756,-0.069064,0.069064,-0.015340,0.016874,-0.002604,0.6228,0.0485,-0.3324
0.7889,0.016711,-0.080002,0.080002,-0.032214,0.033748,-0.002590,0.6661,0.0088,-0.3919
0.8056,0.016747,-0.090963,0.090963,-0.049087,0.049087,-0.002591,0.6616,0.0130,-0.3857
0.8224,0.016757,-0.101930,0.101930,-0.061359,0.059825,-0.002591,0.6616,0.0130,-0.3857
0.8392,0.016746,-0.112891,0.112891,-0.067495,0.070563,-0.002591,0.6616,0.0130,-0.3857
0.8559,0.016760,-0.123860,0.123860,-0.067495,0.070563,-0.002591,0.6616,0.0130,-0.3857
0.8727,0.016758,-0.134828,0.134828,-0.079767,0.084369,-0.002604,0.6232,0.0481,-0.3329
0.8894,0.016746,-0.145789,0.145789,-0.102777,0.105845,-0.002590,0.6661,0.0089,-0.3919
0.9062,0.016737,-0.156743,0.156743,-0.119651,0.116583,-0.002591,0.6616,0.0130,-0.3857
0.9229,0.016748,-0.167705,0.167705,-0.133456,0.125786,-0.002604,0.6232,0.0481,-0.3329
0.9397,0.016762,-0.178675,0.178675,-0.147262,0.141126,-0.002590,0.6661,0.0089,-0.3919
0.9564,0.016760,-0.189645,0.189645,-0.147262,0.141126,-0.002590,0.6661,0.0089,-0.3919
0.9732,0.016752,-0.200609,0.200609,-0.164136,0.156466,-0.002591,0.6616,0.0130,-0.3857
0.9899,0.016744,-0.211567,0.211567,-0.171806,0.171806,-0.002591,0.6616,0.0130,-0.3857
1.0067,0.016749,-0.222530,0.222530,-0.174874,0.179476,-0.002604,0.6232,0.0481,-0.3329
1.0234,0.016754,-0.233495,0.233495,-0.187146,0.187146,-0.002590,0.6661,0.0089,-0.3919
1.0403,0.016831,-0.244511,0.244511,-0.207087,0.199418,-0.002591,0.6616,0.0130,-0.3857
1.0570,0.016740,-0.255467,0.255467,-0.207087,0.199418,-0.002591,0.6616,0.0130,-0.3857
1.0737,0.016752,-0.266432,0.266432,-0.228563,0.222427,-0.002591,0.6616,0.0130,-0.3857
1.0905,0.016747,-0.277392,0.277392,-0.239301,0.239301,-0.002591,0.6616,0.0130,-0.3857
1.1072,0.016746,-0.288352,0.288352,-0.243903,0.243903,-0.002591,0.6616,0.0130,-0.3857
1.1240,0.016749,-0.299314,0.299314,-0.250039,0.251573,-0.002591,0.6616,0.0130,-0.3857
1.1409,0.016962,-0.310416,0.310416,-0.265379,0.266913,-0.002604,0.6232,0.0481,-0.3329
1.1577,0.016739,-0.321372,0.321372,-0.265379,0.266913,-0.002604,0.6232,0.0481,-0.3329
1.1744,0.016755,-0.332337,0.332337,-0.289922,0.291456,-0.002590,0.6661,0.0089,-0.3919
1.1912,0.016739,-0.343293,0.343293,-0.309864,0.303728,-0.002591,0.6616,0.0130,-0.3857
1.2079,0.016741,-0.349066,0.349066,-0.314466,0.311398,-0.002591,0.6616,0.0130,-0.3857
1.2247,0.016745,-0.349066,0.349066,-0.322136,0.323670,-0.002591,0.6616,0.0130,-0.3857
1.2416,0.016958,-0.349066,0.349066,-0.340544,0.342078,-0.002604,0.6232,0.0481,-0.3329
1.2584,0.016742,-0.349066,0.349066,-0.340544,0.342078,-0.002604,0.6232,0.0481,-0.3329
1.2751,0.016760,-0.349066,0.349066,-0.357418,0.354350,-0.002590,0.6661,0.0089,-0.3919
1.2919,0.016740,-0.349066,0.349066,-0.357418,0.352816,-0.002591,0.6616,0.0130,-0.3857
1.3086,0.016743,-0.349066,0.349066,-0.352816,0.346680,-0.002591,0.6616,0.0130,-0.3857
1.3254,0.016746,-0.349066,0.349066,-0.351282,0.346680,-0.002591,0.6616,0.0130,-0.3857
1.3422,0.016816,-0.343281,0.343281,-0.351282,0.348214,-0.002604,0.6232,0.0481,-0.3329
1.3589,0.016739,-0.332326,0.332326,-0.351282,0.348214,-0.002604,0.6232,0.0481,-0.3329
1.3757,0.016755,-0.321360,0.321360,-0.351282,0.348214,-0.002603,0.6272,0.0445,-0.3384
1.3924,0.016738,-0.310405,0.310405,-0.351282,0.348214,-0.002590,0.6656,0.0093,-0.3913
1.4092,0.016822,-0.299395,0.299395,-0.351282,0.345146,-0.002604,0.6228,0.0485,-0.3324
1.4260,0.016742,-0.288437,0.288437,-0.345146,0.340544,-0.002590,0.6661,0.0088,-0.3919
1.4427,0.016769,-0.277462,0.277462,-0.334408,0.331340,-0.002590,0.6661,0.0088,-0.3919
1.4595,0.016742,-0.266504,0.266504,-0.334408,0.331340,-0.002591,0.6616,0.0130,-0.3857
1.4762,0.016749,-0.255542,0.255542,-0.319068,0.319068,-0.002591,0.6616,0.0130,-0.3857
1.4930,0.016741,-0.244585,0.244585,-0.303728,0.306796,-0.002591,0.6616,0.0130,-0.3857
1.5097,0.016750,-0.233623,0.233623,-0.286854,0.292990,-0.002591,0.6616,0.0130,-0.3857
1.5265,0.016748,-0.222661,0.222661,-0.274583,0.279185,-0.002591,0.6616,0.0130,-0.3857
1.5432,0.016767,-0.211687,0.211687,-0.259243,0.263845,-0.002591,0.6616,0.0130,-0.3857
1.5600,0.016742,-0.200729,0.200729,-0.259243,0.263845,-0.002591,0.6616,0.0130,-0.3857
1.5767,0.016753,-0.189764,0.189764,-0.243903,0.246971,-0.002591,0.6616,0.0130,-0.3857
1.5935,0.016740,-0.178808,0.178808,-0.231631,0.234699,-0.002591,0.6616,0.0130,-0.3857
1.6102,0.016760,-0.167838,0.167838,-0.217825,0.223961,-0.002591,0.6616,0.0130,-0.3857
1.6270,0.016746,-0.156878,0.156878,-0.204019,0.211689,-0.002604,0.6232,0.0481,-0.3329
1.6437,0.016766,-0.145905,0.145905,-0.204019,0.211689,-0.002604,0.6232,0.0481,-0.3329
1.6605,0.016746,-0.134945,0.134945,-0.190214,0.197884,-0.002590,0.6661,0.0089,-0.3919
1.6773,0.016828,-0.123931,0.123931,-0.174874,0.182544,-0.002591,0.6616,0.0130,-0.3857
1.6941,0.016748,-0.112970,0.112970,-0.174874,0.182544,-0.002591,0.6616,0.0130,-0.3857
1.7108,0.016762,-0.102000,0.102000,-0.150330,0.153398,-0.002591,0.6616,0.0130,-0.3857
1.7276,0.016746,-0.091039,0.091039,-0.145728,0.144194,-0.002604,0.6232,0.0481,-0.3329
1.7443,0.016768,-0.080065,0.080065,-0.145728,0.144194,-0.002604,0.6232,0.0481,-0.3329
1.7611,0.016746,-0.069104,0.069104,-0.145728,0.141126,-0.002590,0.6661,0.0089,-0.3919
1.7778,0.016749,-0.058142,0.058142,-0.136524,0.131922,-0.002591,0.6616,0.0130,-0.3857
1.7946,0.016742,-0.047184,0.047184,-0.092039,0.093573,-0.002591,0.6616,0.0130,-0.3857
1.8113,0.016751,-0.036221,0.036221,-0.072097,0.075165,-0.002604,0.6232,0.0481,-0.3329
1.8281,0.016748,-0.025260,0.025260,-0.049087,0.053689,-0.002603,0.6272,0.0445,-0.3384
1.8448,0.016768,-0.014285,0.014285,-0.049087,0.053689,-0.002603,0.6272,0.0445,-0.3384
1.8616,0.016742,-0.003328,0.003328,-0.036816,0.039884,-0.002590,0.6656,0.0093,-0.3913
1.8783,0.016749,0.000000,0.000000,-0.029146,0.026078,-0.002591,0.6616,0.0129,-0.3858
1.8951,0.016744,0.000000,0.000000,-0.021476,0.016874,-0.002591,0.6616,0.0129,-0.3858
1.9118,0.016754,0.000000,0.000000,-0.009204,0.004602,-0.002591,0.6616,0.0129,-0.3858
1.9287,0.016893,0.000000,0.000000,0.006136,-0.003068,-0.002591,0.6616,0.0129,-0.3858
1.9455,0.016772,0.000000,0.000000,0.006136,-0.003068,-0.002591,0.6616,0.0129,-0.3858
1.9622,0.016743,0.000000,0.000000,0.006136,-0.003068,-0.002591,0.6616,0.0129,-0.3858
1.9790,0.016749,0.000000,0.000000,-0.004602,0.001534,-0.002591,0.6616,0.0129,-0.3858
1.9957,0.016748,0.000000,0.000000,-0.001534,0.000000,-0.002591,0.6616,0.0129,-0.3858
2.0125,0.016759,-0.008177,0.008177,0.004602,-0.001534,-0.002591,0.6616,0.0129,-0.3858
2.0292,0.016751,-0.019141,0.019141,0.003068,0.000000,-0.002591,0.6616,0.0129,-0.3858
2.0460,0.016771,-0.030118,0.030118,0.003068,0.000000,-0.002591,0.6616,0.0129,-0.3858
2.0628,0.016745,-0.041077,0.041077,-0.004602,0.001534,-0.002591,0.6616,0.0129,-0.3858
2.0795,0.016754,-0.052043,0.052043,-0.012272,0.007670,-0.002591,0.6616,0.0129,-0.3858
2.0963,0.016743,-0.063001,0.063001,-0.023010,0.021476,-0.002604,0.6232,0.0481,-0.3329
2.1130,0.016762,-0.073972,0.073972,-0.041417,0.038350,-0.002590,0.6661,0.0089,-0.3919
2.1298,0.016743,-0.084930,0.084930,-0.058291,0.055223,-0.002591,0.6616,0.0130,-0.3857
2.1465,0.016763,-0.095902,0.095902,-0.058291,0.055223,-0.002591,0.6616,0.0130,-0.3857
2.1633,0.016752,-0.106866,0.106866,-0.073631,0.072097,-0.002591,0.6616,0.0130,-0.3857
2.1800,0.016747,-0.117827,0.117827,-0.081301,0.079767,-0.002591,0.6616,0.0130,-0.3857
2.1968,0.016742,-0.128784,0.128784,-0.085903,0.084369,-0.002591,0.6616,0.0130,-0.3857
2.2135,0.016753,-0.139749,0.139749,-0.096641,0.098175,-0.002591,0.6616,0.0130,-0.3857
2.2303,0.016742,-0.150707,0.150707,-0.116583,0.119651,-0.002591,0.6616,0.0130,-0.3857
2.2470,0.016745,-0.161666,0.161666,-0.116583,0.119651,-0.002591,0.6616,0.0130,-0.3857
2.2638,0.016744,-0.172625,0.172625,-0.138058,0.136524,-0.002604,0.6232,0.0481,-0.3329
2.2805,0.016743,-0.183584,0.183584,-0.151864,0.148796,-0.002590,0.6661,0.0089,-0.3919
2.2972,0.016742,-0.194541,0.194541,-0.159534,0.153398,-0.002591,0.6616,0.0130,-0.3857
2.3140,0.016745,-0.205501,0.205501,-0.167204,0.162602,-0.002591,0.6616,0.0130,-0.3857
2.3307,0.016744,-0.216460,0.216460,-0.184078,0.179476,-0.002591,0.6616,0.0130,-0.3857
2.3475,0.016743,-0.227418,0.227418,-0.184078,0.179476,-0.002591,0.6616,0.0130,-0.3857
2.3642,0.016744,-0.238377,0.238377,-0.202485,0.199418,-0.002591,0.6616,0.0130,-0.3857
2.3810,0.016743,-0.249336,0.249336,-0.213223,0.211689,-0.002591,0.6616,0.0130,-0.3857
2.3977,0.016738,-0.260291,0.260291,-0.219359,0.217825,-0.002591,0.6616,0.0130,-0.3857
2.4144,0.016744,-0.271250,0.271250,-0.230097,0.230097,-0.002604,0.6232,0.0481,-0.3329
2.4313,0.016888,-0.282303,0.282303,-0.250039,0.253107,-0.002590,0.6661,0.0089,-0.3919
2.4481,0.016743,-0.293261,0.293261,-0.250039,0.253107,-0.002590,0.6661,0.0089,-0.3919
2.4648,0.016751,-0.304225,0.304225,-0.269981,0.269981,-0.002604,0.6227,0.0486,-0.3323
2.4816,0.016744,-0.315184,0.315184,-0.277651,0.274583,-0.002603,0.6272,0.0444,-0.3385
2.4983,0.016741,-0.326140,0.326140,-0.285320,0.283786,-0.002590,0.6656,0.0093,-0.3913
2.5151,0.016744,-0.337100,0.337100,-0.302194,0.303728,-0.002591,0.6616,0.0129,-0.3858
2.5322,0.017106,-0.348295,0.348295,-0.322136,0.322136,-0.002591,0.6616,0.0129,-0.3858
2.5489,0.016759,-0.349066,0.349066,-0.322136,0.322136,-0.002591,0.6616,0.0129,-0.3858
2.5657,0.016750,-0.349066,0.349066,-0.335942,0.331340,-0.002604,0.6232,0.0481,-0.3329
2.5824,0.016749,-0.349066,0.349066,-0.342078,0.340544,-0.002603,0.6272,0.0445,-0.3384
2.5992,0.016743,-0.349066,0.349066,-0.348214,0.349748,-0.002590,0.6656,0.0093,-0.3913
2.6159,0.016747,-0.349066,0.349066,-0.355884,0.349748,-0.002591,0.6616,0.0129,-0.3858
2.6327,0.016751,-0.349066,0.349066,-0.354350,0.348214,-0.002591,0.6616,0.0129,-0.3858
2.6494,0.016749,-0.349066,0.349066,-0.354350,0.348214,-0.002591,0.6616,0.0129,-0.3858
2.6662,0.016749,-0.349066,0.349066,-0.351282,0.348214,-0.002604,0.6232,0.0481,-0.3329
2.6829,0.016739,-0.338447,0.338447,-0.352816,0.348214,-0.002603,0.6272,0.0445,-0.3384
2.6997,0.016811,-0.327445,0.327445,-0.351282,0.348214,-0.002590,0.6656,0.0093,-0.3913
2.7165,0.016801,-0.316448,0.316448,-0.351282,0.348214,-0.002590,0.6656,0.0093,-0.3913
2.7333,0.016754,-0.305482,0.305482,-0.351282,0.348214,-0.002590,0.6656,0.0093,-0.3913
2.7500,0.016746,-0.294522,0.294522,-0.348214,0.343612,-0.002604,0.6228,0.0485,-0.3324
2.7668,0.016749,-0.283560,0.283560,-0.343612,0.340544,-0.002604,0.6228,0.0485,-0.3324
2.7835,0.016751,-0.272597,0.272597,-0.343612,0.340544,-0.002590,0.6661,0.0088,-0.3919
2.8003,0.016752,-0.261632,0.261632,-0.339010,0.337476,-0.002604,0.6227,0.0486,-0.3323
2.8170,0.016748,-0.250671,0.250671,-0.326738,0.326738,-0.002590,0.6661,0.0088,-0.3919
2.8338,0.016747,-0.239710,0.239710,-0.286854,0.291456,-0.002591,0.6616,0.0130,-0.3857
2.8505,0.016745,-0.228750,0.228750,-0.266913,0.273049,-0.002591,0.6616,0.0130,-0.3857
2.8674,0.016897,-0.217691,0.217691,-0.251573,0.256175,-0.002591,0.6616,0.0130,-0.3857
2.8841,0.016747,-0.206730,0.206730,-0.251573,0.256175,-0.002591,0.6616,0.0130,-0.3857
2.9009,0.016748,-0.195768,0.195768,-0.236233,0.242369,-0.002591,0.6616,0.0130,-0.3857
2.9176,0.016743,-0.184810,0.184810,-0.236233,0.242369,-0.002591,0.6616,0.0130,-0.3857
2.9344,0.016746,-0.173850,0.173850,-0.213223,0.220893,-0.002591,0.6616,0.0130,-0.3857
2.9511,0.016744,-0.162891,0.162891,-0.200951,0.207087,-0.002591,0.6616,0.0130,-0.3857
2.9680,0.016840,-0.151869,0.151869,-0.185612,0.193282,-0.002604,0.6232,0.0481,-0.3329
2.9847,0.016748,-0.140908,0.140908,-0.185612,0.193282,-0.002604,0.6232,0.0481,-0.3329
3.0015,0.016758,-0.129940,0.129940,-0.173340,0.179476,-0.002603,0.6272,0.0445,-0.3384
3.0182,0.016740,-0.118983,0.118983,-0.161068,0.164136,-0.002590,0.6656,0.0093,-0.3913
3.0349,0.016742,-0.108026,0.108026,-0.147262,0.150330,-0.002604,0.6228,0.0485,-0.3324
3.0517,0.016745,-0.097067,0.097067,-0.134990,0.136524,-0.002590,0.6661,0.0088,-0.3919
3.0688,0.017071,-0.085894,0.085894,-0.118117,0.119651,-0.002591,0.6616,0.0130,-0.3857
3.0855,0.016742,-0.074936,0.074936,-0.118117,0.119651,-0.002591,0.6616,0.0130,-0.3857
3.1023,0.016791,-0.063946,0.063946,-0.104311,0.107379,-0.002591,0.6616,0.0130,-0.3857
3.1190,0.016741,-0.052989,0.052989,-0.090505,0.092039,-0.002604,0.6232,0.0481,-0.3329
3.1358,0.016752,-0.042025,0.042025,-0.081301,0.082835,-0.002590,0.6661,0.0089,-0.3919
3.1525,0.016745,-0.031066,0.031066,-0.067495,0.067495,-0.002591,0.6616,0.0130,-0.3857
3.1693,0.016776,-0.020086,0.020086,-0.067495,0.067495,-0.002591,0.6616,0.0130,-0.3857
3.1861,0.016745,-0.009126,0.009126,-0.049087,0.053689,-0.002604,0.6232,0.0481,-0.3329
3.2028,0.016757,0.000000,0.000000,-0.036816,0.038350,-0.002603,0.6272,0.0445,-0.3384
3.2196,0.016746,0.000000,0.000000,-0.023010,0.027612,-0.002603,0.6272,0.0445,-0.3384
3.2363,0.016757,0.000000,0.000000,-0.015340,0.016874,-0.002590,0.6656,0.0093,-0.3913
3.2531,0.016749,0.000000,0.000000,-0.009204,0.004602,-0.002591,0.6616,0.0129,-0.3858
3.2700,0.016911,0.000000,0.000000,0.001534,-0.003068,-0.002591,0.6616,0.0129,-0.3858
3.2867,0.016747,0.000000,0.000000,0.001534,-0.003068,-0.002604,0.6232,0.0481,-0.3329
3.3035,0.016757,0.000000,0.000000,0.006136,-0.001534,-0.002590,0.6661,0.0089,-0.3919
3.3202,0.016748,0.000000,0.000000,-0.003068,0.003068,-0.002591,0.6616,0.0130,-0.3857
3.3370,0.016760,-0.002392,0.002392,-0.003068,0.000000,-0.002604,0.6232,0.0481,-0.3329
3.3537,0.016748,-0.013353,0.013353,0.004602,-0.001534,-0.002590,0.6661,0.0089,-0.3919
3.3705,0.016773,-0.024331,0.024331,0.004602,-0.001534,-0.002590,0.6661,0.0089,-0.3919
3.3873,0.016760,-0.035301,0.035301,0.004602,0.001534,-0.002604,0.6227,0.0486,-0.3323
3.4040,0.016754,-0.046267,0.046267,-0.004602,0.004602,-0.002590,0.6661,0.0088,-0.3919
3.4208,0.016745,-0.057226,0.057226,-0.013806,0.009204,-0.002604,0.6227,0.0486,-0.3323
3.4375,0.016754,-0.068192,0.068192,-0.027612,0.021476,-0.002590,0.6661,0.0088,-0.3919
3.4543,0.016769,-0.079167,0.079167,-0.049087,0.041417,-0.002591,0.6616,0.0130,-0.3857
3.4711,0.016759,-0.090136,0.090136,-0.049087,0.041417,-0.002591,0.6616,0.0130,-0.3857
3.4878,0.016748,-0.101098,0.101098,-0.065961,0.061359,-0.002591,0.6616,0.0130,-0.3857
3.5046,0.016759,-0.112067,0.112067,-0.073631,0.072097,-0.002591,0.6616,0.0130,-0.3857
3.5213,0.016750,-0.123029,0.123029,-0.078233,0.078233,-0.002591,0.6616,0.0130,-0.3857
3.5381,0.016756,-0.133996,0.133996,-0.088971,0.088971,-0.002604,0.6232,0.0481,-0.3329
3.5548,0.016751,-0.144960,0.144960,-0.111981,0.108913,-0.002590,0.6661,0.0089,-0.3919
3.5716,0.016774,-0.155939,0.155939,-0.111981,0.108913,-0.002590,0.6661,0.0089,-0.3919
3.5883,0.016746,-0.166899,0.166899,-0.131922,0.128854,-0.002591,0.6616,0.0130,-0.3857
3.6051,0.016757,-0.177866,0.177866,-0.142660,0.139592,-0.002591,0.6616,0.0130,-0.3857
3.6218,0.016744,-0.188825,0.188825,-0.148796,0.145728,-0.002591,0.6616,0.0130,-0.3857
3.6386,0.016751,-0.199789,0.199789,-0.159534,0.158000,-0.002591,0.6616,0.0130,-0.3857
3.6553,0.016742,-0.210746,0.210746,-0.177942,0.176408,-0.002591,0.6616,0.0130,-0.3857
3.6721,0.016764,-0.221718,0.221718,-0.177942,0.176408,-0.002591,0.6616,0.0130,-0.3857
3.6888,0.016749,-0.232680,0.232680,-0.197884,0.194816,-0.002591,0.6616,0.0130,-0.3857
3.7056,0.016755,-0.243647,0.243647,-0.208621,0.205553,-0.002591,0.6616,0.0130,-0.3857
3.7223,0.016741,-0.254604,0.254604,-0.213223,0.211689,-0.002591,0.6616,0.0130,-0.3857
3.7391,0.016753,-0.265568,0.265568,-0.222427,0.219359,-0.002591,0.6616,0.0130,-0.3857
3.7559,0.016840,-0.276590,0.276590,-0.222427,0.219359,-0.002591,0.6616,0.0130,-0.3857
3.7727,0.016760,-0.287560,0.287560,-0.222427,0.219359,-0.002591,0.6616,0.0130,-0.3857
3.7894,0.016741,-0.298516,0.298516,-0.262311,0.259243,-0.002591,0.6616,0.0130,-0.3857
3.8062,0.016723,-0.309462,0.309462,-0.262311,0.260777,-0.002591,0.6616,0.0130,-0.3857
3.8229,0.016747,-0.320423,0.320423,-0.263845,0.260777,-0.002591,0.6616,0.0130,-0.3857
3.8399,0.016967,-0.331528,0.331528,-0.282252,0.280718,-0.002591,0.6616,0.0130,-0.3857
3.8566,0.016770,-0.342503,0.342503,-0.282252,0.280718,-0.002591,0.6616,0.0130,-0.3857
3.8734,0.016757,-0.349066,0.349066,-0.309864,0.302194,-0.002604,0.6232,0.0481,-0.3329
3.8901,0.016725,-0.349066,0.349066,-0.331340,0.326738,-0.002590,0.6661,0.0089,-0.3919
3.9069,0.016749,-0.349066,0.349066,-0.335942,0.335942,-0.002591,0.6616,0.0130,-0.3857
3.9236,0.016751,-0.349066,0.349066,-0.337476,0.340544,-0.002591,0.6616,0.0130,-0.3857
3.9404,0.016754,-0.349066,0.349066,-0.351282,0.349748,-0.002591,0.6616,0.0130,-0.3857
3.9571,0.016748,-0.349066,0.349066,-0.351282,0.349748,-0.002591,0.6616,0.0130,-0.3857
3.9739,0.016750,-0.349066,0.349066,-0.358952,0.351282,-0.002604,0.6232,0.0481,-0.3329
3.9906,0.016743,-0.349066,0.349066,-0.352816,0.346680,-0.002590,0.6661,0.0089,-0.3919
4.0074,0.016751,-0.344244,0.344244,-0.351282,0.348214,-0.002591,0.6616,0.0130,-0.3857
4.0241,0.016749,-0.333281,0.333281,-0.352816,0.348214,-0.002591,0.6616,0.0130,-0.3857
4.0409,0.016797,-0.322288,0.322288,-0.352816,0.348214,-0.002604,0.6232,0.0481,-0.3329
4.0577,0.016745,-0.311328,0.311328,-0.352816,0.348214,-0.002604,0.6232,0.0481,-0.3329
4.0744,0.016743,-0.300370,0.300370,-0.349748,0.348214,-0.002590,0.6661,0.0089,-0.3919
4.0911,0.016742,-0.289412,0.289412,-0.345146,0.343612,-0.002591,0.6616,0.0130,-0.3857
4.1082,0.017096,-0.278223,0.278223,-0.339010,0.335942,-0.002604,0.6232,0.0481,-0.3329
4.1250,0.016740,-0.267266,0.267266,-0.325204,0.326738,-0.002590,0.6661,0.0089,-0.3919
4.1417,0.016767,-0.256292,0.256292,-0.309864,0.311398,-0.002604,0.6227,0.0486,-0.3323
4.1585,0.016743,-0.245334,0.245334,-0.309864,0.311398,-0.002604,0.6227,0.0486,-0.3323
4.1752,0.016746,-0.234374,0.234374,-0.288388,0.297592,-0.002603,0.6272,0.0444,-0.3385
4.1920,0.016742,-0.223416,0.223416,-0.274583,0.280718,-0.002590,0.6656,0.0093,-0.3913
4.2087,0.016749,-0.212454,0.212454,-0.262311,0.268447,-0.002591,0.6616,0.0129,-0.3858
4.2255,0.016746,-0.201494,0.201494,-0.250039,0.253107,-0.002591,0.6616,0.0129,-0.3858
4.2424,0.016903,-0.190430,0.190430,-0.237767,0.240835,-0.002591,0.6616,0.0129,-0.3858
4.2591,0.016747,-0.179470,0.179470,-0.237767,0.240835,-0.002591,0.6616,0.0129,-0.3858
4.2759,0.016751,-0.168506,0.168506,-0.222427,0.227029,-0.002604,0.6232,0.0481,-0.3329
4.2926,0.016746,-0.157546,0.157546,-0.207087,0.214757,-0.002590,0.6661,0.0089,-0.3919
4.3094,0.016759,-0.146577,0.146577,-0.194816,0.200951,-0.002604,0.6227,0.0486,-0.3323
4.3261,0.016770,-0.135602,0.135602,-0.181010,0.188680,-0.002603,0.6272,0.0444,-0.3385
4.3429,0.016778,-0.124620,0.124620,-0.170272,0.174874,-0.002590,0.6656,0.0093,-0.3913
4.3597,0.016743,-0.113662,0.113662,-0.170272,0.174874,-0.002590,0.6656,0.0093,-0.3913
4.3764,0.016749,-0.102700,0.102700,-0.154932,0.159534,-0.002591,0.6616,0.0129,-0.3858
4.3932,0.016742,-0.091742,0.091742,-0.141126,0.142660,-0.002591,0.6616,0.0129,-0.3858
4.4100,0.016849,-0.080715,0.080715,-0.128854,0.131922,-0.002591,0.6616,0.0129,-0.3858
4.4268,0.016748,-0.069753,0.069753,-0.116583,0.116583,-0.002604,0.6232,0.0481,-0.3329
4.4435,0.016773,-0.058776,0.058776,-0.102777,0.104311,-0.002590,0.6661,0.0089,-0.3919
4.4603,0.016751,-0.047812,0.047812,-0.102777,0.104311,-0.002590,0.6661,0.0089,-0.3919
4.4770,0.016753,-0.036847,0.036847,-0.087437,0.087437,-0.002604,0.6227,0.0486,-0.3323
4.4938,0.016750,-0.025884,0.025884,-0.073631,0.075165,-0.002603,0.6272,0.0444,-0.3385
4.5105,0.016764,-0.014912,0.014912,-0.061359,0.061359,-0.002590,0.6656,0.0093,-0.3913
4.5273,0.016752,-0.003949,0.003949,-0.047553,0.049087,-0.002604,0.6228,0.0485,-0.3324
4.5441,0.016777,0.000000,0.000000,-0.032214,0.035282,-0.002604,0.6228,0.0485,-0.3324
4.5608,0.016738,0.000000,0.000000,-0.032214,0.035282,-0.002603,0.6272,0.0444,-0.3385
4.5776,0.016753,0.000000,0.000000,-0.016874,0.021476,-0.002590,0.6656,0.0093,-0.3913
4.5943,0.016748,0.000000,0.000000,-0.004602,0.009204,-0.002591,0.6616,0.0129,-0.3858
4.6111,0.016769,0.000000,0.000000,0.004602,-0.001534,-0.002591,0.6616,0.0129,-0.3858
4.6278,0.016751,0.000000,0.000000,0.003068,-0.003068,-0.002591,0.6616,0.0129,-0.3858
4.6446,0.016773,0.000000,0.000000,-0.004602,0.001534,-0.002591,0.6616,0.0129,-0.3858
4.6614,0.016747,0.000000,0.000000,-0.004602,0.001534,-0.002591,0.6616,0.0129,-0.3858
4.6781,0.016785,-0.007510,0.007510,0.000000,0.001534,-0.002591,0.6616,0.0129,-0.3858
4.6949,0.016754,-0.018476,0.018476,0.004602,-0.001534,-0.002604,0.6232,0.0481,-0.3329
4.7117,0.016777,-0.029456,0.029456,0.001534,-0.001534,-0.002590,0.6661,0.0089,-0.3919
4.7284,0.016759,-0.040425,0.040425,-0.004602,0.004602,-0.002591,0.6616,0.0130,-0.3857
4.7452,0.016777,-0.051405,0.051405,-0.004602,0.004602,-0.002591,0.6616,0.0130,-0.3857
4.7620,0.016759,-0.062374,0.062374,-0.010738,0.007670,-0.002604,0.6232,0.0481,-0.3329
4.7789,0.016891,-0.073429,0.073429,-0.029146,0.030680,-0.002590,0.6661,0.0089,-0.3919
4.7957,0.016839,-0.084450,0.084450,-0.029146,0.030680,-0.002590,0.6661,0.0089,-0.3919
4.8125,0.016779,-0.095431,0.095431,-0.029146,0.030680,-0.002590,0.6661,0.0089,-0.3919
4.8292,0.016759,-0.106400,0.106400,-0.058291,0.053689,-0.002591,0.6616,0.0130,-0.3857
4.8462,0.016958,-0.117499,0.117499,-0.055223,0.050621,-0.002604,0.6232,0.0481,-0.3329
4.8629,0.016752,-0.128464,0.128464,-0.052155,0.050621,-0.002603,0.6272,0.0445,-0.3384
4.8797,0.016781,-0.139447,0.139447,-0.052155,0.050621,-0.002603,0.6272,0.0445,-0.3384
4.8965,0.016775,-0.150426,0.150426,-0.070563,0.070563,-0.002590,0.6656,0.0093,-0.3913
4.9133,0.016774,-0.161404,0.161404,-0.105845,0.108913,-0.002604,0.6228,0.0485,-0.3324
4.9300,0.016753,-0.172369,0.172369,-0.133456,0.133456,-0.002603,0.6272,0.0444,-0.3385
4.9468,0.016752,-0.183333,0.183333,-0.151864,0.148796,-0.002603,0.6272,0.0444,-0.3385
4.9635,0.016764,-0.194305,0.194305,-0.165670,0.159534,-0.002603,0.6272,0.0444,-0.3385
4.9803,0.016762,-0.205276,0.205276,-0.165670,0.159534,-0.002590,0.6656,0.0093,-0.3913
4.9971,0.016747,-0.216236,0.216236,-0.176408,0.174874,-0.002604,0.6228,0.0485,-0.3324
5.0138,0.016754,-0.227202,0.227202,-0.182544,0.182544,-0.002590,0.6661,0.0088,-0.3919
5.0306,0.016766,-0.238175,0.238175,-0.194816,0.188680,-0.002604,0.6227,0.0486,-0.3323
5.0475,0.016935,-0.249259,0.249259,-0.208621,0.199418,-0.002590,0.6661,0.0088,-0.3919
5.0645,0.016960,-0.260359,0.260359,-0.225495,0.220893,-0.002591,0.6616,0.0130,-0.3857
5.0813,0.016796,-0.271352,0.271352,-0.225495,0.220893,-0.002591,0.6616,0.0130,-0.3857
5.0980,0.016749,-0.282315,0.282315,-0.243903,0.240835,-0.002604,0.6232,0.0481,-0.3329
5.1148,0.016757,-0.293282,0.293282,-0.250039,0.251573,-0.002590,0.6661,0.0089,-0.3919
5.1316,0.016881,-0.304330,0.304330,-0.251573,0.256175,-0.002591,0.6616,0.0130,-0.3857
5.1486,0.016921,-0.315405,0.315405,-0.262311,0.268447,-0.002591,0.6616,0.0130,-0.3857
5.1653,0.016765,-0.326378,0.326378,-0.283786,0.286854,-0.002591,0.6616,0.0130,-0.3857
5.1822,0.016816,-0.337384,0.337384,-0.283786,0.286854,-0.002591,0.6616,0.0130,-0.3857
5.1989,0.016750,-0.348347,0.348347,-0.309864,0.306796,-0.002604,0.6232,0.0481,-0.3329
5.2156,0.016729,-0.349066,0.349066,-0.322136,0.319068,-0.002603,0.6272,0.0445,-0.3384
5.2324,0.016766,-0.349066,0.349066,-0.326738,0.320602,-0.002590,0.6656,0.0093,-0.3913
5.2491,0.016752,-0.349066,0.349066,-0.329806,0.325204,-0.002604,0.6228,0.0485,-0.3324
5.2661,0.016943,-0.349066,0.349066,-0.351282,0.349748,-0.002604,0.6228,0.0485,-0.3324
5.2829,0.016766,-0.349066,0.349066,-0.351282,0.349748,-0.002590,0.6661,0.0088,-0.3919
5.2996,0.016751,-0.349066,0.349066,-0.358952,0.354350,-0.002591,0.6616,0.0130,-0.3857
5.3164,0.016758,-0.349066,0.349066,-0.354350,0.349748,-0.002591,0.6616,0.0130,-0.3857
5.3331,0.016750,-0.349066,0.349066,-0.349748,0.348214,-0.002591,0.6616,0.0130,-0.3857
5.3499,0.016755,-0.338241,0.338241,-0.351282,0.349748,-0.002591,0.6616,0.0130,-0.3857
5.3666,0.016755,-0.327276,0.327276,-0.351282,0.348214,-0.002591,0.6616,0.0130,-0.3857
5.3834,0.016755,-0.316310,0.316310,-0.351282,0.348214,-0.002591,0.6616,0.0130,-0.3857
5.4001,0.016760,-0.305340,0.305340,-0.352816,0.348214,-0.002592,0.6732,0.0325,-0.2794
5.4169,0.016778,-0.294359,0.294359,-0.351282,0.348214,-0.002604,0.6220,0.0461,-0.3440
5.4337,0.016753,-0.283394,0.283394,-0.345146,0.343612,-0.002603,0.6273,0.0447,-0.3373
5.4504,0.016770,-0.272419,0.272419,-0.323670,0.323670,-0.002590,0.6656,0.0092,-0.3914
5.4672,0.016771,-0.261442,0.261442,-0.305262,0.308330,-0.002604,0.6228,0.0485,-0.3324
5.4840,0.016755,-0.250476,0.250476,-0.305262,0.308330,-0.002604,0.6228,0.0485,-0.3324
5.5007,0.016750,-0.239513,0.239513,-0.285320,0.291456,-0.002590,0.6661,0.0088,-0.3919
5.5175,0.016752,-0.228549,0.228549,-0.271515,0.277651,-0.002591,0.6616,0.0130,-0.3857
5.5342,0.016751,-0.217586,0.217586,-0.257709,0.263845,-0.002591,0.6616,0.0130,-0.3857
5.5510,0.016754,-0.206620,0.206620,-0.245437,0.250039,-0.002591,0.6616,0.0130,-0.3857
5.5679,0.016904,-0.195557,0.195557,-0.245437,0.250039,-0.002591,0.6616,0.0130,-0.3857
5.5846,0.016755,-0.184590,0.184590,-0.230097,0.234699,-0.002591,0.6616,0.0130,-0.3857
5.6014,0.016757,-0.173623,0.173623,-0.214757,0.222427,-0.002604,0.6232,0.0481,-0.3329
5.6181,0.016754,-0.162658,0.162658,-0.202485,0.210155,-0.002590,0.6661,0.0089,-0.3919
5.6350,0.016840,-0.151636,0.151636,-0.191748,0.199418,-0.002604,0.6227,0.0486,-0.3323
5.6517,0.016761,-0.140666,0.140666,-0.177942,0.184078,-0.002603,0.6272,0.0444,-0.3385
5.6685,0.016764,-0.129694,0.129694,-0.177942,0.184078,-0.002603,0.6272,0.0444,-0.3385
5.6852,0.016707,-0.118759,0.118759,-0.162602,0.168738,-0.002590,0.6656,0.0093,-0.3913
5.7020,0.016757,-0.107791,0.107791,-0.148796,0.153398,-0.002591,0.6616,0.0129,-0.3858
5.7187,0.016757,-0.096824,0.096824,-0.139592,0.141126,-0.002591,0.6616,0.0129,-0.3858
5.7355,0.016773,-0.085846,0.085846,-0.127320,0.128854,-0.002591,0.6616,0.0129,-0.3858
5.7523,0.016755,-0.074879,0.074879,-0.111981,0.113515,-0.002591,0.6616,0.0129,-0.3858
5.7690,0.016760,-0.063910,0.063910,-0.111981,0.113515,-0.002591,0.6616,0.0129,-0.3858
5.7858,0.016756,-0.052943,0.052943,-0.096641,0.099709,-0.002591,0.6616,0.0129,-0.3858
5.8025,0.016764,-0.041972,0.041972,-0.082835,0.085903,-0.002591,0.6616,0.0129,-0.3858
5.8194,0.016829,-0.030957,0.030957,-0.069029,0.070563,-0.002604,0.6232,0.0481,-0.3329
5.8362,0.016811,-0.019955,0.019955,-0.069029,0.070563,-0.002604,0.6232,0.0481,-0.3329
5.8530,0.016775,-0.008976,0.008976,-0.069029,0.070563,-0.002604,0.6232,0.0481,-0.3329
5.8697,0.016767,0.000000,0.000000,-0.044485,0.046019,-0.002590,0.6661,0.0089,-0.3919
5.8865,0.016754,0.000000,0.000000,-0.035282,0.038350,-0.002604,0.6227,0.0486,-0.3323
5.9032,0.016768,0.000000,0.000000,-0.030680,0.030680,-0.002590,0.6661,0.0088,-0.3919
5.9200,0.016757,0.000000,0.000000,-0.018408,0.018408,-0.002591,0.6616,0.0130,-0.3857
5.9368,0.016779,0.000000,0.000000,0.001534,0.001534,-0.002591,0.6616,0.0130,-0.3857
5.9535,0.016757,0.000000,0.000000,0.001534,0.001534,-0.002604,0.6232,0.0481,-0.3329
5.9703,0.016766,0.000000,0.000000,0.007670,-0.004602,-0.002590,0.6661,0.0089,-0.3919
5.9871,0.016756,0.000000,0.000000,0.001534,-0.003068,-0.002591,0.6616,0.0130,-0.3857
6.0038,0.016765,-0.002502,0.002502,-0.003068,0.001534,-0.002591,0.6616,0.0130,-0.3857
6.0206,0.016756,-0.013469,0.013469,0.001534,0.000000,-0.002591,0.6616,0.0130,-0.3857
6.0374,0.016785,-0.024455,0.024455,0.001534,0.000000,-0.002591,0.6616,0.0130,-0.3857
6.0541,0.016761,-0.035425,0.035425,0.004602,-0.001534,-0.002591,0.6616,0.0130,-0.3857
6.0737,0.019529,-0.048206,0.048206,0.000000,0.003068,-0.002591,0.6616,0.0130,-0.3857
6.0904,0.016746,-0.059166,0.059166,-0.007670,0.010738,-0.002591,0.6616,0.0130,-0.3857
6.1072,0.016763,-0.070138,0.070138,-0.019942,0.019942,-0.002591,0.6616,0.0130,-0.3857
6.1239,0.016755,-0.081104,0.081104,-0.036816,0.032214,-0.002591,0.6616,0.0130,-0.3857
6.1408,0.016909,-0.092171,0.092171,-0.055223,0.052155,-0.002591,0.6616,0.0130,-0.3857
6.1576,0.016752,-0.103135,0.103135,-0.055223,0.052155,-0.002591,0.6616,0.0130,-0.3857
6.1743,0.016758,-0.114103,0.114103,-0.073631,0.072097,-0.002591,0.6616,0.0130,-0.3857
6.1911,0.016755,-0.125069,0.125069,-0.085903,0.082835,-0.002604,0.6232,0.0481,-0.3329
6.2079,0.016763,-0.136040,0.136040,-0.087437,0.087437,-0.002590,0.6661,0.0089,-0.3919
6.2246,0.016777,-0.147021,0.147021,-0.093573,0.099709,-0.002591,0.6616,0.0130,-0.3857
6.2414,0.016773,-0.157999,0.157999,-0.113515,0.119651,-0.002591,0.6616,0.0130,-0.3857
6.2582,0.016754,-0.168964,0.168964,-0.113515,0.119651,-0.002591,0.6616,0.0130,-0.3857
6.2749,0.016756,-0.179931,0.179931,-0.136524,0.138058,-0.002591,0.6616,0.0130,-0.3857
6.2917,0.016766,-0.190904,0.190904,-0.153398,0.145728,-0.002591,0.6616,0.0130,-0.3857
6.3085,0.016809,-0.201906,0.201906,-0.161068,0.154932,-0.002591,0.6616,0.0130,-0.3857
6.3253,0.016781,-0.212889,0.212889,-0.165670,0.165670,-0.002591,0.6616,0.0130,-0.3857
6.3420,0.016774,-0.223867,0.223867,-0.177942,0.184078,-0.002604,0.6232,0.0481,-0.3329
6.3589,0.016807,-0.234868,0.234868,-0.177942,0.184078,-0.002604,0.6232,0.0481,-0.3329
6.3756,0.016759,-0.245837,0.245837,-0.197884,0.202485,-0.002590,0.6661,0.0089,-0.3919
6.3924,0.016756,-0.256804,0.256804,-0.220893,0.214757,-0.002591,0.6616,0.0130,-0.3857
6.4091,0.016753,-0.267768,0.267768,-0.227029,0.219359,-0.002591,0.6616,0.0130,-0.3857
6.4263,0.017151,-0.278993,0.278993,-0.234699,0.228563,-0.002591,0.6616,0.0130,-0.3857
6.4437,0.017396,-0.290379,0.290379,-0.234699,0.228563,-0.002591,0.6616,0.0130,-0.3857
6.4604,0.016759,-0.301348,0.301348,-0.256175,0.253107,-0.002591,0.6616,0.0130,-0.3857
6.4772,0.016755,-0.312314,0.312314,-0.271515,0.269981,-0.002604,0.6232,0.0481,-0.3329
6.4939,0.016769,-0.323289,0.323289,-0.280718,0.282252,-0.002590,0.6661,0.0089,-0.3919
6.5107,0.016752,-0.334254,0.334254,-0.297592,0.297592,-0.002591,0.6616,0.0130,-0.3857
6.5276,0.016868,-0.345294,0.345294,-0.322136,0.316000,-0.002604,0.6232,0.0481,-0.3329
6.5443,0.016754,-0.349066,0.349066,-0.322136,0.316000,-0.002604,0.6232,0.0481,-0.3329
6.5611,0.016759,-0.349066,0.349066,-0.339010,0.334408,-0.002590,0.6661,0.0089,-0.3919
6.5778,0.016753,-0.349066,0.349066,-0.345146,0.345146,-0.002604,0.6227,0.0486,-0.3323
6.5948,0.016989,-0.349066,0.349066,-0.351282,0.346680,-0.002590,0.6661,0.0088,-0.3919
6.6116,0.016755,-0.349066,0.349066,-0.355884,0.346680,-0.002591,0.6616,0.0130,-0.3857
6.6284,0.016857,-0.349066,0.349066,-0.352816,0.346680,-0.002591,0.6616,0.0130,-0.3857
6.6452,0.016760,-0.349066,0.349066,-0.352816,0.346680,-0.002591,0.6616,0.0130,-0.3857
6.6620,0.016759,-0.349066,0.349066,-0.351282,0.346680,-0.002604,0.6232,0.0481,-0.3329
6.6787,0.016751,-0.341186,0.341186,-0.352816,0.346680,-0.002590,0.6661,0.0089,-0.3919
6.6955,0.016773,-0.330207,0.330207,-0.352816,0.346680,-0.002591,0.6616,0.0130,-0.3857
6.7122,0.016761,-0.319238,0.319238,-0.351282,0.345146,-0.002604,0.6232,0.0481,-0.3329
6.7296,0.017311,-0.307907,0.307907,-0.349748,0.340544,-0.002590,0.6661,0.0089,-0.3919
6.7463,0.016767,-0.296934,0.296934,-0.349748,0.340544,-0.002590,0.6661,0.0089,-0.3919
6.7631,0.016764,-0.285962,0.285962,-0.342078,0.334408,-0.002591,0.6616,0.0130,-0.3857
6.7798,0.016760,-0.274992,0.274992,-0.331340,0.329806,-0.002591,0.6616,0.0130,-0.3857
6.7966,0.016758,-0.264024,0.264024,-0.317534,0.319068,-0.002591,0.6616,0.0130,-0.3857
6.8134,0.016753,-0.253059,0.253059,-0.299126,0.303728,-0.002591,0.6616,0.0130,-0.3857
6.8302,0.016875,-0.242014,0.242014,-0.280718,0.286854,-0.002591,0.6616,0.0130,-0.3857
6.8470,0.016748,-0.231053,0.231053,-0.280718,0.286854,-0.002604,0.6232,0.0481,-0.3329
6.8638,0.016833,-0.220036,0.220036,-0.265379,0.273049,-0.002590,0.6661,0.0089,-0.3919
6.8806,0.016757,-0.209068,0.209068,-0.265379,0.273049,-0.002590,0.6661,0.0089,-0.3919
6.8974,0.016787,-0.198081,0.198081,-0.265379,0.273049,-0.002590,0.6661,0.0089,-0.3919
6.9141,0.016781,-0.187098,0.187098,-0.242369,0.246971,-0.002604,0.6227,0.0486,-0.3323
6.9309,0.016753,-0.176134,0.176134,-0.239301,0.239301,-0.002590,0.6661,0.0088,-0.3919
6.9477,0.016766,-0.165160,0.165160,-0.234699,0.230097,-0.002591,0.6616,0.0130,-0.3857
6.9644,0.016776,-0.154181,0.154181,-0.219359,0.216291,-0.002604,0.6232,0.0481,-0.3329
6.9812,0.016816,-0.143175,0.143175,-0.194816,0.196350,-0.002590,0.6661,0.0089,-0.3919
6.9980,0.016763,-0.132204,0.132204,-0.194816,0.196350,-0.002590,0.6661,0.0089,-0.3919
7.0148,0.016760,-0.121235,0.121235,-0.174874,0.179476,-0.002591,0.6616,0.0130,-0.3857
7.0315,0.016750,-0.110272,0.110272,-0.154932,0.161068,-0.002604,0.6232,0.0481,-0.3329
7.0483,0.016762,-0.099301,0.099301,-0.142660,0.145728,-0.002603,0.6272,0.0445,-0.3384
7.0650,0.016751,-0.088337,0.088337,-0.133456,0.134990,-0.002590,0.6656,0.0093,-0.3913
7.0818,0.016784,-0.077352,0.077352,-0.122718,0.119651,-0.002591,0.6616,0.0129,-0.3858
7.0986,0.016750,-0.066390,0.066390,-0.122718,0.119651,-0.002591,0.6616,0.0129,-0.3858
7.1153,0.016762,-0.055419,0.055419,-0.105845,0.104311,-0.002591,0.6616,0.0129,-0.3858
7.1321,0.016751,-0.044456,0.044456,-0.092039,0.093573,-0.002604,0.6232,0.0481,-0.3329
7.1488,0.016764,-0.033484,0.033484,-0.079767,0.081301,-0.002590,0.6661,0.0089,-0.3919
7.1656,0.016757,-0.022516,0.022516,-0.067495,0.069029,-0.002591,0.6616,0.0130,-0.3857
7.1824,0.016775,-0.011537,0.011537,-0.050621,0.055223,-0.002591,0.6616,0.0130,-0.3857
7.1991,0.016750,-0.000575,0.000575,-0.050621,0.055223,-0.002591,0.6616,0.0130,-0.3857
7.2159,0.016751,0.000000,0.000000,-0.035282,0.038350,-0.002604,0.6232,0.0481,-0.3329
7.2326,0.016747,0.000000,0.000000,-0.019942,0.026078,-0.002590,0.6661,0.0089,-0.3919
7.2496,0.016982,0.000000,0.000000,-0.010738,0.013806,-0.002591,0.6616,0.0130,-0.3857
7.2664,0.016756,0.000000,0.000000,-0.006136,0.003068,-0.002591,0.6616,0.0130,-0.3857
7.2831,0.016779,0.000000,0.000000,0.001534,-0.003068,-0.002591,0.6616,0.0130,-0.3857
7.2999,0.016745,0.000000,0.000000,0.001534,-0.003068,-0.002591,0.6616,0.0130,-0.3857
7.3166,0.016760,0.000000,0.000000,0.003068,-0.001534,-0.002591,0.6616,0.0130,-0.3857
7.3334,0.016761,-0.000045,0.000045,-0.001534,0.001534,-0.002604,0.6232,0.0481,-0.3329
7.3502,0.016830,-0.011060,0.011060,-0.003068,0.000000,-0.002603,0.6272,0.0445,-0.3384
7.3674,0.017208,-0.022322,0.022322,0.003068,-0.001534,-0.002590,0.6656,0.0093,-0.3913
7.3842,0.016781,-0.033305,0.033305,0.003068,-0.001534,-0.002590,0.6656,0.0093,-0.3913
7.4010,0.016761,-0.044275,0.044275,0.003068,0.000000,-0.002591,0.6616,0.0129,-0.3858
7.4177,0.016765,-0.055248,0.055248,-0.015340,0.012272,-0.002591,0.6616,0.0129,-0.3858
7.4345,0.016770,-0.066224,0.066224,-0.027612,0.026078,-0.002591,0.6616,0.0129,-0.3858
7.4513,0.016759,-0.077193,0.077193,-0.046019,0.042951,-0.002580,0.7120,-0.0031,-0.3328
7.4680,0.016758,-0.088161,0.088161,-0.046019,0.042951,-0.002580,0.7120,-0.0031,-0.3328
7.4848,0.016765,-0.099134,0.099134,-0.065961,0.061359,-0.002592,0.6568,0.0142,-0.3919
7.5016,0.016756,-0.110101,0.110101,-0.078233,0.076699,-0.002604,0.6237,0.0480,-0.3323
7.5186,0.017008,-0.121233,0.121233,-0.082835,0.081301,-0.002590,0.6660,0.0089,-0.3919
7.5353,0.016766,-0.132206,0.132206,-0.085903,0.087437,-0.002591,0.6616,0.0130,-0.3857
7.5521,0.016749,-0.143169,0.143169,-0.102777,0.105845,-0.002591,0.6616,0.0130,-0.3857
7.5688,0.016768,-0.154143,0.154143,-0.102777,0.105845,-0.002591,0.6616,0.0130,-0.3857
7.5856,0.016752,-0.165107,0.165107,-0.119651,0.122718,-0.002591,0.6616,0.0130,-0.3857
7.6024,0.016764,-0.176079,0.176079,-0.141126,0.141126,-0.002604,0.6232,0.0481,-0.3329
7.6191,0.016756,-0.187046,0.187046,-0.156466,0.150330,-0.002590,0.6661,0.0089,-0.3919
7.6359,0.016765,-0.198019,0.198019,-0.162602,0.156466,-0.002591,0.6616,0.0130,-0.3857
7.6526,0.016762,-0.208990,0.208990,-0.168738,0.165670,-0.002591,0.6616,0.0130,-0.3857
7.6694,0.016802,-0.219987,0.219987,-0.168738,0.165670,-0.002591,0.6616,0.0130,-0.3857
7.6862,0.016757,-0.230954,0.230954,-0.185612,0.185612,-0.002604,0.6232,0.0481,-0.3329
7.7030,0.016769,-0.241930,0.241930,-0.207087,0.207087,-0.002603,0.6272,0.0445,-0.3384
7.7198,0.016783,-0.252914,0.252914,-0.220893,0.216291,-0.002590,0.6656,0.0093,-0.3913
7.7366,0.016842,-0.263937,0.263937,-0.231631,0.225495,-0.002591,0.6616,0.0129,-0.3858
7.7536,0.016960,-0.275037,0.275037,-0.248505,0.245437,-0.002591,0.6616,0.0129,-0.3858
7.7703,0.016765,-0.286010,0.286010,-0.248505,0.245437,-0.002591,0.6616,0.0129,-0.3858
7.7871,0.016753,-0.296975,0.296975,-0.262311,0.262311,-0.002591,0.6616,0.0129,-0.3858
7.8038,0.016766,-0.307948,0.307948,-0.269981,0.271515,-0.002591,0.6616,0.0129,-0.3858
7.8206,0.016716,-0.318889,0.318889,-0.277651,0.277651,-0.002591,0.6616,0.0129,-0.3858
7.8373,0.016763,-0.329860,0.329860,-0.289922,0.291456,-0.002591,0.6616,0.0129,-0.3858
7.8543,0.016982,-0.340975,0.340975,-0.314466,0.311398,-0.002591,0.6616,0.0129,-0.3858
7.8711,0.016767,-0.349066,0.349066,-0.314466,0.311398,-0.002591,0.6616,0.0129,-0.3858
7.8878,0.016765,-0.349066,0.349066,-0.331340,0.325204,-0.002591,0.6616,0.0129,-0.3858
7.9046,0.016797,-0.349066,0.349066,-0.331340,0.325204,-0.002591,0.6616,0.0129,-0.3858
7.9214,0.016768,-0.349066,0.349066,-0.331340,0.325204,-0.002591,0.6616,0.0129,-0.3858
7.9382,0.016762,-0.349066,0.349066,-0.331340,0.325204,-0.002591,0.6616,0.0129,-0.3858
7.9549,0.016729,-0.349066,0.349066,-0.346680,0.342078,-0.002591,0.6616,0.0129,-0.3858
7.9717,0.016764,-0.349066,0.349066,-0.345146,0.340544,-0.002604,0.6232,0.0481,-0.3329
7.9884,0.016750,-0.349066,0.349066,-0.348214,0.348214,-0.002590,0.6661,0.0089,-0.3919
8.0052,0.016820,-0.345645,0.345645,-0.355884,0.349748,-0.002604,0.6227,0.0486,-0.3323
8.0220,0.016745,-0.334686,0.334686,-0.354350,0.348214,-0.002590,0.6661,0.0088,-0.3919
8.0387,0.016752,-0.323722,0.323722,-0.351282,0.348214,-0.002591,0.6616,0.0130,-0.3857
8.0569,0.018180,-0.311823,0.311823,-0.351282,0.348214,-0.002591,0.6616,0.0130,-0.3857
8.0736,0.016740,-0.300867,0.300867,-0.351282,0.348214,-0.002591,0.6616,0.0130,-0.3857
8.0905,0.016832,-0.289850,0.289850,-0.346680,0.342078,-0.002591,0.6616,0.0130,-0.3857
8.1073,0.016808,-0.278849,0.278849,-0.340544,0.337476,-0.002604,0.6232,0.0481,-0.3329
8.1240,0.016745,-0.267890,0.267890,-0.326738,0.326738,-0.002590,0.6661,0.0089,-0.3919
8.1412,0.017193,-0.256637,0.256637,-0.308330,0.311398,-0.002591,0.6616,0.0130,-0.3857
8.1580,0.016749,-0.245675,0.245675,-0.308330,0.311398,-0.002591,0.6616,0.0130,-0.3857
8.1747,0.016749,-0.234712,0.234712,-0.288388,0.294524,-0.002591,0.6616,0.0130,-0.3857
8.1915,0.016779,-0.223731,0.223731,-0.274583,0.280718,-0.002591,0.6616,0.0130,-0.3857
8.2083,0.016754,-0.212765,0.212765,-0.260777,0.266913,-0.002604,0.6232,0.0481,-0.3329
8.2250,0.016753,-0.201800,0.201800,-0.251573,0.254641,-0.002590,0.6661,0.0089,-0.3919
8.2418,0.016774,-0.190822,0.190822,-0.236233,0.242369,-0.002590,0.6661,0.0089,-0.3919
8.2585,0.016747,-0.179861,0.179861,-0.236233,0.242369,-0.002591,0.6616,0.0130,-0.3857
8.2753,0.016746,-0.168900,0.168900,-0.220893,0.225495,-0.002591,0.6616,0.0130,-0.3857
8.2920,0.016743,-0.157942,0.157942,-0.205553,0.213223,-0.002604,0.6232,0.0481,-0.3329
8.3088,0.016768,-0.146967,0.146967,-0.196350,0.202485,-0.002590,0.6661,0.0089,-0.3919
8.3255,0.016752,-0.136003,0.136003,-0.181010,0.188680,-0.002591,0.6616,0.0130,-0.3857
8.3423,0.016770,-0.125027,0.125027,-0.170272,0.174874,-0.002604,0.6232,0.0481,-0.3329
8.3591,0.016747,-0.114066,0.114066,-0.170272,0.174874,-0.002604,0.6232,0.0481,-0.3329
8.3758,0.016752,-0.103102,0.103102,-0.156466,0.159534,-0.002590,0.6661,0.0089,-0.3919
8.3925,0.016744,-0.092143,0.092143,-0.142660,0.144194,-0.002591,0.6616,0.0130,-0.3857
8.4094,0.016865,-0.081105,0.081105,-0.128854,0.130388,-0.002591,0.6616,0.0130,-0.3857
8.4262,0.016743,-0.070146,0.070146,-0.116583,0.116583,-0.002591,0.6616,0.0130,-0.3857
8.4429,0.016780,-0.059163,0.059163,-0.102777,0.102777,-0.002591,0.6616,0.0130,-0.3857
8.4597,0.016740,-0.048207,0.048207,-0.102777,0.102777,-0.002591,0.6616,0.0130,-0.3857
8.4764,0.016748,-0.037246,0.037246,-0.087437,0.088971,-0.002604,0.6232,0.0481,-0.3329
8.4932,0.016746,-0.026286,0.026286,-0.072097,0.073631,-0.002590,0.6661,0.0089,-0.3919
8.5103,0.017099,-0.015094,0.015094,-0.061359,0.061359,-0.002591,0.6616,0.0130,-0.3857
8.5270,0.016751,-0.004131,0.004131,-0.049087,0.050621,-0.002591,0.6616,0.0130,-0.3857
8.5438,0.016777,0.000000,0.000000,-0.035282,0.036816,-0.002591,0.6616,0.0130,-0.3857
8.5605,0.016746,0.000000,0.000000,-0.035282,0.036816,-0.002591,0.6616,0.0130,-0.3857
8.5773,0.016745,0.000000,0.000000,-0.018408,0.023010,-0.002591,0.6616,0.0130,-0.3857
8.5940,0.016746,0.000000,0.000000,-0.003068,0.007670,-0.002604,0.6232,0.0481,-0.3329
8.6108,0.016755,0.000000,0.000000,0.006136,-0.001534,-0.002603,0.6272,0.0445,-0.3384
8.6275,0.016750,0.000000,0.000000,0.004602,-0.003068,-0.002603,0.6272,0.0445,-0.3384
8.6443,0.016762,0.000000,0.000000,-0.004602,0.000000,-0.002603,0.6272,0.0445,-0.3384
8.6611,0.016748,0.000000,0.000000,-0.004602,0.000000,-0.002603,0.6272,0.0445,-0.3384
8.6778,0.016747,-0.007285,0.007285,-0.001534,0.001534,-0.002590,0.6656,0.0093,-0.3913
8.6945,0.016741,-0.018242,0.018242,0.004602,-0.001534,-0.002591,0.6616,0.0129,-0.3858
8.7113,0.016753,-0.029207,0.029207,0.003068,-0.001534,-0.002591,0.6616,0.0129,-0.3858
8.7280,0.016743,-0.040165,0.040165,-0.006136,0.004602,-0.002591,0.6616,0.0129,-0.3858
8.7448,0.016758,-0.051133,0.051133,-0.006136,0.004602,-0.002591,0.6616,0.0129,-0.3858
8.7615,0.016754,-0.062099,0.062099,-0.010738,0.009204,-0.002591,0.6616,0.0129,-0.3858
8.7783,0.016745,-0.073058,0.073058,-0.015340,0.016874,-0.002591,0.6616,0.0129,-0.3858
8.7950,0.016749,-0.084021,0.084021,-0.029146,0.029146,-0.002591,0.6616,0.0129,-0.3858
8.8118,0.016745,-0.094980,0.094980,-0.049087,0.046019,-0.002591,0.6616,0.0129,-0.3858
8.8285,0.016744,-0.105940,0.105940,-0.062893,0.059825,-0.002591,0.6616,0.0129,-0.3858
8.8453,0.016752,-0.116904,0.116904,-0.076699,0.076699,-0.002591,0.6616,0.0129,-0.3858
8.8620,0.016745,-0.127864,0.127864,-0.076699,0.076699,-0.002591,0.6616,0.0129,-0.3858
8.8788,0.016740,-0.138820,0.138820,-0.107379,0.101243,-0.002591,0.6616,0.0129,-0.3858
8.8955,0.016743,-0.149779,0.149779,-0.116583,0.108913,-0.002591,0.6616,0.0129,-0.3858
8.9129,0.017354,-0.161137,0.161137,-0.124252,0.122718,-0.002604,0.6232,0.0481,-0.3329
8.9296,0.016745,-0.172096,0.172096,-0.142660,0.144194,-0.002590,0.6661,0.0089,-0.3919
8.9464,0.016823,-0.183107,0.183107,-0.142660,0.144194,-0.002590,0.6661,0.0089,-0.3919
8.9632,0.016749,-0.194069,0.194069,-0.142660,0.144194,-0.002590,0.6661,0.0089,-0.3919
8.9799,0.016742,-0.205027,0.205027,-0.168738,0.164136,-0.002604,0.6227,0.0486,-0.3323
8.9969,0.016950,-0.216121,0.216121,-0.165670,0.162602,-0.002590,0.6661,0.0088,-0.3919
9.0136,0.016747,-0.227081,0.227081,-0.167204,0.168738,-0.002591,0.6616,0.0130,-0.3857
9.0304,0.016748,-0.238043,0.238043,-0.188680,0.193282,-0.002591,0.6616,0.0130,-0.3857
9.0471,0.016742,-0.249000,0.249000,-0.188680,0.193282,-0.002591,0.6616,0.0130,-0.3857
9.0639,0.016748,-0.259962,0.259962,-0.216291,0.219359,-0.002591,0.6616,0.0130,-0.3857
9.0806,0.016742,-0.270920,0.270920,-0.242369,0.239301,-0.002591,0.6616,0.0130,-0.3857
9.0974,0.016815,-0.281925,0.281925,-0.250039,0.243903,-0.002591,0.6616,0.0130,-0.3857
9.1142,0.016748,-0.292887,0.292887,-0.254641,0.251573,-0.002591,0.6616,0.0130,-0.3857
9.1310,0.016838,-0.303907,0.303907,-0.254641,0.251573,-0.002591,0.6616,0.0130,-0.3857
9.1477,0.016744,-0.314866,0.314866,-0.271515,0.269981,-0.002591,0.6616,0.0130,-0.3857
9.1645,0.016745,-0.325826,0.325826,-0.289922,0.291456,-0.002604,0.6232,0.0481,-0.3329
9.1812,0.016743,-0.336784,0.336784,-0.303728,0.299126,-0.002590,0.6661,0.0089,-0.3919
9.1980,0.016761,-0.347754,0.347754,-0.314466,0.308330,-0.002591,0.6616,0.0130,-0.3857
9.2147,0.016746,-0.349066,0.349066,-0.332874,0.328272,-0.002591,0.6616,0.0130,-0.3857
9.2315,0.016762,-0.349066,0.349066,-0.332874,0.328272,-0.002591,0.6616,0.0130,-0.3857
9.2482,0.016744,-0.349066,0.349066,-0.348214,0.345146,-0.002604,0.6232,0.0481,-0.3329
9.2650,0.016747,-0.349066,0.349066,-0.354350,0.349748,-0.002590,0.6661,0.0089,-0.3919
9.2817,0.016741,-0.349066,0.349066,-0.352816,0.349748,-0.002591,0.6616,0.0130,-0.3857
9.2987,0.016938,-0.349066,0.349066,-0.351282,0.349748,-0.002591,0.6616,0.0130,-0.3857
9.3154,0.016747,-0.349066,0.349066,-0.351282,0.348214,-0.002604,0.6232,0.0481,-0.3329
9.3322,0.016755,-0.349066,0.349066,-0.351282,0.348214,-0.002604,0.6232,0.0481,-0.3329
9.3489,0.016741,-0.338866,0.338866,-0.351282,0.348214,-0.002590,0.6661,0.0089,-0.3919
9.3657,0.016756,-0.327900,0.327900,-0.351282,0.348214,-0.002591,0.6616,0.0130,-0.3857
9.3824,0.016722,-0.316955,0.316955,-0.351282,0.348214,-0.002591,0.6616,0.0130,-0.3857
9.3991,0.016743,-0.305997,0.305997,-0.348214,0.345146,-0.002591,0.6616,0.0130,-0.3857
9.4159,0.016746,-0.295037,0.295037,-0.340544,0.339010,-0.002591,0.6616,0.0130,-0.3857
9.4328,0.016885,-0.283985,0.283985,-0.340544,0.339010,-0.002591,0.6616,0.0130,-0.3857
9.4495,0.016747,-0.273024,0.273024,-0.329806,0.329806,-0.002604,0.6232,0.0481,-0.3329
9.4663,0.016760,-0.262055,0.262055,-0.316000,0.319068,-0.002603,0.6272,0.0445,-0.3384
9.4830,0.016746,-0.251095,0.251095,-0.302194,0.306796,-0.002603,0.6272,0.0445,-0.3384
9.4998,0.016778,-0.240113,0.240113,-0.285320,0.291456,-0.002603,0.6272,0.0445,-0.3384
9.5165,0.016748,-0.229152,0.229152,-0.269981,0.276117,-0.002590,0.6656,0.0093,-0.3913
9.5333,0.016772,-0.218175,0.218175,-0.269981,0.276117,-0.002590,0.6656,0.0093,-0.3913
9.5501,0.016745,-0.207215,0.207215,-0.254641,0.259243,-0.002604,0.6228,0.0485,-0.3324
9.5668,0.016757,-0.196248,0.196248,-0.245437,0.248505,-0.002590,0.6661,0.0088,-0.3919
9.5836,0.016744,-0.185289,0.185289,-0.233165,0.237767,-0.002604,0.6227,0.0486,-0.3323
9.6003,0.016760,-0.174320,0.174320,-0.219359,0.225495,-0.002603,0.6272,0.0444,-0.3385
9.6171,0.016748,-0.163358,0.163358,-0.204019,0.211689,-0.002590,0.6656,0.0093,-0.3913
9.6338,0.016758,-0.152390,0.152390,-0.204019,0.211689,-0.002590,0.6656,0.0093,-0.3913
9.6506,0.016747,-0.141429,0.141429,-0.188680,0.196350,-0.002604,0.6228,0.0485,-0.3324
9.6673,0.016754,-0.130464,0.130464,-0.176408,0.182544,-0.002603,0.6272,0.0444,-0.3385
9.6841,0.016745,-0.119504,0.119504,-0.165670,0.168738,-0.002590,0.6656,0.0093,-0.3913
9.7008,0.016723,-0.108559,0.108559,-0.151864,0.154932,-0.002591,0.6616,0.0129,-0.3858
9.7175,0.016747,-0.097598,0.097598,-0.138058,0.139592,-0.002604,0.6232,0.0481,-0.3329
9.7343,0.016759,-0.086630,0.086630,-0.138058,0.139592,-0.002604,0.6232,0.0481,-0.3329
9.7511,0.016745,-0.075670,0.075670,-0.122718,0.124252,-0.002590,0.6661,0.0089,-0.3919
9.7678,0.016751,-0.064706,0.064706,-0.110447,0.111981,-0.002591,0.6616,0.0130,-0.3857
9.7845,0.016746,-0.053746,0.053746,-0.096641,0.098175,-0.002604,0.6232,0.0481,-0.3329
9.8013,0.016755,-0.042780,0.042780,-0.084369,0.084369,-0.002590,0.6661,0.0089,-0.3919
9.8180,0.016744,-0.031821,0.031821,-0.069029,0.069029,-0.002591,0.6616,0.0130,-0.3857
9.8348,0.016754,-0.020855,0.020855,-0.069029,0.069029,-0.002591,0.6616,0.0130,-0.3857
9.8516,0.016759,-0.009887,0.009887,-0.055223,0.056757,-0.002604,0.6232,0.0481,-0.3329
9.8683,0.016758,0.000000,0.000000,-0.041417,0.042951,-0.002603,0.6272,0.0445,-0.3384
9.8851,0.016741,0.000000,0.000000,-0.027612,0.032214,-0.002590,0.6656,0.0093,-0.3913
9.9018,0.016753,0.000000,0.000000,-0.013806,0.018408,-0.002591,0.6616,0.0129,-0.3858
9.9186,0.016756,0.000000,0.000000,0.000000,0.004602,-0.002591,0.6616,0.0129,-0.3858
9.9353,0.016759,0.000000,0.000000,0.000000,0.004602,-0.002591,0.6616,0.0129,-0.3858
9.9521,0.016744,0.000000,0.000000,0.007670,-0.004602,-0.002591,0.6616,0.0129,-0.3858
9.9689,0.016796,0.000000,0.000000,0.004602,-0.003068,-0.002591,0.6616,0.0129,-0.3858
9.9857,0.016782,0.000000,0.000000,0.004602,-0.003068,-0.002591,0.6616,0.0129,-0.3858
10.0024,0.016764,-0.001581,0.001581,0.004602,-0.003068,-0.002591,0.6616,0.0129,-0.3858
10.0192,0.016767,-0.012555,0.012555,0.004602,-0.001534,-0.002591,0.6616,0.0129,-0.3858
10.0359,0.016762,-0.023525,0.023525,0.001534,0.001534,-0.002591,0.6616,0.0129,-0.3858
10.0529,0.016912,-0.034594,0.034594,-0.004602,0.001534,-0.002591,0.6616,0.0129,-0.3858
10.0696,0.016755,-0.045560,0.045560,-0.004602,0.001534,-0.002591,0.6616,0.0129,-0.3858
10.0864,0.016748,-0.056522,0.056522,-0.007670,0.006136,-0.002580,0.7120,-0.0031,-0.3328
10.1031,0.016744,-0.067481,0.067481,-0.016874,0.018408,-0.002592,0.6568,0.0142,-0.3919
10.1198,0.016746,-0.078442,0.078442,-0.033748,0.035282,-0.002591,0.6625,0.0124,-0.3857
10.1366,0.016746,-0.089402,0.089402,-0.053689,0.052155,-0.002604,0.6231,0.0482,-0.3329
10.1534,0.016763,-0.100373,0.100373,-0.073631,0.072097,-0.002590,0.6661,0.0089,-0.3919
10.1701,0.016773,-0.111350,0.111350,-0.073631,0.072097,-0.002590,0.6661,0.0089,-0.3919
10.1869,0.016746,-0.122311,0.122311,-0.085903,0.084369,-0.002591,0.6616,0.0130,-0.3857
10.2036,0.016749,-0.133273,0.133273,-0.092039,0.093573,-0.002591,0.6616,0.0130,-0.3857
10.2204,0.016753,-0.144238,0.144238,-0.099709,0.101243,-0.002591,0.6616,0.0130,-0.3857
10.2371,0.016749,-0.155200,0.155200,-0.113515,0.111981,-0.002604,0.6232,0.0481,-0.3329
10.2539,0.016755,-0.166166,0.166166,-0.134990,0.131922,-0.002604,0.6232,0.0481,-0.3329
10.2706,0.016752,-0.177131,0.177131,-0.134990,0.131922,-0.002590,0.6661,0.0089,-0.3919
10.2874,0.016746,-0.188091,0.188091,-0.151864,0.148796,-0.002591,0.6616,0.0130,-0.3857
10.3041,0.016745,-0.199050,0.199050,-0.165670,0.159534,-0.002591,0.6616,0.0130,-0.3857
10.3209,0.016747,-0.210011,0.210011,-0.171806,0.167204,-0.002591,0.6616,0.0130,-0.3857
10.3378,0.016895,-0.221068,0.221068,-0.182544,0.181010,-0.002604,0.6232,0.0481,-0.3329
10.3545,0.016752,-0.232032,0.232032,-0.182544,0.181010,-0.002604,0.6232,0.0481,-0.3329
10.3713,0.016754,-0.242998,0.242998,-0.200951,0.199418,-0.002603,0.6272,0.0445,-0.3384
10.3880,0.016742,-0.253955,0.253955,-0.216291,0.214757,-0.002590,0.6656,0.0093,-0.3913
10.4048,0.016746,-0.264916,0.264916,-0.223961,0.222427,-0.002591,0.6616,0.0129,-0.3858
10.4215,0.016754,-0.275881,0.275881,-0.231631,0.233165,-0.002591,0.6616,0.0129,-0.3858
10.4383,0.016757,-0.286849,0.286849,-0.251573,0.253107,-0.002591,0.6616,0.0129,-0.3858
10.4550,0.016743,-0.297807,0.297807,-0.251573,0.253107,-0.002591,0.6616,0.0129,-0.3858
10.4718,0.016754,-0.308772,0.308772,-0.269981,0.268447,-0.002591,0.6616,0.0129,-0.3858
10.4885,0.016745,-0.319732,0.319732,-0.279185,0.277651,-0.002591,0.6616,0.0129,-0.3858
10.5053,0.016744,-0.330691,0.330691,-0.285320,0.286854,-0.002591,0.6616,0.0129,-0.3858
10.5220,0.016750,-0.341654,0.341654,-0.299126,0.299126,-0.002604,0.6232,0.0481,-0.3329
10.5388,0.016795,-0.349066,0.349066,-0.319068,0.316000,-0.002603,0.6272,0.0445,-0.3384
10.5555,0.016744,-0.349066,0.349066,-0.319068,0.316000,-0.002603,0.6272,0.0445,-0.3384
10.5723,0.016755,-0.349066,0.349066,-0.342078,0.335942,-0.002590,0.6656,0.0093,-0.3913
10.5890,0.016745,-0.349066,0.349066,-0.346680,0.343612,-0.002591,0.6616,0.0129,-0.3858
10.6058,0.016768,-0.349066,0.349066,-0.348214,0.348214,-0.002604,0.6232,0.0481,-0.3329
10.6226,0.016746,-0.349066,0.349066,-0.354350,0.348214,-0.002590,0.6661,0.0089,-0.3919
10.6393,0.016767,-0.349066,0.349066,-0.354350,0.348214,-0.002591,0.6616,0.0130,-0.3857
10.6561,0.016749,-0.349066,0.349066,-0.354350,0.348214,-0.002591,0.6616,0.0130,-0.3857
10.6728,0.016758,-0.345028,0.345028,-0.351282,0.348214,-0.002604,0.6232,0.0481,-0.3329
10.6896,0.016748,-0.334066,0.334066,-0.352816,0.348214,-0.002603,0.6272,0.0445,-0.3384
10.7064,0.016772,-0.323089,0.323089,-0.352816,0.348214,-0.002590,0.6656,0.0093,-0.3913
10.7231,0.016744,-0.312130,0.312130,-0.349748,0.346680,-0.002591,0.6616,0.0129,-0.3858
10.7399,0.016770,-0.301154,0.301154,-0.345146,0.340544,-0.002591,0.6616,0.0129,-0.3858
10.7566,0.016707,-0.290219,0.290219,-0.345146,0.340544,-0.002591,0.6616,0.0129,-0.3858
10.7733,0.016746,-0.279259,0.279259,-0.339010,0.334408,-0.002604,0.6232,0.0481,-0.3329
10.7901,0.016747,-0.268298,0.268298,-0.326738,0.328272,-0.002603,0.6272,0.0445,-0.3384
10.8068,0.016760,-0.257329,0.257329,-0.314466,0.317534,-0.002603,0.6272,0.0445,-0.3384
10.8236,0.016746,-0.246369,0.246369,-0.299126,0.303728,-0.002590,0.6656,0.0093,-0.3913
10.8404,0.016788,-0.235381,0.235381,-0.282252,0.288388,-0.002591,0.6616,0.0129,-0.3858
10.8571,0.016747,-0.224420,0.224420,-0.282252,0.288388,-0.002591,0.6616,0.0129,-0.3858
10.8739,0.016758,-0.213452,0.213452,-0.265379,0.273049,-0.002591,0.6616,0.0129,-0.3858
10.8906,0.016748,-0.202490,0.202490,-0.254641,0.259243,-0.002591,0.6616,0.0129,-0.3858
10.9074,0.016764,-0.191518,0.191518,-0.242369,0.246971,-0.002604,0.6232,0.0481,-0.3329
10.9242,0.016772,-0.180541,0.180541,-0.228563,0.234699,-0.002578,0.7161,-0.0068,-0.3383
10.9409,0.016775,-0.169562,0.169562,-0.228563,0.234699,-0.002578,0.7161,-0.0068,-0.3383
10.9577,0.016746,-0.158602,0.158602,-0.213223,0.222427,-0.002593,0.6564,0.0146,-0.3913
10.9744,0.016765,-0.147629,0.147629,-0.199418,0.207087,-0.002591,0.6626,0.0124,-0.3858
10.9912,0.016746,-0.136669,0.136669,-0.184078,0.193282,-0.002604,0.6231,0.0482,-0.3329
11.0079,0.016752,-0.125705,0.125705,-0.171806,0.179476,-0.002603,0.6272,0.0445,-0.3384
11.0247,0.016760,-0.114736,0.114736,-0.171806,0.179476,-0.002603,0.6272,0.0445,-0.3384
11.0415,0.016761,-0.103766,0.103766,-0.142660,0.145728,-0.002590,0.6656,0.0093,-0.3913
11.0582,0.016758,-0.092798,0.092798,-0.142660,0.145728,-0.002590,0.6656,0.0093,-0.3913
11.0750,0.016756,-0.081831,0.081831,-0.134990,0.134990,-0.002591,0.6616,0.0129,-0.3858
11.0917,0.016749,-0.070869,0.070869,-0.128854,0.124252,-0.002591,0.6616,0.0129,-0.3858
11.1085,0.016752,-0.059905,0.059905,-0.119651,0.113515,-0.002591,0.6616,0.0129,-0.3858
11.1252,0.016753,-0.048940,0.048940,-0.101243,0.096641,-0.002604,0.6232,0.0481,-0.3329
11.1424,0.017167,-0.037704,0.037704,-0.081301,0.081301,-0.002590,0.6661,0.0089,-0.3919
11.1592,0.016789,-0.026715,0.026715,-0.081301,0.081301,-0.002590,0.6661,0.0089,-0.3919
11.1759,0.016750,-0.015752,0.015752,-0.064427,0.065961,-0.002604,0.6227,0.0486,-0.3323
11.1927,0.016752,-0.004788,0.004788,-0.047553,0.050621,-0.002603,0.6272,0.0444,-0.3385
11.2094,0.016741,0.000000,0.000000,-0.036816,0.039884,-0.002590,0.6656,0.0093,-0.3913
11.2262,0.016754,0.000000,0.000000,-0.026078,0.027612,-0.002591,0.6616,0.0129,-0.3858
11.2429,0.016745,0.000000,0.000000,-0.012272,0.013806,-0.002591,0.6616,0.0129,-0.3858
11.2597,0.016756,0.000000,0.000000,-0.012272,0.013806,-0.002591,0.6616,0.0129,-0.3858
11.2764,0.016747,0.000000,0.000000,0.003068,0.000000,-0.002604,0.6232,0.0481,-0.3329
11.2932,0.016749,0.000000,0.000000,0.006136,-0.004602,-0.002603,0.6272,0.0445,-0.3384
11.3099,0.016767,0.000000,0.000000,0.000000,-0.001534,-0.002590,0.6656,0.0093,-0.3913
11.3267,0.016769,0.000000,0.000000,-0.003068,0.001534,-0.002604,0.6228,0.0485,-0.3324
11.3437,0.017006,-0.006797,0.006797,0.003068,-0.001534,-0.002590,0.6661,0.0088,-0.3919
11.3605,0.016757,-0.017764,0.017764,0.003068,-0.001534,-0.002590,0.6661,0.0088,-0.3919
11.3772,0.016745,-0.028724,0.028724,0.004602,-0.001534,-0.002591,0.6616,0.0130,-0.3857
11.3940,0.016745,-0.039684,0.039684,-0.003068,0.001534,-0.002591,0.6616,0.0130,-0.3857
11.4107,0.016741,-0.050641,0.050641,-0.007670,0.003068,-0.002591,0.6616,0.0130,-0.3857
11.4275,0.016748,-0.061602,0.061602,-0.007670,0.010738,-0.002604,0.6232,0.0481,-0.3329
11.4442,0.016770,-0.072578,0.072578,-0.021476,0.026078,-0.002604,0.6232,0.0481,-0.3329
11.4610,0.016753,-0.083543,0.083543,-0.021476,0.026078,-0.002590,0.6661,0.0089,-0.3919
11.4777,0.016746,-0.094503,0.094503,-0.044485,0.046019,-0.002591,0.6616,0.0130,-0.3857
11.4945,0.016741,-0.105460,0.105460,-0.064427,0.062893,-0.002591,0.6616,0.0130,-0.3857
11.5113,0.016865,-0.116499,0.116499,-0.076699,0.073631,-0.002604,0.6232,0.0481,-0.3329
11.5281,0.016755,-0.127464,0.127464,-0.082835,0.078233,-0.002590,0.6661,0.0089,-0.3919
