t,loop_dt,cmd_ant_l,cmd_ant_r,pres_ant_l,pres_ant_r,pres_z,pres_roll,pres_pitch,pres_yaw
0.0000,0.000001,-0.349065,0.349065,-0.156466,0.151864,-0.002705,0.6698,0.1817,-0.2902
0.0167,0.016749,-0.340296,0.340296,-0.165670,0.153398,-0.002691,0.6197,0.1638,-0.3440
0.0336,0.016816,-0.331491,0.331491,-0.165670,0.162602,-0.002706,0.6745,0.1833,-0.2852
0.0504,0.016867,-0.322659,0.322659,-0.165670,0.162602,-0.002706,0.6745,0.1833,-0.2852
0.0672,0.016763,-0.313882,0.313882,-0.165670,0.162602,-0.002706,0.6745,0.1833,-0.2852
0.0839,0.016743,-0.305116,0.305116,-0.282252,0.289922,-0.002679,0.6581,0.1280,-0.3979
0.1013,0.017320,-0.296047,0.296047,-0.352816,0.357418,-0.002681,0.6598,0.1337,-0.3862
0.1180,0.016741,-0.287281,0.287281,-0.372757,0.368155,-0.002669,0.6215,0.1355,-0.3337
0.1348,0.016759,-0.278506,0.278506,-0.363553,0.360485,-0.002645,0.6261,0.1020,-0.3389
0.1515,0.016745,-0.269739,0.269739,-0.334408,0.334408,-0.002648,0.6256,0.1055,-0.3384
0.1683,0.016757,-0.260965,0.260965,-0.306796,0.308330,-0.002623,0.7145,0.0538,-0.3383
0.1850,0.016747,-0.252197,0.252197,-0.306796,0.308330,-0.002623,0.7145,0.0538,-0.3383
0.2018,0.016752,-0.243426,0.243426,-0.277651,0.283786,-0.002599,0.6065,0.0239,-0.4449
0.2185,0.016746,-0.234657,0.234657,-0.265379,0.269981,-0.002577,0.6185,-0.0062,-0.4335
0.2353,0.016757,-0.225883,0.225883,-0.260777,0.260777,-0.002580,0.6172,-0.0030,-0.4347
0.2520,0.016742,-0.217117,0.217117,-0.259243,0.253107,-0.002580,0.6172,-0.0030,-0.4347
0.2688,0.016763,-0.208340,0.208340,-0.253107,0.245437,-0.002566,0.5680,-0.0209,-0.4879
0.2855,0.016748,-0.199571,0.199571,-0.253107,0.245437,-0.002566,0.5680,-0.0209,-0.4879
0.3022,0.016727,-0.190812,0.190812,-0.242369,0.237767,-0.002581,0.5343,0.0165,-0.4289
0.3190,0.016742,-0.182046,0.182046,-0.228563,0.227029,-0.002566,0.5767,-0.0229,-0.4885
0.3358,0.016770,-0.173266,0.173266,-0.214757,0.219359,-0.002555,0.5230,-0.0363,-0.5356
0.3525,0.016766,-0.164487,0.164487,-0.199418,0.208621,-0.002556,0.5286,-0.0349,-0.5307
0.3693,0.016767,-0.155708,0.155708,-0.185612,0.194816,-0.002569,0.4892,0.0004,-0.4778
0.3860,0.016744,-0.146941,0.146941,-0.185612,0.194816,-0.002569,0.4892,0.0004,-0.4778
0.4028,0.016750,-0.138170,0.138170,-0.176408,0.184078,-0.002567,0.4933,-0.0033,-0.4833
0.4195,0.016748,-0.129401,0.129401,-0.167204,0.170272,-0.002555,0.5317,-0.0384,-0.5361
0.4363,0.016764,-0.120624,0.120624,-0.159534,0.161068,-0.002569,0.4889,0.0008,-0.4772
0.4530,0.016748,-0.111855,0.111855,-0.150330,0.150330,-0.002555,0.5322,-0.0388,-0.5368
0.4698,0.016763,-0.103077,0.103077,-0.141126,0.139592,-0.002555,0.5322,-0.0388,-0.5368
0.4866,0.016749,-0.094308,0.094308,-0.141126,0.139592,-0.002569,0.4888,0.0008,-0.4772
0.5033,0.016748,-0.085538,0.085538,-0.127320,0.127320,-0.002555,0.5322,-0.0388,-0.5368
0.5200,0.016739,-0.076774,0.076774,-0.115049,0.116583,-0.002556,0.5277,-0.0347,-0.5306
0.5368,0.016748,-0.068005,0.068005,-0.102777,0.104311,-0.002569,0.4893,0.0004,-0.4778
0.5535,0.016750,-0.059234,0.059234,-0.090505,0.093573,-0.002555,0.5322,-0.0387,-0.5367
0.5703,0.016766,-0.050456,0.050456,-0.090505,0.093573,-0.002555,0.5322,-0.0387,-0.5367
0.5871,0.016748,-0.041687,0.041687,-0.078233,0.081301,-0.002556,0.5277,-0.0347,-0.5306
0.6038,0.016755,-0.032913,0.032913,-0.069029,0.070563,-0.002556,0.5277,-0.0347,-0.5306
0.6205,0.016742,-0.024147,0.024147,-0.061359,0.061359,-0.002569,0.5774,-0.0176,-0.4779
0.6373,0.016754,-0.015375,0.015375,-0.050621,0.052155,-0.002555,0.5230,-0.0369,-0.5367
0.6540,0.016746,-0.006607,0.006607,-0.038350,0.041417,-0.002556,0.5286,-0.0349,-0.5306
0.6708,0.016770,-0.002174,0.002174,-0.038350,0.041417,-0.002556,0.5286,-0.0349,-0.5306
0.6876,0.016748,-0.010944,0.010944,-0.024544,0.029146,-0.002556,0.5286,-0.0349,-0.5306
0.7043,0.016760,-0.019719,0.019719,-0.013806,0.019942,-0.002556,0.5286,-0.0349,-0.5306
0.7211,0.016740,-0.028484,0.028484,-0.009204,0.007670,-0.002556,0.5286,-0.0349,-0.5306
0.7378,0.016751,-0.037255,0.037255,-0.009204,0.004602,-0.002556,0.5286,-0.0349,-0.5306
0.7546,0.016745,-0.046023,0.046023,-0.015340,0.012272,-0.002556,0.5286,-0.0349,-0.5306
0.7713,0.016761,-0.054799,0.054799,-0.015340,0.012272,-0.002556,0.5286,-0.0349,-0.5306
0.7881,0.016748,-0.063568,0.063568,-0.026078,0.024544,-0.002556,0.5286,-0.0349,-0.5306
0.8048,0.016746,-0.072337,0.072337,-0.038350,0.036816,-0.002556,0.5286,-0.0349,-0.5306
0.8216,0.016743,-0.081103,0.081103,-0.047553,0.046019,-0.002556,0.5286,-0.0349,-0.5306
0.8383,0.016746,-0.089872,0.089872,-0.052155,0.050621,-0.002569,0.4892,0.0004,-0.4778
0.8551,0.016747,-0.098641,0.098641,-0.061359,0.059825,-0.002555,0.5322,-0.0387,-0.5367
0.8718,0.016763,-0.107417,0.107417,-0.061359,0.059825,-0.002555,0.5322,-0.0387,-0.5367
0.8886,0.016745,-0.116185,0.116185,-0.075165,0.073631,-0.002569,0.4888,0.0008,-0.4772
0.9053,0.016760,-0.124961,0.124961,-0.090505,0.088971,-0.002555,0.5322,-0.0388,-0.5368
0.9221,0.016748,-0.133730,0.133730,-0.096641,0.096641,-0.002556,0.5277,-0.0347,-0.5306
0.9390,0.016948,-0.142604,0.142604,-0.102777,0.099709,-0.002569,0.4893,0.0004,-0.4778
0.9558,0.016748,-0.151373,0.151373,-0.115049,0.107379,-0.002567,0.4933,-0.0033,-0.4833
0.9725,0.016765,-0.160151,0.160151,-0.115049,0.107379,-0.002567,0.4933,-0.0033,-0.4833
0.9893,0.016749,-0.168921,0.168921,-0.133456,0.124252,-0.002567,0.4933,-0.0033,-0.4833
1.0060,0.016744,-0.177689,0.177689,-0.144194,0.142660,-0.002567,0.4933,-0.0033,-0.4833
1.0228,0.016747,-0.186457,0.186457,-0.150330,0.150330,-0.002555,0.5317,-0.0384,-0.5361
1.0395,0.016749,-0.195227,0.195227,-0.156466,0.153398,-0.002569,0.5770,-0.0172,-0.4773
1.0563,0.016750,-0.203997,0.203997,-0.168738,0.161068,-0.002555,0.5230,-0.0369,-0.5368
1.0731,0.016786,-0.212786,0.212786,-0.168738,0.161068,-0.002555,0.5230,-0.0369,-0.5368
1.0903,0.017250,-0.221818,0.221818,-0.168738,0.161068,-0.002555,0.5230,-0.0369,-0.5368
1.1071,0.016778,-0.230603,0.230603,-0.199418,0.200951,-0.002555,0.5230,-0.0369,-0.5368
1.1238,0.016754,-0.239376,0.239376,-0.199418,0.200951,-0.002556,0.5286,-0.0349,-0.5306
1.1406,0.016755,-0.248149,0.248149,-0.197884,0.199418,-0.002556,0.5286,-0.0349,-0.5306
1.1573,0.016750,-0.256919,0.256919,-0.204019,0.202485,-0.002582,0.5384,0.0179,-0.4245
1.1741,0.016778,-0.265704,0.265704,-0.220893,0.219359,-0.002553,0.5270,-0.0406,-0.5423
1.1909,0.016753,-0.274476,0.274476,-0.243903,0.242369,-0.002569,0.4894,0.0010,-0.4766
1.2077,0.016788,-0.283266,0.283266,-0.243903,0.242369,-0.002569,0.4894,0.0010,-0.4766
1.2244,0.016745,-0.292033,0.292033,-0.263845,0.262311,-0.002555,0.5322,-0.0388,-0.5368
1.2412,0.016752,-0.300804,0.300804,-0.269981,0.266913,-0.002569,0.4888,0.0008,-0.4772
1.2579,0.016747,-0.309573,0.309573,-0.269981,0.268447,-0.002555,0.5322,-0.0388,-0.5368
1.2747,0.016763,-0.318350,0.318350,-0.277651,0.280718,-0.002556,0.5277,-0.0347,-0.5306
1.2914,0.016748,-0.327120,0.327120,-0.292990,0.297592,-0.002569,0.4893,0.0004,-0.4778
1.3082,0.016770,-0.335901,0.335901,-0.292990,0.297592,-0.002569,0.4893,0.0004,-0.4778
1.3249,0.016749,-0.344671,0.344671,-0.314466,0.314466,-0.002567,0.4933,-0.0033,-0.4833
1.3417,0.016753,-0.344689,0.344689,-0.326738,0.319068,-0.002567,0.4933,-0.0033,-0.4833
1.3584,0.016750,-0.335919,0.335919,-0.328272,0.320602,-0.002555,0.5317,-0.0384,-0.5361
1.3752,0.016757,-0.327145,0.327145,-0.329806,0.328272,-0.002556,0.5277,-0.0347,-0.5306
1.3919,0.016746,-0.318377,0.318377,-0.345146,0.346680,-0.002557,0.5393,-0.0154,-0.4242
1.4087,0.016777,-0.309593,0.309593,-0.345146,0.346680,-0.002557,0.5393,-0.0154,-0.4242
1.4255,0.016752,-0.300821,0.300821,-0.351282,0.349748,-0.002569,0.4881,-0.0016,-0.4889
1.4422,0.016753,-0.292049,0.292049,-0.345146,0.342078,-0.002556,0.5434,-0.0189,-0.4286
1.4590,0.016753,-0.283278,0.283278,-0.331340,0.331340,-0.002557,0.6257,-0.0350,-0.4350
1.4757,0.016753,-0.274506,0.274506,-0.322136,0.323670,-0.002556,0.5179,-0.0351,-0.5412
1.4925,0.016747,-0.265737,0.265737,-0.306796,0.309864,-0.002556,0.5292,-0.0350,-0.5301
1.5093,0.016772,-0.256955,0.256955,-0.306796,0.309864,-0.002556,0.5292,-0.0350,-0.5301
1.5260,0.016748,-0.248186,0.248186,-0.291456,0.297592,-0.002569,0.4891,0.0004,-0.4779
1.5427,0.016748,-0.239417,0.239417,-0.280718,0.285320,-0.002567,0.4933,-0.0033,-0.4833
1.5595,0.016743,-0.230650,0.230650,-0.271515,0.277651,-0.002555,0.5317,-0.0384,-0.5361
1.5762,0.016757,-0.221877,0.221877,-0.262311,0.266913,-0.002556,0.5277,-0.0347,-0.5306
1.5930,0.016749,-0.213107,0.213107,-0.253107,0.254641,-0.002569,0.4893,0.0004,-0.4778
1.6098,0.016763,-0.204330,0.204330,-0.253107,0.254641,-0.002569,0.4893,0.0004,-0.4778
1.6265,0.016748,-0.195560,0.195560,-0.240835,0.243903,-0.002555,0.5322,-0.0387,-0.5367
1.6433,0.016748,-0.186791,0.186791,-0.230097,0.234699,-0.002556,0.5277,-0.0347,-0.5306
1.6600,0.016745,-0.178023,0.178023,-0.219359,0.225495,-0.002569,0.4893,0.0004,-0.4778
1.6767,0.016743,-0.169257,0.169257,-0.207087,0.216291,-0.002567,0.4933,-0.0033,-0.4833
1.6935,0.016746,-0.160489,0.160489,-0.194816,0.204019,-0.002567,0.4933,-0.0033,-0.4833
1.7102,0.016745,-0.151721,0.151721,-0.194816,0.204019,-0.002567,0.4933,-0.0033,-0.4833
1.7270,0.016767,-0.142942,0.142942,-0.184078,0.190214,-0.002568,0.5810,-0.0209,-0.4828
1.7437,0.016740,-0.134177,0.134177,-0.174874,0.179476,-0.002567,0.4837,-0.0011,-0.4828
1.7605,0.016741,-0.125411,0.125411,-0.164136,0.167204,-0.002555,0.5327,-0.0386,-0.5362
1.7772,0.016740,-0.116646,0.116646,-0.153398,0.156466,-0.002569,0.5769,-0.0172,-0.4773
1.7940,0.016743,-0.107880,0.107880,-0.142660,0.145728,-0.002555,0.5230,-0.0369,-0.5368
1.8109,0.016887,-0.099038,0.099038,-0.142660,0.145728,-0.002555,0.5230,-0.0369,-0.5368
1.8276,0.016751,-0.090267,0.090267,-0.131922,0.133456,-0.002569,0.4898,0.0006,-0.4772
1.8443,0.016741,-0.081501,0.081501,-0.121184,0.121184,-0.002555,0.5321,-0.0388,-0.5368
1.8611,0.016741,-0.072736,0.072736,-0.110447,0.111981,-0.002556,0.5277,-0.0347,-0.5306
1.8778,0.016747,-0.063967,0.063967,-0.102777,0.102777,-0.002569,0.4893,0.0004,-0.4778
1.8946,0.016776,-0.055183,0.055183,-0.090505,0.090505,-0.002567,0.4933,-0.0033,-0.4833
1.9114,0.016745,-0.046416,0.046416,-0.090505,0.090505,-0.002567,0.4933,-0.0033,-0.4833
1.9281,0.016745,-0.037648,0.037648,-0.078233,0.078233,-0.002555,0.5317,-0.0384,-0.5361
1.9448,0.016741,-0.028883,0.028883,-0.067495,0.069029,-0.002556,0.5277,-0.0347,-0.5306
1.9616,0.016744,-0.020115,0.020115,-0.058291,0.059825,-0.002556,0.5277,-0.0347,-0.5306
1.9783,0.016743,-0.011349,0.011349,-0.047553,0.050621,-0.002556,0.5277,-0.0347,-0.5306
1.9951,0.016745,-0.002581,0.002581,-0.033748,0.038350,-0.002556,0.5277,-0.0347,-0.5306
2.0118,0.016766,-0.006198,0.006198,-0.033748,0.038350,-0.002556,0.5277,-0.0347,-0.5306
2.0286,0.016755,-0.014971,0.014971,-0.021476,0.027612,-0.002569,0.4893,0.0004,-0.4778
2.0453,0.016741,-0.023736,0.023736,-0.013806,0.016874,-0.002555,0.5322,-0.0387,-0.5367
2.0621,0.016746,-0.032504,0.032504,-0.010738,0.006136,-0.002544,0.5777,-0.0505,-0.4770
2.0788,0.016751,-0.041275,0.041275,-0.009204,0.001534,-0.002570,0.4841,0.0020,-0.4834
2.0957,0.016895,-0.050122,0.050122,-0.012272,0.009204,-0.002554,0.5327,-0.0389,-0.5361
2.1125,0.016802,-0.058919,0.058919,-0.012272,0.009204,-0.002554,0.5327,-0.0389,-0.5361
2.1293,0.016750,-0.067689,0.067689,-0.012272,0.009204,-0.002554,0.5327,-0.0389,-0.5361
2.1460,0.016749,-0.076459,0.076459,-0.038350,0.042951,-0.002556,0.5276,-0.0346,-0.5306
2.1628,0.016743,-0.085225,0.085225,-0.049087,0.044485,-0.002569,0.4893,0.0004,-0.4778
2.1795,0.016743,-0.093992,0.093992,-0.050621,0.042951,-0.002555,0.5322,-0.0387,-0.5367
2.1963,0.016763,-0.102769,0.102769,-0.055223,0.049087,-0.002556,0.5277,-0.0347,-0.5306
2.2130,0.016739,-0.111533,0.111533,-0.055223,0.049087,-0.002556,0.5277,-0.0347,-0.5306
2.2298,0.016748,-0.120303,0.120303,-0.092039,0.090505,-0.002569,0.4893,0.0004,-0.4778
2.2465,0.016742,-0.129069,0.129069,-0.104311,0.102777,-0.002555,0.5322,-0.0387,-0.5367
2.2633,0.016749,-0.137839,0.137839,-0.108913,0.104311,-0.002556,0.5277,-0.0347,-0.5306
2.2800,0.016747,-0.146608,0.146608,-0.113515,0.108913,-0.002556,0.5277,-0.0347,-0.5306
2.2969,0.016890,-0.155452,0.155452,-0.128854,0.128854,-0.002569,0.4893,0.0004,-0.4778
2.3136,0.016752,-0.164223,0.164223,-0.128854,0.128854,-0.002569,0.4893,0.0004,-0.4778
2.3304,0.016750,-0.172993,0.172993,-0.148796,0.147262,-0.002567,0.4933,-0.0033,-0.4833
2.3471,0.016748,-0.181762,0.181762,-0.158000,0.153398,-0.002555,0.5317,-0.0384,-0.5361
2.3639,0.016762,-0.190539,0.190539,-0.167204,0.158000,-0.002556,0.5277,-0.0347,-0.5306
2.3807,0.016748,-0.199308,0.199308,-0.181010,0.173340,-0.002556,0.5277,-0.0347,-0.5306
2.3974,0.016764,-0.208086,0.208086,-0.181010,0.173340,-0.002556,0.5277,-0.0347,-0.5306
2.4142,0.016745,-0.216853,0.216853,-0.193282,0.188680,-0.002556,0.5277,-0.0347,-0.5306
2.4310,0.016821,-0.225661,0.225661,-0.194816,0.194816,-0.002556,0.5277,-0.0347,-0.5306
2.4477,0.016755,-0.234434,0.234434,-0.197884,0.200951,-0.002556,0.5277,-0.0347,-0.5306
2.4645,0.016749,-0.243204,0.243204,-0.211689,0.214757,-0.002556,0.5277,-0.0347,-0.5306
2.4812,0.016747,-0.251973,0.251973,-0.231631,0.231631,-0.002569,0.5774,-0.0176,-0.4779
2.4980,0.016760,-0.260748,0.260748,-0.231631,0.231631,-0.002569,0.5774,-0.0176,-0.4779
2.5147,0.016742,-0.269514,0.269514,-0.245437,0.240835,-0.002567,0.4841,-0.0014,-0.4833
2.5315,0.016751,-0.278285,0.278285,-0.245437,0.243903,-0.002568,0.4938,-0.0031,-0.4827
2.5482,0.016741,-0.287050,0.287050,-0.248505,0.250039,-0.002555,0.5317,-0.0384,-0.5362
2.5650,0.016753,-0.295822,0.295822,-0.263845,0.266913,-0.002556,0.5277,-0.0347,-0.5306
2.5817,0.016748,-0.304591,0.304591,-0.283786,0.286854,-0.002569,0.4893,0.0004,-0.4778
2.5985,0.016759,-0.313366,0.313366,-0.283786,0.286854,-0.002569,0.4893,0.0004,-0.4778
2.6152,0.016744,-0.322133,0.322133,-0.299126,0.292990,-0.002555,0.5322,-0.0387,-0.5367
2.6320,0.016765,-0.330912,0.330912,-0.300660,0.292990,-0.002556,0.5277,-0.0347,-0.5306
2.6487,0.016742,-0.339677,0.339677,-0.300660,0.296058,-0.002556,0.5277,-0.0347,-0.5306
2.6655,0.016767,-0.348457,0.348457,-0.317534,0.317534,-0.002556,0.5277,-0.0347,-0.5306
2.6822,0.016745,-0.340907,0.340907,-0.339010,0.335942,-0.002556,0.5277,-0.0347,-0.5306
2.6990,0.016766,-0.332129,0.332129,-0.339010,0.335942,-0.002556,0.5277,-0.0347,-0.5306
2.7158,0.016747,-0.323360,0.323360,-0.351282,0.345146,-0.002556,0.5277,-0.0347,-0.5306
2.7325,0.016720,-0.314605,0.314605,-0.349748,0.348214,-0.002556,0.5277,-0.0347,-0.5306
2.7492,0.016742,-0.305839,0.305839,-0.343612,0.342078,-0.002556,0.5277,-0.0347,-0.5306
2.7662,0.017019,-0.296928,0.296928,-0.339010,0.335942,-0.002556,0.5277,-0.0347,-0.5306
2.7830,0.016749,-0.288158,0.288158,-0.326738,0.326738,-0.002556,0.5277,-0.0347,-0.5306
2.7998,0.016768,-0.279378,0.279378,-0.326738,0.326738,-0.002556,0.5277,-0.0347,-0.5306
2.8165,0.016744,-0.270611,0.270611,-0.316000,0.319068,-0.002556,0.5277,-0.0347,-0.5306
2.8333,0.016753,-0.261840,0.261840,-0.303728,0.306796,-0.002556,0.5277,-0.0347,-0.5306
2.8500,0.016755,-0.253067,0.253067,-0.289922,0.299126,-0.002556,0.5277,-0.0347,-0.5306
2.8668,0.016762,-0.244290,0.244290,-0.279185,0.285320,-0.002556,0.5277,-0.0347,-0.5306
2.8835,0.016748,-0.235521,0.235521,-0.266913,0.274583,-0.002556,0.5277,-0.0347,-0.5306
2.9003,0.016763,-0.226744,0.226744,-0.266913,0.274583,-0.002556,0.5277,-0.0347,-0.5306
2.9170,0.016747,-0.217975,0.217975,-0.256175,0.262311,-0.002556,0.5277,-0.0347,-0.5306
2.9338,0.016751,-0.209205,0.209205,-0.246971,0.251573,-0.002556,0.5277,-0.0347,-0.5306
2.9505,0.016745,-0.200437,0.200437,-0.237767,0.242369,-0.002556,0.5277,-0.0347,-0.5306
2.9673,0.016757,-0.191663,0.191663,-0.227029,0.231631,-0.002569,0.4893,0.0004,-0.4778
2.9840,0.016745,-0.182895,0.182895,-0.214757,0.220893,-0.002555,0.5322,-0.0387,-0.5367
3.0008,0.016752,-0.174124,0.174124,-0.214757,0.220893,-0.002555,0.5322,-0.0387,-0.5367
3.0175,0.016745,-0.165356,0.165356,-0.200951,0.211689,-0.002569,0.4888,0.0008,-0.4772
3.0343,0.016757,-0.156582,0.156582,-0.190214,0.199418,-0.002555,0.5322,-0.0388,-0.5368
3.0510,0.016747,-0.147814,0.147814,-0.182544,0.188680,-0.002556,0.5277,-0.0347,-0.5306
3.0678,0.016762,-0.139037,0.139037,-0.173340,0.176408,-0.002556,0.5277,-0.0347,-0.5306
3.0845,0.016749,-0.130267,0.130267,-0.162602,0.164136,-0.002556,0.5277,-0.0347,-0.5306
3.1013,0.016760,-0.121492,0.121492,-0.162602,0.164136,-0.002556,0.5277,-0.0347,-0.5306
3.1180,0.016747,-0.112723,0.112723,-0.151864,0.153398,-0.002569,0.4893,0.0004,-0.4778
3.1348,0.016783,-0.103936,0.103936,-0.141126,0.141126,-0.002555,0.5322,-0.0387,-0.5367
3.1516,0.016762,-0.095159,0.095159,-0.141126,0.141126,-0.002555,0.5322,-0.0387,-0.5367
3.1683,0.016750,-0.086389,0.086389,-0.116583,0.118117,-0.002569,0.5769,-0.0172,-0.4772
3.1851,0.016754,-0.077616,0.077616,-0.110447,0.110447,-0.002555,0.5230,-0.0369,-0.5368
3.2019,0.016754,-0.068844,0.068844,-0.110447,0.110447,-0.002555,0.5230,-0.0369,-0.5368
3.2186,0.016744,-0.060077,0.060077,-0.104311,0.101243,-0.002556,0.5286,-0.0349,-0.5306
3.2353,0.016744,-0.051310,0.051310,-0.093573,0.088971,-0.002569,0.4892,0.0004,-0.4778
3.2521,0.016749,-0.042540,0.042540,-0.082835,0.079767,-0.002555,0.5322,-0.0387,-0.5367
3.2688,0.016745,-0.033772,0.033772,-0.069029,0.067495,-0.002569,0.4888,0.0008,-0.4772
3.2856,0.016760,-0.024997,0.024997,-0.069029,0.067495,-0.002569,0.4888,0.0008,-0.4772
3.3024,0.016757,-0.016223,0.016223,-0.055223,0.058291,-0.002555,0.5322,-0.0388,-0.5368
3.3191,0.016746,-0.007455,0.007455,-0.041417,0.046019,-0.002556,0.5277,-0.0347,-0.5306
3.3358,0.016750,-0.001315,0.001315,-0.029146,0.033748,-0.002556,0.5277,-0.0347,-0.5306
3.3526,0.016753,-0.010087,0.010087,-0.024544,0.026078,-0.002556,0.5277,-0.0347,-0.5306
3.3694,0.016759,-0.018862,0.018862,-0.019942,0.016874,-0.002569,0.4893,0.0004,-0.4778
3.3861,0.016765,-0.027640,0.027640,-0.019942,0.016874,-0.002569,0.4893,0.0004,-0.4778
3.4029,0.016753,-0.036412,0.036412,-0.010738,0.004602,-0.002555,0.5322,-0.0387,-0.5367
3.4196,0.016748,-0.045181,0.045181,-0.003068,0.003068,-0.002569,0.4888,0.0008,-0.4772
3.4364,0.016814,-0.053985,0.053985,-0.009204,0.013806,-0.002555,0.5322,-0.0388,-0.5368
3.4532,0.016791,-0.062777,0.062777,-0.024544,0.027612,-0.002569,0.4888,0.0008,-0.4772
3.4701,0.016908,-0.071630,0.071630,-0.042951,0.046019,-0.002555,0.5322,-0.0388,-0.5368
3.4869,0.016743,-0.080396,0.080396,-0.042951,0.046019,-0.002555,0.5322,-0.0388,-0.5368
3.5036,0.016753,-0.089168,0.089168,-0.059825,0.058291,-0.002556,0.5277,-0.0347,-0.5306
3.5204,0.016740,-0.097933,0.097933,-0.062893,0.061359,-0.002569,0.5774,-0.0176,-0.4779
3.5371,0.016749,-0.106703,0.106703,-0.061359,0.064427,-0.002543,0.5729,-0.0527,-0.4831
3.5539,0.016740,-0.115468,0.115468,-0.072097,0.076699,-0.002570,0.4846,0.0023,-0.4828
3.5708,0.016898,-0.124316,0.124316,-0.088971,0.093573,-0.002543,0.5826,-0.0548,-0.4826
3.5875,0.016741,-0.133081,0.133081,-0.088971,0.093573,-0.002543,0.5826,-0.0548,-0.4826
3.6043,0.016755,-0.141854,0.141854,-0.111981,0.110447,-0.002557,0.5224,-0.0330,-0.5362
3.6210,0.016742,-0.150620,0.150620,-0.122718,0.116583,-0.002556,0.5287,-0.0353,-0.5306
3.6379,0.016876,-0.159456,0.159456,-0.124252,0.119651,-0.002556,0.5287,-0.0353,-0.5306
3.6546,0.016745,-0.168224,0.168224,-0.130388,0.128854,-0.002556,0.5287,-0.0353,-0.5306
3.6714,0.016770,-0.177005,0.177005,-0.147262,0.145728,-0.002556,0.5287,-0.0353,-0.5306
3.6881,0.016740,-0.185769,0.185769,-0.147262,0.145728,-0.002556,0.5287,-0.0353,-0.5306
3.7049,0.016748,-0.194539,0.194539,-0.164136,0.161068,-0.002556,0.5287,-0.0353,-0.5306
3.7216,0.016741,-0.203304,0.203304,-0.170272,0.168738,-0.002556,0.5287,-0.0353,-0.5306
3.7384,0.016752,-0.212075,0.212075,-0.171806,0.173340,-0.002556,0.5287,-0.0353,-0.5306
3.7551,0.016746,-0.220844,0.220844,-0.185612,0.187146,-0.002556,0.5287,-0.0353,-0.5306
3.7719,0.016766,-0.229623,0.229623,-0.185612,0.187146,-0.002556,0.5287,-0.0353,-0.5306
3.7886,0.016746,-0.238391,0.238391,-0.204019,0.202485,-0.002569,0.4892,0.0005,-0.4778
3.8054,0.016750,-0.247161,0.247161,-0.217825,0.214757,-0.002567,0.4933,-0.0033,-0.4833
3.8223,0.016922,-0.256021,0.256021,-0.219359,0.217825,-0.002555,0.5317,-0.0384,-0.5361
3.8390,0.016752,-0.264792,0.264792,-0.219359,0.220893,-0.002556,0.5277,-0.0347,-0.5306
3.8558,0.016749,-0.273562,0.273562,-0.230097,0.233165,-0.002556,0.5277,-0.0347,-0.5306
3.8726,0.016768,-0.282342,0.282342,-0.230097,0.233165,-0.002556,0.5277,-0.0347,-0.5306
3.8893,0.016746,-0.291110,0.291110,-0.251573,0.254641,-0.002556,0.5277,-0.0347,-0.5306
3.9061,0.016749,-0.299880,0.299880,-0.269981,0.265379,-0.002556,0.5277,-0.0347,-0.5306
3.9228,0.016744,-0.308647,0.308647,-0.273049,0.266913,-0.002556,0.5277,-0.0347,-0.5306
3.9396,0.016754,-0.317419,0.317419,-0.273049,0.271515,-0.002556,0.5277,-0.0347,-0.5306
3.9563,0.016749,-0.326189,0.326189,-0.283786,0.289922,-0.002556,0.5277,-0.0347,-0.5306
3.9731,0.016805,-0.334988,0.334988,-0.283786,0.289922,-0.002556,0.5277,-0.0347,-0.5306
3.9899,0.016747,-0.343756,0.343756,-0.306796,0.309864,-0.002556,0.5277,-0.0347,-0.5306
4.0066,0.016747,-0.345606,0.345606,-0.323670,0.317534,-0.002569,0.4893,0.0004,-0.4778
4.0233,0.016743,-0.336840,0.336840,-0.328272,0.317534,-0.002567,0.4933,-0.0033,-0.4833
4.0401,0.016748,-0.328070,0.328070,-0.328272,0.323670,-0.002567,0.4933,-0.0033,-0.4833
4.0568,0.016741,-0.319305,0.319305,-0.352816,0.351282,-0.002555,0.5317,-0.0384,-0.5361
4.0736,0.016775,-0.310522,0.310522,-0.352816,0.351282,-0.002555,0.5317,-0.0384,-0.5361
4.0904,0.016743,-0.301755,0.301755,-0.351282,0.348214,-0.002556,0.5277,-0.0347,-0.5306
4.1071,0.016747,-0.292987,0.292987,-0.339010,0.335942,-0.002569,0.4893,0.0004,-0.4778
4.1238,0.016740,-0.284222,0.284222,-0.326738,0.326738,-0.002555,0.5322,-0.0387,-0.5367
4.1406,0.016746,-0.275453,0.275453,-0.311398,0.311398,-0.002569,0.5769,-0.0172,-0.4772
4.1573,0.016757,-0.266679,0.266679,-0.296058,0.299126,-0.002567,0.4841,-0.0014,-0.4834
4.1742,0.016862,-0.257850,0.257850,-0.296058,0.299126,-0.002567,0.4841,-0.0014,-0.4834
4.1910,0.016765,-0.249072,0.249072,-0.296058,0.299126,-0.002567,0.4841,-0.0014,-0.4834
4.2077,0.016749,-0.240303,0.240303,-0.273049,0.279185,-0.002568,0.4938,-0.0031,-0.4827
4.2245,0.016742,-0.231537,0.231537,-0.273049,0.274583,-0.002555,0.5317,-0.0384,-0.5362
4.2412,0.016763,-0.222760,0.222760,-0.268447,0.268447,-0.002555,0.5317,-0.0384,-0.5362
4.2580,0.016746,-0.213991,0.213991,-0.268447,0.268447,-0.002569,0.4889,0.0008,-0.4772
4.2747,0.016750,-0.205221,0.205221,-0.257709,0.256175,-0.002567,0.4933,-0.0033,-0.4834
4.2915,0.016743,-0.196454,0.196454,-0.242369,0.242369,-0.002567,0.4933,-0.0033,-0.4834
4.3084,0.016956,-0.187576,0.187576,-0.227029,0.230097,-0.002555,0.5317,-0.0384,-0.5361
4.3252,0.016742,-0.178810,0.178810,-0.211689,0.219359,-0.002556,0.5277,-0.0347,-0.5306
4.3419,0.016756,-0.170037,0.170037,-0.197884,0.205553,-0.002556,0.5277,-0.0347,-0.5306
4.3587,0.016745,-0.161269,0.161269,-0.197884,0.205553,-0.002556,0.5277,-0.0347,-0.5306
4.3754,0.016752,-0.152497,0.152497,-0.185612,0.194816,-0.002569,0.4893,0.0004,-0.4778
4.3922,0.016750,-0.143727,0.143727,-0.177942,0.182544,-0.002555,0.5322,-0.0387,-0.5367
4.4090,0.016836,-0.134912,0.134912,-0.173340,0.173340,-0.002556,0.5277,-0.0347,-0.5306
4.4258,0.016749,-0.126142,0.126142,-0.165670,0.161068,-0.002569,0.4893,0.0004,-0.4778
4.4425,0.016748,-0.117373,0.117373,-0.151864,0.148796,-0.002555,0.5322,-0.0387,-0.5367
4.4592,0.016747,-0.108604,0.108604,-0.151864,0.148796,-0.002555,0.5322,-0.0387,-0.5367
4.4760,0.016745,-0.099837,0.099837,-0.138058,0.136524,-0.002556,0.5277,-0.0347,-0.5306
4.4927,0.016740,-0.091072,0.091072,-0.124252,0.125786,-0.002556,0.5277,-0.0347,-0.5306
4.5095,0.016750,-0.082301,0.082301,-0.116583,0.118117,-0.002569,0.4893,0.0004,-0.4778
4.5262,0.016747,-0.073533,0.073533,-0.107379,0.107379,-0.002555,0.5322,-0.0387,-0.5367
4.5430,0.016795,-0.064739,0.064739,-0.107379,0.107379,-0.002555,0.5322,-0.0387,-0.5367
4.5598,0.016749,-0.055970,0.055970,-0.093573,0.095107,-0.002556,0.5277,-0.0347,-0.5306
4.5765,0.016741,-0.047204,0.047204,-0.084369,0.084369,-0.002556,0.5277,-0.0347,-0.5306
4.5933,0.016819,-0.038397,0.038397,-0.072097,0.073631,-0.002556,0.5277,-0.0347,-0.5306
4.6101,0.016758,-0.029623,0.029623,-0.059825,0.061359,-0.002556,0.5277,-0.0347,-0.5306
4.6275,0.017446,-0.020489,0.020489,-0.047553,0.049087,-0.002569,0.4893,0.0004,-0.4778
4.6443,0.016770,-0.011708,0.011708,-0.047553,0.049087,-0.002569,0.4893,0.0004,-0.4778
4.6611,0.016756,-0.002934,0.002934,-0.033748,0.038350,-0.002543,0.5821,-0.0546,-0.4832
4.6778,0.016755,-0.005839,0.005839,-0.026078,0.029146,-0.002557,0.5225,-0.0330,-0.5362
4.6946,0.016763,-0.014616,0.014616,-0.021476,0.021476,-0.002556,0.5287,-0.0353,-0.5306
4.7113,0.016760,-0.023392,0.023392,-0.013806,0.012272,-0.002569,0.4892,0.0005,-0.4778
4.7281,0.016758,-0.032166,0.032166,-0.003068,0.001534,-0.002555,0.5322,-0.0388,-0.5367
4.7449,0.016766,-0.040945,0.040945,-0.003068,0.001534,-0.002555,0.5322,-0.0388,-0.5367
4.7616,0.016749,-0.049715,0.049715,0.001534,0.004602,-0.002569,0.4888,0.0008,-0.4772
4.7784,0.016755,-0.058488,0.058488,-0.007670,0.016874,-0.002555,0.5322,-0.0388,-0.5368
4.7951,0.016759,-0.067263,0.067263,-0.026078,0.033748,-0.002556,0.5277,-0.0347,-0.5306
4.8119,0.016758,-0.076037,0.076037,-0.044485,0.047553,-0.002569,0.4893,0.0004,-0.4778
4.8287,0.016766,-0.084816,0.084816,-0.062893,0.059825,-0.002567,0.4933,-0.0033,-0.4833
4.8454,0.016759,-0.093591,0.093591,-0.062893,0.059825,-0.002567,0.4933,-0.0033,-0.4833
4.8622,0.016744,-0.102358,0.102358,-0.073631,0.069029,-0.002568,0.5810,-0.0209,-0.4828
4.8789,0.016755,-0.111131,0.111131,-0.075165,0.072097,-0.002555,0.5226,-0.0365,-0.5362
4.8957,0.016757,-0.119905,0.119905,-0.075165,0.078233,-0.002556,0.5287,-0.0349,-0.5306
4.9124,0.016755,-0.128678,0.128678,-0.085903,0.092039,-0.002569,0.4892,0.0004,-0.4778
4.9292,0.016756,-0.137451,0.137451,-0.105845,0.110447,-0.002567,0.4933,-0.0033,-0.4833
4.9459,0.016758,-0.146225,0.146225,-0.105845,0.110447,-0.002567,0.4933,-0.0033,-0.4833
4.9627,0.016748,-0.154994,0.154994,-0.124252,0.124252,-0.002555,0.5317,-0.0384,-0.5361
4.9795,0.016789,-0.163785,0.163785,-0.134990,0.125786,-0.002556,0.5277,-0.0347,-0.5306
4.9962,0.016764,-0.172563,0.172563,-0.138058,0.125786,-0.002556,0.5277,-0.0347,-0.5306
5.0130,0.016762,-0.181339,0.181339,-0.139592,0.136524,-0.002556,0.5277,-0.0347,-0.5306
5.0298,0.016757,-0.190113,0.190113,-0.153398,0.156466,-0.002556,0.5277,-0.0347,-0.5306
5.0465,0.016751,-0.198884,0.198884,-0.153398,0.156466,-0.002557,0.6274,-0.0334,-0.4243
5.0632,0.016726,-0.207642,0.207642,-0.173340,0.176408,-0.002569,0.4789,0.0002,-0.4889
5.0800,0.016759,-0.216417,0.216417,-0.190214,0.182544,-0.002555,0.5333,-0.0387,-0.5356
5.0967,0.016749,-0.225187,0.225187,-0.191748,0.181010,-0.002556,0.5276,-0.0347,-0.5307
5.1135,0.016782,-0.233974,0.233974,-0.191748,0.188680,-0.002556,0.5276,-0.0347,-0.5307
5.1304,0.016926,-0.242836,0.242836,-0.191748,0.188680,-0.002556,0.5276,-0.0347,-0.5307
5.1472,0.016755,-0.251609,0.251609,-0.204019,0.207087,-0.002544,0.5781,-0.0509,-0.4776
5.1640,0.016755,-0.260382,0.260382,-0.223961,0.228563,-0.002557,0.5229,-0.0334,-0.5367
5.1807,0.016773,-0.269164,0.269164,-0.239301,0.236233,-0.002569,0.4898,0.0003,-0.4772
5.1975,0.016752,-0.277935,0.277935,-0.245437,0.236233,-0.002568,0.5813,-0.0213,-0.4835
5.2143,0.016796,-0.286730,0.286730,-0.245437,0.236233,-0.002568,0.5813,-0.0213,-0.4835
5.2311,0.016778,-0.295514,0.295514,-0.245437,0.236233,-0.002568,0.5813,-0.0213,-0.4835
5.2478,0.016763,-0.304291,0.304291,-0.245437,0.236233,-0.002568,0.5813,-0.0213,-0.4835
5.2646,0.016757,-0.313065,0.313065,-0.273049,0.273049,-0.002555,0.5225,-0.0365,-0.5361
5.2813,0.016767,-0.321845,0.321845,-0.266913,0.268447,-0.002569,0.4898,0.0006,-0.4772
5.2981,0.016761,-0.330621,0.330621,-0.266913,0.268447,-0.002569,0.4898,0.0006,-0.4772
5.3149,0.016747,-0.339390,0.339390,-0.279185,0.279185,-0.002555,0.5321,-0.0388,-0.5368
5.3316,0.016756,-0.348163,0.348163,-0.311398,0.305262,-0.002556,0.5277,-0.0347,-0.5306
5.3484,0.016745,-0.341202,0.341202,-0.342078,0.335942,-0.002569,0.5774,-0.0176,-0.4779
5.3651,0.016765,-0.332423,0.332423,-0.352816,0.349748,-0.002555,0.5230,-0.0369,-0.5367
5.3819,0.016749,-0.323653,0.323653,-0.352816,0.349748,-0.002556,0.5286,-0.0349,-0.5306
5.3986,0.016772,-0.314872,0.314872,-0.352816,0.349748,-0.002556,0.5286,-0.0349,-0.5306
5.4154,0.016746,-0.306103,0.306103,-0.345146,0.345146,-0.002569,0.4892,0.0004,-0.4778
5.4321,0.016754,-0.297331,0.297331,-0.340544,0.337476,-0.002555,0.5322,-0.0387,-0.5367
5.4489,0.016744,-0.288564,0.288564,-0.334408,0.331340,-0.002569,0.4888,0.0008,-0.4772
5.4656,0.016760,-0.279788,0.279788,-0.319068,0.319068,-0.002567,0.4933,-0.0033,-0.4834
5.4824,0.016748,-0.271019,0.271019,-0.303728,0.308330,-0.002555,0.5317,-0.0384,-0.5361
5.4991,0.016753,-0.262247,0.262247,-0.303728,0.308330,-0.002555,0.5317,-0.0384,-0.5361
5.5159,0.016746,-0.253479,0.253479,-0.289922,0.296058,-0.002556,0.5277,-0.0347,-0.5306
5.5326,0.016759,-0.244704,0.244704,-0.282252,0.288388,-0.002556,0.5277,-0.0347,-0.5306
5.5494,0.016745,-0.235936,0.235936,-0.273049,0.277651,-0.002556,0.5277,-0.0347,-0.5306
5.5661,0.016749,-0.227167,0.227167,-0.262311,0.266913,-0.002556,0.5277,-0.0347,-0.5306
5.5829,0.016745,-0.218399,0.218399,-0.251573,0.254641,-0.002569,0.4893,0.0004,-0.4778
5.5997,0.016762,-0.209622,0.209622,-0.251573,0.254641,-0.002569,0.4893,0.0004,-0.4778
5.6164,0.016749,-0.200853,0.200853,-0.240835,0.243903,-0.002555,0.5322,-0.0387,-0.5367
5.6332,0.016753,-0.192081,0.192081,-0.230097,0.234699,-0.002556,0.5277,-0.0347,-0.5306
5.6499,0.016745,-0.183313,0.183313,-0.220893,0.225495,-0.002556,0.5277,-0.0347,-0.5306
5.6667,0.016756,-0.174540,0.174540,-0.207087,0.216291,-0.002556,0.5277,-0.0347,-0.5306
5.6834,0.016745,-0.165772,0.165772,-0.196350,0.205553,-0.002556,0.5277,-0.0347,-0.5306
5.7002,0.016759,-0.156997,0.156997,-0.196350,0.205553,-0.002556,0.5277,-0.0347,-0.5306
5.7170,0.016864,-0.148167,0.148167,-0.184078,0.191748,-0.002556,0.5277,-0.0347,-0.5306
5.7338,0.016755,-0.139394,0.139394,-0.174874,0.181010,-0.002569,0.4893,0.0004,-0.4778
5.7505,0.016743,-0.130628,0.130628,-0.165670,0.168738,-0.002555,0.5322,-0.0387,-0.5367
5.7673,0.016762,-0.121851,0.121851,-0.154932,0.156466,-0.002556,0.5277,-0.0347,-0.5306
5.7840,0.016744,-0.113084,0.113084,-0.142660,0.142660,-0.002556,0.5277,-0.0347,-0.5306
5.8008,0.016760,-0.104308,0.104308,-0.142660,0.142660,-0.002556,0.5277,-0.0347,-0.5306
5.8175,0.016746,-0.095540,0.095540,-0.130388,0.131922,-0.002556,0.5277,-0.0347,-0.5306
5.8343,0.016752,-0.086768,0.086768,-0.121184,0.121184,-0.002569,0.4893,0.0004,-0.4778
5.8510,0.016743,-0.078002,0.078002,-0.111981,0.113515,-0.002555,0.5322,-0.0387,-0.5367
5.8678,0.016759,-0.069227,0.069227,-0.101243,0.102777,-0.002556,0.5277,-0.0347,-0.5306
5.8845,0.016746,-0.060459,0.060459,-0.088971,0.088971,-0.002556,0.5277,-0.0347,-0.5306
5.9013,0.016765,-0.051680,0.051680,-0.088971,0.088971,-0.002556,0.5277,-0.0347,-0.5306
5.9180,0.016742,-0.042914,0.042914,-0.078233,0.079767,-0.002569,0.4893,0.0004,-0.4778
5.9348,0.016748,-0.034145,0.034145,-0.065961,0.069029,-0.002555,0.5322,-0.0387,-0.5367
5.9515,0.016742,-0.025379,0.025379,-0.059825,0.059825,-0.002556,0.5277,-0.0347,-0.5306
5.9683,0.016747,-0.016611,0.016611,-0.050621,0.049087,-0.002556,0.5277,-0.0347,-0.5306
5.9850,0.016744,-0.007843,0.007843,-0.038350,0.038350,-0.002556,0.5277,-0.0347,-0.5306
6.0018,0.016751,-0.000927,0.000927,-0.038350,0.038350,-0.002556,0.5277,-0.0347,-0.5306
6.0185,0.016745,-0.009695,0.009695,-0.023010,0.027612,-0.002556,0.5277,-0.0347,-0.5306
6.0353,0.016753,-0.018467,0.018467,-0.012272,0.016874,-0.002569,0.4893,0.0004,-0.4778
6.0520,0.016739,-0.027231,0.027231,-0.006136,0.006136,-0.002555,0.5322,-0.0387,-0.5367
6.0688,0.016752,-0.036003,0.036003,-0.007670,0.006136,-0.002556,0.5277,-0.0347,-0.5306
6.0855,0.016746,-0.044771,0.044771,-0.016874,0.016874,-0.002569,0.4893,0.0004,-0.4778
6.1023,0.016749,-0.053541,0.053541,-0.016874,0.016874,-0.002569,0.4893,0.0004,-0.4778
6.1190,0.016740,-0.062306,0.062306,-0.029146,0.027612,-0.002555,0.5322,-0.0387,-0.5367
6.1357,0.016751,-0.071076,0.071076,-0.039884,0.038350,-0.002569,0.4888,0.0008,-0.4772
6.1525,0.016743,-0.079843,0.079843,-0.047553,0.046019,-0.002580,0.5426,0.0142,-0.4300
6.1692,0.016750,-0.088613,0.088613,-0.052155,0.052155,-0.002553,0.5266,-0.0402,-0.5417
6.1860,0.016745,-0.097381,0.097381,-0.064427,0.062893,-0.002556,0.5283,-0.0345,-0.5301
6.2027,0.016756,-0.106154,0.106154,-0.064427,0.062893,-0.002556,0.5283,-0.0345,-0.5301
6.2195,0.016744,-0.114922,0.114922,-0.082835,0.081301,-0.002556,0.5283,-0.0345,-0.5301
6.2362,0.016747,-0.123690,0.123690,-0.093573,0.093573,-0.002556,0.5283,-0.0345,-0.5301
6.2531,0.016828,-0.132501,0.132501,-0.099709,0.098175,-0.002569,0.4892,0.0004,-0.4779
6.2699,0.016827,-0.141312,0.141312,-0.099709,0.098175,-0.002569,0.4892,0.0004,-0.4779
6.2866,0.016742,-0.150078,0.150078,-0.121184,0.113515,-0.002555,0.5322,-0.0387,-0.5367
6.3034,0.016755,-0.158851,0.158851,-0.121184,0.113515,-0.002555,0.5322,-0.0387,-0.5367
6.3201,0.016744,-0.167618,0.167618,-0.130388,0.128854,-0.002556,0.5277,-0.0347,-0.5306
6.3369,0.016750,-0.176388,0.176388,-0.138058,0.138058,-0.002556,0.5277,-0.0347,-0.5306
6.3536,0.016743,-0.185155,0.185155,-0.148796,0.148796,-0.002569,0.4893,0.0004,-0.4778
6.3704,0.016755,-0.193927,0.193927,-0.167204,0.167204,-0.002555,0.5322,-0.0387,-0.5367
6.3871,0.016744,-0.202695,0.202695,-0.184078,0.179476,-0.002556,0.5277,-0.0347,-0.5306
6.4039,0.016766,-0.211473,0.211473,-0.184078,0.179476,-0.002556,0.5277,-0.0347,-0.5306
6.4206,0.016746,-0.220241,0.220241,-0.191748,0.184078,-0.002556,0.5277,-0.0347,-0.5306
6.4374,0.016746,-0.229009,0.229009,-0.191748,0.187146,-0.002556,0.5277,-0.0347,-0.5306
6.4541,0.016748,-0.237779,0.237779,-0.199418,0.196350,-0.002556,0.5277,-0.0347,-0.5306
6.4709,0.016748,-0.246548,0.246548,-0.213223,0.216291,-0.002556,0.5277,-0.0347,-0.5306
6.4876,0.016744,-0.255315,0.255315,-0.231631,0.234699,-0.002556,0.5277,-0.0347,-0.5306
6.5044,0.016762,-0.264091,0.264091,-0.231631,0.234699,-0.002556,0.5277,-0.0347,-0.5306
6.5211,0.016743,-0.272858,0.272858,-0.245437,0.240835,-0.002569,0.4893,0.0004,-0.4778
6.5379,0.016743,-0.281625,0.281625,-0.245437,0.243903,-0.002543,0.5821,-0.0546,-0.4832
6.5546,0.016748,-0.290394,0.290394,-0.246971,0.251573,-0.002557,0.5225,-0.0330,-0.5362
6.5714,0.016763,-0.299171,0.299171,-0.259243,0.266913,-0.002556,0.5287,-0.0353,-0.5306
6.5881,0.016757,-0.307945,0.307945,-0.279185,0.285320,-0.002556,0.5287,-0.0353,-0.5306
6.6049,0.016756,-0.316719,0.316719,-0.279185,0.285320,-0.002556,0.5287,-0.0353,-0.5306
6.6216,0.016745,-0.325486,0.325486,-0.299126,0.292990,-0.002556,0.5287,-0.0353,-0.5306
6.6384,0.016750,-0.334257,0.334257,-0.303728,0.297592,-0.002569,0.4892,0.0005,-0.4778
6.6551,0.016743,-0.343023,0.343023,-0.305262,0.305262,-0.002555,0.5322,-0.0388,-0.5367
6.6719,0.016754,-0.346336,0.346336,-0.317534,0.320602,-0.002569,0.4888,0.0008,-0.4772
6.6890,0.017130,-0.337367,0.337367,-0.337476,0.337476,-0.002567,0.4933,-0.0033,-0.4834
6.7058,0.016774,-0.328584,0.328584,-0.337476,0.337476,-0.002567,0.4933,-0.0033,-0.4834
6.7225,0.016744,-0.319817,0.319817,-0.352816,0.345146,-0.002555,0.5317,-0.0384,-0.5361
6.7393,0.016749,-0.311047,0.311047,-0.352816,0.343612,-0.002556,0.5277,-0.0347,-0.5306
6.7560,0.016745,-0.302279,0.302279,-0.346680,0.339010,-0.002556,0.5277,-0.0347,-0.5306
6.7728,0.016755,-0.293507,0.293507,-0.339010,0.334408,-0.002569,0.4893,0.0004,-0.4778
6.7896,0.016826,-0.284697,0.284697,-0.326738,0.328272,-0.002555,0.5322,-0.0387,-0.5367
6.8064,0.016761,-0.275920,0.275920,-0.326738,0.328272,-0.002555,0.5322,-0.0387,-0.5367
6.8231,0.016749,-0.267151,0.267151,-0.314466,0.319068,-0.002556,0.5277,-0.0347,-0.5306
6.8399,0.016752,-0.258379,0.258379,-0.300660,0.306796,-0.002556,0.5277,-0.0347,-0.5306
6.8566,0.016744,-0.249612,0.249612,-0.289922,0.297592,-0.002569,0.4893,0.0004,-0.4778
6.8734,0.016752,-0.240841,0.240841,-0.279185,0.285320,-0.002555,0.5322,-0.0387,-0.5367
6.8903,0.016911,-0.231986,0.231986,-0.268447,0.274583,-0.002556,0.5277,-0.0347,-0.5306
6.9070,0.016763,-0.223209,0.223209,-0.268447,0.274583,-0.002556,0.5277,-0.0347,-0.5306
6.9238,0.016750,-0.214439,0.214439,-0.259243,0.263845,-0.002569,0.4893,0.0004,-0.4778
6.9405,0.016748,-0.205670,0.205670,-0.248505,0.251573,-0.002555,0.5322,-0.0387,-0.5367
6.9573,0.016749,-0.196901,0.196901,-0.237767,0.240835,-0.002556,0.5277,-0.0347,-0.5306
6.9740,0.016745,-0.188133,0.188133,-0.228563,0.233165,-0.002569,0.4893,0.0004,-0.4778
6.9913,0.017259,-0.179096,0.179096,-0.216291,0.222427,-0.002555,0.5322,-0.0387,-0.5367
7.0080,0.016748,-0.170327,0.170327,-0.216291,0.222427,-0.002555,0.5322,-0.0387,-0.5367
7.0248,0.016746,-0.161558,0.161558,-0.202485,0.211689,-0.002556,0.5277,-0.0347,-0.5306
7.0415,0.016753,-0.152786,0.152786,-0.191748,0.200951,-0.002556,0.5277,-0.0347,-0.5306
7.0583,0.016747,-0.144018,0.144018,-0.181010,0.190214,-0.002556,0.5277,-0.0347,-0.5306
7.0750,0.016747,-0.135249,0.135249,-0.173340,0.176408,-0.002569,0.4893,0.0004,-0.4778
7.0918,0.016797,-0.126454,0.126454,-0.162602,0.164136,-0.002555,0.5322,-0.0387,-0.5367
7.1086,0.016747,-0.117685,0.117685,-0.162602,0.164136,-0.002555,0.5322,-0.0387,-0.5367
7.1253,0.016751,-0.108914,0.108914,-0.150330,0.151864,-0.002556,0.5277,-0.0347,-0.5306
7.1421,0.016745,-0.100147,0.100147,-0.139592,0.139592,-0.002556,0.5277,-0.0347,-0.5306
7.1588,0.016749,-0.091377,0.091377,-0.128854,0.130388,-0.002556,0.5277,-0.0347,-0.5306
7.1756,0.016748,-0.082608,0.082608,-0.119651,0.119651,-0.002569,0.4893,0.0004,-0.4778
7.1923,0.016751,-0.073837,0.073837,-0.107379,0.108913,-0.002555,0.5322,-0.0387,-0.5367
7.2091,0.016737,-0.065073,0.065073,-0.107379,0.108913,-0.002555,0.5322,-0.0387,-0.5367
7.2258,0.016750,-0.056303,0.056303,-0.095107,0.098175,-0.002569,0.5769,-0.0172,-0.4772
7.2425,0.016739,-0.047539,0.047539,-0.084369,0.085903,-0.002555,0.5230,-0.0369,-0.5368
7.2593,0.016771,-0.038757,0.038757,-0.073631,0.076699,-0.002569,0.5779,-0.0174,-0.4772
7.2761,0.016743,-0.029991,0.029991,-0.064427,0.065961,-0.002567,0.4840,-0.0014,-0.4834
7.2929,0.016826,-0.021180,0.021180,-0.064427,0.065961,-0.002567,0.4840,-0.0014,-0.4834
7.3097,0.016817,-0.012375,0.012375,-0.064427,0.065961,-0.002567,0.4840,-0.0014,-0.4834
7.3265,0.016757,-0.003601,0.003601,-0.033748,0.035282,-0.002555,0.5327,-0.0386,-0.5361
7.3432,0.016744,-0.005166,0.005166,-0.033748,0.035282,-0.002555,0.5327,-0.0386,-0.5361
7.3599,0.016742,-0.013932,0.013932,-0.036816,0.036816,-0.002544,0.5776,-0.0505,-0.4771
7.3766,0.016705,-0.022679,0.022679,-0.038350,0.035282,-0.002557,0.5230,-0.0335,-0.5368
7.3934,0.016773,-0.031461,0.031461,-0.024544,0.024544,-0.002556,0.5286,-0.0352,-0.5306
7.4102,0.016738,-0.040225,0.040225,-0.007670,0.010738,-0.002556,0.5286,-0.0352,-0.5306
7.4269,0.016748,-0.048994,0.048994,-0.007670,0.010738,-0.002556,0.5286,-0.0352,-0.5306
7.4436,0.016739,-0.057759,0.057759,-0.009204,0.009204,-0.002569,0.4892,0.0005,-0.4778
7.4604,0.016741,-0.066525,0.066525,-0.023010,0.018408,-0.002567,0.4933,-0.0033,-0.4833
7.4771,0.016739,-0.075289,0.075289,-0.039884,0.036816,-0.002555,0.5317,-0.0384,-0.5361
7.4939,0.016750,-0.084059,0.084059,-0.055223,0.053689,-0.002556,0.5277,-0.0347,-0.5306
7.5107,0.016793,-0.092852,0.092852,-0.070563,0.070563,-0.002569,0.4893,0.0004,-0.4778
7.5274,0.016744,-0.101619,0.101619,-0.070563,0.070563,-0.002569,0.4893,0.0004,-0.4778
7.5442,0.016744,-0.110386,0.110386,-0.081301,0.076699,-0.002555,0.5322,-0.0387,-0.5367
7.5609,0.016739,-0.119151,0.119151,-0.082835,0.078233,-0.002556,0.5277,-0.0347,-0.5306
7.5776,0.016742,-0.127917,0.127917,-0.082835,0.084369,-0.002556,0.5277,-0.0347,-0.5306
7.5944,0.016749,-0.136687,0.136687,-0.090505,0.096641,-0.002556,0.5277,-0.0347,-0.5306
7.6111,0.016742,-0.145453,0.145453,-0.108913,0.115049,-0.002556,0.5277,-0.0347,-0.5306
7.6279,0.016744,-0.154220,0.154220,-0.108913,0.115049,-0.002556,0.5277,-0.0347,-0.5306
7.6446,0.016742,-0.162986,0.162986,-0.130388,0.131922,-0.002556,0.5277,-0.0347,-0.5306
7.6614,0.016749,-0.171756,0.171756,-0.144194,0.136524,-0.002569,0.4893,0.0004,-0.4778
7.6781,0.016747,-0.180525,0.180525,-0.147262,0.138058,-0.002555,0.5322,-0.0387,-0.5367
7.6949,0.016751,-0.189295,0.189295,-0.150330,0.150330,-0.002556,0.5277,-0.0347,-0.5306
7.7116,0.016746,-0.198064,0.198064,-0.164136,0.168738,-0.002569,0.4893,0.0004,-0.4778
7.7284,0.016759,-0.206838,0.206838,-0.164136,0.168738,-0.002569,0.4893,0.0004,-0.4778
7.7451,0.016745,-0.215606,0.215606,-0.182544,0.184078,-0.002555,0.5322,-0.0387,-0.5367
7.7619,0.016756,-0.224380,0.224380,-0.194816,0.187146,-0.002569,0.4888,0.0008,-0.4772
7.7787,0.016873,-0.233215,0.233215,-0.197884,0.190214,-0.002555,0.5322,-0.0388,-0.5368
7.7955,0.016748,-0.241984,0.241984,-0.200951,0.204019,-0.002544,0.5777,-0.0505,-0.4770
7.8123,0.016799,-0.250780,0.250780,-0.217825,0.222427,-0.002557,0.5229,-0.0335,-0.5368
7.8291,0.016766,-0.259558,0.259558,-0.217825,0.222427,-0.002557,0.5229,-0.0335,-0.5368
7.8458,0.016744,-0.268325,0.268325,-0.236233,0.239301,-0.002569,0.4898,0.0003,-0.4772
7.8625,0.016749,-0.277095,0.277095,-0.245437,0.239301,-0.002580,0.5425,0.0143,-0.4300
7.8793,0.016753,-0.285867,0.285867,-0.246971,0.239301,-0.002566,0.5759,-0.0227,-0.4884
7.8961,0.016758,-0.294642,0.294642,-0.251573,0.250039,-0.002555,0.5231,-0.0364,-0.5356
7.9128,0.016751,-0.303412,0.303412,-0.271515,0.274583,-0.002557,0.5397,-0.0153,-0.4237
7.9296,0.016761,-0.312188,0.312188,-0.271515,0.274583,-0.002557,0.5397,-0.0153,-0.4237
7.9463,0.016748,-0.320957,0.320957,-0.289922,0.291456,-0.002556,0.5269,-0.0371,-0.5424
7.9632,0.016870,-0.329790,0.329790,-0.300660,0.292990,-0.002569,0.4894,0.0006,-0.4766
7.9801,0.016952,-0.338666,0.338666,-0.302194,0.292990,-0.002555,0.5322,-0.0388,-0.5368
7.9969,0.016753,-0.347438,0.347438,-0.309864,0.305262,-0.002556,0.5277,-0.0347,-0.5306
8.0136,0.016745,-0.341926,0.341926,-0.329806,0.325204,-0.002556,0.5277,-0.0347,-0.5306
8.0304,0.016755,-0.333153,0.333153,-0.329806,0.325204,-0.002556,0.5277,-0.0347,-0.5306
8.0471,0.016743,-0.324386,0.324386,-0.346680,0.343612,-0.002556,0.5277,-0.0347,-0.5306
8.0639,0.016750,-0.315616,0.315616,-0.348214,0.345146,-0.002569,0.4893,0.0004,-0.4778
8.0806,0.016743,-0.306849,0.306849,-0.345146,0.342078,-0.002555,0.5322,-0.0387,-0.5367
8.0974,0.016749,-0.298080,0.298080,-0.340544,0.335942,-0.002556,0.5277,-0.0347,-0.5306
8.1142,0.016854,-0.289255,0.289255,-0.335942,0.331340,-0.002556,0.5277,-0.0347,-0.5306
8.1310,0.016755,-0.280482,0.280482,-0.335942,0.331340,-0.002556,0.5277,-0.0347,-0.5306
8.1477,0.016743,-0.271716,0.271716,-0.325204,0.323670,-0.002556,0.5277,-0.0347,-0.5306
8.1645,0.016748,-0.262947,0.262947,-0.312932,0.316000,-0.002556,0.5277,-0.0347,-0.5306
8.1812,0.016745,-0.254179,0.254179,-0.300660,0.305262,-0.002556,0.5277,-0.0347,-0.5306
8.1980,0.016744,-0.245412,0.245412,-0.288388,0.296058,-0.002556,0.5277,-0.0347,-0.5306
8.2147,0.016763,-0.236635,0.236635,-0.277651,0.283786,-0.002569,0.5774,-0.0176,-0.4779
8.2315,0.016749,-0.227865,0.227865,-0.277651,0.283786,-0.002569,0.5774,-0.0176,-0.4779
8.2482,0.016743,-0.219099,0.219099,-0.265379,0.271515,-0.002567,0.4841,-0.0014,-0.4833
8.2650,0.016747,-0.210330,0.210330,-0.254641,0.259243,-0.002555,0.5327,-0.0386,-0.5361
8.2817,0.016749,-0.201560,0.201560,-0.245437,0.248505,-0.002569,0.4888,0.0008,-0.4772
8.2985,0.016746,-0.192792,0.192792,-0.234699,0.239301,-0.002555,0.5322,-0.0388,-0.5368
8.3157,0.017228,-0.183771,0.183771,-0.223961,0.228563,-0.002555,0.5322,-0.0388,-0.5368
8.3325,0.016762,-0.174995,0.174995,-0.223961,0.228563,-0.002556,0.5277,-0.0347,-0.5306
8.3492,0.016753,-0.166223,0.166223,-0.223961,0.228563,-0.002556,0.5277,-0.0347,-0.5306
8.3660,0.016755,-0.157450,0.157450,-0.191748,0.197884,-0.002569,0.4893,0.0004,-0.4778
8.3827,0.016745,-0.148682,0.148682,-0.193282,0.191748,-0.002567,0.4933,-0.0033,-0.4833
8.3995,0.016760,-0.139906,0.139906,-0.193282,0.191748,-0.002567,0.4933,-0.0033,-0.4833
8.4162,0.016752,-0.131135,0.131135,-0.187146,0.181010,-0.002555,0.5317,-0.0384,-0.5361
8.4330,0.016754,-0.122362,0.122362,-0.171806,0.167204,-0.002569,0.5770,-0.0172,-0.4773
8.4497,0.016744,-0.113595,0.113595,-0.154932,0.153398,-0.002567,0.4841,-0.0014,-0.4834
8.4665,0.016747,-0.104827,0.104827,-0.138058,0.139592,-0.002555,0.5327,-0.0386,-0.5361
8.4832,0.016757,-0.096053,0.096053,-0.121184,0.124252,-0.002556,0.5276,-0.0347,-0.5306
8.5000,0.016751,-0.087282,0.087282,-0.121184,0.124252,-0.002556,0.5276,-0.0347,-0.5306
8.5167,0.016743,-0.078516,0.078516,-0.110447,0.113515,-0.002569,0.4893,0.0004,-0.4778
8.5335,0.016749,-0.069746,0.069746,-0.104311,0.102777,-0.002567,0.4933,-0.0033,-0.4833
8.5502,0.016739,-0.060982,0.060982,-0.099709,0.093573,-0.002555,0.5317,-0.0384,-0.5361
8.5669,0.016742,-0.052216,0.052216,-0.090505,0.082835,-0.002569,0.4889,0.0008,-0.4772
8.5837,0.016747,-0.043447,0.043447,-0.075165,0.072097,-0.002567,0.4933,-0.0033,-0.4834
8.6004,0.016749,-0.034677,0.034677,-0.075165,0.072097,-0.002567,0.4933,-0.0033,-0.4834
8.6172,0.016749,-0.025908,0.025908,-0.061359,0.059825,-0.002555,0.5317,-0.0384,-0.5361
8.6339,0.016756,-0.017134,0.017134,-0.049087,0.050621,-0.002556,0.5277,-0.0347,-0.5306
8.6507,0.016751,-0.008364,0.008364,-0.036816,0.041417,-0.002556,0.5277,-0.0347,-0.5306
8.6674,0.016746,-0.000405,0.000405,-0.030680,0.030680,-0.002556,0.5277,-0.0347,-0.5306
8.6844,0.016947,-0.009278,0.009278,-0.018408,0.019942,-0.002569,0.5774,-0.0176,-0.4779
8.7011,0.016754,-0.018051,0.018051,-0.018408,0.019942,-0.002569,0.5774,-0.0176,-0.4779
8.7179,0.016743,-0.026817,0.026817,-0.004602,0.007670,-0.002555,0.5230,-0.0369,-0.5367
8.7346,0.016750,-0.035587,0.035587,0.003068,-0.001534,-0.002556,0.5286,-0.0349,-0.5306
8.7514,0.016741,-0.044353,0.044353,0.001534,0.000000,-0.002556,0.5286,-0.0349,-0.5306
8.7681,0.016749,-0.053122,0.053122,-0.012272,0.013806,-0.002569,0.4892,0.0004,-0.4778
8.7849,0.016752,-0.061894,0.061894,-0.030680,0.032214,-0.002555,0.5322,-0.0387,-0.5367
8.8016,0.016748,-0.070663,0.070663,-0.030680,0.032214,-0.002555,0.5322,-0.0387,-0.5367
8.8184,0.016742,-0.079429,0.079429,-0.050621,0.049087,-0.002556,0.5277,-0.0347,-0.5306
8.8351,0.016753,-0.088201,0.088201,-0.058291,0.053689,-0.002556,0.5277,-0.0347,-0.5306
8.8518,0.016700,-0.096945,0.096945,-0.058291,0.055223,-0.002569,0.5774,-0.0176,-0.4779
8.8686,0.016749,-0.105715,0.105715,-0.062893,0.067495,-0.002555,0.5230,-0.0369,-0.5367
8.8853,0.016748,-0.114484,0.114484,-0.078233,0.085903,-0.002555,0.5230,-0.0369,-0.5367
8.9021,0.016763,-0.123261,0.123261,-0.078233,0.085903,-0.002544,0.5786,-0.0507,-0.4770
8.9188,0.016745,-0.132029,0.132029,-0.101243,0.101243,-0.002557,0.5228,-0.0334,-0.5368
8.9356,0.016757,-0.140803,0.140803,-0.113515,0.105845,-0.002556,0.5287,-0.0352,-0.5306
8.9523,0.016741,-0.149568,0.149568,-0.116583,0.107379,-0.002556,0.5287,-0.0352,-0.5306
8.9691,0.016757,-0.158342,0.158342,-0.119651,0.119651,-0.002556,0.5287,-0.0352,-0.5306
8.9860,0.016915,-0.167199,0.167199,-0.134990,0.139592,-0.002569,0.4892,0.0005,-0.4778
9.0028,0.016771,-0.175980,0.175980,-0.134990,0.139592,-0.002569,0.4892,0.0005,-0.4778
9.0195,0.016740,-0.184745,0.184745,-0.154932,0.154932,-0.002555,0.5322,-0.0388,-0.5367
9.0363,0.016751,-0.193515,0.193515,-0.167204,0.158000,-0.002556,0.5277,-0.0347,-0.5306
9.0530,0.016745,-0.202283,0.202283,-0.168738,0.162602,-0.002569,0.4893,0.0004,-0.4778
9.0698,0.016755,-0.211056,0.211056,-0.170272,0.173340,-0.002568,0.5814,-0.0213,-0.4834
9.0870,0.017292,-0.220110,0.220110,-0.188680,0.193282,-0.002568,0.5718,-0.0190,-0.4828
9.1038,0.016756,-0.228883,0.228883,-0.188680,0.193282,-0.002568,0.5718,-0.0190,-0.4828
9.1205,0.016745,-0.237651,0.237651,-0.205553,0.207087,-0.002555,0.5235,-0.0367,-0.5362
9.1373,0.016747,-0.246420,0.246420,-0.217825,0.211689,-0.002556,0.5286,-0.0349,-0.5306
9.1540,0.016740,-0.255185,0.255185,-0.219359,0.211689,-0.002556,0.5286,-0.0349,-0.5306
9.1708,0.016789,-0.263976,0.263976,-0.222427,0.222427,-0.002582,0.5384,0.0179,-0.4245
9.1876,0.016788,-0.272766,0.272766,-0.239301,0.243903,-0.002582,0.5384,0.0179,-0.4245
9.2044,0.016752,-0.281537,0.281537,-0.239301,0.243903,-0.002553,0.5270,-0.0406,-0.5423
9.2211,0.016739,-0.290302,0.290302,-0.259243,0.260777,-0.002569,0.4894,0.0010,-0.4766
9.2378,0.016743,-0.299069,0.299069,-0.269981,0.263845,-0.002543,0.5821,-0.0546,-0.4833
9.2546,0.016753,-0.307841,0.307841,-0.271515,0.265379,-0.002557,0.5225,-0.0330,-0.5361
9.2713,0.016745,-0.316608,0.316608,-0.276117,0.277651,-0.002556,0.5287,-0.0353,-0.5306
9.2886,0.017208,-0.325618,0.325618,-0.291456,0.297592,-0.002556,0.5287,-0.0353,-0.5306
9.3053,0.016747,-0.334387,0.334387,-0.291456,0.297592,-0.002556,0.5287,-0.0353,-0.5306
9.3220,0.016742,-0.343153,0.343153,-0.314466,0.314466,-0.002569,0.4892,0.0005,-0.4778
9.3388,0.016740,-0.346214,0.346214,-0.325204,0.314466,-0.002555,0.5322,-0.0388,-0.5367
9.3556,0.016776,-0.337430,0.337430,-0.326738,0.316000,-0.002556,0.5277,-0.0347,-0.5306
9.3725,0.016907,-0.328578,0.328578,-0.326738,0.316000,-0.002556,0.5277,-0.0347,-0.5306
9.3892,0.016768,-0.319798,0.319798,-0.326738,0.316000,-0.002556,0.5277,-0.0347,-0.5306
9.4060,0.016747,-0.311029,0.311029,-0.346680,0.349748,-0.002569,0.4893,0.0004,-0.4778
9.4227,0.016745,-0.302261,0.302261,-0.354350,0.351282,-0.002567,0.4933,-0.0033,-0.4833
9.4395,0.016755,-0.293489,0.293489,-0.352816,0.346680,-0.002555,0.5317,-0.0384,-0.5361
9.4562,0.016745,-0.284721,0.284721,-0.343612,0.337476,-0.002556,0.5277,-0.0347,-0.5306
9.4730,0.016760,-0.275946,0.275946,-0.343612,0.337476,-0.002556,0.5277,-0.0347,-0.5306
9.4897,0.016746,-0.267178,0.267178,-0.328272,0.326738,-0.002556,0.5277,-0.0347,-0.5306
9.5065,0.016749,-0.258408,0.258408,-0.309864,0.308330,-0.002556,0.5277,-0.0347,-0.5306
9.5232,0.016751,-0.249637,0.249637,-0.292990,0.297592,-0.002569,0.4893,0.0004,-0.4778
9.5400,0.016749,-0.240867,0.240867,-0.279185,0.285320,-0.002555,0.5322,-0.0387,-0.5367
9.5567,0.016744,-0.232100,0.232100,-0.269981,0.277651,-0.002556,0.5277,-0.0347,-0.5306
9.5735,0.016758,-0.223326,0.223326,-0.269981,0.277651,-0.002556,0.5277,-0.0347,-0.5306
9.5902,0.016745,-0.214558,0.214558,-0.260777,0.266913,-0.002569,0.4893,0.0004,-0.4778
9.6070,0.016751,-0.205787,0.205787,-0.251573,0.256175,-0.002555,0.5322,-0.0387,-0.5367
9.6237,0.016744,-0.197020,0.197020,-0.242369,0.245437,-0.002569,0.4888,0.0008,-0.4772
9.6405,0.016744,-0.188253,0.188253,-0.231631,0.236233,-0.002567,0.4933,-0.0033,-0.4834
9.6572,0.016741,-0.179487,0.179487,-0.219359,0.225495,-0.002555,0.5317,-0.0384,-0.5361
9.6740,0.016751,-0.170716,0.170716,-0.219359,0.225495,-0.002555,0.5317,-0.0384,-0.5361
9.6907,0.016731,-0.161956,0.161956,-0.193282,0.202485,-0.002556,0.5277,-0.0347,-0.5306
9.7076,0.016894,-0.153110,0.153110,-0.184078,0.191748,-0.002569,0.4893,0.0004,-0.4778
9.7243,0.016743,-0.144343,0.144343,-0.176408,0.181010,-0.002555,0.5322,-0.0387,-0.5367
9.7411,0.016745,-0.135575,0.135575,-0.168738,0.168738,-0.002569,0.4888,0.0008,-0.4772
9.7578,0.016744,-0.126808,0.126808,-0.156466,0.154932,-0.002555,0.5322,-0.0388,-0.5368
9.7746,0.016749,-0.118039,0.118039,-0.156466,0.154932,-0.002555,0.5322,-0.0388,-0.5368
9.7913,0.016745,-0.109271,0.109271,-0.144194,0.144194,-0.002556,0.5277,-0.0347,-0.5306
9.8081,0.016751,-0.100500,0.100500,-0.133456,0.133456,-0.002556,0.5277,-0.0347,-0.5306
9.8251,0.017018,-0.091589,0.091589,-0.122718,0.122718,-0.002556,0.5277,-0.0347,-0.5306
9.8418,0.016747,-0.082821,0.082821,-0.108913,0.111981,-0.002556,0.5277,-0.0347,-0.5306
9.8586,0.016741,-0.074055,0.074055,-0.096641,0.101243,-0.002556,0.5277,-0.0347,-0.5306
9.8753,0.016753,-0.065284,0.065284,-0.096641,0.101243,-0.002556,0.5277,-0.0347,-0.5306
9.8921,0.016749,-0.056514,0.056514,-0.085903,0.088971,-0.002569,0.4893,0.0004,-0.4778
9.9088,0.016743,-0.047747,0.047747,-0.076699,0.078233,-0.002555,0.5322,-0.0387,-0.5367
9.9256,0.016742,-0.038981,0.038981,-0.069029,0.067495,-0.002569,0.4888,0.0008,-0.4772
9.9423,0.016745,-0.030214,0.030214,-0.059825,0.056757,-0.002555,0.5322,-0.0388,-0.5368
9.9590,0.016743,-0.021447,0.021447,-0.047553,0.046019,-0.002556,0.5277,-0.0347,-0.5306
9.9763,0.017305,-0.012386,0.012386,-0.047553,0.046019,-0.002556,0.5277,-0.0347,-0.5306
9.9931,0.016744,-0.003619,0.003619,-0.032214,0.035282,-0.002556,0.5277,-0.0347,-0.5306
10.0098,0.016749,-0.005151,0.005151,-0.021476,0.026078,-0.002556,0.5277,-0.0347,-0.5306
10.0266,0.016745,-0.013919,0.013919,-0.015340,0.018408,-0.002569,0.4893,0.0004,-0.4778
10.0433,0.016744,-0.022686,0.022686,-0.010738,0.007670,-0.002567,0.4933,-0.0033,-0.4833
10.0601,0.016751,-0.031457,0.031457,-0.003068,0.001534,-0.002555,0.5317,-0.0384,-0.5361
10.0768,0.016751,-0.040228,0.040228,-0.003068,0.001534,-0.002555,0.5317,-0.0384,-0.5361
10.0936,0.016743,-0.048994,0.048994,-0.004602,0.009204,-0.002556,0.5277,-0.0347,-0.5306
10.1103,0.016738,-0.057758,0.057758,-0.015340,0.023010,-0.002556,0.5277,-0.0347,-0.5306
10.1271,0.016741,-0.066524,0.066524,-0.032214,0.038350,-0.002556,0.5277,-0.0347,-0.5306
10.1438,0.016739,-0.075288,0.075288,-0.049087,0.052155,-0.002569,0.4893,0.0004,-0.4778
10.1605,0.016752,-0.084060,0.084060,-0.065961,0.061359,-0.002569,0.4893,0.0004,-0.4778
10.1773,0.016716,-0.092812,0.092812,-0.065961,0.061359,-0.002555,0.5322,-0.0387,-0.5367
10.1940,0.016749,-0.101582,0.101582,-0.073631,0.070563,-0.002569,0.4888,0.0008,-0.4772
10.2108,0.016745,-0.110350,0.110350,-0.075165,0.078233,-0.002567,0.4933,-0.0033,-0.4834
10.2275,0.016751,-0.119120,0.119120,-0.079767,0.085903,-0.002567,0.4933,-0.0033,-0.4834
10.2443,0.016749,-0.127890,0.127890,-0.095107,0.099709,-0.002567,0.4933,-0.0033,-0.4834
10.2610,0.016766,-0.136669,0.136669,-0.095107,0.099709,-0.002567,0.4933,-0.0033,-0.4834
10.2778,0.016743,-0.145435,0.145435,-0.111981,0.113515,-0.002567,0.4933,-0.0033,-0.4834
10.2945,0.016754,-0.154208,0.154208,-0.127320,0.124252,-0.002568,0.5810,-0.0209,-0.4828
10.3113,0.016766,-0.162987,0.162987,-0.134990,0.128854,-0.002555,0.5226,-0.0365,-0.5362
10.3280,0.016757,-0.171760,0.171760,-0.136524,0.131922,-0.002556,0.5287,-0.0349,-0.5306
10.3451,0.017089,-0.180708,0.180708,-0.145728,0.145728,-0.002556,0.5287,-0.0349,-0.5306
10.3619,0.016768,-0.189487,0.189487,-0.145728,0.145728,-0.002556,0.5287,-0.0349,-0.5306
10.3786,0.016755,-0.198260,0.198260,-0.165670,0.164136,-0.002557,0.5392,-0.0154,-0.4242
10.3954,0.016784,-0.207048,0.207048,-0.181010,0.179476,-0.002556,0.5270,-0.0371,-0.5423
10.4122,0.016805,-0.215847,0.215847,-0.181010,0.179476,-0.002556,0.5270,-0.0371,-0.5423
10.4290,0.016759,-0.224622,0.224622,-0.181010,0.179476,-0.002556,0.5270,-0.0371,-0.5423
10.4458,0.016764,-0.233400,0.233400,-0.190214,0.182544,-0.002556,0.5282,-0.0348,-0.5300
10.4625,0.016764,-0.242177,0.242177,-0.193282,0.190214,-0.002569,0.5773,-0.0176,-0.4779
10.4794,0.016865,-0.251008,0.251008,-0.196350,0.199418,-0.002567,0.4841,-0.0014,-0.4833
10.4962,0.016772,-0.259790,0.259790,-0.208621,0.211689,-0.002555,0.5327,-0.0386,-0.5361
10.5132,0.017058,-0.268721,0.268721,-0.231631,0.236233,-0.002556,0.5276,-0.0347,-0.5306
10.5300,0.016779,-0.277506,0.277506,-0.231631,0.236233,-0.002556,0.5276,-0.0347,-0.5306
10.5468,0.016753,-0.286278,0.286278,-0.254641,0.256175,-0.002556,0.5276,-0.0347,-0.5306
10.5635,0.016765,-0.295056,0.295056,-0.263845,0.260777,-0.002556,0.5276,-0.0347,-0.5306
10.5803,0.016766,-0.303835,0.303835,-0.265379,0.260777,-0.002569,0.4893,0.0004,-0.4778
10.5971,0.016776,-0.312619,0.312619,-0.273049,0.271515,-0.002555,0.5322,-0.0387,-0.5367
10.6138,0.016770,-0.321399,0.321399,-0.291456,0.289922,-0.002556,0.5277,-0.0347,-0.5306
10.6310,0.017194,-0.330402,0.330402,-0.291456,0.289922,-0.002556,0.5277,-0.0347,-0.5306
10.6479,0.016831,-0.339215,0.339215,-0.311398,0.308330,-0.002569,0.4893,0.0004,-0.4778
10.6646,0.016771,-0.347996,0.347996,-0.316000,0.312932,-0.002555,0.5322,-0.0387,-0.5367
10.6814,0.016764,-0.341359,0.341359,-0.316000,0.312932,-0.002556,0.5277,-0.0347,-0.5306
10.6981,0.016759,-0.332584,0.332584,-0.329806,0.325204,-0.002556,0.5277,-0.0347,-0.5306
10.7151,0.016946,-0.323710,0.323710,-0.346680,0.342078,-0.002556,0.5277,-0.0347,-0.5306
10.7319,0.016766,-0.314932,0.314932,-0.346680,0.342078,-0.002556,0.5277,-0.0347,-0.5306
10.7486,0.016749,-0.306162,0.306162,-0.357418,0.352816,-0.002556,0.5277,-0.0347,-0.5306
10.7654,0.016767,-0.297382,0.297382,-0.354350,0.349748,-0.002556,0.5277,-0.0347,-0.5306
10.7821,0.016758,-0.288608,0.288608,-0.342078,0.337476,-0.002556,0.5277,-0.0347,-0.5306
10.7989,0.016762,-0.279831,0.279831,-0.332874,0.329806,-0.002556,0.5277,-0.0347,-0.5306
10.8162,0.017342,-0.270751,0.270751,-0.317534,0.317534,-0.002556,0.5277,-0.0347,-0.5306
10.8330,0.016768,-0.261971,0.261971,-0.317534,0.317534,-0.002556,0.5277,-0.0347,-0.5306
10.8498,0.016753,-0.253200,0.253200,-0.300660,0.305262,-0.002556,0.5277,-0.0347,-0.5306
10.8665,0.016771,-0.244419,0.244419,-0.286854,0.292990,-0.002569,0.4893,0.0004,-0.4778
10.8833,0.016801,-0.235621,0.235621,-0.268447,0.274583,-0.002555,0.5322,-0.0387,-0.5367
10.9001,0.016760,-0.226846,0.226846,-0.259243,0.263845,-0.002569,0.4888,0.0008,-0.4772
10.9170,0.016862,-0.218017,0.218017,-0.250039,0.251573,-0.002569,0.4888,0.0008,-0.4772
10.9337,0.016750,-0.209246,0.209246,-0.250039,0.251573,-0.002567,0.4933,-0.0033,-0.4834
10.9505,0.016749,-0.200477,0.200477,-0.237767,0.240835,-0.002567,0.4933,-0.0033,-0.4834
10.9672,0.016754,-0.191704,0.191704,-0.237767,0.240835,-0.002567,0.4933,-0.0033,-0.4834
10.9840,0.016747,-0.182936,0.182936,-0.214757,0.222427,-0.002555,0.5317,-0.0384,-0.5361
11.0008,0.016838,-0.174119,0.174119,-0.202485,0.211689,-0.002556,0.5277,-0.0347,-0.5306
11.0178,0.016973,-0.165232,0.165232,-0.190214,0.199418,-0.002556,0.5277,-0.0347,-0.5306
11.0345,0.016762,-0.156455,0.156455,-0.190214,0.199418,-0.002556,0.5277,-0.0347,-0.5306
11.0513,0.016753,-0.147683,0.147683,-0.179476,0.187146,-0.002556,0.5277,-0.0347,-0.5306
11.0684,0.017092,-0.138734,0.138734,-0.170272,0.176408,-0.002556,0.5277,-0.0347,-0.5306
11.0851,0.016752,-0.129963,0.129963,-0.162602,0.164136,-0.002569,0.4893,0.0004,-0.4778
11.1030,0.017894,-0.120594,0.120594,-0.150330,0.153398,-0.002555,0.5322,-0.0387,-0.5367
11.1198,0.016832,-0.111781,0.111781,-0.139592,0.139592,-0.002556,0.5277,-0.0347,-0.5306
11.1366,0.016774,-0.102998,0.102998,-0.139592,0.139592,-0.002556,0.5277,-0.0347,-0.5306
11.1534,0.016760,-0.094222,0.094222,-0.127320,0.127320,-0.002556,0.5277,-0.0347,-0.5306
11.1701,0.016759,-0.085447,0.085447,-0.118117,0.119651,-0.002569,0.4893,0.0004,-0.4778
11.1871,0.016995,-0.076548,0.076548,-0.108913,0.110447,-0.002567,0.4933,-0.0033,-0.4833
11.2039,0.016760,-0.067773,0.067773,-0.099709,0.099709,-0.002555,0.5317,-0.0384,-0.5361
11.2207,0.016758,-0.058998,0.058998,-0.085903,0.085903,-0.002555,0.5317,-0.0384,-0.5361
11.2374,0.016767,-0.050219,0.050219,-0.085903,0.085903,-0.002556,0.5277,-0.0347,-0.5306
11.2542,0.016759,-0.041444,0.041444,-0.073631,0.075165,-0.002556,0.5277,-0.0347,-0.5306
11.2709,0.016754,-0.032672,0.032672,-0.062893,0.064427,-0.002556,0.5277,-0.0347,-0.5306
11.2877,0.016765,-0.023893,0.023893,-0.055223,0.055223,-0.002569,0.4893,0.0004,-0.4778
11.3044,0.016748,-0.015124,0.015124,-0.044485,0.044485,-0.002555,0.5322,-0.0387,-0.5367
11.3213,0.016884,-0.006283,0.006283,-0.029146,0.033748,-0.002555,0.5322,-0.0387,-0.5367
11.3381,0.016760,-0.002492,0.002492,-0.029146,0.033748,-0.002556,0.5277,-0.0347,-0.5306
11.3549,0.016760,-0.011268,0.011268,-0.018408,0.023010,-0.002556,0.5277,-0.0347,-0.5306
11.3716,0.016759,-0.020042,0.020042,-0.007670,0.012272,-0.002569,0.4893,0.0004,-0.4778
11.3884,0.016793,-0.028835,0.028835,-0.004602,0.004602,-0.002555,0.5322,-0.0387,-0.5367
11.4052,0.016755,-0.037608,0.037608,-0.009204,0.009204,-0.002569,0.4888,0.0008,-0.4772
