t,loop_dt,cmd_ant_l,cmd_ant_r,pres_ant_l,pres_ant_r,pres_z,pres_roll,pres_pitch,pres_yaw
0.0000,0.000001,-0.349066,0.349066,-0.177942,0.173340,-0.002751,0.6784,0.2595,-0.1941
0.0168,0.016764,-0.348521,0.348521,-0.176408,0.173340,-0.002738,0.7174,0.2244,-0.2480
0.0335,0.016761,-0.346892,0.346892,-0.176408,0.173340,-0.002738,0.7174,0.2244,-0.2480
0.0503,0.016748,-0.344191,0.344191,-0.177942,0.174874,-0.002728,0.7634,0.2125,-0.1889
0.0670,0.016768,-0.340428,0.340428,-0.222427,0.219359,-0.002703,0.7479,0.1602,-0.3016
0.0838,0.016748,-0.335636,0.335636,-0.285320,0.283786,-0.002718,0.7107,0.2014,-0.2365
0.1006,0.016784,-0.329828,0.329828,-0.362019,0.354350,-0.002716,0.7145,0.1971,-0.2433
0.1173,0.016754,-0.323062,0.323062,-0.381961,0.374291,-0.002716,0.7145,0.1971,-0.2433
0.1341,0.016779,-0.315358,0.315358,-0.372757,0.363553,-0.002716,0.7145,0.1971,-0.2433
0.1509,0.016753,-0.306788,0.306788,-0.372757,0.363553,-0.002691,0.7034,0.1441,-0.3491
0.1676,0.016759,-0.297391,0.297391,-0.351282,0.346680,-0.002693,0.7045,0.1497,-0.3381
0.1844,0.016752,-0.287232,0.287232,-0.331340,0.331340,-0.002692,0.6161,0.1671,-0.3390
0.2012,0.016783,-0.276351,0.276351,-0.317534,0.322136,-0.002693,0.6253,0.1653,-0.3389
0.2179,0.016755,-0.264852,0.264852,-0.305262,0.309864,-0.002679,0.5749,0.1479,-0.3921
0.2347,0.016779,-0.252774,0.252774,-0.291456,0.299126,-0.002679,0.5749,0.1479,-0.3921
0.2514,0.016752,-0.240227,0.240227,-0.291456,0.299126,-0.002630,0.5703,0.0632,-0.4930
0.2682,0.016765,-0.227261,0.227261,-0.282252,0.288388,-0.002624,0.6208,0.0563,-0.4290
0.2851,0.016896,-0.213861,0.213861,-0.271515,0.277651,-0.002611,0.5662,0.0395,-0.4889
0.3025,0.017443,-0.199766,0.199766,-0.262311,0.265379,-0.002601,0.6220,0.0255,-0.4291
0.3193,0.016749,-0.186071,0.186071,-0.250039,0.253107,-0.002615,0.5773,0.0625,-0.3820
0.3361,0.016772,-0.172285,0.172285,-0.250039,0.253107,-0.002615,0.5773,0.0625,-0.3820
0.3528,0.016752,-0.158529,0.158529,-0.231631,0.234699,-0.002600,0.6208,0.0231,-0.4403
0.3696,0.016753,-0.144873,0.144873,-0.211689,0.217825,-0.002602,0.6163,0.0272,-0.4342
0.3863,0.016759,-0.131396,0.131396,-0.191748,0.199418,-0.002602,0.6163,0.0272,-0.4342
0.4031,0.016761,-0.118186,0.118186,-0.174874,0.181010,-0.002614,0.5779,0.0624,-0.3814
0.4205,0.017432,-0.104822,0.104822,-0.156466,0.162602,-0.002589,0.6708,0.0074,-0.3868
0.4373,0.016766,-0.092411,0.092411,-0.156466,0.162602,-0.002589,0.6708,0.0074,-0.3868
0.4541,0.016769,-0.080510,0.080510,-0.141126,0.144194,-0.002604,0.6222,0.0487,-0.3328
0.4708,0.016758,-0.069203,0.069203,-0.124252,0.125786,-0.002603,0.6273,0.0444,-0.3385
0.4876,0.016828,-0.058510,0.058510,-0.110447,0.110447,-0.002603,0.6273,0.0444,-0.3385
0.5051,0.017462,-0.048185,0.048185,-0.095107,0.095107,-0.002590,0.6656,0.0093,-0.3913
0.5219,0.016769,-0.039075,0.039075,-0.079767,0.079767,-0.002591,0.6616,0.0129,-0.3858
0.5386,0.016764,-0.030812,0.030812,-0.079767,0.079767,-0.002591,0.6616,0.0129,-0.3858
0.5554,0.016759,-0.023447,0.023447,-0.064427,0.062893,-0.002604,0.6232,0.0481,-0.3329
0.5722,0.016753,-0.017027,0.017027,-0.049087,0.050621,-0.002590,0.6661,0.0089,-0.3919
0.5889,0.016748,-0.011589,0.011589,-0.035282,0.038350,-0.002604,0.6227,0.0486,-0.3323
0.6057,0.016755,-0.007164,0.007164,-0.029146,0.030680,-0.002603,0.6272,0.0444,-0.3385
0.6230,0.017358,-0.003680,0.003680,-0.021476,0.021476,-0.002603,0.6272,0.0444,-0.3385
0.6398,0.016774,-0.001398,0.001398,-0.021476,0.021476,-0.002603,0.6272,0.0444,-0.3385
0.6565,0.016758,-0.000199,0.000199,-0.009204,0.012272,-0.002590,0.6656,0.0093,-0.3913
0.6733,0.016732,-0.000085,0.000085,-0.006136,0.004602,-0.002591,0.6616,0.0129,-0.3858
0.6900,0.016760,-0.001057,0.001057,-0.006136,0.003068,-0.002591,0.6616,0.0129,-0.3858
0.7068,0.016756,-0.003111,0.003111,-0.001534,0.003068,-0.002591,0.6616,0.0129,-0.3858
0.7237,0.016915,-0.006267,0.006267,0.003068,0.000000,-0.002591,0.6616,0.0129,-0.3858
0.7406,0.016942,-0.010500,0.010500,0.003068,0.000000,-0.002591,0.6616,0.0129,-0.3858
0.7574,0.016749,-0.015712,0.015712,-0.001534,0.000000,-0.002591,0.6616,0.0129,-0.3858
0.7742,0.016756,-0.021915,0.021915,-0.006136,0.001534,-0.002591,0.6616,0.0129,-0.3858
0.7911,0.016961,-0.029163,0.029163,-0.006136,0.004602,-0.002604,0.6232,0.0481,-0.3329
0.8079,0.016752,-0.037232,0.037232,-0.004602,0.010738,-0.002590,0.6661,0.0089,-0.3919
0.8246,0.016754,-0.046158,0.046158,-0.010738,0.016874,-0.002591,0.6616,0.0130,-0.3857
0.8414,0.016754,-0.055884,0.055884,-0.010738,0.016874,-0.002591,0.6616,0.0130,-0.3857
0.8581,0.016754,-0.066349,0.066349,-0.024544,0.026078,-0.002591,0.6616,0.0130,-0.3857
0.8749,0.016753,-0.077487,0.077487,-0.038350,0.035282,-0.002591,0.6616,0.0130,-0.3857
0.8916,0.016753,-0.089230,0.089230,-0.047553,0.042951,-0.002591,0.6616,0.0130,-0.3857
0.9084,0.016751,-0.101502,0.101502,-0.050621,0.049087,-0.002591,0.6616,0.0130,-0.3857
0.9259,0.017535,-0.114836,0.114836,-0.056757,0.059825,-0.002591,0.6616,0.0130,-0.3857
0.9427,0.016770,-0.127969,0.127969,-0.056757,0.059825,-0.002591,0.6616,0.0130,-0.3857
0.9595,0.016774,-0.141396,0.141396,-0.072097,0.075165,-0.002591,0.6616,0.0130,-0.3857
0.9762,0.016752,-0.155013,0.155013,-0.093573,0.096641,-0.002591,0.6616,0.0130,-0.3857
0.9930,0.016812,-0.168801,0.168801,-0.128854,0.124252,-0.002591,0.6616,0.0130,-0.3857
1.0098,0.016758,-0.182579,0.182579,-0.128854,0.124252,-0.002591,0.6616,0.0130,-0.3857
1.0266,0.016794,-0.196338,0.196338,-0.128854,0.124252,-0.002591,0.6616,0.0130,-0.3857
1.0434,0.016827,-0.209986,0.209986,-0.128854,0.124252,-0.002591,0.6616,0.0130,-0.3857
1.0602,0.016760,-0.223358,0.223358,-0.128854,0.124252,-0.002591,0.6616,0.0130,-0.3857
1.0769,0.016768,-0.236433,0.236433,-0.179476,0.174874,-0.002591,0.6616,0.0130,-0.3857
1.0937,0.016756,-0.249112,0.249112,-0.179476,0.174874,-0.002591,0.6616,0.0130,-0.3857
1.1104,0.016744,-0.261318,0.261318,-0.170272,0.167204,-0.002604,0.6232,0.0481,-0.3329
1.1274,0.016977,-0.273142,0.273142,-0.182544,0.181010,-0.002590,0.6661,0.0089,-0.3919
1.1442,0.016743,-0.284185,0.284185,-0.207087,0.207087,-0.002591,0.6616,0.0130,-0.3857
1.1609,0.016757,-0.294555,0.294555,-0.245437,0.246971,-0.002591,0.6616,0.0130,-0.3857
1.1777,0.016744,-0.304170,0.304170,-0.279185,0.279185,-0.002591,0.6616,0.0130,-0.3857
1.1944,0.016759,-0.312985,0.312985,-0.279185,0.279185,-0.002591,0.6616,0.0130,-0.3857
1.2112,0.016741,-0.320929,0.320929,-0.297592,0.292990,-0.002591,0.6616,0.0130,-0.3857
1.2279,0.016754,-0.327968,0.327968,-0.297592,0.291456,-0.002591,0.6616,0.0130,-0.3857
1.2447,0.016743,-0.334047,0.334047,-0.297592,0.292990,-0.002591,0.6616,0.0130,-0.3857
1.2614,0.016755,-0.339137,0.339137,-0.311398,0.309864,-0.002591,0.6616,0.0130,-0.3857
1.2782,0.016749,-0.343200,0.343200,-0.332874,0.329806,-0.002591,0.6616,0.0130,-0.3857
1.2949,0.016753,-0.346213,0.346213,-0.332874,0.329806,-0.002591,0.6616,0.0130,-0.3857
1.3117,0.016740,-0.348156,0.348156,-0.342078,0.339010,-0.002591,0.6616,0.0130,-0.3857
1.3284,0.016748,-0.349019,0.349019,-0.340544,0.339010,-0.002591,0.6616,0.0130,-0.3857
1.3452,0.016753,-0.348795,0.348795,-0.343612,0.340544,-0.002591,0.6616,0.0130,-0.3857
1.3619,0.016747,-0.347487,0.347487,-0.354350,0.348214,-0.002591,0.6616,0.0130,-0.3857
1.3787,0.016832,-0.345087,0.345087,-0.354350,0.348214,-0.002604,0.6232,0.0481,-0.3329
1.3955,0.016751,-0.341634,0.341634,-0.354350,0.348214,-0.002604,0.6232,0.0481,-0.3329
1.4122,0.016766,-0.337136,0.337136,-0.351282,0.348214,-0.002590,0.5778,0.0268,-0.3917
1.4290,0.016750,-0.331629,0.331629,-0.351282,0.346680,-0.002591,0.6708,0.0111,-0.3858
1.4458,0.016754,-0.325142,0.325142,-0.349748,0.345146,-0.002591,0.6611,0.0127,-0.3864
1.4625,0.016750,-0.317719,0.317719,-0.346680,0.340544,-0.002591,0.6611,0.0127,-0.3864
1.4793,0.016805,-0.309375,0.309375,-0.343612,0.339010,-0.002591,0.6611,0.0127,-0.3864
1.4961,0.016753,-0.300216,0.300216,-0.343612,0.339010,-0.002591,0.6611,0.0127,-0.3864
1.5128,0.016746,-0.290278,0.290278,-0.337476,0.334408,-0.002591,0.6611,0.0127,-0.3864
1.5296,0.016755,-0.279614,0.279614,-0.329806,0.332874,-0.002604,0.6232,0.0482,-0.3329
1.5463,0.016750,-0.268299,0.268299,-0.320602,0.328272,-0.002590,0.6661,0.0089,-0.3919
1.5631,0.016786,-0.256374,0.256374,-0.309864,0.317534,-0.002604,0.6227,0.0486,-0.3323
1.5800,0.016870,-0.243873,0.243873,-0.296058,0.303728,-0.002590,0.6661,0.0088,-0.3919
1.5967,0.016758,-0.231022,0.231022,-0.296058,0.303728,-0.002590,0.6661,0.0088,-0.3919
1.6135,0.016747,-0.217827,0.217827,-0.280718,0.288388,-0.002591,0.6616,0.0130,-0.3857
1.6302,0.016758,-0.204354,0.204354,-0.266913,0.273049,-0.002591,0.6616,0.0130,-0.3857
1.6471,0.016863,-0.190609,0.190609,-0.254641,0.257709,-0.002591,0.6616,0.0130,-0.3857
1.6638,0.016756,-0.176850,0.176850,-0.239301,0.243903,-0.002604,0.6232,0.0481,-0.3329
1.6806,0.016754,-0.163079,0.163079,-0.223961,0.227029,-0.002603,0.6272,0.0445,-0.3384
1.6974,0.016757,-0.149376,0.149376,-0.223961,0.227029,-0.002603,0.6272,0.0445,-0.3384
1.7141,0.016745,-0.135840,0.135840,-0.202485,0.211689,-0.002590,0.6656,0.0093,-0.3913
1.7309,0.016756,-0.122536,0.122536,-0.185612,0.193282,-0.002591,0.6616,0.0129,-0.3858
1.7477,0.016815,-0.109512,0.109512,-0.170272,0.177942,-0.002591,0.6616,0.0129,-0.3858
1.7644,0.016751,-0.096942,0.096942,-0.153398,0.159534,-0.002591,0.6616,0.0129,-0.3858
1.7812,0.016760,-0.084849,0.084849,-0.136524,0.139592,-0.002591,0.6616,0.0129,-0.3858
1.7980,0.016785,-0.073299,0.073299,-0.136524,0.139592,-0.002591,0.6616,0.0129,-0.3858
1.8147,0.016747,-0.062406,0.062406,-0.121184,0.121184,-0.002591,0.6616,0.0129,-0.3858
1.8315,0.016749,-0.052209,0.052209,-0.102777,0.101243,-0.002591,0.6616,0.0129,-0.3858
1.8482,0.016749,-0.042774,0.042774,-0.088971,0.088971,-0.002591,0.6616,0.0129,-0.3858
1.8650,0.016750,-0.034158,0.034158,-0.073631,0.072097,-0.002591,0.6616,0.0129,-0.3858
1.8817,0.016749,-0.026418,0.026418,-0.073631,0.072097,-0.002591,0.6616,0.0129,-0.3858
1.8985,0.016758,-0.019596,0.019596,-0.058291,0.058291,-0.002591,0.6616,0.0129,-0.3858
1.9152,0.016744,-0.013745,0.013745,-0.044485,0.046019,-0.002591,0.6616,0.0129,-0.3858
1.9320,0.016752,-0.008892,0.008892,-0.033748,0.035282,-0.002604,0.6232,0.0481,-0.3329
1.9487,0.016759,-0.005069,0.005069,-0.027612,0.027612,-0.002590,0.6661,0.0089,-0.3919
1.9655,0.016764,-0.002302,0.002302,-0.021476,0.019942,-0.002590,0.6661,0.0089,-0.3919
1.9822,0.016751,-0.000611,0.000611,-0.021476,0.019942,-0.002591,0.6616,0.0130,-0.3857
1.9990,0.016751,-0.000002,0.000002,-0.003068,0.004602,-0.002591,0.6616,0.0130,-0.3857
2.0157,0.016742,-0.000480,0.000480,-0.003068,0.003068,-0.002591,0.6616,0.0130,-0.3857
2.0325,0.016745,-0.002041,0.002041,-0.003068,0.003068,-0.002591,0.6616,0.0130,-0.3857
2.0492,0.016749,-0.004676,0.004676,-0.004602,0.001534,-0.002591,0.6616,0.0130,-0.3857
2.0662,0.016957,-0.008421,0.008421,0.001534,0.000000,-0.002604,0.6232,0.0481,-0.3329
2.0830,0.016806,-0.013179,0.013179,0.001534,0.000000,-0.002604,0.6232,0.0481,-0.3329
2.0998,0.016762,-0.018932,0.018932,0.001534,0.000000,-0.002604,0.6232,0.0481,-0.3329
2.1165,0.016744,-0.025648,0.025648,-0.003068,0.003068,-0.002590,0.6661,0.0089,-0.3919
2.1333,0.016752,-0.033294,0.033294,-0.007670,0.006136,-0.002604,0.6227,0.0486,-0.3323
2.1500,0.016742,-0.041815,0.041815,-0.009204,0.006136,-0.002590,0.6661,0.0088,-0.3919
2.1667,0.016748,-0.051164,0.051164,-0.009204,0.010738,-0.002591,0.6616,0.0130,-0.3857
2.1835,0.016746,-0.061280,0.061280,-0.021476,0.021476,-0.002591,0.6616,0.0130,-0.3857
2.2003,0.016785,-0.072127,0.072127,-0.021476,0.021476,-0.002591,0.6616,0.0130,-0.3857
2.2170,0.016750,-0.083590,0.083590,-0.038350,0.036816,-0.002591,0.6616,0.0130,-0.3857
2.2338,0.016750,-0.095620,0.095620,-0.055223,0.052155,-0.002591,0.6616,0.0130,-0.3857
2.2505,0.016742,-0.108135,0.108135,-0.061359,0.059825,-0.002591,0.6616,0.0130,-0.3857
2.2672,0.016708,-0.121036,0.121036,-0.062893,0.067495,-0.002591,0.6616,0.0130,-0.3857
2.2840,0.016748,-0.134300,0.134300,-0.075165,0.081301,-0.002604,0.6232,0.0481,-0.3329
2.3007,0.016764,-0.147828,0.147828,-0.075165,0.081301,-0.002604,0.6232,0.0481,-0.3329
2.3175,0.016748,-0.161509,0.161509,-0.099709,0.102777,-0.002590,0.6661,0.0089,-0.3919
2.3342,0.016745,-0.175269,0.175269,-0.121184,0.121184,-0.002591,0.6616,0.0130,-0.3857
2.3510,0.016744,-0.189024,0.189024,-0.139592,0.133456,-0.002591,0.6616,0.0130,-0.3857
2.3677,0.016758,-0.202700,0.202700,-0.150330,0.144194,-0.002591,0.6616,0.0130,-0.3857
2.3845,0.016747,-0.216192,0.216192,-0.162602,0.159534,-0.002604,0.6232,0.0481,-0.3329
2.4012,0.016769,-0.229441,0.229441,-0.162602,0.159534,-0.002604,0.6232,0.0481,-0.3329
2.4180,0.016745,-0.242330,0.242330,-0.188680,0.187146,-0.002590,0.6661,0.0089,-0.3919
2.4347,0.016748,-0.254799,0.254799,-0.205553,0.202485,-0.002591,0.6616,0.0130,-0.3857
2.4515,0.016745,-0.266765,0.266765,-0.216291,0.213223,-0.002591,0.6616,0.0130,-0.3857
2.4683,0.016776,-0.278178,0.278178,-0.220893,0.219359,-0.002591,0.6616,0.0130,-0.3857
2.4850,0.016746,-0.288926,0.288926,-0.233165,0.234699,-0.002591,0.6616,0.0130,-0.3857
2.5018,0.016796,-0.298990,0.298990,-0.233165,0.234699,-0.002591,0.6616,0.0130,-0.3857
2.5185,0.016743,-0.308247,0.308247,-0.257709,0.260777,-0.002591,0.6616,0.0130,-0.3857
2.5353,0.016752,-0.316677,0.316677,-0.279185,0.280718,-0.002591,0.6616,0.0130,-0.3857
2.5520,0.016745,-0.324218,0.324218,-0.291456,0.288388,-0.002591,0.6616,0.0130,-0.3857
2.5689,0.016896,-0.330882,0.330882,-0.302194,0.297592,-0.002591,0.6616,0.0130,-0.3857
2.5857,0.016751,-0.336512,0.336512,-0.302194,0.297592,-0.002591,0.6616,0.0130,-0.3857
2.6025,0.016765,-0.341136,0.341136,-0.302194,0.297592,-0.002591,0.6616,0.0130,-0.3857
2.6192,0.016750,-0.344719,0.344719,-0.322136,0.319068,-0.002604,0.6232,0.0481,-0.3329
2.6359,0.016744,-0.347240,0.347240,-0.335942,0.334408,-0.002590,0.6661,0.0089,-0.3919
2.6527,0.016751,-0.348688,0.348688,-0.337476,0.337476,-0.002591,0.6616,0.0130,-0.3857
2.6695,0.016757,-0.349051,0.349051,-0.354350,0.345146,-0.002591,0.6616,0.0130,-0.3857
2.6862,0.016747,-0.348327,0.348327,-0.355884,0.349748,-0.002591,0.6616,0.0130,-0.3857
2.7030,0.016763,-0.346518,0.346518,-0.355884,0.349748,-0.002591,0.6616,0.0130,-0.3857
2.7197,0.016744,-0.343642,0.343642,-0.351282,0.348214,-0.002591,0.6616,0.0130,-0.3857
2.7364,0.016734,-0.339715,0.339715,-0.351282,0.348214,-0.002604,0.6232,0.0481,-0.3329
2.7532,0.016750,-0.334757,0.334757,-0.352816,0.348214,-0.002590,0.6661,0.0089,-0.3919
2.7699,0.016752,-0.328800,0.328800,-0.349748,0.345146,-0.002591,0.6616,0.0130,-0.3857
2.7869,0.016937,-0.321800,0.321800,-0.345146,0.342078,-0.002604,0.6232,0.0481,-0.3329
2.8036,0.016754,-0.313954,0.313954,-0.345146,0.342078,-0.002604,0.6232,0.0481,-0.3329
2.8204,0.016744,-0.305244,0.305244,-0.340544,0.337476,-0.002590,0.6661,0.0089,-0.3919
2.8371,0.016755,-0.295714,0.295714,-0.337476,0.335942,-0.002591,0.6616,0.0130,-0.3857
2.8539,0.016751,-0.285432,0.285432,-0.328272,0.331340,-0.002591,0.6616,0.0130,-0.3857
2.8706,0.016757,-0.274456,0.274456,-0.316000,0.322136,-0.002591,0.6616,0.0130,-0.3857
2.8874,0.016752,-0.262860,0.262860,-0.300660,0.306796,-0.002604,0.6232,0.0481,-0.3329
2.9042,0.016760,-0.250708,0.250708,-0.300660,0.306796,-0.002604,0.6232,0.0481,-0.3329
2.9209,0.016747,-0.238091,0.238091,-0.286854,0.294524,-0.002590,0.6661,0.0089,-0.3919
2.9377,0.016754,-0.225073,0.225073,-0.276117,0.282252,-0.002604,0.6227,0.0486,-0.3323
2.9544,0.016747,-0.211746,0.211746,-0.265379,0.269981,-0.002590,0.6661,0.0088,-0.3919
2.9712,0.016755,-0.198180,0.198180,-0.251573,0.254641,-0.002591,0.6616,0.0130,-0.3857
2.9879,0.016758,-0.184465,0.184465,-0.233165,0.236233,-0.002604,0.6232,0.0481,-0.3329
3.0047,0.016752,-0.170693,0.170693,-0.233165,0.236233,-0.002604,0.6232,0.0481,-0.3329
3.0214,0.016749,-0.156947,0.156947,-0.214757,0.220893,-0.002590,0.6661,0.0089,-0.3919
3.0382,0.016748,-0.143312,0.143312,-0.197884,0.205553,-0.002591,0.6616,0.0130,-0.3857
3.0549,0.016747,-0.129871,0.129871,-0.182544,0.190214,-0.002591,0.6616,0.0130,-0.3857
3.0717,0.016755,-0.116702,0.116702,-0.165670,0.171806,-0.002604,0.6232,0.0481,-0.3329
3.0885,0.016799,-0.103861,0.103861,-0.147262,0.151864,-0.002590,0.6661,0.0089,-0.3919
3.1053,0.016812,-0.091453,0.091453,-0.147262,0.151864,-0.002590,0.6661,0.0089,-0.3919
3.1221,0.016790,-0.079581,0.079581,-0.147262,0.151864,-0.002590,0.6661,0.0089,-0.3919
3.1388,0.016777,-0.068312,0.068312,-0.147262,0.151864,-0.002590,0.6661,0.0089,-0.3919
3.1556,0.016752,-0.057722,0.057722,-0.115049,0.115049,-0.002591,0.6616,0.0130,-0.3857
3.1723,0.016749,-0.047861,0.047861,-0.115049,0.113515,-0.002591,0.6616,0.0130,-0.3857
3.1891,0.016746,-0.038790,0.038790,-0.118117,0.115049,-0.002591,0.6616,0.0130,-0.3857
3.2058,0.016748,-0.030563,0.030563,-0.107379,0.108913,-0.002591,0.6616,0.0130,-0.3857
3.2226,0.016748,-0.023232,0.023232,-0.082835,0.084369,-0.002591,0.6616,0.0130,-0.3857
3.2394,0.016766,-0.016837,0.016837,-0.082835,0.084369,-0.002591,0.6616,0.0130,-0.3857
3.2561,0.016746,-0.011432,0.011432,-0.055223,0.058291,-0.002604,0.6232,0.0481,-0.3329
3.2728,0.016743,-0.007043,0.007043,-0.027612,0.033748,-0.002590,0.6661,0.0089,-0.3919
3.2896,0.016741,-0.003696,0.003696,-0.015340,0.016874,-0.002604,0.6227,0.0486,-0.3323
3.3063,0.016744,-0.001411,0.001411,-0.016874,0.013806,-0.002603,0.6272,0.0444,-0.3385
3.3231,0.016745,-0.000204,0.000204,-0.019942,0.013806,-0.002603,0.6272,0.0444,-0.3385
3.3398,0.016763,-0.000082,0.000082,-0.019942,0.013806,-0.002603,0.6272,0.0444,-0.3385
3.3566,0.016750,-0.001047,0.001047,-0.012272,0.007670,-0.002590,0.6656,0.0093,-0.3913
3.3733,0.016743,-0.003091,0.003091,0.000000,0.000000,-0.002591,0.6616,0.0129,-0.3858
3.3901,0.016742,-0.006202,0.006202,0.003068,-0.001534,-0.002591,0.6616,0.0129,-0.3858
3.4068,0.016748,-0.010361,0.010361,0.000000,-0.001534,-0.002591,0.6616,0.0129,-0.3858
3.4236,0.016745,-0.015542,0.015542,-0.006136,0.003068,-0.002591,0.6616,0.0129,-0.3858
3.4403,0.016752,-0.021715,0.021715,-0.006136,0.003068,-0.002591,0.6616,0.0129,-0.3858
3.4571,0.016750,-0.028839,0.028839,-0.006136,0.006136,-0.002591,0.6616,0.0129,-0.3858
3.4738,0.016748,-0.036869,0.036869,-0.003068,0.009204,-0.002591,0.6616,0.0129,-0.3858
3.4906,0.016746,-0.045755,0.045755,-0.009204,0.012272,-0.002591,0.6616,0.0129,-0.3858
3.5078,0.017193,-0.055712,0.055712,-0.021476,0.018408,-0.002604,0.6232,0.0481,-0.3329
3.5245,0.016743,-0.066158,0.066158,-0.033748,0.027612,-0.002590,0.6661,0.0089,-0.3919
3.5413,0.016757,-0.077287,0.077287,-0.033748,0.027612,-0.002590,0.6661,0.0089,-0.3919
3.5580,0.016746,-0.089015,0.089015,-0.047553,0.041417,-0.002604,0.6227,0.0486,-0.3323
3.5747,0.016705,-0.101244,0.101244,-0.053689,0.052155,-0.002590,0.6661,0.0088,-0.3919
3.5914,0.016740,-0.113955,0.113955,-0.055223,0.059825,-0.002591,0.6616,0.0130,-0.3857
3.6082,0.016749,-0.127050,0.127050,-0.064427,0.070563,-0.002591,0.6616,0.0130,-0.3857
3.6249,0.016741,-0.140433,0.140433,-0.082835,0.088971,-0.002591,0.6616,0.0130,-0.3857
3.6417,0.016750,-0.154036,0.154036,-0.082835,0.088971,-0.002591,0.6616,0.0130,-0.3857
3.6584,0.016743,-0.167761,0.167761,-0.107379,0.108913,-0.002591,0.6616,0.0130,-0.3857
3.6752,0.016741,-0.181527,0.181527,-0.127320,0.125786,-0.002591,0.6616,0.0130,-0.3857
3.6919,0.016740,-0.195248,0.195248,-0.141126,0.133456,-0.002591,0.6616,0.0130,-0.3857
3.7087,0.016747,-0.208846,0.208846,-0.150330,0.144194,-0.002591,0.6616,0.0130,-0.3857
3.7254,0.016745,-0.222228,0.222228,-0.165670,0.164136,-0.002591,0.6616,0.0130,-0.3857
3.7422,0.016747,-0.235315,0.235315,-0.165670,0.164136,-0.002591,0.6616,0.0130,-0.3857
3.7589,0.016742,-0.248021,0.248021,-0.210155,0.208621,-0.002591,0.6616,0.0130,-0.3857
3.7756,0.016740,-0.260268,0.260268,-0.210155,0.208621,-0.002591,0.6616,0.0130,-0.3857
3.7924,0.016744,-0.271984,0.271984,-0.227029,0.227029,-0.002591,0.6616,0.0130,-0.3857
3.8091,0.016743,-0.283093,0.283093,-0.234699,0.239301,-0.002604,0.6232,0.0481,-0.3329
3.8260,0.016921,-0.293634,0.293634,-0.257709,0.263845,-0.002590,0.6661,0.0089,-0.3919
3.8428,0.016742,-0.303318,0.303318,-0.257709,0.263845,-0.002590,0.6661,0.0089,-0.3919
3.8595,0.016743,-0.312202,0.312202,-0.283786,0.285320,-0.002591,0.6616,0.0130,-0.3857
3.8763,0.016742,-0.320229,0.320229,-0.283786,0.285320,-0.002591,0.6616,0.0130,-0.3857
3.8930,0.016744,-0.327350,0.327350,-0.300660,0.292990,-0.002591,0.6616,0.0130,-0.3857
3.9098,0.016744,-0.333520,0.333520,-0.306796,0.302194,-0.002591,0.6616,0.0130,-0.3857
3.9269,0.017141,-0.338812,0.338812,-0.325204,0.323670,-0.002591,0.6616,0.0130,-0.3857
3.9436,0.016747,-0.342947,0.342947,-0.325204,0.323670,-0.002591,0.6616,0.0130,-0.3857
3.9604,0.016762,-0.346037,0.346037,-0.340544,0.339010,-0.002591,0.6616,0.0130,-0.3857
3.9771,0.016743,-0.348055,0.348055,-0.340544,0.337476,-0.002591,0.6616,0.0130,-0.3857
3.9939,0.016714,-0.348993,0.348993,-0.339010,0.337476,-0.002591,0.6616,0.0130,-0.3857
4.0106,0.016744,-0.348848,0.348848,-0.351282,0.345146,-0.002591,0.6616,0.0130,-0.3857
4.0277,0.017136,-0.347576,0.347576,-0.354350,0.348214,-0.002604,0.6232,0.0481,-0.3329
4.0445,0.016750,-0.345244,0.345244,-0.354350,0.348214,-0.002604,0.6232,0.0481,-0.3329
4.0612,0.016755,-0.341847,0.341847,-0.352816,0.348214,-0.002590,0.6661,0.0089,-0.3919
4.0780,0.016744,-0.337410,0.337410,-0.351282,0.348214,-0.002604,0.6227,0.0486,-0.3323
4.0947,0.016742,-0.331961,0.331961,-0.349748,0.346680,-0.002590,0.6661,0.0088,-0.3919
4.1115,0.016743,-0.325532,0.325532,-0.346680,0.342078,-0.002591,0.6616,0.0130,-0.3857
4.1283,0.016779,-0.318147,0.318147,-0.343612,0.339010,-0.002591,0.6616,0.0130,-0.3857
4.1450,0.016790,-0.309858,0.309858,-0.343612,0.339010,-0.002591,0.6616,0.0130,-0.3857
4.1618,0.016769,-0.300735,0.300735,-0.343612,0.339010,-0.002591,0.6616,0.0130,-0.3857
4.1786,0.016746,-0.290839,0.290839,-0.339010,0.334408,-0.002591,0.6616,0.0130,-0.3857
4.1953,0.016751,-0.280215,0.280215,-0.328272,0.332874,-0.002604,0.6232,0.0481,-0.3329
4.2121,0.016758,-0.268928,0.268928,-0.317534,0.326738,-0.002590,0.6661,0.0089,-0.3919
4.2288,0.016704,-0.257091,0.257091,-0.302194,0.312932,-0.002591,0.6616,0.0130,-0.3857
4.2455,0.016751,-0.244708,0.244708,-0.285320,0.294524,-0.002591,0.6616,0.0130,-0.3857
4.2623,0.016755,-0.231885,0.231885,-0.285320,0.294524,-0.002591,0.6616,0.0130,-0.3857
4.2790,0.016744,-0.218714,0.218714,-0.269981,0.277651,-0.002591,0.6616,0.0130,-0.3857
4.2958,0.016748,-0.205264,0.205264,-0.259243,0.263845,-0.002591,0.6616,0.0130,-0.3857
4.3125,0.016750,-0.191621,0.191621,-0.246971,0.248505,-0.002604,0.6232,0.0481,-0.3329
4.3294,0.016871,-0.177773,0.177773,-0.230097,0.231631,-0.002590,0.6661,0.0089,-0.3919
4.3462,0.016833,-0.163935,0.163935,-0.230097,0.231631,-0.002590,0.6661,0.0089,-0.3919
4.3630,0.016758,-0.150225,0.150225,-0.211689,0.216291,-0.002591,0.6616,0.0130,-0.3857
4.3797,0.016748,-0.136674,0.136674,-0.191748,0.199418,-0.002591,0.6616,0.0130,-0.3857
4.3965,0.016755,-0.123353,0.123353,-0.176408,0.184078,-0.002604,0.6232,0.0481,-0.3329
4.4132,0.016743,-0.110360,0.110360,-0.161068,0.165670,-0.002603,0.6272,0.0445,-0.3384
4.4300,0.016743,-0.097767,0.097767,-0.144194,0.147262,-0.002590,0.6656,0.0093,-0.3913
4.4467,0.016758,-0.085641,0.085641,-0.144194,0.147262,-0.002590,0.6656,0.0093,-0.3913
4.4635,0.016751,-0.074074,0.074074,-0.125786,0.127320,-0.002591,0.6616,0.0129,-0.3858
4.4802,0.016760,-0.063126,0.063126,-0.110447,0.110447,-0.002591,0.6616,0.0129,-0.3858
4.4970,0.016744,-0.052883,0.052883,-0.092039,0.093573,-0.002591,0.6616,0.0129,-0.3858
4.5137,0.016744,-0.043396,0.043396,-0.078233,0.078233,-0.002591,0.6616,0.0129,-0.3858
4.5306,0.016827,-0.034685,0.034685,-0.061359,0.061359,-0.002604,0.6232,0.0481,-0.3329
4.5473,0.016756,-0.026884,0.026884,-0.061359,0.061359,-0.002604,0.6232,0.0481,-0.3329
4.5641,0.016757,-0.020003,0.020003,-0.047553,0.049087,-0.002590,0.6661,0.0089,-0.3919
4.5808,0.016745,-0.014088,0.014088,-0.036816,0.036816,-0.002591,0.6616,0.0130,-0.3857
4.5976,0.016797,-0.009159,0.009159,-0.030680,0.030680,-0.002604,0.6232,0.0481,-0.3329
4.6144,0.016753,-0.005273,0.005273,-0.024544,0.023010,-0.002590,0.6661,0.0089,-0.3919
4.6311,0.016773,-0.002440,0.002440,-0.015340,0.013806,-0.002591,0.6616,0.0130,-0.3857
4.6479,0.016748,-0.000683,0.000683,-0.015340,0.013806,-0.002591,0.6616,0.0130,-0.3857
4.6646,0.016723,-0.000008,0.000008,-0.004602,0.004602,-0.002591,0.6616,0.0130,-0.3857
4.6814,0.016753,-0.000419,0.000419,-0.003068,0.003068,-0.002591,0.6616,0.0130,-0.3857
4.6981,0.016751,-0.001913,0.001913,-0.006136,0.003068,-0.002591,0.6616,0.0130,-0.3857
4.7154,0.017248,-0.004576,0.004576,-0.001534,0.001534,-0.002604,0.6232,0.0481,-0.3329
4.7321,0.016763,-0.008239,0.008239,0.001534,-0.001534,-0.002604,0.6232,0.0481,-0.3329
4.7489,0.016742,-0.012932,0.012932,0.001534,-0.001534,-0.002590,0.6661,0.0089,-0.3919
4.7656,0.016752,-0.018635,0.018635,0.000000,0.001534,-0.002591,0.6616,0.0130,-0.3857
4.7824,0.016744,-0.025305,0.025305,-0.006136,0.003068,-0.002591,0.6616,0.0130,-0.3857
4.7991,0.016764,-0.032914,0.032914,-0.010738,0.007670,-0.002591,0.6616,0.0130,-0.3857
4.8159,0.016748,-0.041397,0.041397,-0.013806,0.018408,-0.002591,0.6616,0.0130,-0.3857
4.8326,0.016752,-0.050712,0.050712,-0.026078,0.027612,-0.002591,0.6616,0.0130,-0.3857
4.8494,0.016743,-0.060791,0.060791,-0.026078,0.027612,-0.002591,0.6616,0.0130,-0.3857
4.8661,0.016756,-0.071588,0.071588,-0.038350,0.033748,-0.002604,0.6232,0.0481,-0.3329
4.8829,0.016739,-0.083014,0.083014,-0.046019,0.041417,-0.002590,0.6661,0.0089,-0.3919
4.8996,0.016775,-0.095036,0.095036,-0.049087,0.050621,-0.002591,0.6616,0.0130,-0.3857
4.9164,0.016743,-0.107529,0.107529,-0.059825,0.059825,-0.002580,0.7120,-0.0031,-0.3328
4.9332,0.016781,-0.120470,0.120470,-0.076699,0.076699,-0.002580,0.7120,-0.0031,-0.3328
4.9499,0.016707,-0.133689,0.133689,-0.076699,0.076699,-0.002605,0.6179,0.0498,-0.3385
4.9666,0.016750,-0.147195,0.147195,-0.096641,0.096641,-0.002602,0.6277,0.0443,-0.3379
4.9834,0.016739,-0.160864,0.160864,-0.115049,0.111981,-0.002590,0.6656,0.0093,-0.3914
5.0001,0.016763,-0.174637,0.174637,-0.125786,0.122718,-0.002604,0.6228,0.0485,-0.3324
5.0169,0.016742,-0.188392,0.188392,-0.136524,0.134990,-0.002590,0.6661,0.0088,-0.3919
5.0336,0.016778,-0.202090,0.202090,-0.136524,0.134990,-0.002590,0.6661,0.0088,-0.3919
5.0504,0.016744,-0.215589,0.215589,-0.154932,0.151864,-0.002604,0.6227,0.0486,-0.3323
5.0671,0.016748,-0.228835,0.228835,-0.177942,0.174874,-0.002590,0.6661,0.0088,-0.3919
5.0839,0.016738,-0.241736,0.241736,-0.197884,0.193282,-0.002591,0.6616,0.0130,-0.3857
5.1006,0.016761,-0.254236,0.254236,-0.213223,0.208621,-0.002591,0.6616,0.0130,-0.3857
5.1174,0.016745,-0.266228,0.266228,-0.230097,0.228563,-0.002604,0.6232,0.0481,-0.3329
5.1342,0.016772,-0.277666,0.277666,-0.230097,0.228563,-0.002604,0.6232,0.0481,-0.3329
5.1509,0.016743,-0.288443,0.288443,-0.246971,0.243903,-0.002603,0.6272,0.0445,-0.3384
5.1678,0.016908,-0.298607,0.298607,-0.256175,0.257709,-0.002590,0.6656,0.0093,-0.3913
5.1846,0.016753,-0.307901,0.307901,-0.256175,0.257709,-0.002590,0.6656,0.0093,-0.3913
5.2013,0.016758,-0.316367,0.316367,-0.279185,0.276117,-0.002591,0.6616,0.0129,-0.3858
5.2181,0.016748,-0.323944,0.323944,-0.299126,0.292990,-0.002591,0.6616,0.0129,-0.3858
5.2348,0.016781,-0.330604,0.330604,-0.299126,0.292990,-0.002591,0.6616,0.0129,-0.3858
5.2516,0.016748,-0.336278,0.336278,-0.311398,0.308330,-0.002591,0.6616,0.0129,-0.3858
5.2684,0.016761,-0.340948,0.340948,-0.323670,0.322136,-0.002591,0.6616,0.0129,-0.3858
5.2851,0.016752,-0.344578,0.344578,-0.329806,0.326738,-0.002591,0.6616,0.0129,-0.3858
5.3019,0.016762,-0.347151,0.347151,-0.331340,0.328272,-0.002591,0.6616,0.0129,-0.3858
5.3186,0.016752,-0.348647,0.348647,-0.340544,0.340544,-0.002591,0.6616,0.0129,-0.3858
5.3354,0.016780,-0.349058,0.349058,-0.340544,0.340544,-0.002591,0.6616,0.0129,-0.3858
5.3521,0.016744,-0.348380,0.348380,-0.354350,0.348214,-0.002591,0.6616,0.0129,-0.3858
5.3689,0.016750,-0.346621,0.346621,-0.352816,0.345146,-0.002604,0.6232,0.0481,-0.3329
5.3857,0.016767,-0.343786,0.343786,-0.349748,0.346680,-0.002603,0.6272,0.0445,-0.3384
5.4024,0.016759,-0.339897,0.339897,-0.352816,0.349748,-0.002590,0.6656,0.0093,-0.3913
5.4192,0.016754,-0.334979,0.334979,-0.352816,0.348214,-0.002591,0.6616,0.0129,-0.3858
5.4359,0.016765,-0.329057,0.329057,-0.352816,0.348214,-0.002591,0.6616,0.0129,-0.3858
5.4527,0.016749,-0.322179,0.322179,-0.348214,0.343612,-0.002591,0.6616,0.0129,-0.3858
5.4694,0.016752,-0.314379,0.314379,-0.345146,0.342078,-0.002591,0.6616,0.0129,-0.3858
5.4862,0.016749,-0.305710,0.305710,-0.342078,0.339010,-0.002591,0.6616,0.0129,-0.3858
5.5030,0.016763,-0.296216,0.296216,-0.339010,0.335942,-0.002591,0.6616,0.0129,-0.3858
5.5197,0.016749,-0.285972,0.285972,-0.334408,0.329806,-0.002591,0.6616,0.0129,-0.3858
5.5365,0.016761,-0.275027,0.275027,-0.334408,0.329806,-0.002591,0.6616,0.0129,-0.3858
5.5532,0.016747,-0.263464,0.263464,-0.322136,0.322136,-0.002591,0.6616,0.0129,-0.3858
5.5700,0.016751,-0.251345,0.251345,-0.308330,0.309864,-0.002591,0.6616,0.0129,-0.3858
5.5867,0.016742,-0.238754,0.238754,-0.297592,0.300660,-0.002604,0.6232,0.0481,-0.3329
5.6035,0.016751,-0.225757,0.225757,-0.282252,0.288388,-0.002590,0.6661,0.0089,-0.3919
5.6202,0.016743,-0.212447,0.212447,-0.266913,0.274583,-0.002591,0.6616,0.0130,-0.3857
5.6370,0.016770,-0.198879,0.198879,-0.266913,0.274583,-0.002591,0.6616,0.0130,-0.3857
5.6537,0.016754,-0.185172,0.185172,-0.251573,0.256175,-0.002591,0.6616,0.0130,-0.3857
5.6706,0.016838,-0.171330,0.171330,-0.236233,0.242369,-0.002591,0.6616,0.0130,-0.3857
5.6873,0.016745,-0.157585,0.157585,-0.220893,0.225495,-0.002591,0.6616,0.0130,-0.3857
5.7041,0.016756,-0.143936,0.143936,-0.205553,0.213223,-0.002591,0.6616,0.0130,-0.3857
5.7208,0.016751,-0.130481,0.130481,-0.187146,0.194816,-0.002591,0.6616,0.0130,-0.3857
5.7376,0.016772,-0.117284,0.117284,-0.187146,0.194816,-0.002591,0.6616,0.0130,-0.3857
5.7543,0.016746,-0.104465,0.104465,-0.168738,0.174874,-0.002591,0.6616,0.0130,-0.3857
5.7711,0.016743,-0.092084,0.092084,-0.150330,0.156466,-0.002604,0.6232,0.0481,-0.3329
5.7878,0.016744,-0.080216,0.080216,-0.133456,0.134990,-0.002603,0.6272,0.0445,-0.3384
5.8046,0.016748,-0.068931,0.068931,-0.121184,0.122718,-0.002603,0.6272,0.0445,-0.3384
5.8213,0.016747,-0.058304,0.058304,-0.104311,0.105845,-0.002603,0.6272,0.0445,-0.3384
5.8381,0.016748,-0.048401,0.048401,-0.104311,0.105845,-0.002603,0.6272,0.0445,-0.3384
5.8548,0.016752,-0.039280,0.039280,-0.087437,0.087437,-0.002590,0.6656,0.0093,-0.3913
5.8716,0.016757,-0.031000,0.031000,-0.070563,0.072097,-0.002591,0.6616,0.0129,-0.3858
5.8883,0.016748,-0.023618,0.023618,-0.058291,0.059825,-0.002591,0.6616,0.0129,-0.3858
5.9051,0.016764,-0.017170,0.017170,-0.047553,0.047553,-0.002591,0.6616,0.0129,-0.3858
5.9219,0.016768,-0.011702,0.011702,-0.035282,0.035282,-0.002591,0.6616,0.0129,-0.3858
5.9386,0.016746,-0.007256,0.007256,-0.035282,0.035282,-0.002591,0.6616,0.0129,-0.3858
5.9553,0.016748,-0.003850,0.003850,-0.023010,0.026078,-0.002591,0.6616,0.0129,-0.3858
5.9721,0.016747,-0.001507,0.001507,-0.015340,0.016874,-0.002604,0.6232,0.0481,-0.3329
5.9888,0.016745,-0.000241,0.000241,-0.015340,0.009204,-0.002590,0.6661,0.0089,-0.3919
6.0056,0.016728,-0.000060,0.000060,-0.012272,0.006136,-0.002591,0.6616,0.0130,-0.3857
6.0223,0.016755,-0.000965,0.000965,-0.004602,0.003068,-0.002591,0.6616,0.0130,-0.3857
6.0391,0.016748,-0.002950,0.002950,-0.004602,0.003068,-0.002591,0.6616,0.0130,-0.3857
6.0558,0.016750,-0.006003,0.006003,0.003068,0.000000,-0.002604,0.6232,0.0481,-0.3329
6.0726,0.016744,-0.010105,0.010105,0.001534,-0.001534,-0.002590,0.6661,0.0089,-0.3919
6.0893,0.016745,-0.015230,0.015230,-0.006136,0.000000,-0.002604,0.6227,0.0486,-0.3323
6.1061,0.016748,-0.021347,0.021347,-0.006136,0.001534,-0.002590,0.6661,0.0088,-0.3919
6.1228,0.016767,-0.028427,0.028427,-0.003068,0.007670,-0.002591,0.6616,0.0130,-0.3857
6.1396,0.016764,-0.036417,0.036417,-0.003068,0.007670,-0.002591,0.6616,0.0130,-0.3857
6.1563,0.016757,-0.045265,0.045265,-0.007670,0.016874,-0.002591,0.6616,0.0130,-0.3857
6.1731,0.016759,-0.054919,0.054919,-0.018408,0.016874,-0.002591,0.6616,0.0130,-0.3857
6.1899,0.016765,-0.065323,0.065323,-0.027612,0.018408,-0.002591,0.6616,0.0130,-0.3857
6.2067,0.016827,-0.076450,0.076450,-0.027612,0.018408,-0.002591,0.6616,0.0130,-0.3857
6.2235,0.016760,-0.088146,0.088146,-0.027612,0.018408,-0.002591,0.6616,0.0130,-0.3857
6.2403,0.016891,-0.100478,0.100478,-0.056757,0.058291,-0.002604,0.6232,0.0481,-0.3329
6.2571,0.016761,-0.113179,0.113179,-0.059825,0.059825,-0.002590,0.6661,0.0089,-0.3919
6.2739,0.016769,-0.126268,0.126268,-0.059825,0.059825,-0.002590,0.6661,0.0089,-0.3919
6.2906,0.016751,-0.139645,0.139645,-0.062893,0.065961,-0.002591,0.6616,0.0130,-0.3857
6.3074,0.016754,-0.153241,0.153241,-0.081301,0.087437,-0.002591,0.6616,0.0130,-0.3857
6.3241,0.016748,-0.166965,0.166965,-0.110447,0.111981,-0.002591,0.6616,0.0130,-0.3857
6.3409,0.016766,-0.180751,0.180751,-0.131922,0.131922,-0.002604,0.6232,0.0481,-0.3329
6.3576,0.016752,-0.194487,0.194487,-0.153398,0.150330,-0.002590,0.6661,0.0089,-0.3919
6.3758,0.018115,-0.209198,0.209198,-0.153398,0.150330,-0.002590,0.6661,0.0089,-0.3919
6.3925,0.016751,-0.222579,0.222579,-0.173340,0.168738,-0.002591,0.6616,0.0130,-0.3857
6.4093,0.016759,-0.235666,0.235666,-0.188680,0.184078,-0.002604,0.6232,0.0481,-0.3329
6.4260,0.016751,-0.248367,0.248367,-0.194816,0.191748,-0.002590,0.6661,0.0089,-0.3919
6.4428,0.016769,-0.260620,0.260620,-0.202485,0.200951,-0.002591,0.6616,0.0130,-0.3857
6.4595,0.016722,-0.272304,0.272304,-0.220893,0.222427,-0.002604,0.6232,0.0481,-0.3329
6.4763,0.016800,-0.283432,0.283432,-0.220893,0.222427,-0.002604,0.6232,0.0481,-0.3329
6.4931,0.016763,-0.293855,0.293855,-0.245437,0.245437,-0.002590,0.6661,0.0089,-0.3919
6.5098,0.016758,-0.303532,0.303532,-0.266913,0.265379,-0.002591,0.6616,0.0130,-0.3857
6.5266,0.016759,-0.312404,0.312404,-0.276117,0.274583,-0.002591,0.6616,0.0130,-0.3857
6.5433,0.016755,-0.320416,0.320416,-0.277651,0.279185,-0.002591,0.6616,0.0130,-0.3857
6.5607,0.017371,-0.327761,0.327761,-0.288388,0.296058,-0.002591,0.6616,0.0130,-0.3857
6.5775,0.016764,-0.333878,0.333878,-0.288388,0.296058,-0.002591,0.6616,0.0130,-0.3857
6.5943,0.016772,-0.339003,0.339003,-0.314466,0.317534,-0.002604,0.6232,0.0481,-0.3329
6.6110,0.016753,-0.343097,0.343097,-0.329806,0.319068,-0.002590,0.6661,0.0089,-0.3919
6.6278,0.016768,-0.346143,0.346143,-0.329806,0.317534,-0.002591,0.6616,0.0130,-0.3857
6.6445,0.016762,-0.348118,0.348118,-0.329806,0.329806,-0.002591,0.6616,0.0130,-0.3857
6.6613,0.016759,-0.349010,0.349010,-0.342078,0.345146,-0.002591,0.6616,0.0130,-0.3857
6.6781,0.016757,-0.348815,0.348815,-0.342078,0.345146,-0.002591,0.6616,0.0130,-0.3857
6.6948,0.016759,-0.347533,0.347533,-0.352816,0.346680,-0.002604,0.6232,0.0481,-0.3329
6.7116,0.016755,-0.345173,0.345173,-0.352816,0.345146,-0.002603,0.6272,0.0445,-0.3384
6.7283,0.016756,-0.341750,0.341750,-0.351282,0.346680,-0.002590,0.6656,0.0093,-0.3913
6.7451,0.016749,-0.337287,0.337287,-0.351282,0.346680,-0.002591,0.6616,0.0129,-0.3858
6.7618,0.016775,-0.331802,0.331802,-0.351282,0.346680,-0.002591,0.6616,0.0129,-0.3858
6.7786,0.016749,-0.325344,0.325344,-0.349748,0.345146,-0.002591,0.6616,0.0129,-0.3858
6.7954,0.016762,-0.317942,0.317942,-0.346680,0.343612,-0.002591,0.5738,0.0305,-0.3862
6.8121,0.016748,-0.309653,0.309653,-0.343612,0.340544,-0.002591,0.6712,0.0107,-0.3863
6.8289,0.016764,-0.300514,0.300514,-0.340544,0.339010,-0.002604,0.6222,0.0484,-0.3329
6.8456,0.016753,-0.290595,0.290595,-0.339010,0.334408,-0.002603,0.6273,0.0444,-0.3384
6.8627,0.017037,-0.279767,0.279767,-0.331340,0.328272,-0.002603,0.6273,0.0444,-0.3384
6.8794,0.016749,-0.268461,0.268461,-0.331340,0.328272,-0.002603,0.6273,0.0444,-0.3384
6.8962,0.016757,-0.256565,0.256565,-0.320602,0.319068,-0.002603,0.6273,0.0444,-0.3384
6.9130,0.016854,-0.244084,0.244084,-0.303728,0.306796,-0.002603,0.6273,0.0444,-0.3384
6.9298,0.016759,-0.231239,0.231239,-0.291456,0.297592,-0.002590,0.6656,0.0093,-0.3913
6.9465,0.016754,-0.218043,0.218043,-0.279185,0.285320,-0.002591,0.6616,0.0129,-0.3858
6.9633,0.016768,-0.204566,0.204566,-0.279185,0.285320,-0.002591,0.6616,0.0129,-0.3858
6.9801,0.016756,-0.190910,0.190910,-0.265379,0.271515,-0.002604,0.6232,0.0481,-0.3329
6.9968,0.016772,-0.177139,0.177139,-0.251573,0.254641,-0.002590,0.6661,0.0089,-0.3919
7.0136,0.016755,-0.163367,0.163367,-0.234699,0.237767,-0.002591,0.6616,0.0130,-0.3857
7.0304,0.016766,-0.149654,0.149654,-0.219359,0.223961,-0.002591,0.6616,0.0130,-0.3857
7.0471,0.016755,-0.136107,0.136107,-0.202485,0.210155,-0.002604,0.6232,0.0481,-0.3329
7.0639,0.016811,-0.122754,0.122754,-0.202485,0.210155,-0.002604,0.6232,0.0481,-0.3329
7.0807,0.016752,-0.109771,0.109771,-0.184078,0.191748,-0.002603,0.6272,0.0445,-0.3384
7.0975,0.016842,-0.097126,0.097126,-0.165670,0.171806,-0.002603,0.6272,0.0445,-0.3384
7.1143,0.016756,-0.085028,0.085028,-0.145728,0.150330,-0.002590,0.6656,0.0093,-0.3913
7.1310,0.016776,-0.073475,0.073475,-0.118117,0.116583,-0.002604,0.6228,0.0485,-0.3324
7.1478,0.016752,-0.062568,0.062568,-0.102777,0.101243,-0.002590,0.6661,0.0088,-0.3919
7.1646,0.016780,-0.052342,0.052342,-0.102777,0.101243,-0.002590,0.6661,0.0088,-0.3919
7.1813,0.016759,-0.042891,0.042891,-0.082835,0.082835,-0.002591,0.6616,0.0130,-0.3857
7.1981,0.016770,-0.034255,0.034255,-0.069029,0.069029,-0.002604,0.6232,0.0481,-0.3329
7.2149,0.016752,-0.026502,0.026502,-0.055223,0.055223,-0.002590,0.6661,0.0089,-0.3919
7.2316,0.016763,-0.019668,0.019668,-0.044485,0.044485,-0.002591,0.6616,0.0130,-0.3857
7.2484,0.016784,-0.013793,0.013793,-0.044485,0.044485,-0.002591,0.6616,0.0130,-0.3857
7.2652,0.016816,-0.008914,0.008914,-0.044485,0.044485,-0.002591,0.6616,0.0130,-0.3857
7.2820,0.016734,-0.005091,0.005091,-0.044485,0.044485,-0.002591,0.6616,0.0130,-0.3857
7.2987,0.016757,-0.002318,0.002318,-0.021476,0.024544,-0.002591,0.6616,0.0130,-0.3857
7.3155,0.016751,-0.000619,0.000619,-0.030680,0.024544,-0.002591,0.6616,0.0130,-0.3857
7.3323,0.016811,-0.000002,0.000002,-0.030680,0.024544,-0.002591,0.6616,0.0130,-0.3857
7.3490,0.016744,-0.000476,0.000476,-0.029146,0.024544,-0.002604,0.6232,0.0481,-0.3329
7.3658,0.016752,-0.002035,0.002035,-0.016874,0.016874,-0.002603,0.6272,0.0445,-0.3384
7.3825,0.016744,-0.004666,0.004666,0.000000,0.004602,-0.002590,0.6656,0.0093,-0.3913
7.3993,0.016751,-0.008356,0.008356,0.006136,-0.001534,-0.002591,0.6616,0.0129,-0.3858
7.4160,0.016747,-0.013079,0.013079,0.003068,-0.001534,-0.002604,0.6232,0.0481,-0.3329
7.4328,0.016779,-0.018820,0.018820,-0.007670,0.006136,-0.002604,0.6232,0.0481,-0.3329
7.4495,0.016747,-0.025520,0.025520,-0.007670,0.006136,-0.002590,0.6661,0.0089,-0.3919
7.4663,0.016752,-0.033150,0.033150,-0.010738,0.010738,-0.002604,0.6227,0.0486,-0.3323
7.4830,0.016745,-0.041656,0.041656,-0.012272,0.010738,-0.002590,0.6661,0.0088,-0.3919
7.5003,0.017308,-0.051318,0.051318,-0.016874,0.012272,-0.002591,0.6616,0.0130,-0.3857
7.5171,0.016759,-0.061454,0.061454,-0.030680,0.023010,-0.002604,0.6232,0.0481,-0.3329
7.5339,0.016786,-0.072313,0.072313,-0.044485,0.036816,-0.002590,0.6661,0.0089,-0.3919
7.5507,0.016799,-0.083820,0.083820,-0.044485,0.036816,-0.002590,0.6661,0.0089,-0.3919
7.5674,0.016758,-0.095865,0.095865,-0.058291,0.055223,-0.002591,0.6616,0.0130,-0.3857
7.5842,0.016750,-0.108395,0.108395,-0.062893,0.065961,-0.002604,0.6232,0.0481,-0.3329
7.6009,0.016754,-0.121340,0.121340,-0.064427,0.073631,-0.002590,0.6661,0.0089,-0.3919
7.6177,0.016752,-0.134615,0.134615,-0.078233,0.081301,-0.002591,0.6616,0.0130,-0.3857
7.6345,0.016780,-0.148161,0.148161,-0.078233,0.081301,-0.002591,0.6616,0.0130,-0.3857
7.6512,0.016746,-0.161843,0.161843,-0.101243,0.096641,-0.002604,0.6232,0.0481,-0.3329
7.6680,0.016749,-0.175608,0.175608,-0.122718,0.116583,-0.002590,0.6661,0.0089,-0.3919
7.6847,0.016744,-0.189362,0.189362,-0.141126,0.136524,-0.002591,0.6616,0.0130,-0.3857
7.7015,0.016755,-0.203032,0.203032,-0.154932,0.154932,-0.002591,0.6616,0.0130,-0.3857
7.7182,0.016750,-0.216520,0.216520,-0.170272,0.173340,-0.002591,0.6616,0.0130,-0.3857
7.7350,0.016782,-0.229772,0.229772,-0.170272,0.173340,-0.002591,0.6616,0.0130,-0.3857
7.7518,0.016747,-0.242652,0.242652,-0.194816,0.193282,-0.002591,0.6616,0.0130,-0.3857
7.7685,0.016748,-0.255110,0.255110,-0.210155,0.205553,-0.002591,0.6616,0.0130,-0.3857
7.7852,0.016747,-0.267065,0.267065,-0.217825,0.213223,-0.002604,0.6232,0.0481,-0.3329
7.8020,0.016759,-0.278451,0.278451,-0.228563,0.227029,-0.002590,0.6661,0.0089,-0.3919
7.8188,0.016745,-0.289181,0.289181,-0.250039,0.250039,-0.002604,0.6227,0.0486,-0.3323
7.8355,0.016738,-0.299193,0.299193,-0.250039,0.250039,-0.002604,0.6227,0.0486,-0.3323
7.8523,0.016766,-0.308445,0.308445,-0.273049,0.271515,-0.002590,0.6661,0.0088,-0.3919
7.8690,0.016746,-0.316853,0.316853,-0.285320,0.283786,-0.002591,0.6616,0.0130,-0.3857
7.8857,0.016749,-0.324375,0.324375,-0.288388,0.288388,-0.002591,0.6616,0.0130,-0.3857
7.9025,0.016755,-0.330967,0.330967,-0.299126,0.294524,-0.002604,0.6232,0.0481,-0.3329
7.9193,0.016748,-0.336582,0.336582,-0.320602,0.311398,-0.002590,0.6661,0.0089,-0.3919
7.9360,0.016768,-0.341193,0.341193,-0.320602,0.311398,-0.002590,0.6661,0.0089,-0.3919
7.9528,0.016749,-0.344761,0.344761,-0.332874,0.328272,-0.002591,0.6616,0.0130,-0.3857
7.9695,0.016747,-0.347268,0.347268,-0.332874,0.331340,-0.002591,0.6616,0.0130,-0.3857
7.9863,0.016742,-0.348700,0.348700,-0.331340,0.332874,-0.002591,0.6616,0.0130,-0.3857
8.0034,0.017145,-0.349043,0.349043,-0.346680,0.346680,-0.002591,0.6616,0.0130,-0.3857
8.0201,0.016744,-0.348280,0.348280,-0.355884,0.348214,-0.002591,0.6616,0.0130,-0.3857
8.0375,0.017380,-0.346344,0.346344,-0.355884,0.348214,-0.002591,0.6616,0.0130,-0.3857
8.0543,0.016747,-0.343389,0.343389,-0.354350,0.345146,-0.002591,0.6616,0.0130,-0.3857
8.0710,0.016724,-0.339388,0.339388,-0.351282,0.349748,-0.002591,0.6616,0.0130,-0.3857
8.0877,0.016740,-0.334359,0.334359,-0.352816,0.349748,-0.002591,0.6616,0.0130,-0.3857
8.1045,0.016745,-0.328334,0.328334,-0.351282,0.346680,-0.002591,0.6616,0.0130,-0.3857
8.1212,0.016745,-0.321353,0.321353,-0.346680,0.342078,-0.002591,0.6616,0.0130,-0.3857
8.1380,0.016751,-0.313454,0.313454,-0.346680,0.342078,-0.002591,0.6616,0.0130,-0.3857
8.1547,0.016753,-0.304689,0.304689,-0.343612,0.340544,-0.002604,0.6232,0.0481,-0.3329
8.1715,0.016747,-0.295117,0.295117,-0.339010,0.335942,-0.002590,0.6661,0.0089,-0.3919
8.1882,0.016744,-0.284796,0.284796,-0.334408,0.334408,-0.002604,0.6227,0.0486,-0.3323
8.2050,0.016744,-0.273789,0.273789,-0.325204,0.329806,-0.002590,0.6661,0.0088,-0.3919
8.2217,0.016742,-0.262165,0.262165,-0.311398,0.319068,-0.002591,0.6616,0.0130,-0.3857
8.2385,0.016749,-0.249991,0.249991,-0.311398,0.319068,-0.002591,0.6616,0.0130,-0.3857
8.2552,0.016751,-0.237346,0.237346,-0.297592,0.303728,-0.002604,0.6232,0.0481,-0.3329
8.2720,0.016745,-0.224315,0.224315,-0.283786,0.289922,-0.002590,0.6661,0.0089,-0.3919
8.2888,0.016847,-0.210892,0.210892,-0.271515,0.276117,-0.002604,0.6227,0.0486,-0.3323
8.3059,0.017061,-0.197065,0.197065,-0.271515,0.276117,-0.002604,0.6227,0.0486,-0.3323
8.3226,0.016763,-0.183337,0.183337,-0.242369,0.243903,-0.002603,0.6272,0.0444,-0.3385
8.3394,0.016750,-0.169566,0.169566,-0.242369,0.243903,-0.002603,0.6272,0.0444,-0.3385
8.3561,0.016743,-0.155830,0.155830,-0.228563,0.230097,-0.002590,0.6656,0.0093,-0.3913
8.3728,0.016713,-0.142235,0.142235,-0.216291,0.220893,-0.002591,0.6616,0.0129,-0.3858
8.3896,0.016755,-0.128807,0.128807,-0.200951,0.208621,-0.002591,0.6616,0.0129,-0.3858
8.4063,0.016745,-0.115672,0.115672,-0.184078,0.190214,-0.002591,0.6616,0.0129,-0.3858
8.4231,0.016760,-0.102892,0.102892,-0.184078,0.190214,-0.002591,0.6616,0.0129,-0.3858
8.4398,0.016749,-0.090567,0.090567,-0.164136,0.170272,-0.002591,0.6616,0.0129,-0.3858
8.4566,0.016744,-0.078768,0.078768,-0.142660,0.148796,-0.002591,0.6616,0.0129,-0.3858
8.4733,0.016745,-0.067564,0.067564,-0.108913,0.110447,-0.002591,0.6616,0.0129,-0.3858
8.4901,0.016748,-0.057023,0.057023,-0.092039,0.092039,-0.002591,0.6616,0.0129,-0.3858
8.5068,0.016746,-0.047216,0.047216,-0.073631,0.075165,-0.002591,0.6616,0.0129,-0.3858
8.5236,0.016753,-0.038198,0.038198,-0.073631,0.075165,-0.002591,0.6616,0.0129,-0.3858
8.5403,0.016749,-0.030030,0.030030,-0.062893,0.061359,-0.002591,0.6616,0.0129,-0.3858
8.5571,0.016750,-0.022762,0.022762,-0.049087,0.052155,-0.002580,0.7120,-0.0031,-0.3328
8.5738,0.016749,-0.016439,0.016439,-0.038350,0.039884,-0.002592,0.6568,0.0142,-0.3919
8.5906,0.016757,-0.011099,0.011099,-0.027612,0.029146,-0.002604,0.6237,0.0480,-0.3323
8.6073,0.016745,-0.006780,0.006780,-0.016874,0.019942,-0.002590,0.6660,0.0089,-0.3919
8.6241,0.016749,-0.003504,0.003504,-0.016874,0.019942,-0.002590,0.6660,0.0089,-0.3919
8.6408,0.016743,-0.001293,0.001293,-0.010738,0.009204,-0.002591,0.6616,0.0130,-0.3857
8.6576,0.016745,-0.000161,0.000161,-0.010738,0.006136,-0.002591,0.6616,0.0130,-0.3857
8.6743,0.016748,-0.000113,0.000113,-0.012272,0.006136,-0.002604,0.6232,0.0481,-0.3329
8.6911,0.016747,-0.001152,0.001152,-0.006136,0.004602,-0.002590,0.6661,0.0089,-0.3919
8.7078,0.016743,-0.003269,0.003269,0.003068,0.000000,-0.002591,0.6616,0.0130,-0.3857
8.7245,0.016746,-0.006452,0.006452,0.003068,0.000000,-0.002591,0.6616,0.0130,-0.3857
8.7413,0.016746,-0.010682,0.010682,0.003068,-0.001534,-0.002591,0.6616,0.0130,-0.3857
8.7580,0.016746,-0.015931,0.015931,-0.004602,-0.001534,-0.002591,0.6616,0.0130,-0.3857
8.7748,0.016744,-0.022166,0.022166,-0.007670,0.004602,-0.002591,0.6616,0.0130,-0.3857
8.7915,0.016748,-0.029352,0.029352,-0.009204,0.012272,-0.002591,0.6616,0.0130,-0.3857
8.8083,0.016755,-0.037445,0.037445,-0.013806,0.018408,-0.002591,0.6616,0.0130,-0.3857
8.8250,0.016745,-0.046386,0.046386,-0.013806,0.018408,-0.002591,0.6616,0.0130,-0.3857
8.8418,0.016747,-0.056127,0.056127,-0.024544,0.019942,-0.002591,0.6616,0.0130,-0.3857
8.8585,0.016753,-0.066608,0.066608,-0.036816,0.024544,-0.002604,0.6232,0.0481,-0.3329
8.8753,0.016743,-0.077755,0.077755,-0.042951,0.035282,-0.002590,0.6661,0.0089,-0.3919
8.8920,0.016750,-0.089509,0.089509,-0.049087,0.050621,-0.002604,0.6227,0.0486,-0.3323
8.9088,0.016755,-0.101796,0.101796,-0.064427,0.072097,-0.002590,0.6661,0.0088,-0.3919
8.9255,0.016755,-0.114536,0.114536,-0.064427,0.072097,-0.002590,0.6661,0.0088,-0.3919
8.9423,0.016745,-0.127642,0.127642,-0.081301,0.084369,-0.002591,0.6616,0.0130,-0.3857
8.9590,0.016756,-0.141049,0.141049,-0.099709,0.096641,-0.002604,0.6232,0.0481,-0.3329
8.9759,0.016911,-0.154791,0.154791,-0.113515,0.105845,-0.002590,0.6661,0.0089,-0.3919
8.9927,0.016761,-0.168535,0.168535,-0.125786,0.119651,-0.002591,0.6616,0.0130,-0.3857
9.0095,0.016744,-0.182303,0.182303,-0.144194,0.141126,-0.002591,0.6616,0.0130,-0.3857
9.0262,0.016755,-0.196031,0.196031,-0.144194,0.141126,-0.002591,0.6616,0.0130,-0.3857
9.0430,0.016746,-0.209619,0.209619,-0.165670,0.161068,-0.002591,0.6616,0.0130,-0.3857
9.0597,0.016759,-0.222998,0.222998,-0.179476,0.177942,-0.002591,0.6616,0.0130,-0.3857
9.0764,0.016716,-0.236041,0.236041,-0.191748,0.188680,-0.002591,0.6616,0.0130,-0.3857
9.0932,0.016748,-0.248727,0.248727,-0.204019,0.199418,-0.002591,0.6616,0.0130,-0.3857
9.1102,0.016979,-0.261117,0.261117,-0.225495,0.222427,-0.002604,0.6232,0.0481,-0.3329
9.1269,0.016754,-0.272799,0.272799,-0.225495,0.222427,-0.002604,0.6232,0.0481,-0.3329
9.1437,0.016743,-0.283862,0.283862,-0.246971,0.243903,-0.002590,0.6661,0.0089,-0.3919
9.1604,0.016756,-0.294252,0.294252,-0.259243,0.259243,-0.002591,0.6616,0.0130,-0.3857
9.1772,0.016745,-0.303891,0.303891,-0.265379,0.265379,-0.002604,0.6232,0.0481,-0.3329
9.1939,0.016754,-0.312729,0.312729,-0.276117,0.271515,-0.002590,0.6661,0.0089,-0.3919
9.2107,0.016800,-0.320727,0.320727,-0.296058,0.291456,-0.002591,0.6616,0.0130,-0.3857
9.2275,0.016753,-0.327790,0.327790,-0.296058,0.291456,-0.002591,0.6616,0.0130,-0.3857
9.2442,0.016745,-0.333896,0.333896,-0.314466,0.311398,-0.002591,0.6616,0.0130,-0.3857
9.2610,0.016753,-0.339013,0.339013,-0.319068,0.319068,-0.002604,0.6232,0.0481,-0.3329
9.2777,0.016745,-0.343103,0.343103,-0.322136,0.319068,-0.002590,0.6661,0.0089,-0.3919
9.2944,0.016747,-0.346144,0.346144,-0.332874,0.326738,-0.002591,0.6616,0.0130,-0.3857
9.3112,0.016747,-0.348117,0.348117,-0.346680,0.340544,-0.002591,0.6616,0.0130,-0.3857
9.3280,0.016781,-0.349010,0.349010,-0.346680,0.340544,-0.002591,0.6616,0.0130,-0.3857
9.3448,0.016799,-0.348812,0.348812,-0.346680,0.340544,-0.002591,0.6616,0.0130,-0.3857
9.3615,0.016761,-0.347527,0.347527,-0.346680,0.340544,-0.002591,0.6616,0.0130,-0.3857
9.3783,0.016747,-0.345165,0.345165,-0.346680,0.342078,-0.002591,0.6616,0.0130,-0.3857
9.3950,0.016752,-0.341740,0.341740,-0.348214,0.346680,-0.002591,0.6616,0.0130,-0.3857
9.4118,0.016742,-0.337276,0.337276,-0.349748,0.346680,-0.002591,0.6616,0.0130,-0.3857
9.4285,0.016756,-0.331795,0.331795,-0.348214,0.343612,-0.002604,0.6232,0.0481,-0.3329
9.4453,0.016744,-0.325339,0.325339,-0.348214,0.343612,-0.002590,0.6661,0.0089,-0.3919
9.4620,0.016756,-0.317939,0.317939,-0.348214,0.343612,-0.002590,0.6661,0.0089,-0.3919
9.4788,0.016749,-0.309649,0.309649,-0.343612,0.342078,-0.002604,0.6227,0.0486,-0.3323
9.4955,0.016755,-0.300514,0.300514,-0.340544,0.339010,-0.002603,0.6272,0.0444,-0.3385
9.5123,0.016748,-0.290599,0.290599,-0.337476,0.332874,-0.002590,0.6656,0.0093,-0.3913
9.5290,0.016754,-0.279957,0.279957,-0.328272,0.325204,-0.002591,0.6616,0.0129,-0.3858
9.5458,0.016749,-0.268662,0.268662,-0.312932,0.312932,-0.002591,0.6616,0.0129,-0.3858
9.5625,0.016755,-0.256776,0.256776,-0.312932,0.312932,-0.002591,0.6616,0.0129,-0.3858
9.5793,0.016747,-0.244384,0.244384,-0.296058,0.299126,-0.002591,0.6616,0.0129,-0.3858
9.5960,0.016754,-0.231552,0.231552,-0.282252,0.286854,-0.002591,0.6616,0.0129,-0.3858
9.6128,0.016739,-0.218376,0.218376,-0.268447,0.274583,-0.002591,0.6616,0.0129,-0.3858
9.6295,0.016755,-0.204914,0.204914,-0.253107,0.257709,-0.002591,0.6616,0.0129,-0.3858
9.6463,0.016742,-0.191274,0.191274,-0.236233,0.240835,-0.002591,0.6616,0.0129,-0.3858
9.6630,0.016753,-0.177521,0.177521,-0.236233,0.240835,-0.002591,0.6616,0.0129,-0.3858
9.6798,0.016743,-0.163757,0.163757,-0.220893,0.225495,-0.002604,0.6232,0.0481,-0.3329
9.6965,0.016751,-0.150054,0.150054,-0.202485,0.210155,-0.002590,0.6661,0.0089,-0.3919
9.7133,0.016743,-0.136511,0.136511,-0.187146,0.194816,-0.002591,0.6616,0.0130,-0.3857
9.7300,0.016744,-0.123202,0.123202,-0.170272,0.176408,-0.002591,0.6616,0.0130,-0.3857
9.7468,0.016747,-0.110211,0.110211,-0.148796,0.154932,-0.002604,0.6232,0.0481,-0.3329
9.7635,0.016757,-0.097613,0.097613,-0.148796,0.154932,-0.002604,0.6232,0.0481,-0.3329
9.7803,0.016746,-0.085502,0.085502,-0.133456,0.134990,-0.002590,0.6661,0.0089,-0.3919
9.7970,0.016742,-0.073948,0.073948,-0.118117,0.119651,-0.002591,0.6616,0.0130,-0.3857
9.8138,0.016746,-0.063016,0.063016,-0.104311,0.104311,-0.002591,0.6616,0.0130,-0.3857
9.8305,0.016750,-0.052777,0.052777,-0.087437,0.087437,-0.002604,0.6232,0.0481,-0.3329
9.8473,0.016836,-0.043249,0.043249,-0.070563,0.072097,-0.002603,0.6272,0.0445,-0.3384
9.8641,0.016755,-0.034587,0.034587,-0.070563,0.072097,-0.002603,0.6272,0.0445,-0.3384
9.8808,0.016746,-0.026801,0.026801,-0.056757,0.058291,-0.002590,0.6656,0.0093,-0.3913
9.8976,0.016750,-0.019933,0.019933,-0.046019,0.047553,-0.002591,0.6616,0.0129,-0.3858
9.9143,0.016742,-0.014030,0.014030,-0.036816,0.036816,-0.002591,0.6616,0.0129,-0.3858
9.9311,0.016757,-0.009122,0.009122,-0.029146,0.029146,-0.002591,0.6616,0.0129,-0.3858
9.9478,0.016761,-0.005244,0.005244,-0.018408,0.018408,-0.002591,0.6616,0.0129,-0.3858
9.9646,0.016756,-0.002422,0.002422,-0.018408,0.018408,-0.002591,0.6616,0.0129,-0.3858
9.9814,0.016746,-0.000674,0.000674,-0.007670,0.009204,-0.002591,0.6616,0.0129,-0.3858
9.9981,0.016742,-0.000007,0.000007,-0.006136,0.004602,-0.002604,0.6232,0.0481,-0.3329
10.0148,0.016742,-0.000426,0.000426,-0.009204,0.004602,-0.002590,0.6661,0.0089,-0.3919
10.0316,0.016756,-0.001930,0.001930,-0.003068,0.003068,-0.002591,0.6616,0.0130,-0.3857
10.0483,0.016753,-0.004509,0.004509,0.003068,0.000000,-0.002591,0.6616,0.0130,-0.3857
10.0651,0.016759,-0.008149,0.008149,0.003068,0.000000,-0.002591,0.6616,0.0130,-0.3857
10.0818,0.016741,-0.012821,0.012821,0.001534,0.000000,-0.002591,0.6616,0.0130,-0.3857
10.0986,0.016746,-0.018500,0.018500,-0.006136,0.001534,-0.002591,0.6616,0.0130,-0.3857
10.1153,0.016739,-0.025147,0.025147,-0.006136,0.003068,-0.002591,0.6616,0.0130,-0.3857
10.1321,0.016756,-0.032732,0.032732,-0.004602,0.009204,-0.002604,0.6232,0.0481,-0.3329
10.1488,0.016746,-0.041194,0.041194,-0.015340,0.023010,-0.002603,0.6272,0.0445,-0.3384
10.1656,0.016746,-0.050487,0.050487,-0.015340,0.023010,-0.002603,0.6272,0.0445,-0.3384
10.1823,0.016749,-0.060554,0.060554,-0.030680,0.027612,-0.002590,0.6656,0.0093,-0.3913
10.1991,0.016750,-0.071331,0.071331,-0.041417,0.032214,-0.002591,0.6616,0.0129,-0.3858
10.2158,0.016746,-0.082748,0.082748,-0.049087,0.042951,-0.002604,0.6232,0.0481,-0.3329
10.2329,0.017055,-0.094962,0.094962,-0.058291,0.059825,-0.002590,0.6661,0.0089,-0.3919
10.2496,0.016741,-0.107452,0.107452,-0.058291,0.059825,-0.002590,0.6661,0.0089,-0.3919
10.2664,0.016759,-0.120373,0.120373,-0.072097,0.075165,-0.002591,0.6616,0.0130,-0.3857
10.2831,0.016745,-0.133621,0.133621,-0.088971,0.085903,-0.002604,0.6232,0.0481,-0.3329
10.2999,0.016747,-0.147125,0.147125,-0.102777,0.096641,-0.002590,0.6661,0.0089,-0.3919
10.3166,0.016747,-0.160799,0.160799,-0.115049,0.111981,-0.002591,0.6616,0.0130,-0.3857
10.3334,0.016769,-0.174577,0.174577,-0.133456,0.133456,-0.002604,0.6232,0.0481,-0.3329
10.3501,0.016742,-0.188332,0.188332,-0.133456,0.133456,-0.002604,0.6232,0.0481,-0.3329
10.3670,0.016898,-0.202128,0.202128,-0.150330,0.150330,-0.002603,0.6272,0.0445,-0.3384
10.3838,0.016752,-0.215632,0.215632,-0.150330,0.150330,-0.002603,0.6272,0.0445,-0.3384
10.4005,0.016760,-0.228887,0.228887,-0.179476,0.177942,-0.002590,0.6656,0.0093,-0.3913
10.4173,0.016748,-0.241794,0.241794,-0.179476,0.176408,-0.002590,0.6656,0.0093,-0.3913
10.4340,0.016761,-0.254292,0.254292,-0.179476,0.176408,-0.002591,0.6616,0.0129,-0.3858
10.4508,0.016741,-0.266279,0.266279,-0.184078,0.179476,-0.002591,0.6616,0.0129,-0.3858
10.4675,0.016746,-0.277698,0.277698,-0.207087,0.202485,-0.002604,0.6232,0.0481,-0.3329
10.4843,0.016757,-0.288481,0.288481,-0.237767,0.234699,-0.002603,0.6272,0.0445,-0.3384
10.5010,0.016751,-0.298551,0.298551,-0.263845,0.263845,-0.002590,0.6656,0.0093,-0.3913
10.5178,0.016749,-0.307848,0.307848,-0.286854,0.286854,-0.002591,0.6616,0.0129,-0.3858
10.5345,0.016751,-0.316315,0.316315,-0.286854,0.286854,-0.002591,0.6616,0.0129,-0.3858
10.5513,0.016753,-0.323901,0.323901,-0.292990,0.289922,-0.002591,0.6616,0.0129,-0.3858
10.5680,0.016754,-0.330556,0.330556,-0.296058,0.288388,-0.002591,0.6616,0.0129,-0.3858
10.5848,0.016757,-0.336240,0.336240,-0.303728,0.297592,-0.002591,0.6616,0.0129,-0.3858
10.6017,0.016906,-0.340953,0.340953,-0.322136,0.314466,-0.002591,0.6616,0.0129,-0.3858
10.6185,0.016773,-0.344586,0.344586,-0.322136,0.314466,-0.002591,0.6616,0.0129,-0.3858
10.6352,0.016744,-0.347154,0.347154,-0.337476,0.332874,-0.002591,0.6616,0.0129,-0.3858
10.6520,0.016750,-0.348648,0.348648,-0.340544,0.339010,-0.002591,0.6616,0.0129,-0.3858
10.6687,0.016742,-0.349058,0.349058,-0.339010,0.337476,-0.002604,0.6232,0.0481,-0.3329
10.6855,0.016753,-0.348381,0.348381,-0.349748,0.343612,-0.002590,0.6661,0.0089,-0.3919
10.7022,0.016747,-0.346622,0.346622,-0.354350,0.351282,-0.002580,0.7116,-0.0027,-0.3322
10.7190,0.016751,-0.343791,0.343791,-0.354350,0.351282,-0.002580,0.7116,-0.0027,-0.3322
10.7357,0.016747,-0.339907,0.339907,-0.352816,0.349748,-0.002592,0.6568,0.0142,-0.3919
10.7525,0.016748,-0.334993,0.334993,-0.351282,0.348214,-0.002604,0.6237,0.0480,-0.3323
10.7692,0.016747,-0.329081,0.329081,-0.351282,0.348214,-0.002603,0.6271,0.0445,-0.3385
10.7860,0.016750,-0.322205,0.322205,-0.349748,0.346680,-0.002590,0.6657,0.0093,-0.3913
10.8027,0.016762,-0.314404,0.314404,-0.345146,0.342078,-0.002604,0.6228,0.0485,-0.3324
10.8195,0.016814,-0.305703,0.305703,-0.345146,0.342078,-0.002604,0.6228,0.0485,-0.3324
10.8363,0.016746,-0.296218,0.296218,-0.340544,0.337476,-0.002590,0.6661,0.0088,-0.3919
10.8530,0.016746,-0.285976,0.285976,-0.334408,0.332874,-0.002604,0.6227,0.0486,-0.3323
10.8698,0.016743,-0.275042,0.275042,-0.325204,0.328272,-0.002603,0.6272,0.0444,-0.3385
10.8865,0.016752,-0.263477,0.263477,-0.314466,0.319068,-0.002590,0.6656,0.0093,-0.3913
10.9033,0.016779,-0.251337,0.251337,-0.302194,0.308330,-0.002591,0.6616,0.0129,-0.3858
10.9201,0.016758,-0.238734,0.238734,-0.302194,0.308330,-0.002591,0.6616,0.0129,-0.3858
10.9368,0.016759,-0.225730,0.225730,-0.286854,0.292990,-0.002604,0.6232,0.0481,-0.3329
10.9536,0.016754,-0.212411,0.212411,-0.276117,0.280718,-0.002590,0.6661,0.0089,-0.3919
10.9703,0.016748,-0.198860,0.198860,-0.263845,0.266913,-0.002591,0.6616,0.0130,-0.3857
10.9871,0.016754,-0.185154,0.185154,-0.250039,0.251573,-0.002591,0.6616,0.0130,-0.3857
11.0038,0.016742,-0.171390,0.171390,-0.231631,0.234699,-0.002591,0.6616,0.0130,-0.3857
11.0206,0.016795,-0.157604,0.157604,-0.231631,0.234699,-0.002591,0.6616,0.0130,-0.3857
11.0374,0.016746,-0.143963,0.143963,-0.213223,0.217825,-0.002591,0.6616,0.0130,-0.3857
11.0541,0.016744,-0.130513,0.130513,-0.197884,0.202485,-0.002591,0.6616,0.0130,-0.3857
11.0708,0.016743,-0.117338,0.117338,-0.181010,0.188680,-0.002591,0.6616,0.0130,-0.3857
11.0876,0.016745,-0.104518,0.104518,-0.167204,0.170272,-0.002604,0.6232,0.0481,-0.3329
11.1044,0.016798,-0.092096,0.092096,-0.148796,0.150330,-0.002604,0.6232,0.0481,-0.3329
11.1211,0.016746,-0.080225,0.080225,-0.148796,0.150330,-0.002603,0.6272,0.0445,-0.3384
11.1379,0.016748,-0.068940,0.068940,-0.130388,0.131922,-0.002590,0.6656,0.0093,-0.3913
11.1546,0.016713,-0.058334,0.058334,-0.115049,0.115049,-0.002591,0.6616,0.0129,-0.3858
11.1713,0.016746,-0.048429,0.048429,-0.099709,0.099709,-0.002591,0.6616,0.0129,-0.3858
11.1881,0.016742,-0.039311,0.039311,-0.085903,0.085903,-0.002591,0.6616,0.0129,-0.3858
11.2048,0.016752,-0.031030,0.031030,-0.072097,0.070563,-0.002591,0.6616,0.0129,-0.3858
11.2216,0.016745,-0.023646,0.023646,-0.072097,0.070563,-0.002591,0.6616,0.0129,-0.3858
11.2383,0.016744,-0.017201,0.017201,-0.055223,0.056757,-0.002604,0.6232,0.0481,-0.3329
11.2551,0.016743,-0.011735,0.011735,-0.041417,0.042951,-0.002590,0.6661,0.0089,-0.3919
11.2719,0.016823,-0.007264,0.007264,-0.029146,0.032214,-0.002591,0.6616,0.0130,-0.3857
11.2887,0.016771,-0.003852,0.003852,-0.024544,0.026078,-0.002591,0.6616,0.0130,-0.3857
11.3054,0.016722,-0.001511,0.001511,-0.012272,0.007670,-0.002591,0.6616,0.0130,-0.3857
11.3221,0.016745,-0.000243,0.000243,-0.012272,0.007670,-0.002591,0.6616,0.0130,-0.3857
11.3389,0.016748,-0.000060,0.000060,-0.001534,0.003068,-0.002591,0.6616,0.0130,-0.3857
11.3558,0.016953,-0.000980,0.000980,0.000000,0.001534,-0.002604,0.6232,0.0481,-0.3329
11.3726,0.016751,-0.002977,0.002977,-0.006136,0.000000,-0.002590,0.6661,0.0089,-0.3919
11.3896,0.016990,-0.006094,0.006094,-0.003068,0.000000,-0.002591,0.6616,0.0130,-0.3857
11.4065,0.016882,-0.010260,0.010260,-0.003068,0.000000,-0.002591,0.6616,0.0130,-0.3857
11.4232,0.016757,-0.015423,0.015423,-0.003068,0.000000,-0.002591,0.6616,0.0130,-0.3857
11.4400,0.016747,-0.021573,0.021573,0.000000,0.000000,-0.002591,0.6616,0.0130,-0.3857
11.4567,0.016750,-0.028677,0.028677,-0.006136,0.001534,-0.002591,0.6616,0.0130,-0.3857
11.4735,0.016759,-0.036694,0.036694,-0.010738,0.010738,-0.002591,0.6616,0.0130,-0.3857
11.4902,0.016750,-0.045564,0.045564,-0.023010,0.024544,-0.002591,0.6616,0.0130,-0.3857
11.5070,0.016747,-0.055237,0.055237,-0.023010,0.024544,-0.002591,0.6616,0.0130,-0.3857
