t,loop_dt,cmd_ant_l,cmd_ant_r,pres_ant_l,pres_ant_r,pres_z,pres_roll,pres_pitch,pres_yaw
0.0000,0.000001,-0.349066,0.349066,-0.176408,0.173340,-0.002749,0.6826,0.2563,-0.2002
0.0168,0.016770,-0.348375,0.348375,-0.176408,0.173340,-0.002749,0.6826,0.2563,-0.2002
0.0335,0.016766,-0.346305,0.346305,-0.176408,0.173340,-0.002763,0.6392,0.2962,-0.1408
0.0503,0.016760,-0.342857,0.342857,-0.177942,0.174874,-0.002736,0.6330,0.2385,-0.2534
0.0671,0.016785,-0.338021,0.338021,-0.230097,0.223961,-0.002727,0.6838,0.2290,-0.1882
0.0838,0.016748,-0.331817,0.331817,-0.309864,0.299126,-0.002752,0.6289,0.2150,-0.0882
0.1006,0.016811,-0.324206,0.324206,-0.368155,0.362019,-0.002752,0.6289,0.2150,-0.0882
0.1174,0.016764,-0.315234,0.315234,-0.368155,0.362019,-0.002699,0.5851,0.1959,-0.3118
0.1342,0.016762,-0.304886,0.304886,-0.380427,0.371223,-0.002717,0.5508,0.2336,-0.2352
0.1509,0.016751,-0.293922,0.293922,-0.365087,0.358952,-0.002676,0.4944,0.1587,-0.4029
0.1677,0.016797,-0.282929,0.282929,-0.343612,0.343612,-0.002681,0.5003,0.1666,-0.3854
0.1845,0.016755,-0.271962,0.271962,-0.317534,0.323670,-0.002667,0.4503,0.1482,-0.4405
0.2017,0.017193,-0.260709,0.260709,-0.299126,0.306796,-0.002669,0.4555,0.1502,-0.4347
0.2184,0.016755,-0.249743,0.249743,-0.299126,0.306796,-0.002669,0.4555,0.1502,-0.4347
0.2352,0.016756,-0.238776,0.238776,-0.282252,0.291456,-0.002619,0.5446,0.0653,-0.4349
0.2519,0.016749,-0.227814,0.227814,-0.271515,0.277651,-0.002600,0.6242,0.0228,-0.4348
0.2687,0.016777,-0.216834,0.216834,-0.262311,0.268447,-0.002602,0.6159,0.0272,-0.4348
0.2854,0.016746,-0.205873,0.205873,-0.253107,0.254641,-0.002590,0.6668,0.0111,-0.3813
0.3024,0.016906,-0.194808,0.194808,-0.239301,0.240835,-0.002591,0.6615,0.0128,-0.3868
0.3191,0.016749,-0.183846,0.183846,-0.239301,0.240835,-0.002591,0.6615,0.0128,-0.3868
0.3359,0.016753,-0.172881,0.172881,-0.225495,0.227029,-0.002580,0.7120,-0.0031,-0.3327
0.3526,0.016746,-0.161921,0.161921,-0.211689,0.216291,-0.002581,0.7068,-0.0014,-0.3383
0.3693,0.016744,-0.150962,0.150962,-0.197884,0.204019,-0.002592,0.6573,0.0140,-0.3913
0.3861,0.016751,-0.139999,0.139999,-0.182544,0.188680,-0.002591,0.6625,0.0124,-0.3858
0.4029,0.016843,-0.128975,0.128975,-0.168738,0.174874,-0.002580,0.7119,-0.0031,-0.3328
0.4198,0.016818,-0.117968,0.117968,-0.168738,0.174874,-0.002580,0.7119,-0.0031,-0.3328
0.4365,0.016757,-0.107000,0.107000,-0.168738,0.174874,-0.002580,0.7119,-0.0031,-0.3328
0.4533,0.016750,-0.096037,0.096037,-0.139592,0.144194,-0.002592,0.6568,0.0142,-0.3919
0.4700,0.016748,-0.085076,0.085076,-0.138058,0.134990,-0.002591,0.6625,0.0124,-0.3857
0.4868,0.016742,-0.074118,0.074118,-0.131922,0.124252,-0.002580,0.7119,-0.0031,-0.3328
0.5035,0.016787,-0.063131,0.063131,-0.115049,0.110447,-0.002581,0.7068,-0.0014,-0.3383
0.5203,0.016744,-0.052173,0.052173,-0.093573,0.092039,-0.002592,0.6573,0.0140,-0.3913
0.5371,0.016769,-0.041232,0.041232,-0.093573,0.092039,-0.002592,0.6573,0.0140,-0.3913
0.5538,0.016743,-0.031267,0.031267,-0.075165,0.076699,-0.002591,0.6625,0.0124,-0.3858
0.5705,0.016750,-0.022676,0.022676,-0.058291,0.061359,-0.002580,0.7119,-0.0031,-0.3328
0.5873,0.016740,-0.015465,0.015465,-0.047553,0.049087,-0.002581,0.7068,-0.0014,-0.3383
0.6040,0.016752,-0.009626,0.009626,-0.035282,0.035282,-0.002581,0.7068,-0.0014,-0.3383
0.6208,0.016750,-0.005166,0.005166,-0.021476,0.024544,-0.002581,0.7068,-0.0014,-0.3383
0.6376,0.016761,-0.002081,0.002081,-0.021476,0.024544,-0.002581,0.7068,-0.0014,-0.3383
0.6543,0.016741,-0.000376,0.000376,-0.010738,0.012272,-0.002592,0.6573,0.0140,-0.3913
0.6710,0.016747,-0.000047,0.000047,-0.007670,0.004602,-0.002579,0.7125,-0.0032,-0.3322
0.6878,0.016742,-0.001094,0.001094,-0.010738,0.004602,-0.002581,0.7067,-0.0014,-0.3384
0.7045,0.016758,-0.003520,0.003520,-0.006136,0.004602,-0.002581,0.7067,-0.0014,-0.3384
0.7213,0.016748,-0.007322,0.007322,0.003068,0.000000,-0.002592,0.6573,0.0140,-0.3913
0.7380,0.016757,-0.012504,0.012504,0.003068,0.000000,-0.002592,0.6573,0.0140,-0.3913
0.7548,0.016744,-0.019058,0.019058,0.003068,0.000000,-0.002579,0.7125,-0.0032,-0.3322
0.7715,0.016752,-0.026993,0.026993,-0.004602,0.003068,-0.002592,0.6567,0.0142,-0.3919
0.7883,0.016748,-0.036303,0.036303,-0.010738,0.007670,-0.002591,0.6625,0.0124,-0.3857
0.8050,0.016751,-0.046930,0.046930,-0.013806,0.013806,-0.002591,0.6625,0.0124,-0.3857
0.8222,0.017138,-0.058147,0.058147,-0.023010,0.021476,-0.002591,0.6625,0.0124,-0.3857
0.8389,0.016766,-0.069121,0.069121,-0.023010,0.021476,-0.002591,0.6625,0.0124,-0.3857
0.8557,0.016757,-0.080088,0.080088,-0.039884,0.035282,-0.002591,0.6625,0.0124,-0.3857
0.8725,0.016755,-0.091054,0.091054,-0.052155,0.049087,-0.002580,0.7119,-0.0031,-0.3328
0.8892,0.016762,-0.102024,0.102024,-0.059825,0.058291,-0.002581,0.7068,-0.0014,-0.3383
0.9060,0.016762,-0.112995,0.112995,-0.062893,0.067495,-0.002581,0.7068,-0.0014,-0.3383
0.9227,0.016748,-0.123956,0.123956,-0.075165,0.081301,-0.002581,0.7068,-0.0014,-0.3383
0.9395,0.016780,-0.134939,0.134939,-0.075165,0.081301,-0.002581,0.7068,-0.0014,-0.3383
0.9563,0.016768,-0.145913,0.145913,-0.095107,0.101243,-0.002592,0.6573,0.0140,-0.3913
0.9730,0.016747,-0.156875,0.156875,-0.116583,0.116583,-0.002579,0.7125,-0.0032,-0.3322
0.9898,0.016742,-0.167832,0.167832,-0.131922,0.124252,-0.002592,0.6567,0.0142,-0.3919
1.0065,0.016751,-0.178796,0.178796,-0.141126,0.131922,-0.002591,0.6625,0.0124,-0.3857
1.0233,0.016796,-0.189789,0.189789,-0.153398,0.147262,-0.002591,0.6625,0.0124,-0.3857
1.0401,0.016758,-0.200756,0.200756,-0.153398,0.147262,-0.002591,0.6625,0.0124,-0.3857
1.0568,0.016749,-0.211719,0.211719,-0.170272,0.165670,-0.002591,0.6625,0.0124,-0.3857
1.0736,0.016744,-0.222678,0.222678,-0.187146,0.184078,-0.002580,0.7119,-0.0031,-0.3328
1.0903,0.016745,-0.233637,0.233637,-0.193282,0.190214,-0.002592,0.6568,0.0142,-0.3919
1.1071,0.016755,-0.244603,0.244603,-0.197884,0.194816,-0.002591,0.6625,0.0124,-0.3857
1.1240,0.016975,-0.255713,0.255713,-0.213223,0.213223,-0.002591,0.6625,0.0124,-0.3857
1.1408,0.016755,-0.266680,0.266680,-0.213223,0.213223,-0.002591,0.6625,0.0124,-0.3857
1.1575,0.016751,-0.277643,0.277643,-0.239301,0.237767,-0.002580,0.7119,-0.0031,-0.3328
1.1743,0.016752,-0.288607,0.288607,-0.251573,0.250039,-0.002592,0.6568,0.0142,-0.3919
1.1910,0.016744,-0.299566,0.299566,-0.256175,0.256175,-0.002591,0.6625,0.0124,-0.3857
1.2078,0.016758,-0.310385,0.310385,-0.262311,0.265379,-0.002591,0.6625,0.0124,-0.3857
1.2247,0.016927,-0.320113,0.320113,-0.282252,0.283786,-0.002580,0.7119,-0.0031,-0.3328
1.2415,0.016744,-0.328352,0.328352,-0.282252,0.283786,-0.002580,0.7119,-0.0031,-0.3328
1.2582,0.016746,-0.335215,0.335215,-0.305262,0.302194,-0.002592,0.6568,0.0142,-0.3919
1.2750,0.016743,-0.340701,0.340701,-0.319068,0.314466,-0.002579,0.7125,-0.0033,-0.3322
1.2917,0.016750,-0.344812,0.344812,-0.322136,0.319068,-0.002592,0.6567,0.0142,-0.3919
1.3084,0.016743,-0.347546,0.347546,-0.326738,0.322136,-0.002579,0.7125,-0.0033,-0.3322
1.3254,0.016947,-0.348911,0.348911,-0.342078,0.337476,-0.002581,0.7067,-0.0014,-0.3384
1.3421,0.016746,-0.348875,0.348875,-0.342078,0.337476,-0.002581,0.7067,-0.0014,-0.3384
1.3589,0.016745,-0.347463,0.347463,-0.352816,0.349748,-0.002592,0.6573,0.0140,-0.3913
1.3756,0.016740,-0.344676,0.344676,-0.352816,0.349748,-0.002591,0.6625,0.0124,-0.3858
1.3924,0.016744,-0.340511,0.340511,-0.351282,0.348214,-0.002580,0.7119,-0.0031,-0.3328
1.4092,0.016842,-0.334934,0.334934,-0.351282,0.348214,-0.002592,0.6568,0.0142,-0.3919
1.4260,0.016750,-0.328007,0.328007,-0.349748,0.348214,-0.002591,0.6625,0.0124,-0.3857
1.4428,0.016842,-0.319653,0.319653,-0.349748,0.348214,-0.002591,0.6625,0.0124,-0.3857
1.4597,0.016854,-0.309899,0.309899,-0.349748,0.348214,-0.002591,0.6625,0.0124,-0.3857
1.4764,0.016766,-0.299046,0.299046,-0.349748,0.348214,-0.002591,0.6625,0.0124,-0.3857
1.4932,0.016747,-0.288086,0.288086,-0.340544,0.337476,-0.002580,0.7119,-0.0031,-0.3328
1.5099,0.016777,-0.277105,0.277105,-0.340544,0.337476,-0.002581,0.7068,-0.0014,-0.3383
1.5267,0.016747,-0.266144,0.266144,-0.332874,0.329806,-0.002581,0.7068,-0.0014,-0.3383
1.5435,0.016768,-0.255170,0.255170,-0.332874,0.329806,-0.002581,0.7068,-0.0014,-0.3383
1.5602,0.016750,-0.244207,0.244207,-0.319068,0.317534,-0.002592,0.6573,0.0140,-0.3913
1.5770,0.016741,-0.233250,0.233250,-0.296058,0.299126,-0.002591,0.6625,0.0124,-0.3858
1.5937,0.016740,-0.222294,0.222294,-0.274583,0.279185,-0.002580,0.7119,-0.0031,-0.3328
1.6104,0.016756,-0.211327,0.211327,-0.257709,0.263845,-0.002592,0.6568,0.0142,-0.3919
1.6272,0.016751,-0.200363,0.200363,-0.242369,0.246971,-0.002591,0.6625,0.0124,-0.3857
1.6440,0.016752,-0.189399,0.189399,-0.242369,0.246971,-0.002591,0.6625,0.0124,-0.3857
1.6607,0.016744,-0.178440,0.178440,-0.227029,0.231631,-0.002591,0.6625,0.0124,-0.3857
1.6774,0.016748,-0.167479,0.167479,-0.214757,0.220893,-0.002591,0.6625,0.0124,-0.3857
1.6942,0.016744,-0.156520,0.156520,-0.202485,0.211689,-0.002591,0.6625,0.0124,-0.3857
1.7109,0.016747,-0.145559,0.145559,-0.190214,0.197884,-0.002591,0.6625,0.0124,-0.3857
1.7277,0.016750,-0.134596,0.134596,-0.177942,0.182544,-0.002591,0.6625,0.0124,-0.3857
1.7444,0.016756,-0.123629,0.123629,-0.177942,0.182544,-0.002591,0.6625,0.0124,-0.3857
1.7612,0.016749,-0.112667,0.112667,-0.165670,0.167204,-0.002591,0.6625,0.0124,-0.3857
1.7780,0.016794,-0.101675,0.101675,-0.150330,0.153398,-0.002591,0.6625,0.0124,-0.3857
1.7947,0.016746,-0.090714,0.090714,-0.141126,0.141126,-0.002580,0.7119,-0.0031,-0.3328
1.8115,0.016771,-0.079738,0.079738,-0.125786,0.124252,-0.002592,0.6568,0.0142,-0.3919
1.8283,0.016792,-0.068747,0.068747,-0.113515,0.113515,-0.002591,0.6625,0.0124,-0.3857
1.8450,0.016751,-0.057784,0.057784,-0.113515,0.113515,-0.002591,0.6625,0.0124,-0.3857
1.8618,0.016749,-0.046822,0.046822,-0.096641,0.098175,-0.002580,0.7119,-0.0031,-0.3328
1.8785,0.016750,-0.036205,0.036205,-0.082835,0.084369,-0.002592,0.6568,0.0142,-0.3919
1.8953,0.016751,-0.026907,0.026907,-0.070563,0.072097,-0.002579,0.7125,-0.0033,-0.3322
1.9120,0.016743,-0.018990,0.018990,-0.058291,0.059825,-0.002581,0.7067,-0.0014,-0.3384
1.9289,0.016869,-0.012405,0.012405,-0.042951,0.044485,-0.002581,0.7067,-0.0014,-0.3384
1.9456,0.016741,-0.007251,0.007251,-0.042951,0.044485,-0.002581,0.7067,-0.0014,-0.3384
1.9624,0.016746,-0.003471,0.003471,-0.026078,0.032214,-0.002581,0.7067,-0.0014,-0.3384
1.9791,0.016744,-0.001068,0.001068,-0.015340,0.019942,-0.002592,0.6573,0.0140,-0.3913
1.9962,0.017059,-0.000035,0.000035,-0.013806,0.009204,-0.002579,0.7125,-0.0032,-0.3322
2.0130,0.016776,-0.000413,0.000413,-0.015340,0.004602,-0.002581,0.7067,-0.0014,-0.3384
2.0297,0.016756,-0.002169,0.002169,-0.010738,0.003068,-0.002592,0.6573,0.0140,-0.3913
2.0465,0.016744,-0.005301,0.005301,-0.010738,0.003068,-0.002592,0.6573,0.0140,-0.3913
2.0661,0.019625,-0.010723,0.010723,0.000000,-0.001534,-0.002591,0.6625,0.0124,-0.3858
2.0828,0.016740,-0.016842,0.016842,0.003068,-0.001534,-0.002580,0.7119,-0.0031,-0.3328
2.0996,0.016743,-0.024339,0.024339,-0.001534,0.000000,-0.002581,0.7068,-0.0014,-0.3383
2.1163,0.016746,-0.033213,0.033213,-0.006136,0.000000,-0.002581,0.7068,-0.0014,-0.3383
2.1331,0.016742,-0.043461,0.043461,-0.007670,0.007670,-0.002581,0.7068,-0.0014,-0.3383
2.1498,0.016746,-0.054421,0.054421,-0.007670,0.007670,-0.002581,0.7068,-0.0014,-0.3383
2.1666,0.016752,-0.065385,0.065385,-0.010738,0.018408,-0.002581,0.7068,-0.0014,-0.3383
2.1833,0.016742,-0.076343,0.076343,-0.023010,0.029146,-0.002592,0.6573,0.0140,-0.3913
2.2001,0.016743,-0.087301,0.087301,-0.038350,0.039884,-0.002592,0.6736,0.0323,-0.2788
2.2168,0.016738,-0.098256,0.098256,-0.055223,0.049087,-0.002579,0.7108,-0.0051,-0.3440
2.2339,0.017139,-0.109473,0.109473,-0.084369,0.076699,-0.002581,0.7069,-0.0012,-0.3372
2.2507,0.016751,-0.120437,0.120437,-0.084369,0.076699,-0.002581,0.7069,-0.0012,-0.3372
2.2674,0.016750,-0.131400,0.131400,-0.096641,0.095107,-0.002592,0.6573,0.0140,-0.3914
2.2842,0.016739,-0.142355,0.142355,-0.107379,0.107379,-0.002591,0.6625,0.0124,-0.3858
2.3012,0.017006,-0.153485,0.153485,-0.116583,0.115049,-0.002580,0.7119,-0.0031,-0.3328
2.3179,0.016745,-0.164445,0.164445,-0.131922,0.127320,-0.002581,0.7068,-0.0014,-0.3383
2.3347,0.016771,-0.175421,0.175421,-0.150330,0.145728,-0.002581,0.7068,-0.0014,-0.3383
2.3514,0.016747,-0.186382,0.186382,-0.150330,0.145728,-0.002581,0.7068,-0.0014,-0.3383
2.3682,0.016759,-0.197351,0.197351,-0.168738,0.164136,-0.002581,0.7068,-0.0014,-0.3383
2.3849,0.016745,-0.208311,0.208311,-0.174874,0.173340,-0.002581,0.7068,-0.0014,-0.3383
2.4017,0.016744,-0.219269,0.219269,-0.181010,0.179476,-0.002581,0.7068,-0.0014,-0.3383
2.4184,0.016746,-0.230230,0.230230,-0.196350,0.190214,-0.002592,0.6573,0.0140,-0.3913
2.4353,0.016904,-0.241293,0.241293,-0.216291,0.210155,-0.002591,0.6625,0.0124,-0.3858
2.4521,0.016743,-0.252252,0.252252,-0.216291,0.210155,-0.002591,0.6625,0.0124,-0.3858
2.4688,0.016749,-0.263214,0.263214,-0.230097,0.225495,-0.002580,0.7119,-0.0031,-0.3328
2.4856,0.016809,-0.274216,0.274216,-0.237767,0.239301,-0.002592,0.6568,0.0142,-0.3919
2.5024,0.016762,-0.285187,0.285187,-0.237767,0.239301,-0.002592,0.6568,0.0142,-0.3919
2.5191,0.016743,-0.296145,0.296145,-0.259243,0.254641,-0.002579,0.7125,-0.0033,-0.3322
2.5359,0.016758,-0.307096,0.307096,-0.259243,0.254641,-0.002579,0.7125,-0.0033,-0.3322
2.5526,0.016744,-0.317156,0.317156,-0.269981,0.268447,-0.002592,0.6567,0.0142,-0.3919
2.5694,0.016753,-0.325844,0.325844,-0.282252,0.286854,-0.002579,0.7125,-0.0033,-0.3322
2.5861,0.016742,-0.333150,0.333150,-0.297592,0.302194,-0.002581,0.7067,-0.0014,-0.3384
2.6029,0.016752,-0.339083,0.339083,-0.320602,0.322136,-0.002592,0.6573,0.0140,-0.3913
2.6196,0.016747,-0.343638,0.343638,-0.335942,0.331340,-0.002579,0.7125,-0.0032,-0.3322
2.6374,0.017794,-0.346968,0.346968,-0.339010,0.332874,-0.002579,0.7125,-0.0032,-0.3322
2.6542,0.016744,-0.348683,0.348683,-0.339010,0.332874,-0.002592,0.6567,0.0142,-0.3919
2.6709,0.016754,-0.349021,0.349021,-0.340544,0.339010,-0.002579,0.7125,-0.0033,-0.3322
2.6878,0.016894,-0.347967,0.347967,-0.349748,0.348214,-0.002581,0.7067,-0.0014,-0.3384
2.7046,0.016755,-0.345538,0.345538,-0.354350,0.348214,-0.002593,0.6684,0.0340,-0.2843
2.7213,0.016750,-0.341732,0.341732,-0.352816,0.348214,-0.002579,0.7113,-0.0053,-0.3434
2.7381,0.016771,-0.336541,0.336541,-0.352816,0.348214,-0.002579,0.7113,-0.0053,-0.3434
2.7549,0.016749,-0.329979,0.329979,-0.351282,0.348214,-0.002592,0.6569,0.0144,-0.3908
2.7716,0.016757,-0.322037,0.322037,-0.349748,0.346680,-0.002591,0.6625,0.0124,-0.3858
2.7884,0.016755,-0.312716,0.312716,-0.345146,0.342078,-0.002591,0.6625,0.0124,-0.3858
2.8051,0.016763,-0.302077,0.302077,-0.342078,0.337476,-0.002580,0.7119,-0.0031,-0.3328
2.8219,0.016756,-0.291111,0.291111,-0.334408,0.332874,-0.002581,0.7068,-0.0014,-0.3383
2.8387,0.016771,-0.280134,0.280134,-0.334408,0.332874,-0.002581,0.7068,-0.0014,-0.3383
2.8554,0.016742,-0.269177,0.269177,-0.323670,0.326738,-0.002592,0.6573,0.0140,-0.3913
2.8722,0.016756,-0.258210,0.258210,-0.311398,0.314466,-0.002591,0.6625,0.0124,-0.3858
2.8889,0.016741,-0.247253,0.247253,-0.299126,0.303728,-0.002591,0.6625,0.0124,-0.3858
2.9056,0.016757,-0.236285,0.236285,-0.282252,0.288388,-0.002591,0.6625,0.0124,-0.3858
2.9224,0.016746,-0.225325,0.225325,-0.269981,0.274583,-0.002591,0.6625,0.0124,-0.3858
2.9392,0.016766,-0.214352,0.214352,-0.269981,0.274583,-0.002591,0.6625,0.0124,-0.3858
2.9559,0.016746,-0.203392,0.203392,-0.256175,0.259243,-0.002591,0.6625,0.0124,-0.3858
2.9727,0.016753,-0.192427,0.192427,-0.242369,0.245437,-0.002580,0.7119,-0.0031,-0.3328
2.9894,0.016754,-0.181462,0.181462,-0.230097,0.233165,-0.002581,0.7068,-0.0014,-0.3383
3.0062,0.016758,-0.170494,0.170494,-0.214757,0.220893,-0.002581,0.7068,-0.0014,-0.3383
3.0229,0.016744,-0.159535,0.159535,-0.199418,0.207087,-0.002592,0.6573,0.0140,-0.3913
3.0397,0.016768,-0.148560,0.148560,-0.199418,0.207087,-0.002592,0.6573,0.0140,-0.3913
3.0564,0.016751,-0.137597,0.137597,-0.185612,0.193282,-0.002579,0.7125,-0.0032,-0.3322
3.0732,0.016748,-0.126636,0.126636,-0.173340,0.177942,-0.002581,0.7067,-0.0014,-0.3384
3.0899,0.016741,-0.115678,0.115678,-0.161068,0.165670,-0.002592,0.6573,0.0140,-0.3913
3.1067,0.016758,-0.104711,0.104711,-0.147262,0.150330,-0.002579,0.7125,-0.0032,-0.3322
3.1234,0.016751,-0.093747,0.093747,-0.133456,0.134990,-0.002581,0.7067,-0.0014,-0.3384
3.1402,0.016799,-0.082752,0.082752,-0.133456,0.134990,-0.002581,0.7067,-0.0014,-0.3384
3.1570,0.016743,-0.071794,0.071794,-0.119651,0.118117,-0.002581,0.7067,-0.0014,-0.3384
3.1737,0.016747,-0.060833,0.060833,-0.105845,0.107379,-0.002592,0.6573,0.0140,-0.3913
3.1905,0.016744,-0.049874,0.049874,-0.093573,0.095107,-0.002591,0.6625,0.0124,-0.3858
3.2073,0.016800,-0.039008,0.039008,-0.081301,0.081301,-0.002591,0.6625,0.0124,-0.3858
3.2240,0.016746,-0.029334,0.029334,-0.065961,0.065961,-0.002580,0.7119,-0.0031,-0.3328
3.2408,0.016759,-0.021030,0.021030,-0.065961,0.065961,-0.002580,0.7119,-0.0031,-0.3328
3.2575,0.016749,-0.014108,0.014108,-0.050621,0.052155,-0.002581,0.7068,-0.0014,-0.3383
3.2743,0.016743,-0.008565,0.008565,-0.036816,0.038350,-0.002581,0.7068,-0.0014,-0.3383
3.2910,0.016745,-0.004397,0.004397,-0.024544,0.029146,-0.002592,0.6573,0.0140,-0.3913
3.3077,0.016724,-0.001609,0.001609,-0.018408,0.019942,-0.002579,0.7125,-0.0032,-0.3322
3.3245,0.016747,-0.000192,0.000192,-0.012272,0.009204,-0.002592,0.6567,0.0142,-0.3919
3.3412,0.016772,-0.000154,0.000154,-0.012272,0.009204,-0.002592,0.6567,0.0142,-0.3919
3.3580,0.016746,-0.001493,0.001493,-0.003068,0.000000,-0.002579,0.7125,-0.0033,-0.3322
3.3747,0.016752,-0.004209,0.004209,0.003068,0.000000,-0.002581,0.7067,-0.0014,-0.3384
3.3915,0.016773,-0.008310,0.008310,0.000000,0.001534,-0.002581,0.7067,-0.0014,-0.3384
3.4083,0.016745,-0.013781,0.013781,-0.004602,0.000000,-0.002581,0.7067,-0.0014,-0.3384
3.4250,0.016749,-0.020630,0.020630,-0.004602,0.003068,-0.002581,0.7067,-0.0014,-0.3384
3.4418,0.016746,-0.028855,0.028855,-0.004602,0.003068,-0.002581,0.7067,-0.0014,-0.3384
3.4585,0.016751,-0.038459,0.038459,-0.003068,0.009204,-0.002592,0.6573,0.0140,-0.3913
3.4753,0.016742,-0.049254,0.049254,-0.007670,0.012272,-0.002579,0.7125,-0.0032,-0.3322
3.4920,0.016747,-0.060214,0.060214,-0.018408,0.016874,-0.002592,0.6567,0.0142,-0.3919
3.5087,0.016743,-0.071173,0.071173,-0.032214,0.024544,-0.002579,0.7125,-0.0033,-0.3322
3.5255,0.016799,-0.082168,0.082168,-0.032214,0.024544,-0.002579,0.7125,-0.0033,-0.3322
3.5423,0.016760,-0.093137,0.093137,-0.065961,0.058291,-0.002579,0.7125,-0.0033,-0.3322
3.5590,0.016744,-0.104096,0.104096,-0.065961,0.058291,-0.002581,0.7067,-0.0014,-0.3384
3.5758,0.016743,-0.115054,0.115054,-0.069029,0.065961,-0.002592,0.6573,0.0140,-0.3913
3.5925,0.016742,-0.126012,0.126012,-0.069029,0.070563,-0.002591,0.6625,0.0124,-0.3858
3.6093,0.016780,-0.136995,0.136995,-0.079767,0.081301,-0.002591,0.6625,0.0124,-0.3858
3.6261,0.016744,-0.147954,0.147954,-0.105845,0.104311,-0.002591,0.6625,0.0124,-0.3858
3.6428,0.016760,-0.158923,0.158923,-0.105845,0.104311,-0.002591,0.6625,0.0124,-0.3858
3.6596,0.016749,-0.169885,0.169885,-0.127320,0.128854,-0.002580,0.7119,-0.0031,-0.3328
3.6763,0.016744,-0.180845,0.180845,-0.145728,0.142660,-0.002581,0.7068,-0.0014,-0.3383
3.6931,0.016743,-0.191803,0.191803,-0.151864,0.147262,-0.002592,0.6573,0.0140,-0.3913
3.7103,0.017232,-0.203081,0.203081,-0.158000,0.153398,-0.002591,0.6625,0.0124,-0.3858
3.7270,0.016742,-0.214039,0.214039,-0.173340,0.170272,-0.002591,0.6625,0.0124,-0.3858
3.7444,0.017333,-0.225383,0.225383,-0.173340,0.170272,-0.002591,0.6625,0.0124,-0.3858
3.7611,0.016751,-0.236347,0.236347,-0.193282,0.191748,-0.002591,0.6625,0.0124,-0.3858
3.7779,0.016743,-0.247305,0.247305,-0.210155,0.208621,-0.002591,0.6625,0.0124,-0.3858
3.7948,0.016899,-0.258366,0.258366,-0.216291,0.213223,-0.002591,0.6625,0.0124,-0.3858
3.8115,0.016747,-0.269327,0.269327,-0.219359,0.217825,-0.002580,0.7119,-0.0031,-0.3328
3.8283,0.016783,-0.280311,0.280311,-0.231631,0.231631,-0.002581,0.7068,-0.0014,-0.3383
3.8450,0.016750,-0.291274,0.291274,-0.253107,0.253107,-0.002581,0.7068,-0.0014,-0.3383
3.8618,0.016743,-0.302233,0.302233,-0.253107,0.253107,-0.002581,0.7068,-0.0014,-0.3383
3.8785,0.016740,-0.312844,0.312844,-0.276117,0.274583,-0.002581,0.7068,-0.0014,-0.3383
3.8953,0.016746,-0.322142,0.322142,-0.285320,0.285320,-0.002581,0.7068,-0.0014,-0.3383
3.9120,0.016748,-0.330064,0.330064,-0.286854,0.289922,-0.002592,0.6573,0.0140,-0.3913
3.9288,0.016753,-0.336611,0.336611,-0.286854,0.289922,-0.002592,0.6573,0.0140,-0.3913
3.9455,0.016741,-0.341777,0.341777,-0.300660,0.299126,-0.002591,0.6625,0.0124,-0.3858
3.9623,0.016758,-0.345571,0.345571,-0.323670,0.320602,-0.002591,0.6625,0.0124,-0.3858
3.9790,0.016750,-0.347985,0.347985,-0.339010,0.337476,-0.002580,0.7119,-0.0031,-0.3328
3.9958,0.016749,-0.349022,0.349022,-0.340544,0.335942,-0.002592,0.6568,0.0142,-0.3919
4.0125,0.016749,-0.348682,0.348682,-0.339010,0.335942,-0.002579,0.7125,-0.0033,-0.3322
4.0293,0.016754,-0.346964,0.346964,-0.351282,0.348214,-0.002579,0.7125,-0.0033,-0.3322
4.0460,0.016749,-0.343869,0.343869,-0.351282,0.348214,-0.002592,0.6567,0.0142,-0.3919
4.0627,0.016733,-0.339403,0.339403,-0.354350,0.349748,-0.002579,0.7125,-0.0033,-0.3322
4.0795,0.016761,-0.333551,0.333551,-0.351282,0.345146,-0.002581,0.7067,-0.0014,-0.3384
4.0963,0.016750,-0.326325,0.326325,-0.351282,0.348214,-0.002592,0.6573,0.0140,-0.3913
4.1130,0.016742,-0.317726,0.317726,-0.349748,0.348214,-0.002591,0.6625,0.0124,-0.3858
4.1298,0.016766,-0.307736,0.307736,-0.349748,0.348214,-0.002591,0.6625,0.0124,-0.3858
4.1465,0.016747,-0.296806,0.296806,-0.343612,0.342078,-0.002591,0.6625,0.0124,-0.3858
4.1633,0.016765,-0.285834,0.285834,-0.339010,0.337476,-0.002580,0.7119,-0.0031,-0.3328
4.1800,0.016741,-0.274877,0.274877,-0.323670,0.325204,-0.002581,0.7068,-0.0014,-0.3383
4.1968,0.016765,-0.263904,0.263904,-0.311398,0.312932,-0.002592,0.6573,0.0140,-0.3913
4.2135,0.016748,-0.252943,0.252943,-0.291456,0.297592,-0.002579,0.7125,-0.0032,-0.3322
4.2303,0.016765,-0.241970,0.241970,-0.291456,0.297592,-0.002579,0.7125,-0.0032,-0.3322
4.2470,0.016739,-0.231014,0.231014,-0.277651,0.282252,-0.002592,0.6567,0.0142,-0.3919
4.2638,0.016758,-0.220046,0.220046,-0.265379,0.269981,-0.002579,0.7125,-0.0033,-0.3322
4.2805,0.016743,-0.209088,0.209088,-0.253107,0.256175,-0.002581,0.7067,-0.0014,-0.3384
4.2973,0.016760,-0.198118,0.198118,-0.237767,0.240835,-0.002592,0.6573,0.0140,-0.3913
4.3140,0.016744,-0.187159,0.187159,-0.222427,0.225495,-0.002591,0.6625,0.0124,-0.3858
4.3308,0.016764,-0.176187,0.176187,-0.222427,0.225495,-0.002591,0.6625,0.0124,-0.3858
4.3475,0.016743,-0.165229,0.165229,-0.207087,0.214757,-0.002591,0.6625,0.0124,-0.3858
4.3643,0.016758,-0.154261,0.154261,-0.194816,0.200951,-0.002580,0.7119,-0.0031,-0.3328
4.3810,0.016741,-0.143304,0.143304,-0.182544,0.188680,-0.002581,0.7068,-0.0014,-0.3383
4.3978,0.016754,-0.132339,0.132339,-0.170272,0.173340,-0.002592,0.6573,0.0140,-0.3913
4.4145,0.016748,-0.121378,0.121378,-0.154932,0.158000,-0.002579,0.7125,-0.0032,-0.3322
4.4313,0.016751,-0.110414,0.110414,-0.154932,0.158000,-0.002579,0.7125,-0.0032,-0.3322
4.4480,0.016745,-0.099455,0.099455,-0.141126,0.142660,-0.002592,0.6567,0.0142,-0.3919
4.4648,0.016756,-0.088488,0.088488,-0.128854,0.130388,-0.002579,0.7125,-0.0033,-0.3322
4.4815,0.016743,-0.077529,0.077529,-0.116583,0.116583,-0.002581,0.7067,-0.0014,-0.3384
4.4983,0.016758,-0.066561,0.066561,-0.102777,0.102777,-0.002592,0.6573,0.0140,-0.3913
4.5151,0.016750,-0.055599,0.055599,-0.087437,0.087437,-0.002591,0.6625,0.0124,-0.3858
4.5318,0.016751,-0.044635,0.044635,-0.087437,0.087437,-0.002591,0.6625,0.0124,-0.3858
4.5486,0.016820,-0.034200,0.034200,-0.072097,0.075165,-0.002580,0.7119,-0.0031,-0.3328
4.5654,0.016760,-0.025178,0.025178,-0.072097,0.075165,-0.002580,0.7119,-0.0031,-0.3328
4.5822,0.016811,-0.017514,0.017514,-0.050621,0.052155,-0.002581,0.7068,-0.0014,-0.3383
4.5990,0.016759,-0.011254,0.011254,-0.049087,0.050621,-0.002592,0.6573,0.0140,-0.3913
4.6157,0.016748,-0.006375,0.006375,-0.044485,0.042951,-0.002591,0.6625,0.0124,-0.3858
4.6325,0.016755,-0.002873,0.002873,-0.044485,0.042951,-0.002591,0.6625,0.0124,-0.3858
4.6492,0.016744,-0.000749,0.000749,-0.029146,0.029146,-0.002580,0.7119,-0.0031,-0.3328
4.6660,0.016758,-0.000001,0.000001,-0.007670,0.012272,-0.002581,0.7068,-0.0014,-0.3383
4.6827,0.016744,-0.000631,0.000631,0.000000,-0.001534,-0.002592,0.6573,0.0140,-0.3913
4.6994,0.016749,-0.002638,0.002638,0.000000,-0.003068,-0.002591,0.6625,0.0124,-0.3858
4.7162,0.016750,-0.006022,0.006022,-0.006136,0.000000,-0.002591,0.6625,0.0124,-0.3858
4.7330,0.016753,-0.010784,0.010784,-0.006136,0.000000,-0.002591,0.6625,0.0124,-0.3858
4.7497,0.016743,-0.016920,0.016920,-0.003068,0.003068,-0.002591,0.6625,0.0124,-0.3858
4.7664,0.016749,-0.024435,0.024435,0.003068,0.001534,-0.002604,0.6231,0.0482,-0.3329
4.7832,0.016740,-0.033321,0.033321,-0.001534,0.006136,-0.002590,0.6661,0.0089,-0.3919
4.7999,0.016746,-0.043588,0.043588,-0.012272,0.016874,-0.002591,0.6616,0.0130,-0.3857
4.8167,0.016751,-0.054552,0.054552,-0.027612,0.027612,-0.002580,0.7120,-0.0031,-0.3328
4.8334,0.016752,-0.065516,0.065516,-0.027612,0.027612,-0.002580,0.7120,-0.0031,-0.3328
4.8502,0.016743,-0.076474,0.076474,-0.042951,0.035282,-0.002592,0.6568,0.0142,-0.3919
4.8669,0.016747,-0.087435,0.087435,-0.050621,0.046019,-0.002579,0.7125,-0.0033,-0.3322
4.8837,0.016740,-0.098391,0.098391,-0.053689,0.059825,-0.002581,0.7067,-0.0014,-0.3384
4.9004,0.016747,-0.109352,0.109352,-0.065961,0.073631,-0.002581,0.7067,-0.0014,-0.3384
4.9172,0.016748,-0.120314,0.120314,-0.084369,0.092039,-0.002581,0.7067,-0.0014,-0.3384
4.9339,0.016750,-0.131277,0.131277,-0.084369,0.092039,-0.002581,0.7067,-0.0014,-0.3384
4.9507,0.016744,-0.142236,0.142236,-0.105845,0.105845,-0.002581,0.7067,-0.0014,-0.3384
4.9674,0.016745,-0.153196,0.153196,-0.118117,0.111981,-0.002581,0.7067,-0.0014,-0.3384
4.9841,0.016742,-0.164154,0.164154,-0.127320,0.121184,-0.002581,0.7067,-0.0014,-0.3384
5.0009,0.016753,-0.175118,0.175118,-0.134990,0.133456,-0.002592,0.6573,0.0140,-0.3913
5.0177,0.016839,-0.186139,0.186139,-0.153398,0.154932,-0.002591,0.6625,0.0124,-0.3858
5.0345,0.016749,-0.197101,0.197101,-0.153398,0.154932,-0.002591,0.6625,0.0124,-0.3858
5.0512,0.016740,-0.208058,0.208058,-0.171806,0.171806,-0.002580,0.7119,-0.0031,-0.3328
5.0680,0.016752,-0.219022,0.219022,-0.185612,0.179476,-0.002581,0.7068,-0.0014,-0.3383
5.0847,0.016739,-0.229977,0.229977,-0.190214,0.184078,-0.002581,0.7068,-0.0014,-0.3383
5.1015,0.016753,-0.240942,0.240942,-0.199418,0.196350,-0.002581,0.7068,-0.0014,-0.3383
5.1182,0.016752,-0.251907,0.251907,-0.216291,0.217825,-0.002592,0.6573,0.0140,-0.3913
5.1350,0.016751,-0.262870,0.262870,-0.216291,0.217825,-0.002592,0.6573,0.0140,-0.3913
5.1517,0.016743,-0.273828,0.273828,-0.236233,0.237767,-0.002591,0.6625,0.0124,-0.3858
5.1685,0.016744,-0.284787,0.284787,-0.248505,0.245437,-0.002591,0.6625,0.0124,-0.3858
5.1852,0.016745,-0.295747,0.295747,-0.253107,0.253107,-0.002580,0.7119,-0.0031,-0.3328
5.2020,0.016755,-0.306704,0.306704,-0.262311,0.266913,-0.002592,0.6568,0.0142,-0.3919
5.2187,0.016759,-0.316822,0.316822,-0.262311,0.266913,-0.002592,0.6568,0.0142,-0.3919
5.2355,0.016761,-0.325563,0.325563,-0.279185,0.285320,-0.002579,0.7125,-0.0033,-0.3322
5.2522,0.016748,-0.332919,0.332919,-0.305262,0.302194,-0.002592,0.6567,0.0142,-0.3919
5.2690,0.016760,-0.338903,0.338903,-0.316000,0.309864,-0.002591,0.6625,0.0124,-0.3857
5.2857,0.016753,-0.343506,0.343506,-0.326738,0.319068,-0.002580,0.7119,-0.0031,-0.3328
5.3025,0.016767,-0.346733,0.346733,-0.339010,0.332874,-0.002592,0.6568,0.0142,-0.3919
5.3193,0.016751,-0.348579,0.348579,-0.339010,0.332874,-0.002592,0.6568,0.0142,-0.3919
5.3360,0.016755,-0.349048,0.349048,-0.345146,0.343612,-0.002579,0.7125,-0.0033,-0.3322
5.3528,0.016752,-0.348139,0.348139,-0.343612,0.342078,-0.002581,0.7067,-0.0014,-0.3384
5.3695,0.016763,-0.345851,0.345851,-0.348214,0.343612,-0.002581,0.7067,-0.0014,-0.3384
5.3864,0.016835,-0.342165,0.342165,-0.355884,0.349748,-0.002581,0.7067,-0.0014,-0.3384
5.4032,0.016861,-0.337078,0.337078,-0.354350,0.349748,-0.002592,0.6573,0.0140,-0.3913
5.4200,0.016758,-0.330640,0.330640,-0.354350,0.349748,-0.002592,0.6573,0.0140,-0.3913
5.4367,0.016764,-0.322820,0.322820,-0.348214,0.345146,-0.002591,0.6625,0.0124,-0.3858
5.4535,0.016756,-0.313626,0.313626,-0.345146,0.343612,-0.002580,0.7119,-0.0031,-0.3328
5.4703,0.016764,-0.303079,0.303079,-0.342078,0.340544,-0.002581,0.7068,-0.0014,-0.3383
5.4870,0.016752,-0.292115,0.292115,-0.339010,0.335942,-0.002581,0.7068,-0.0014,-0.3383
5.5039,0.016919,-0.281042,0.281042,-0.331340,0.329806,-0.002581,0.7068,-0.0014,-0.3383
5.5207,0.016759,-0.270073,0.270073,-0.331340,0.329806,-0.002581,0.7068,-0.0014,-0.3383
5.5374,0.016756,-0.259107,0.259107,-0.320602,0.319068,-0.002592,0.6573,0.0140,-0.3913
5.5542,0.016743,-0.248149,0.248149,-0.306796,0.308330,-0.002579,0.7125,-0.0032,-0.3322
5.5710,0.016806,-0.237149,0.237149,-0.288388,0.296058,-0.002592,0.6567,0.0142,-0.3919
5.5878,0.016772,-0.226172,0.226172,-0.288388,0.296058,-0.002592,0.6567,0.0142,-0.3919
5.6051,0.017297,-0.214851,0.214851,-0.288388,0.296058,-0.002592,0.6567,0.0142,-0.3919
5.6218,0.016756,-0.203884,0.203884,-0.288388,0.296058,-0.002592,0.6567,0.0142,-0.3919
5.6386,0.016749,-0.192921,0.192921,-0.246971,0.251573,-0.002579,0.7125,-0.0033,-0.3322
5.6553,0.016744,-0.181963,0.181963,-0.245437,0.245437,-0.002581,0.7067,-0.0014,-0.3384
5.6721,0.016759,-0.170994,0.170994,-0.243903,0.240835,-0.002592,0.6573,0.0140,-0.3913
5.6888,0.016747,-0.160033,0.160033,-0.230097,0.228563,-0.002579,0.7125,-0.0032,-0.3322
5.7056,0.016761,-0.149063,0.149063,-0.230097,0.228563,-0.002579,0.7125,-0.0032,-0.3322
5.7223,0.016752,-0.138099,0.138099,-0.205553,0.208621,-0.002592,0.6567,0.0142,-0.3919
5.7391,0.016748,-0.127137,0.127137,-0.182544,0.188680,-0.002591,0.6625,0.0124,-0.3857
5.7558,0.016747,-0.116177,0.116177,-0.162602,0.170272,-0.002591,0.6625,0.0124,-0.3857
5.7726,0.016759,-0.105208,0.105208,-0.147262,0.153398,-0.002591,0.6625,0.0124,-0.3857
5.7893,0.016744,-0.094249,0.094249,-0.134990,0.134990,-0.002591,0.6625,0.0124,-0.3857
5.8061,0.016768,-0.083274,0.083274,-0.134990,0.134990,-0.002591,0.6625,0.0124,-0.3857
5.8229,0.016754,-0.072309,0.072309,-0.121184,0.119651,-0.002580,0.7119,-0.0031,-0.3328
5.8396,0.016749,-0.061347,0.061347,-0.108913,0.107379,-0.002581,0.7068,-0.0014,-0.3383
5.8564,0.016748,-0.050385,0.050385,-0.096641,0.096641,-0.002592,0.6573,0.0140,-0.3913
5.8731,0.016756,-0.039520,0.039520,-0.085903,0.084369,-0.002579,0.7125,-0.0032,-0.3322
5.8899,0.016758,-0.029771,0.029771,-0.072097,0.072097,-0.002581,0.7067,-0.0014,-0.3384
5.9074,0.017498,-0.021062,0.021062,-0.072097,0.072097,-0.002581,0.7067,-0.0014,-0.3384
5.9241,0.016751,-0.014134,0.014134,-0.055223,0.058291,-0.002581,0.7067,-0.0014,-0.3384
5.9409,0.016750,-0.008583,0.008583,-0.041417,0.044485,-0.002581,0.7067,-0.0014,-0.3384
5.9576,0.016746,-0.004410,0.004410,-0.027612,0.032214,-0.002592,0.6573,0.0140,-0.3913
5.9744,0.016748,-0.001614,0.001614,-0.016874,0.021476,-0.002591,0.6625,0.0124,-0.3858
5.9911,0.016742,-0.000194,0.000194,-0.009204,0.010738,-0.002591,0.6625,0.0124,-0.3858
6.0079,0.016756,-0.000151,0.000151,-0.009204,0.010738,-0.002591,0.6625,0.0124,-0.3858
6.0246,0.016752,-0.001486,0.001486,-0.001534,0.000000,-0.002580,0.7119,-0.0031,-0.3328
6.0414,0.016749,-0.004198,0.004198,0.001534,0.000000,-0.002592,0.6568,0.0142,-0.3919
6.0581,0.016745,-0.008286,0.008286,-0.001534,0.001534,-0.002591,0.6625,0.0124,-0.3857
6.0754,0.017290,-0.013951,0.013951,-0.004602,0.000000,-0.002580,0.7119,-0.0031,-0.3328
6.0921,0.016752,-0.020839,0.020839,-0.003068,0.001534,-0.002592,0.6568,0.0142,-0.3919
6.1093,0.017112,-0.029298,0.029298,-0.003068,0.001534,-0.002592,0.6568,0.0142,-0.3919
6.1260,0.016749,-0.038969,0.038969,0.000000,0.006136,-0.002591,0.6625,0.0124,-0.3857
6.1428,0.016745,-0.049797,0.049797,-0.004602,0.013806,-0.002580,0.7119,-0.0031,-0.3328
6.1595,0.016745,-0.060757,0.060757,-0.015340,0.016874,-0.002592,0.6568,0.0142,-0.3919
6.1762,0.016751,-0.071720,0.071720,-0.027612,0.019942,-0.002579,0.7125,-0.0033,-0.3322
6.1930,0.016743,-0.082679,0.082679,-0.041417,0.029146,-0.002581,0.7067,-0.0014,-0.3384
6.2097,0.016758,-0.093647,0.093647,-0.041417,0.029146,-0.002581,0.7067,-0.0014,-0.3384
6.2265,0.016751,-0.104610,0.104610,-0.053689,0.044485,-0.002581,0.7067,-0.0014,-0.3384
6.2432,0.016742,-0.115568,0.115568,-0.067495,0.065961,-0.002581,0.7067,-0.0014,-0.3384
6.2600,0.016744,-0.126526,0.126526,-0.090505,0.090505,-0.002581,0.7067,-0.0014,-0.3384
6.2767,0.016743,-0.137485,0.137485,-0.101243,0.099709,-0.002592,0.6573,0.0140,-0.3913
6.2935,0.016747,-0.148445,0.148445,-0.118117,0.118117,-0.002579,0.7125,-0.0032,-0.3322
6.3102,0.016746,-0.159405,0.159405,-0.118117,0.118117,-0.002579,0.7125,-0.0032,-0.3322
6.3270,0.016747,-0.170366,0.170366,-0.138058,0.136524,-0.002592,0.6567,0.0142,-0.3919
6.3437,0.016741,-0.181323,0.181323,-0.150330,0.145728,-0.002591,0.6625,0.0124,-0.3857
6.3605,0.016743,-0.192282,0.192282,-0.158000,0.153398,-0.002591,0.6625,0.0124,-0.3857
6.3772,0.016744,-0.203241,0.203241,-0.167204,0.162602,-0.002591,0.6625,0.0124,-0.3857
6.3939,0.016741,-0.214198,0.214198,-0.187146,0.184078,-0.002591,0.6625,0.0124,-0.3857
6.4107,0.016742,-0.225156,0.225156,-0.187146,0.184078,-0.002580,0.7119,-0.0031,-0.3328
6.4274,0.016752,-0.236120,0.236120,-0.207087,0.204019,-0.002592,0.6568,0.0142,-0.3919
6.4442,0.016742,-0.247077,0.247077,-0.213223,0.211689,-0.002579,0.7125,-0.0033,-0.3322
6.4609,0.016743,-0.258035,0.258035,-0.216291,0.214757,-0.002592,0.6567,0.0142,-0.3919
6.4777,0.016748,-0.268997,0.268997,-0.228563,0.227029,-0.002591,0.6625,0.0124,-0.3857
6.4946,0.016912,-0.280066,0.280066,-0.245437,0.246971,-0.002591,0.6625,0.0124,-0.3857
6.5113,0.016744,-0.291025,0.291025,-0.245437,0.246971,-0.002580,0.7119,-0.0031,-0.3328
6.5281,0.016756,-0.301992,0.301992,-0.271515,0.271515,-0.002581,0.7068,-0.0014,-0.3383
6.5448,0.016743,-0.312626,0.312626,-0.277651,0.277651,-0.002592,0.6573,0.0140,-0.3913
6.5616,0.016748,-0.321955,0.321955,-0.282252,0.283786,-0.002579,0.7125,-0.0032,-0.3322
6.5783,0.016745,-0.329905,0.329905,-0.292990,0.294524,-0.002581,0.7067,-0.0014,-0.3384
6.5954,0.017069,-0.336593,0.336593,-0.317534,0.311398,-0.002592,0.6573,0.0140,-0.3913
6.6121,0.016743,-0.341764,0.341764,-0.317534,0.311398,-0.002592,0.6573,0.0140,-0.3913
6.6290,0.016849,-0.345579,0.345579,-0.334408,0.329806,-0.002579,0.7125,-0.0032,-0.3322
6.6457,0.016760,-0.347990,0.347990,-0.334408,0.329806,-0.002579,0.7125,-0.0032,-0.3322
6.6625,0.016757,-0.349023,0.349023,-0.335942,0.335942,-0.002592,0.6567,0.0142,-0.3919
6.6792,0.016744,-0.348678,0.348678,-0.342078,0.337476,-0.002591,0.6625,0.0124,-0.3857
6.6960,0.016765,-0.346954,0.346954,-0.342078,0.337476,-0.002591,0.6625,0.0124,-0.3857
6.7127,0.016745,-0.343855,0.343855,-0.352816,0.345146,-0.002580,0.7119,-0.0031,-0.3328
6.7295,0.016753,-0.339377,0.339377,-0.354350,0.349748,-0.002581,0.7068,-0.0014,-0.3383
6.7462,0.016741,-0.333526,0.333526,-0.352816,0.349748,-0.002581,0.7068,-0.0014,-0.3383
6.7630,0.016753,-0.326293,0.326293,-0.348214,0.343612,-0.002592,0.6573,0.0140,-0.3913
6.7797,0.016742,-0.317690,0.317690,-0.345146,0.342078,-0.002604,0.6236,0.0480,-0.3324
6.7965,0.016761,-0.307698,0.307698,-0.345146,0.342078,-0.002604,0.6236,0.0480,-0.3324
6.8132,0.016747,-0.296767,0.296767,-0.340544,0.337476,-0.002603,0.6271,0.0445,-0.3385
6.8300,0.016752,-0.285803,0.285803,-0.337476,0.334408,-0.002578,0.7156,-0.0064,-0.3377
6.8467,0.016741,-0.274846,0.274846,-0.328272,0.329806,-0.002593,0.6564,0.0146,-0.3914
6.8635,0.016771,-0.263869,0.263869,-0.314466,0.320602,-0.002579,0.7126,-0.0033,-0.3322
6.8802,0.016743,-0.252911,0.252911,-0.297592,0.303728,-0.002592,0.6567,0.0142,-0.3919
6.8970,0.016759,-0.241942,0.241942,-0.297592,0.303728,-0.002592,0.6567,0.0142,-0.3919
6.9138,0.016746,-0.230982,0.230982,-0.280718,0.288388,-0.002579,0.7125,-0.0033,-0.3322
6.9305,0.016754,-0.220017,0.220017,-0.266913,0.273049,-0.002581,0.7067,-0.0014,-0.3384
6.9472,0.016741,-0.209059,0.209059,-0.256175,0.259243,-0.002593,0.6684,0.0340,-0.2843
6.9640,0.016751,-0.198096,0.198096,-0.242369,0.245437,-0.002591,0.6614,0.0103,-0.3969
6.9807,0.016747,-0.187135,0.187135,-0.227029,0.230097,-0.002591,0.6621,0.0128,-0.3852
6.9975,0.016758,-0.176167,0.176167,-0.227029,0.230097,-0.002591,0.6621,0.0128,-0.3852
7.0142,0.016742,-0.165209,0.165209,-0.211689,0.217825,-0.002591,0.6621,0.0128,-0.3852
7.0310,0.016754,-0.154244,0.154244,-0.197884,0.205553,-0.002591,0.6621,0.0128,-0.3852
7.0477,0.016745,-0.143284,0.143284,-0.185612,0.194816,-0.002580,0.7120,-0.0031,-0.3329
7.0645,0.016757,-0.132317,0.132317,-0.173340,0.179476,-0.002581,0.7068,-0.0014,-0.3383
7.0812,0.016747,-0.121356,0.121356,-0.158000,0.164136,-0.002592,0.6573,0.0140,-0.3913
7.0980,0.016756,-0.110389,0.110389,-0.158000,0.164136,-0.002592,0.6573,0.0140,-0.3913
7.1148,0.016748,-0.099428,0.099428,-0.147262,0.148796,-0.002579,0.7125,-0.0032,-0.3322
7.1315,0.016758,-0.088459,0.088459,-0.134990,0.136524,-0.002581,0.7067,-0.0014,-0.3384
7.1483,0.016763,-0.077488,0.077488,-0.122718,0.122718,-0.002592,0.6573,0.0140,-0.3913
7.1650,0.016752,-0.066524,0.066524,-0.108913,0.110447,-0.002591,0.6625,0.0124,-0.3858
7.1818,0.016744,-0.055565,0.055565,-0.093573,0.095107,-0.002591,0.6625,0.0124,-0.3858
7.1985,0.016756,-0.044598,0.044598,-0.093573,0.095107,-0.002591,0.6625,0.0124,-0.3858
7.2153,0.016749,-0.034208,0.034208,-0.078233,0.079767,-0.002580,0.7119,-0.0031,-0.3328
7.2320,0.016751,-0.025190,0.025190,-0.067495,0.065961,-0.002581,0.7068,-0.0014,-0.3383
7.2488,0.016752,-0.017548,0.017548,-0.053689,0.056757,-0.002581,0.7068,-0.0014,-0.3383
7.2655,0.016754,-0.011283,0.011283,-0.039884,0.042951,-0.002581,0.7068,-0.0014,-0.3383
7.2823,0.016749,-0.006397,0.006397,-0.023010,0.029146,-0.002581,0.7068,-0.0014,-0.3383
7.2990,0.016756,-0.002887,0.002887,-0.023010,0.029146,-0.002581,0.7068,-0.0014,-0.3383
7.3158,0.016746,-0.000756,0.000756,-0.010738,0.016874,-0.002581,0.7068,-0.0014,-0.3383
7.3325,0.016747,-0.000002,0.000002,-0.009204,0.007670,-0.002592,0.6573,0.0140,-0.3913
7.3493,0.016742,-0.000623,0.000623,-0.012272,0.003068,-0.002579,0.7125,-0.0032,-0.3322
7.3660,0.016749,-0.002622,0.002622,-0.007670,0.003068,-0.002581,0.7067,-0.0014,-0.3384
7.3828,0.016744,-0.005997,0.005997,0.000000,0.000000,-0.002581,0.7067,-0.0014,-0.3384
7.3995,0.016763,-0.010754,0.010754,0.000000,0.000000,-0.002581,0.7067,-0.0014,-0.3384
7.4163,0.016742,-0.016882,0.016882,0.003068,-0.001534,-0.002581,0.7067,-0.0014,-0.3384
7.4330,0.016743,-0.024386,0.024386,-0.001534,0.001534,-0.002592,0.6573,0.0140,-0.3913
7.4498,0.016743,-0.033267,0.033267,-0.007670,0.006136,-0.002591,0.6625,0.0124,-0.3858
7.4665,0.016750,-0.043527,0.043527,-0.010738,0.012272,-0.002591,0.6625,0.0124,-0.3858
7.4833,0.016781,-0.054510,0.054510,-0.018408,0.019942,-0.002580,0.7119,-0.0031,-0.3328
7.5000,0.016755,-0.065476,0.065476,-0.018408,0.019942,-0.002580,0.7119,-0.0031,-0.3328
7.5168,0.016745,-0.076436,0.076436,-0.032214,0.032214,-0.002592,0.6568,0.0142,-0.3919
7.5335,0.016756,-0.087402,0.087402,-0.049087,0.046019,-0.002591,0.6625,0.0124,-0.3857
7.5503,0.016740,-0.098359,0.098359,-0.058291,0.055223,-0.002591,0.6625,0.0124,-0.3857
7.5670,0.016754,-0.109325,0.109325,-0.064427,0.062893,-0.002580,0.7119,-0.0031,-0.3328
7.5838,0.016744,-0.120283,0.120283,-0.076699,0.079767,-0.002592,0.6568,0.0142,-0.3919
7.6005,0.016762,-0.131254,0.131254,-0.076699,0.079767,-0.002592,0.6568,0.0142,-0.3919
7.6173,0.016743,-0.142213,0.142213,-0.095107,0.099709,-0.002579,0.7125,-0.0033,-0.3322
7.6340,0.016749,-0.153175,0.153175,-0.115049,0.113515,-0.002592,0.6567,0.0142,-0.3919
7.6509,0.016884,-0.164226,0.164226,-0.125786,0.121184,-0.002591,0.6625,0.0124,-0.3857
7.6677,0.016780,-0.175208,0.175208,-0.125786,0.121184,-0.002591,0.6625,0.0124,-0.3857
7.6845,0.016758,-0.186176,0.186176,-0.125786,0.121184,-0.002591,0.6625,0.0124,-0.3857
7.7013,0.016874,-0.197220,0.197220,-0.125786,0.121184,-0.002591,0.6625,0.0124,-0.3857
7.7181,0.016744,-0.208178,0.208178,-0.162602,0.158000,-0.002591,0.6625,0.0124,-0.3857
7.7348,0.016750,-0.219141,0.219141,-0.161068,0.156466,-0.002591,0.6625,0.0124,-0.3857
7.7516,0.016744,-0.230100,0.230100,-0.151864,0.150330,-0.002591,0.6625,0.0124,-0.3857
7.7684,0.016832,-0.241116,0.241116,-0.164136,0.162602,-0.002580,0.7119,-0.0031,-0.3328
7.7852,0.016820,-0.252125,0.252125,-0.193282,0.191748,-0.002592,0.6568,0.0142,-0.3919
7.8020,0.016788,-0.263113,0.263113,-0.193282,0.191748,-0.002592,0.6568,0.0142,-0.3919
7.8188,0.016751,-0.274076,0.274076,-0.228563,0.230097,-0.002591,0.6625,0.0124,-0.3857
7.8355,0.016760,-0.285046,0.285046,-0.254641,0.253107,-0.002591,0.6625,0.0124,-0.3857
7.8523,0.016801,-0.296042,0.296042,-0.256175,0.254641,-0.002580,0.7119,-0.0031,-0.3328
7.8691,0.016766,-0.307001,0.307001,-0.256175,0.254641,-0.002592,0.6568,0.0142,-0.3919
7.8859,0.016765,-0.317085,0.317085,-0.269981,0.269981,-0.002591,0.6625,0.0124,-0.3857
7.9026,0.016772,-0.325792,0.325792,-0.269981,0.269981,-0.002591,0.6625,0.0124,-0.3857
7.9194,0.016798,-0.333129,0.333129,-0.292990,0.291456,-0.002580,0.7119,-0.0031,-0.3328
7.9362,0.016748,-0.339065,0.339065,-0.316000,0.312932,-0.002581,0.7068,-0.0014,-0.3383
7.9529,0.016751,-0.343625,0.343625,-0.323670,0.319068,-0.002592,0.6573,0.0140,-0.3913
7.9697,0.016762,-0.346810,0.346810,-0.326738,0.322136,-0.002591,0.6625,0.0124,-0.3858
7.9864,0.016754,-0.348614,0.348614,-0.339010,0.334408,-0.002591,0.6625,0.0124,-0.3858
8.0032,0.016771,-0.349041,0.349041,-0.339010,0.334408,-0.002591,0.6625,0.0124,-0.3858
8.0200,0.016750,-0.348088,0.348088,-0.354350,0.349748,-0.002580,0.7119,-0.0031,-0.3328
8.0367,0.016755,-0.345758,0.345758,-0.354350,0.349748,-0.002592,0.6568,0.0142,-0.3919
8.0535,0.016746,-0.342052,0.342052,-0.349748,0.346680,-0.002579,0.7125,-0.0033,-0.3322
8.0702,0.016764,-0.336963,0.336963,-0.351282,0.349748,-0.002581,0.7067,-0.0014,-0.3384
8.0870,0.016747,-0.330502,0.330502,-0.349748,0.348214,-0.002581,0.7067,-0.0014,-0.3384
8.1037,0.016769,-0.322653,0.322653,-0.349748,0.348214,-0.002581,0.7067,-0.0014,-0.3384
8.1205,0.016748,-0.313436,0.313436,-0.345146,0.343612,-0.002581,0.7067,-0.0014,-0.3384
8.1372,0.016746,-0.302881,0.302881,-0.343612,0.342078,-0.002592,0.6573,0.0140,-0.3913
8.1540,0.016747,-0.291920,0.291920,-0.340544,0.337476,-0.002591,0.6625,0.0124,-0.3858
8.1707,0.016760,-0.280950,0.280950,-0.335942,0.332874,-0.002580,0.7119,-0.0031,-0.3328
8.1875,0.016775,-0.269971,0.269971,-0.323670,0.325204,-0.002594,0.6679,0.0342,-0.2849
8.2043,0.016765,-0.258999,0.258999,-0.323670,0.325204,-0.002594,0.6679,0.0342,-0.2849
8.2210,0.016747,-0.248038,0.248038,-0.311398,0.314466,-0.002591,0.6614,0.0103,-0.3969
8.2378,0.016753,-0.237073,0.237073,-0.292990,0.300660,-0.002580,0.7121,-0.0029,-0.3316
8.2545,0.016742,-0.226116,0.226116,-0.279185,0.285320,-0.002581,0.7068,-0.0015,-0.3384
8.2716,0.017047,-0.214959,0.214959,-0.263845,0.271515,-0.002581,0.7068,-0.0015,-0.3384
8.2883,0.016746,-0.203999,0.203999,-0.251573,0.254641,-0.002581,0.7068,-0.0015,-0.3384
8.3051,0.016768,-0.193024,0.193024,-0.251573,0.254641,-0.002581,0.7068,-0.0015,-0.3384
8.3218,0.016753,-0.182059,0.182059,-0.234699,0.239301,-0.002581,0.7068,-0.0015,-0.3384
8.3386,0.016747,-0.171098,0.171098,-0.222427,0.227029,-0.002592,0.6573,0.0140,-0.3913
8.3553,0.016746,-0.160138,0.160138,-0.208621,0.217825,-0.002591,0.6625,0.0124,-0.3858
8.3721,0.016748,-0.149177,0.149177,-0.196350,0.204019,-0.002580,0.7119,-0.0031,-0.3328
8.3888,0.016750,-0.138214,0.138214,-0.181010,0.188680,-0.002581,0.7068,-0.0014,-0.3383
8.4056,0.016748,-0.127253,0.127253,-0.181010,0.188680,-0.002581,0.7068,-0.0014,-0.3383
8.4223,0.016746,-0.116292,0.116292,-0.168738,0.173340,-0.002581,0.7068,-0.0014,-0.3383
8.4391,0.016747,-0.105332,0.105332,-0.154932,0.159534,-0.002581,0.7068,-0.0014,-0.3383
8.4558,0.016740,-0.094375,0.094375,-0.144194,0.145728,-0.002581,0.7068,-0.0014,-0.3383
8.4726,0.016745,-0.083415,0.083415,-0.131922,0.131922,-0.002581,0.7068,-0.0014,-0.3383
8.4893,0.016793,-0.072424,0.072424,-0.116583,0.116583,-0.002592,0.6573,0.0140,-0.3913
8.5061,0.016747,-0.061464,0.061464,-0.116583,0.116583,-0.002592,0.6573,0.0140,-0.3913
8.5228,0.016746,-0.050503,0.050503,-0.099709,0.101243,-0.002591,0.6625,0.0124,-0.3858
8.5396,0.016742,-0.039642,0.039642,-0.087437,0.087437,-0.002604,0.6231,0.0482,-0.3329
8.5563,0.016745,-0.029883,0.029883,-0.073631,0.075165,-0.002578,0.7161,-0.0068,-0.3383
8.5731,0.016742,-0.021503,0.021503,-0.062893,0.062893,-0.002581,0.7064,-0.0011,-0.3378
8.5899,0.016806,-0.014475,0.014475,-0.047553,0.049087,-0.002592,0.6574,0.0140,-0.3914
8.6066,0.016746,-0.008850,0.008850,-0.047553,0.049087,-0.002592,0.6574,0.0140,-0.3914
8.6234,0.016750,-0.004601,0.004601,-0.030680,0.035282,-0.002591,0.6625,0.0124,-0.3858
8.6401,0.016742,-0.001731,0.001731,-0.016874,0.023010,-0.002580,0.7119,-0.0031,-0.3328
8.6568,0.016740,-0.000237,0.000237,-0.015340,0.013806,-0.002581,0.7068,-0.0014,-0.3383
8.6736,0.016744,-0.000118,0.000118,-0.015340,0.006136,-0.002581,0.7068,-0.0014,-0.3383
8.6903,0.016746,-0.001375,0.001375,-0.009204,0.001534,-0.002581,0.7068,-0.0014,-0.3383
8.7071,0.016793,-0.004019,0.004019,-0.009204,0.001534,-0.002581,0.7068,-0.0014,-0.3383
8.7239,0.016751,-0.008035,0.008035,-0.009204,0.001534,-0.002581,0.7068,-0.0014,-0.3383
8.7406,0.016724,-0.013419,0.013419,0.003068,0.000000,-0.002581,0.7068,-0.0014,-0.3383
8.7574,0.016747,-0.020186,0.020186,-0.003068,0.000000,-0.002581,0.7068,-0.0014,-0.3383
8.7741,0.016747,-0.028329,0.028329,-0.004602,0.000000,-0.002581,0.7068,-0.0014,-0.3383
8.7908,0.016746,-0.037849,0.037849,0.000000,0.004602,-0.002581,0.7068,-0.0014,-0.3383
8.8076,0.016746,-0.048603,0.048603,0.000000,0.004602,-0.002581,0.7068,-0.0014,-0.3383
8.8243,0.016747,-0.059564,0.059564,-0.006136,0.013806,-0.002581,0.7068,-0.0014,-0.3383
8.8411,0.016716,-0.070505,0.070505,-0.019942,0.027612,-0.002581,0.7068,-0.0014,-0.3383
8.8578,0.016748,-0.081467,0.081467,-0.036816,0.038350,-0.002592,0.6573,0.0140,-0.3913
8.8746,0.016749,-0.092429,0.092429,-0.052155,0.046019,-0.002591,0.6625,0.0124,-0.3858
8.8913,0.016746,-0.103389,0.103389,-0.065961,0.053689,-0.002591,0.6625,0.0124,-0.3858
8.9080,0.016742,-0.114346,0.114346,-0.065961,0.053689,-0.002591,0.6625,0.0124,-0.3858
8.9248,0.016749,-0.125308,0.125308,-0.082835,0.070563,-0.002580,0.7119,-0.0031,-0.3328
8.9415,0.016749,-0.136271,0.136271,-0.090505,0.088971,-0.002592,0.6568,0.0142,-0.3919
8.9583,0.016741,-0.147228,0.147228,-0.093573,0.102777,-0.002579,0.7125,-0.0033,-0.3322
8.9750,0.016732,-0.158179,0.158179,-0.107379,0.108913,-0.002592,0.6567,0.0142,-0.3919
8.9921,0.017118,-0.169382,0.169382,-0.124252,0.118117,-0.002591,0.6625,0.0124,-0.3857
9.0089,0.016747,-0.180343,0.180343,-0.124252,0.118117,-0.002591,0.6625,0.0124,-0.3857
9.0256,0.016749,-0.191305,0.191305,-0.145728,0.138058,-0.002580,0.7119,-0.0031,-0.3328
9.0424,0.016741,-0.202262,0.202262,-0.162602,0.154932,-0.002581,0.7068,-0.0014,-0.3383
9.0591,0.016744,-0.213221,0.213221,-0.168738,0.168738,-0.002592,0.6573,0.0140,-0.3913
9.0759,0.016740,-0.224177,0.224177,-0.188680,0.191748,-0.002579,0.7125,-0.0032,-0.3322
9.0926,0.016758,-0.235145,0.235145,-0.207087,0.207087,-0.002579,0.7125,-0.0032,-0.3322
9.1093,0.016740,-0.246101,0.246101,-0.207087,0.207087,-0.002581,0.7067,-0.0014,-0.3384
9.1261,0.016753,-0.257066,0.257066,-0.227029,0.222427,-0.002581,0.7067,-0.0014,-0.3384
9.1428,0.016740,-0.268023,0.268023,-0.227029,0.222427,-0.002581,0.7067,-0.0014,-0.3384
9.1598,0.016922,-0.279098,0.279098,-0.240835,0.240835,-0.002581,0.7067,-0.0014,-0.3384
9.1765,0.016747,-0.290059,0.290059,-0.250039,0.250039,-0.002581,0.7067,-0.0014,-0.3384
9.1935,0.017017,-0.301197,0.301197,-0.269981,0.271515,-0.002581,0.7067,-0.0014,-0.3384
9.2103,0.016743,-0.311896,0.311896,-0.269981,0.271515,-0.002581,0.7067,-0.0014,-0.3384
9.2270,0.016759,-0.321330,0.321330,-0.289922,0.291456,-0.002581,0.7067,-0.0014,-0.3384
9.2438,0.016741,-0.329378,0.329378,-0.305262,0.299126,-0.002592,0.6573,0.0140,-0.3913
9.2605,0.016752,-0.336054,0.336054,-0.308330,0.306796,-0.002579,0.7125,-0.0032,-0.3322
9.2773,0.016746,-0.341351,0.341351,-0.316000,0.320602,-0.002581,0.7067,-0.0014,-0.3384
9.2944,0.017093,-0.345338,0.345338,-0.339010,0.340544,-0.002581,0.7067,-0.0014,-0.3384
9.3111,0.016743,-0.347853,0.347853,-0.339010,0.340544,-0.002581,0.7067,-0.0014,-0.3384
9.3279,0.016763,-0.348993,0.348993,-0.346680,0.342078,-0.002581,0.7067,-0.0014,-0.3384
9.3446,0.016749,-0.348753,0.348753,-0.345146,0.340544,-0.002581,0.7067,-0.0014,-0.3384
9.3615,0.016933,-0.347112,0.347112,-0.349748,0.348214,-0.002581,0.7067,-0.0014,-0.3384
9.3783,0.016752,-0.344103,0.344103,-0.355884,0.349748,-0.002581,0.7067,-0.0014,-0.3384
9.3952,0.016902,-0.339671,0.339671,-0.354350,0.346680,-0.002592,0.6573,0.0140,-0.3913
9.4120,0.016750,-0.333895,0.333895,-0.354350,0.346680,-0.002592,0.6573,0.0140,-0.3913
9.4287,0.016754,-0.326740,0.326740,-0.348214,0.346680,-0.002591,0.6625,0.0124,-0.3858
9.4455,0.016742,-0.318214,0.318214,-0.346680,0.345146,-0.002580,0.7119,-0.0031,-0.3328
9.4622,0.016752,-0.308306,0.308306,-0.343612,0.340544,-0.002592,0.6568,0.0142,-0.3919
9.4790,0.016750,-0.297392,0.297392,-0.339010,0.334408,-0.002591,0.6625,0.0124,-0.3857
9.4957,0.016762,-0.286421,0.286421,-0.339010,0.334408,-0.002591,0.6625,0.0124,-0.3857
9.5125,0.016747,-0.275460,0.275460,-0.331340,0.329806,-0.002580,0.7119,-0.0031,-0.3328
9.5292,0.016757,-0.264493,0.264493,-0.320602,0.320602,-0.002581,0.7068,-0.0014,-0.3383
9.5460,0.016746,-0.253532,0.253532,-0.305262,0.308330,-0.002581,0.7068,-0.0014,-0.3383
9.5627,0.016758,-0.242565,0.242565,-0.288388,0.296058,-0.002592,0.6573,0.0140,-0.3913
9.5795,0.016746,-0.231604,0.231604,-0.274583,0.279185,-0.002591,0.6625,0.0124,-0.3858
9.5963,0.016860,-0.220570,0.220570,-0.257709,0.263845,-0.002591,0.6625,0.0124,-0.3858
9.6131,0.016744,-0.209611,0.209611,-0.257709,0.263845,-0.002591,0.6625,0.0124,-0.3858
9.6298,0.016755,-0.198645,0.198645,-0.243903,0.250039,-0.002591,0.6625,0.0124,-0.3858
9.6466,0.016749,-0.187682,0.187682,-0.231631,0.236233,-0.002580,0.7119,-0.0031,-0.3328
9.6633,0.016748,-0.176721,0.176721,-0.219359,0.225495,-0.002581,0.7068,-0.0014,-0.3383
9.6801,0.016747,-0.165760,0.165760,-0.204019,0.211689,-0.002592,0.6573,0.0140,-0.3913
9.6969,0.016848,-0.154733,0.154733,-0.188680,0.197884,-0.002579,0.7125,-0.0032,-0.3322
9.7137,0.016745,-0.143773,0.143773,-0.188680,0.197884,-0.002579,0.7125,-0.0032,-0.3322
9.7305,0.016877,-0.132727,0.132727,-0.176408,0.182544,-0.002581,0.7067,-0.0014,-0.3384
9.7473,0.016768,-0.121753,0.121753,-0.176408,0.182544,-0.002581,0.7067,-0.0014,-0.3384
9.7641,0.016754,-0.110787,0.110787,-0.153398,0.156466,-0.002592,0.6573,0.0140,-0.3913
9.7808,0.016750,-0.099824,0.099824,-0.153398,0.148796,-0.002579,0.7125,-0.0032,-0.3322
9.7976,0.016756,-0.088858,0.088858,-0.153398,0.148796,-0.002579,0.7125,-0.0032,-0.3322
9.8143,0.016747,-0.077897,0.077897,-0.147262,0.141126,-0.002592,0.6567,0.0142,-0.3919
9.8311,0.016748,-0.066935,0.066935,-0.131922,0.125786,-0.002591,0.6625,0.0124,-0.3857
9.8478,0.016743,-0.055977,0.055977,-0.110447,0.108913,-0.002580,0.7119,-0.0031,-0.3328
9.8646,0.016756,-0.045010,0.045010,-0.088971,0.090505,-0.002592,0.6568,0.0142,-0.3919
9.8814,0.016807,-0.034541,0.034541,-0.067495,0.072097,-0.002579,0.7125,-0.0033,-0.3322
9.8981,0.016754,-0.025473,0.025473,-0.067495,0.072097,-0.002579,0.7125,-0.0033,-0.3322
9.9149,0.016749,-0.017786,0.017786,-0.050621,0.056757,-0.002581,0.7067,-0.0014,-0.3384
9.9316,0.016746,-0.011477,0.011477,-0.039884,0.042951,-0.002581,0.7067,-0.0014,-0.3384
9.9484,0.016748,-0.006543,0.006543,-0.033748,0.032214,-0.002592,0.6573,0.0140,-0.3913
9.9651,0.016750,-0.002987,0.002987,-0.026078,0.021476,-0.002579,0.7125,-0.0032,-0.3322
9.9819,0.016782,-0.000804,0.000804,-0.012272,0.010738,-0.002581,0.7067,-0.0014,-0.3384
9.9987,0.016757,-0.000004,0.000004,-0.012272,0.010738,-0.002581,0.7067,-0.0014,-0.3384
10.0154,0.016742,-0.000582,0.000582,-0.001534,0.003068,-0.002592,0.6573,0.0140,-0.3913
10.0321,0.016751,-0.002537,0.002537,-0.001534,0.001534,-0.002579,0.7125,-0.0032,-0.3322
10.0489,0.016749,-0.005868,0.005868,-0.004602,0.001534,-0.002592,0.6567,0.0142,-0.3919
10.0657,0.016753,-0.010578,0.010578,-0.003068,0.000000,-0.002591,0.6625,0.0124,-0.3857
10.0828,0.017105,-0.016809,0.016809,0.001534,0.001534,-0.002591,0.6625,0.0124,-0.3857
10.0995,0.016759,-0.024306,0.024306,0.001534,0.001534,-0.002591,0.6625,0.0124,-0.3857
10.1163,0.016744,-0.033174,0.033174,-0.001534,0.006136,-0.002580,0.7119,-0.0031,-0.3328
10.1330,0.016745,-0.043418,0.043418,-0.009204,0.009204,-0.002581,0.7068,-0.0014,-0.3383
10.1497,0.016744,-0.054377,0.054377,-0.018408,0.012272,-0.002581,0.7068,-0.0014,-0.3383
10.1665,0.016751,-0.065340,0.065340,-0.030680,0.021476,-0.002592,0.6573,0.0140,-0.3913
10.1834,0.016895,-0.076398,0.076398,-0.044485,0.036816,-0.002579,0.7125,-0.0032,-0.3322
10.2001,0.016751,-0.087361,0.087361,-0.044485,0.036816,-0.002579,0.7125,-0.0032,-0.3322
10.2169,0.016753,-0.098326,0.098326,-0.058291,0.050621,-0.002581,0.7067,-0.0014,-0.3384
10.2336,0.016741,-0.109283,0.109283,-0.069029,0.069029,-0.002592,0.6573,0.0140,-0.3913
10.2504,0.016742,-0.120241,0.120241,-0.076699,0.076699,-0.002591,0.6625,0.0124,-0.3858
10.2671,0.016753,-0.131206,0.131206,-0.082835,0.081301,-0.002591,0.6625,0.0124,-0.3858
10.2839,0.016745,-0.142165,0.142165,-0.099709,0.095107,-0.002580,0.7119,-0.0031,-0.3328
10.3006,0.016759,-0.153134,0.153134,-0.099709,0.095107,-0.002580,0.7119,-0.0031,-0.3328
10.3174,0.016743,-0.164092,0.164092,-0.119651,0.116583,-0.002581,0.7068,-0.0014,-0.3383
10.3341,0.016747,-0.175053,0.175053,-0.139592,0.136524,-0.002581,0.7068,-0.0014,-0.3383
10.3509,0.016751,-0.186017,0.186017,-0.144194,0.144194,-0.002581,0.7068,-0.0014,-0.3383
10.3676,0.016756,-0.196984,0.196984,-0.148796,0.150330,-0.002592,0.6573,0.0140,-0.3913
10.3844,0.016746,-0.207944,0.207944,-0.167204,0.167204,-0.002591,0.6625,0.0124,-0.3858
10.4011,0.016760,-0.218914,0.218914,-0.167204,0.167204,-0.002591,0.6625,0.0124,-0.3858
10.4179,0.016751,-0.229877,0.229877,-0.188680,0.187146,-0.002580,0.7119,-0.0031,-0.3328
10.4346,0.016749,-0.240840,0.240840,-0.207087,0.202485,-0.002592,0.6568,0.0142,-0.3919
10.4514,0.016793,-0.251831,0.251831,-0.208621,0.208621,-0.002579,0.7125,-0.0033,-0.3322
10.4682,0.016755,-0.262797,0.262797,-0.211689,0.213223,-0.002581,0.7067,-0.0014,-0.3384
10.4849,0.016753,-0.273762,0.273762,-0.228563,0.228563,-0.002581,0.7067,-0.0014,-0.3384
10.5017,0.016757,-0.284729,0.284729,-0.228563,0.228563,-0.002581,0.7067,-0.0014,-0.3384
10.5184,0.016717,-0.295671,0.295671,-0.251573,0.251573,-0.002592,0.6573,0.0140,-0.3913
10.5352,0.016753,-0.306627,0.306627,-0.269981,0.268447,-0.002591,0.6625,0.0124,-0.3858
10.5519,0.016748,-0.316749,0.316749,-0.276117,0.274583,-0.002591,0.6625,0.0124,-0.3858
10.5689,0.016964,-0.325598,0.325598,-0.276117,0.277651,-0.002580,0.7119,-0.0031,-0.3328
10.5856,0.016751,-0.332950,0.332950,-0.276117,0.277651,-0.002580,0.7119,-0.0031,-0.3328
10.6024,0.016751,-0.338924,0.338924,-0.288388,0.296058,-0.002581,0.7068,-0.0014,-0.3383
10.6191,0.016756,-0.343522,0.343522,-0.316000,0.319068,-0.002592,0.6573,0.0140,-0.3913
10.6359,0.016757,-0.346742,0.346742,-0.335942,0.328272,-0.002579,0.7125,-0.0032,-0.3322
10.6527,0.016756,-0.348584,0.348584,-0.340544,0.331340,-0.002581,0.7067,-0.0014,-0.3384
10.6701,0.017457,-0.349037,0.349037,-0.343612,0.342078,-0.002592,0.6573,0.0140,-0.3913
10.6869,0.016773,-0.348063,0.348063,-0.343612,0.342078,-0.002592,0.6573,0.0140,-0.3913
10.7037,0.016768,-0.345708,0.345708,-0.352816,0.349748,-0.002591,0.6625,0.0124,-0.3858
10.7204,0.016753,-0.341978,0.341978,-0.352816,0.348214,-0.002591,0.6625,0.0124,-0.3858
10.7372,0.016767,-0.336865,0.336865,-0.349748,0.349748,-0.002580,0.7119,-0.0031,-0.3328
10.7539,0.016758,-0.330376,0.330376,-0.351282,0.349748,-0.002592,0.6568,0.0142,-0.3919
10.7708,0.016848,-0.322462,0.322462,-0.351282,0.349748,-0.002592,0.6568,0.0142,-0.3919
10.7876,0.016803,-0.313182,0.313182,-0.351282,0.349748,-0.002592,0.6568,0.0142,-0.3919
10.8044,0.016801,-0.302564,0.302564,-0.345146,0.340544,-0.002579,0.7125,-0.0033,-0.3322
10.8211,0.016743,-0.291606,0.291606,-0.342078,0.340544,-0.002581,0.7067,-0.0014,-0.3384
10.8379,0.016765,-0.280634,0.280634,-0.339010,0.335942,-0.002581,0.7067,-0.0014,-0.3384
10.8546,0.016741,-0.269677,0.269677,-0.323670,0.323670,-0.002581,0.7067,-0.0014,-0.3384
10.8714,0.016775,-0.258697,0.258697,-0.323670,0.323670,-0.002581,0.7067,-0.0014,-0.3384
10.8881,0.016743,-0.247739,0.247739,-0.306796,0.309864,-0.002592,0.6573,0.0140,-0.3913
10.9049,0.016743,-0.236781,0.236781,-0.306796,0.309864,-0.002591,0.6625,0.0124,-0.3858
10.9216,0.016741,-0.225824,0.225824,-0.285320,0.291456,-0.002591,0.6625,0.0124,-0.3858
10.9384,0.016746,-0.214863,0.214863,-0.254641,0.260777,-0.002580,0.7119,-0.0031,-0.3328
10.9551,0.016744,-0.203905,0.203905,-0.240835,0.246971,-0.002581,0.7068,-0.0014,-0.3383
10.9719,0.016756,-0.192938,0.192938,-0.227029,0.231631,-0.002581,0.7068,-0.0014,-0.3383
10.9886,0.016753,-0.181973,0.181973,-0.227029,0.231631,-0.002581,0.7068,-0.0014,-0.3383
11.0054,0.016744,-0.171014,0.171014,-0.213223,0.220893,-0.002592,0.6573,0.0140,-0.3913
11.0221,0.016741,-0.160057,0.160057,-0.200951,0.208621,-0.002591,0.6625,0.0124,-0.3858
11.0389,0.016741,-0.149100,0.149100,-0.187146,0.196350,-0.002591,0.6625,0.0124,-0.3858
11.0557,0.016876,-0.138054,0.138054,-0.173340,0.179476,-0.002591,0.6625,0.0124,-0.3858
11.0725,0.016728,-0.127106,0.127106,-0.173340,0.179476,-0.002591,0.6625,0.0124,-0.3858
11.0892,0.016751,-0.116143,0.116143,-0.159534,0.164136,-0.002580,0.7119,-0.0031,-0.3328
11.1060,0.016742,-0.105185,0.105185,-0.148796,0.148796,-0.002581,0.7068,-0.0014,-0.3383
11.1227,0.016741,-0.094229,0.094229,-0.134990,0.136524,-0.002581,0.7068,-0.0014,-0.3383
11.1394,0.016751,-0.083265,0.083265,-0.122718,0.122718,-0.002581,0.7068,-0.0014,-0.3383
11.1562,0.016750,-0.072302,0.072302,-0.107379,0.107379,-0.002581,0.7068,-0.0014,-0.3383
11.1732,0.016953,-0.061206,0.061206,-0.107379,0.107379,-0.002581,0.7068,-0.0014,-0.3383
11.1899,0.016749,-0.050244,0.050244,-0.092039,0.092039,-0.002592,0.6573,0.0140,-0.3913
11.2066,0.016745,-0.039393,0.039393,-0.079767,0.081301,-0.002591,0.6625,0.0124,-0.3858
11.2234,0.016742,-0.029669,0.029669,-0.069029,0.067495,-0.002580,0.7119,-0.0031,-0.3328
11.2401,0.016748,-0.021318,0.021318,-0.053689,0.055223,-0.002581,0.7068,-0.0014,-0.3383
11.2570,0.016835,-0.014312,0.014312,-0.038350,0.039884,-0.002592,0.6573,0.0140,-0.3913
11.2737,0.016747,-0.008723,0.008723,-0.038350,0.039884,-0.002592,0.6573,0.0140,-0.3913
11.2905,0.016745,-0.004511,0.004511,-0.023010,0.029146,-0.002579,0.7125,-0.0032,-0.3322
11.3072,0.016748,-0.001675,0.001675,-0.015340,0.016874,-0.002581,0.7067,-0.0014,-0.3384
11.3240,0.016750,-0.000216,0.000216,-0.016874,0.009204,-0.002592,0.6573,0.0140,-0.3913
11.3407,0.016749,-0.000133,0.000133,-0.012272,0.001534,-0.002579,0.7125,-0.0032,-0.3322
11.3577,0.016970,-0.001455,0.001455,-0.003068,0.000000,-0.002581,0.7067,-0.0014,-0.3384
11.3744,0.016747,-0.004144,0.004144,-0.003068,0.000000,-0.002581,0.7067,-0.0014,-0.3384
11.3912,0.016796,-0.008225,0.008225,0.003068,0.000000,-0.002592,0.6573,0.0140,-0.3913
11.4080,0.016744,-0.013671,0.013671,0.001534,0.001534,-0.002591,0.6625,0.0124,-0.3858
11.4247,0.016749,-0.020495,0.020495,-0.006136,0.000000,-0.002591,0.6625,0.0124,-0.3858
11.4415,0.016747,-0.028695,0.028695,-0.010738,0.007670,-0.002580,0.7119,-0.0031,-0.3328
