t,loop_dt,cmd_ant_l,cmd_ant_r,pres_ant_l,pres_ant_r,pres_z,pres_roll,pres_pitch,pres_yaw
0.0000,0.000001,-0.349066,0.349066,-0.159534,0.162602,-0.002747,0.6626,0.2256,-0.3986
0.0167,0.016749,-0.349013,0.349013,-0.165670,0.170272,-0.002750,0.6573,0.2234,-0.3869
0.0335,0.016775,-0.348655,0.348655,-0.177942,0.177942,-0.002762,0.6191,0.2593,-0.3348
0.0503,0.016746,-0.347733,0.347733,-0.228563,0.222427,-0.002747,0.5735,0.2380,-0.3933
0.0670,0.016763,-0.346031,0.346031,-0.228563,0.222427,-0.002747,0.5735,0.2380,-0.3933
0.0838,0.016750,-0.343378,0.343378,-0.308330,0.297592,-0.002749,0.5783,0.2402,-0.3872
0.1005,0.016754,-0.339639,0.339639,-0.368155,0.360485,-0.002725,0.6782,0.2086,-0.2810
0.1173,0.016745,-0.334723,0.334723,-0.385029,0.377359,-0.002677,0.6576,0.1253,-0.3984
0.1340,0.016749,-0.328566,0.328566,-0.374291,0.371223,-0.002681,0.5715,0.1521,-0.3859
0.1509,0.016893,-0.321073,0.321073,-0.355884,0.357418,-0.002667,0.5311,0.1317,-0.4405
0.1677,0.016759,-0.312368,0.312368,-0.355884,0.357418,-0.002667,0.5311,0.1317,-0.4405
0.1844,0.016744,-0.302437,0.302437,-0.340544,0.346680,-0.002656,0.4859,0.1163,-0.4880
0.2012,0.016753,-0.291320,0.291320,-0.328272,0.334408,-0.002631,0.4801,0.0649,-0.5897
0.2180,0.016803,-0.279062,0.279062,-0.320602,0.325204,-0.002622,0.4427,0.0725,-0.5256
0.2348,0.016820,-0.265778,0.265778,-0.320602,0.325204,-0.002622,0.4427,0.0725,-0.5256
0.2518,0.016957,-0.251477,0.251477,-0.320602,0.325204,-0.002622,0.4427,0.0725,-0.5256
0.2685,0.016745,-0.236591,0.236591,-0.302194,0.303728,-0.002598,0.5355,0.0203,-0.5321
0.2852,0.016743,-0.221090,0.221090,-0.292990,0.294524,-0.002589,0.4877,0.0280,-0.4779
0.3020,0.016755,-0.205111,0.205111,-0.289922,0.289922,-0.002577,0.5316,-0.0083,-0.5369
0.3187,0.016745,-0.188834,0.188834,-0.289922,0.289922,-0.002577,0.5316,-0.0083,-0.5369
0.3355,0.016709,-0.172449,0.172449,-0.285320,0.283786,-0.002565,0.4777,-0.0220,-0.5841
0.3522,0.016746,-0.156047,0.156047,-0.268447,0.268447,-0.002591,0.3945,0.0308,-0.5793
0.3690,0.016753,-0.139826,0.139826,-0.240835,0.243903,-0.002588,0.4032,0.0253,-0.5798
0.3858,0.016880,-0.123835,0.123835,-0.179476,0.187146,-0.002564,0.4911,-0.0255,-0.5796
0.4029,0.017097,-0.108164,0.108164,-0.153398,0.159534,-0.002564,0.4911,-0.0255,-0.5796
0.4197,0.016741,-0.093484,0.093484,-0.153398,0.159534,-0.002567,0.4819,-0.0202,-0.5796
0.4364,0.016759,-0.079586,0.079586,-0.131922,0.134990,-0.002567,0.4819,-0.0202,-0.5796
0.4532,0.016743,-0.066624,0.066624,-0.131922,0.134990,-0.002567,0.4819,-0.0202,-0.5796
0.4699,0.016765,-0.054679,0.054679,-0.099709,0.099709,-0.002579,0.4441,0.0147,-0.5263
0.4872,0.017245,-0.043569,0.043569,-0.082835,0.081301,-0.002565,0.4869,-0.0244,-0.5852
0.5040,0.016781,-0.033978,0.033978,-0.065961,0.062893,-0.002579,0.4436,0.0152,-0.5257
0.5207,0.016743,-0.025655,0.025655,-0.065961,0.062893,-0.002579,0.4436,0.0152,-0.5257
0.5375,0.016755,-0.018595,0.018595,-0.049087,0.049087,-0.002565,0.4869,-0.0244,-0.5853
0.5542,0.016740,-0.012803,0.012803,-0.036816,0.036816,-0.002579,0.4436,0.0152,-0.5257
0.5711,0.016896,-0.008198,0.008198,-0.024544,0.029146,-0.002565,0.4869,-0.0244,-0.5853
0.5878,0.016750,-0.004794,0.004794,-0.019942,0.019942,-0.002568,0.4936,-0.0007,-0.4721
0.6046,0.016770,-0.002436,0.002436,-0.010738,0.010738,-0.002555,0.5317,-0.0386,-0.5373
0.6214,0.016745,-0.000987,0.000987,-0.010738,0.010738,-0.002555,0.5317,-0.0386,-0.5373
0.6381,0.016751,-0.000257,0.000257,-0.003068,0.004602,-0.002556,0.5277,-0.0347,-0.5305
0.6549,0.016749,-0.000019,0.000019,-0.003068,0.004602,-0.002569,0.4893,0.0004,-0.4778
0.6716,0.016769,-0.000001,0.000001,-0.006136,0.003068,-0.002555,0.5322,-0.0387,-0.5367
0.6884,0.016749,-0.000115,0.000115,-0.001534,0.000000,-0.002569,0.4888,0.0008,-0.4772
0.7052,0.016779,-0.000615,0.000615,0.001534,0.000000,-0.002569,0.4888,0.0008,-0.4772
0.7219,0.016749,-0.001748,0.001748,0.001534,0.000000,-0.002567,0.4933,-0.0033,-0.4834
0.7387,0.016751,-0.003715,0.003715,0.000000,0.000000,-0.002555,0.5317,-0.0384,-0.5361
0.7554,0.016744,-0.006676,0.006676,-0.004602,0.000000,-0.002556,0.5277,-0.0347,-0.5306
0.7722,0.016767,-0.010760,0.010760,-0.003068,0.000000,-0.002556,0.5277,-0.0347,-0.5306
0.7889,0.016751,-0.016040,0.016040,0.001534,0.003068,-0.002556,0.5277,-0.0347,-0.5306
0.8057,0.016788,-0.022589,0.022589,0.001534,0.003068,-0.002556,0.5277,-0.0347,-0.5306
0.8225,0.016745,-0.030391,0.030391,-0.003068,0.007670,-0.002556,0.5277,-0.0347,-0.5306
0.8392,0.016719,-0.039435,0.039435,-0.012272,0.010738,-0.002556,0.5277,-0.0347,-0.5306
0.8559,0.016745,-0.049714,0.049714,-0.019942,0.013806,-0.002569,0.4893,0.0004,-0.4778
0.8727,0.016760,-0.061162,0.061162,-0.030680,0.021476,-0.002555,0.5322,-0.0387,-0.5367
0.8894,0.016750,-0.073681,0.073681,-0.041417,0.035282,-0.002556,0.5277,-0.0347,-0.5306
0.9062,0.016760,-0.087183,0.087183,-0.041417,0.035282,-0.002556,0.5277,-0.0347,-0.5306
0.9229,0.016751,-0.101533,0.101533,-0.053689,0.050621,-0.002556,0.5277,-0.0347,-0.5306
0.9397,0.016752,-0.116606,0.116606,-0.067495,0.065961,-0.002569,0.4893,0.0004,-0.4778
0.9564,0.016747,-0.132252,0.132252,-0.078233,0.078233,-0.002567,0.4933,-0.0033,-0.4833
0.9732,0.016761,-0.148337,0.148337,-0.092039,0.093573,-0.002555,0.5317,-0.0384,-0.5361
0.9900,0.016752,-0.164676,0.164676,-0.115049,0.113515,-0.002556,0.5277,-0.0347,-0.5306
1.0067,0.016773,-0.181135,0.181135,-0.115049,0.113515,-0.002556,0.5277,-0.0347,-0.5306
1.0235,0.016754,-0.197508,0.197508,-0.138058,0.134990,-0.002556,0.5277,-0.0347,-0.5306
1.0402,0.016750,-0.213647,0.213647,-0.156466,0.154932,-0.002569,0.4893,0.0004,-0.4778
1.0570,0.016750,-0.229393,0.229393,-0.173340,0.170272,-0.002555,0.5322,-0.0387,-0.5367
1.0737,0.016755,-0.244596,0.244596,-0.193282,0.188680,-0.002556,0.5277,-0.0347,-0.5306
1.0905,0.016747,-0.259096,0.259096,-0.214757,0.211689,-0.002556,0.5277,-0.0347,-0.5306
1.1072,0.016765,-0.272782,0.272782,-0.214757,0.211689,-0.002556,0.5277,-0.0347,-0.5306
1.1240,0.016750,-0.285503,0.285503,-0.237767,0.234699,-0.002556,0.5277,-0.0347,-0.5306
1.1407,0.016752,-0.297167,0.297167,-0.253107,0.253107,-0.002569,0.4893,0.0004,-0.4778
1.1575,0.016746,-0.307683,0.307683,-0.262311,0.263845,-0.002555,0.5322,-0.0387,-0.5367
1.1742,0.016747,-0.316988,0.316988,-0.276117,0.274583,-0.002556,0.5277,-0.0347,-0.5306
1.1910,0.016746,-0.325040,0.325040,-0.300660,0.296058,-0.002569,0.4893,0.0004,-0.4778
1.2077,0.016750,-0.331825,0.331825,-0.300660,0.296058,-0.002569,0.4893,0.0004,-0.4778
1.2245,0.016751,-0.337352,0.337352,-0.320602,0.316000,-0.002555,0.5322,-0.0387,-0.5367
1.2412,0.016741,-0.341663,0.341663,-0.323670,0.322136,-0.002556,0.5277,-0.0347,-0.5306
1.2580,0.016807,-0.344850,0.344850,-0.325204,0.322136,-0.002556,0.5277,-0.0347,-0.5306
1.2749,0.016843,-0.347012,0.347012,-0.325204,0.322136,-0.002556,0.5277,-0.0347,-0.5306
1.2916,0.016762,-0.348290,0.348290,-0.346680,0.343612,-0.002556,0.5277,-0.0347,-0.5306
1.3084,0.016747,-0.348893,0.348893,-0.346680,0.343612,-0.002556,0.5277,-0.0347,-0.5306
1.3251,0.016742,-0.349059,0.349059,-0.346680,0.345146,-0.002556,0.5277,-0.0347,-0.5306
1.3419,0.016746,-0.349059,0.349059,-0.346680,0.342078,-0.002569,0.4893,0.0004,-0.4778
1.3586,0.016760,-0.348886,0.348886,-0.352816,0.348214,-0.002555,0.5322,-0.0387,-0.5367
1.3755,0.016897,-0.348262,0.348262,-0.354350,0.349748,-0.002556,0.5277,-0.0347,-0.5306
1.3923,0.016762,-0.346960,0.346960,-0.354350,0.349748,-0.002556,0.5277,-0.0347,-0.5306
1.4090,0.016745,-0.344785,0.344785,-0.351282,0.346680,-0.002556,0.5277,-0.0347,-0.5306
1.4258,0.016769,-0.341580,0.341580,-0.351282,0.348214,-0.002569,0.4893,0.0004,-0.4778
1.4425,0.016738,-0.337243,0.337243,-0.351282,0.348214,-0.002567,0.4933,-0.0033,-0.4833
1.4593,0.016748,-0.331689,0.331689,-0.349748,0.345146,-0.002567,0.4933,-0.0033,-0.4833
1.4760,0.016744,-0.324880,0.324880,-0.346680,0.343612,-0.002567,0.4933,-0.0033,-0.4833
1.4928,0.016750,-0.316798,0.316798,-0.346680,0.343612,-0.002567,0.4933,-0.0033,-0.4833
1.5095,0.016745,-0.307467,0.307467,-0.343612,0.339010,-0.002567,0.4933,-0.0033,-0.4833
1.5263,0.016743,-0.296928,0.296928,-0.340544,0.337476,-0.002555,0.5317,-0.0384,-0.5361
1.5430,0.016744,-0.285246,0.285246,-0.339010,0.334408,-0.002556,0.5277,-0.0347,-0.5306
1.5598,0.016743,-0.272510,0.272510,-0.332874,0.329806,-0.002556,0.5277,-0.0347,-0.5306
1.5766,0.016840,-0.258743,0.258743,-0.319068,0.319068,-0.002569,0.4893,0.0004,-0.4778
1.5934,0.016746,-0.244223,0.244223,-0.319068,0.319068,-0.002569,0.4893,0.0004,-0.4778
1.6101,0.016744,-0.229015,0.229015,-0.300660,0.303728,-0.002567,0.4933,-0.0033,-0.4833
1.6268,0.016742,-0.213265,0.213265,-0.283786,0.289922,-0.002567,0.4933,-0.0033,-0.4833
1.6436,0.016743,-0.197126,0.197126,-0.269981,0.274583,-0.002567,0.4933,-0.0033,-0.4833
1.6603,0.016751,-0.180752,0.180752,-0.253107,0.257709,-0.002567,0.4933,-0.0033,-0.4833
1.6771,0.016743,-0.164323,0.164323,-0.231631,0.237767,-0.002567,0.4933,-0.0033,-0.4833
1.6938,0.016754,-0.147986,0.147986,-0.231631,0.237767,-0.002567,0.4933,-0.0033,-0.4833
1.7106,0.016744,-0.131925,0.131925,-0.211689,0.216291,-0.002555,0.5317,-0.0384,-0.5361
1.7273,0.016745,-0.116291,0.116291,-0.190214,0.196350,-0.002569,0.4889,0.0008,-0.4772
1.7441,0.016743,-0.101239,0.101239,-0.171806,0.177942,-0.002567,0.4933,-0.0033,-0.4834
1.7608,0.016746,-0.086908,0.086908,-0.150330,0.156466,-0.002567,0.4933,-0.0033,-0.4834
1.7776,0.016744,-0.073437,0.073437,-0.128854,0.133456,-0.002567,0.4933,-0.0033,-0.4834
1.7943,0.016752,-0.060936,0.060936,-0.128854,0.133456,-0.002567,0.4933,-0.0033,-0.4834
1.8110,0.016745,-0.049519,0.049519,-0.111981,0.113515,-0.002555,0.5317,-0.0384,-0.5361
1.8278,0.016744,-0.039262,0.039262,-0.088971,0.090505,-0.002556,0.5277,-0.0347,-0.5306
1.8445,0.016742,-0.030228,0.030228,-0.073631,0.073631,-0.002556,0.5277,-0.0347,-0.5306
1.8613,0.016745,-0.022451,0.022451,-0.062893,0.059825,-0.002556,0.5277,-0.0347,-0.5306
1.8780,0.016744,-0.015943,0.015943,-0.046019,0.046019,-0.002569,0.4893,0.0004,-0.4778
1.8957,0.017709,-0.010418,0.010418,-0.046019,0.046019,-0.002569,0.4893,0.0004,-0.4778
1.9125,0.016744,-0.006425,0.006425,-0.029146,0.032214,-0.002555,0.5322,-0.0387,-0.5367
1.9292,0.016747,-0.003540,0.003540,-0.016874,0.018408,-0.002556,0.5277,-0.0347,-0.5306
1.9460,0.016740,-0.001640,0.001640,-0.016874,0.013806,-0.002556,0.5277,-0.0347,-0.5306
1.9627,0.016751,-0.000561,0.000561,-0.018408,0.009204,-0.002569,0.4893,0.0004,-0.4778
1.9795,0.016743,-0.000098,0.000098,-0.012272,0.004602,-0.002555,0.5322,-0.0387,-0.5367
1.9962,0.016770,-0.000001,0.000001,-0.012272,0.004602,-0.002555,0.5322,-0.0387,-0.5367
2.0130,0.016738,-0.000025,0.000025,0.000000,0.000000,-0.002556,0.5277,-0.0347,-0.5306
2.0297,0.016756,-0.000289,0.000289,0.003068,0.000000,-0.002556,0.5277,-0.0347,-0.5306
2.0465,0.016744,-0.001062,0.001062,0.000000,0.000000,-0.002569,0.4893,0.0004,-0.4778
2.0632,0.016739,-0.002567,0.002567,-0.006136,0.000000,-0.002555,0.5322,-0.0387,-0.5367
2.0799,0.016746,-0.004989,0.004989,-0.003068,0.000000,-0.002556,0.5277,-0.0347,-0.5306
2.0967,0.016778,-0.008476,0.008476,-0.003068,0.000000,-0.002556,0.5277,-0.0347,-0.5306
2.1135,0.016744,-0.013116,0.013116,0.003068,0.000000,-0.002569,0.4893,0.0004,-0.4778
2.1302,0.016749,-0.018987,0.018987,0.000000,0.000000,-0.002567,0.4933,-0.0033,-0.4833
2.1470,0.016739,-0.026117,0.026117,-0.007670,0.003068,-0.002567,0.4933,-0.0033,-0.4833
2.1637,0.016755,-0.034522,0.034522,-0.010738,0.010738,-0.002555,0.5317,-0.0384,-0.5361
2.1805,0.016743,-0.044164,0.044164,-0.016874,0.018408,-0.002556,0.5277,-0.0347,-0.5306
2.1972,0.016748,-0.055004,0.055004,-0.016874,0.018408,-0.002556,0.5277,-0.0347,-0.5306
2.2139,0.016743,-0.066963,0.066963,-0.026078,0.023010,-0.002569,0.4893,0.0004,-0.4778
2.2307,0.016755,-0.079962,0.079962,-0.036816,0.027612,-0.002555,0.5322,-0.0387,-0.5367
2.2474,0.016740,-0.093868,0.093868,-0.039884,0.038350,-0.002556,0.5277,-0.0347,-0.5306
2.2642,0.016751,-0.108577,0.108577,-0.047553,0.055223,-0.002556,0.5277,-0.0347,-0.5306
2.2809,0.016742,-0.123933,0.123933,-0.065961,0.072097,-0.002556,0.5277,-0.0347,-0.5306
2.2977,0.016807,-0.139856,0.139856,-0.065961,0.072097,-0.002556,0.5277,-0.0347,-0.5306
2.3145,0.016745,-0.156070,0.156070,-0.065961,0.072097,-0.002556,0.5277,-0.0347,-0.5306
2.3312,0.016761,-0.172486,0.172486,-0.110447,0.108913,-0.002569,0.4893,0.0004,-0.4778
2.3480,0.016743,-0.188904,0.188904,-0.118117,0.111981,-0.002555,0.5322,-0.0387,-0.5367
2.3647,0.016749,-0.205184,0.205184,-0.119651,0.116583,-0.002569,0.4888,0.0008,-0.4772
2.3815,0.016748,-0.221155,0.221155,-0.134990,0.133456,-0.002555,0.5322,-0.0388,-0.5368
2.3984,0.016869,-0.236768,0.236768,-0.168738,0.165670,-0.002569,0.4888,0.0008,-0.4772
2.4151,0.016739,-0.251641,0.251641,-0.168738,0.165670,-0.002569,0.4888,0.0008,-0.4772
2.4319,0.016756,-0.265768,0.265768,-0.200951,0.200951,-0.002555,0.5322,-0.0388,-0.5368
2.4486,0.016748,-0.278997,0.278997,-0.230097,0.228563,-0.002556,0.5277,-0.0347,-0.5306
2.4654,0.016752,-0.291226,0.291226,-0.242369,0.237767,-0.002556,0.5277,-0.0347,-0.5306
2.4821,0.016753,-0.302352,0.302352,-0.246971,0.242369,-0.002556,0.5277,-0.0347,-0.5306
2.4989,0.016762,-0.312303,0.312303,-0.259243,0.257709,-0.002569,0.4893,0.0004,-0.4778
2.5156,0.016750,-0.321013,0.321013,-0.259243,0.257709,-0.002569,0.4893,0.0004,-0.4778
2.5324,0.016755,-0.328459,0.328459,-0.282252,0.285320,-0.002555,0.5322,-0.0387,-0.5367
2.5491,0.016749,-0.334636,0.334636,-0.309864,0.309864,-0.002556,0.5277,-0.0347,-0.5306
2.5659,0.016756,-0.339574,0.339574,-0.323670,0.319068,-0.002556,0.5277,-0.0347,-0.5306
2.5826,0.016744,-0.343328,0.343328,-0.332874,0.328272,-0.002556,0.5277,-0.0347,-0.5306
2.5994,0.016758,-0.345998,0.345998,-0.332874,0.328272,-0.002556,0.5277,-0.0347,-0.5306
2.6161,0.016744,-0.347712,0.347712,-0.335942,0.335942,-0.002556,0.5277,-0.0347,-0.5306
2.6329,0.016752,-0.348645,0.348645,-0.339010,0.339010,-0.002556,0.5277,-0.0347,-0.5306
2.6496,0.016742,-0.349010,0.349010,-0.345146,0.340544,-0.002569,0.4893,0.0004,-0.4778
2.6664,0.016748,-0.349066,0.349066,-0.348214,0.343612,-0.002567,0.4933,-0.0033,-0.4833
2.6831,0.016744,-0.349015,0.349015,-0.351282,0.348214,-0.002567,0.4933,-0.0033,-0.4833
2.6999,0.016759,-0.348666,0.348666,-0.351282,0.348214,-0.002567,0.4933,-0.0033,-0.4833
2.7166,0.016748,-0.347758,0.347758,-0.352816,0.348214,-0.002567,0.4933,-0.0033,-0.4833
2.7334,0.016759,-0.346073,0.346073,-0.351282,0.348214,-0.002567,0.4933,-0.0033,-0.4833
2.7501,0.016741,-0.343441,0.343441,-0.351282,0.348214,-0.002567,0.4933,-0.0033,-0.4833
2.7669,0.016747,-0.339727,0.339727,-0.351282,0.346680,-0.002567,0.4933,-0.0033,-0.4833
2.7836,0.016746,-0.334835,0.334835,-0.349748,0.345146,-0.002555,0.5317,-0.0384,-0.5361
2.8004,0.016763,-0.328698,0.328698,-0.349748,0.345146,-0.002555,0.5317,-0.0384,-0.5361
2.8171,0.016747,-0.321300,0.321300,-0.345146,0.342078,-0.002569,0.4889,0.0008,-0.4772
2.8339,0.016752,-0.312635,0.312635,-0.345146,0.342078,-0.002567,0.4933,-0.0033,-0.4834
2.8506,0.016743,-0.302739,0.302739,-0.342078,0.337476,-0.002555,0.5317,-0.0384,-0.5361
2.8674,0.016755,-0.291653,0.291653,-0.337476,0.332874,-0.002556,0.5277,-0.0347,-0.5306
2.8841,0.016743,-0.279471,0.279471,-0.325204,0.325204,-0.002569,0.4893,0.0004,-0.4778
2.9009,0.016758,-0.266268,0.266268,-0.325204,0.325204,-0.002569,0.4893,0.0004,-0.4778
2.9176,0.016745,-0.252181,0.252181,-0.311398,0.312932,-0.002555,0.5322,-0.0387,-0.5367
2.9344,0.016746,-0.237327,0.237327,-0.296058,0.300660,-0.002569,0.4888,0.0008,-0.4772
2.9511,0.016744,-0.221852,0.221852,-0.280718,0.286854,-0.002555,0.5322,-0.0388,-0.5368
2.9681,0.016964,-0.205691,0.205691,-0.263845,0.268447,-0.002569,0.4888,0.0008,-0.4772
2.9848,0.016745,-0.189422,0.189422,-0.243903,0.248505,-0.002555,0.5322,-0.0388,-0.5368
3.0016,0.016761,-0.172988,0.172988,-0.243903,0.248505,-0.002555,0.5322,-0.0388,-0.5368
3.0183,0.016744,-0.156586,0.156586,-0.223961,0.228563,-0.002556,0.5277,-0.0347,-0.5306
3.0351,0.016751,-0.140357,0.140357,-0.204019,0.211689,-0.002556,0.5277,-0.0347,-0.5306
3.0518,0.016744,-0.124479,0.124479,-0.185612,0.193282,-0.002556,0.5277,-0.0347,-0.5306
3.0685,0.016721,-0.109122,0.109122,-0.165670,0.168738,-0.002556,0.5277,-0.0347,-0.5306
3.0853,0.016744,-0.094392,0.094392,-0.142660,0.148796,-0.002569,0.4893,0.0004,-0.4778
3.1020,0.016761,-0.080438,0.080438,-0.142660,0.148796,-0.002569,0.4893,0.0004,-0.4778
3.1188,0.016741,-0.067416,0.067416,-0.125786,0.125786,-0.002567,0.4933,-0.0033,-0.4833
3.1355,0.016752,-0.055412,0.055412,-0.105845,0.105845,-0.002555,0.5317,-0.0384,-0.5361
3.1523,0.016740,-0.044535,0.044535,-0.090505,0.090505,-0.002556,0.5277,-0.0347,-0.5306
3.1690,0.016756,-0.034842,0.034842,-0.073631,0.072097,-0.002556,0.5277,-0.0347,-0.5306
3.1858,0.016810,-0.026367,0.026367,-0.056757,0.055223,-0.002569,0.4893,0.0004,-0.4778
3.2026,0.016762,-0.019187,0.019187,-0.056757,0.055223,-0.002569,0.4893,0.0004,-0.4778
3.2193,0.016744,-0.013280,0.013280,-0.039884,0.039884,-0.002555,0.5322,-0.0387,-0.5367
3.2361,0.016750,-0.008600,0.008600,-0.026078,0.027612,-0.002556,0.5277,-0.0347,-0.5306
3.2528,0.016709,-0.005092,0.005092,-0.021476,0.021476,-0.002569,0.4893,0.0004,-0.4778
3.2699,0.017058,-0.002599,0.002599,-0.016874,0.013806,-0.002567,0.4933,-0.0033,-0.4833
3.2866,0.016744,-0.001079,0.001079,-0.010738,0.006136,-0.002555,0.5317,-0.0384,-0.5361
3.3034,0.016764,-0.000296,0.000296,-0.010738,0.006136,-0.002555,0.5317,-0.0384,-0.5361
3.3204,0.017031,-0.000025,0.000025,0.000000,0.001534,-0.002556,0.5277,-0.0347,-0.5306
3.3372,0.016781,-0.000001,0.000001,0.000000,0.001534,-0.002556,0.5277,-0.0347,-0.5306
3.3539,0.016749,-0.000098,0.000098,-0.003068,0.000000,-0.002569,0.4893,0.0004,-0.4778
3.3707,0.016757,-0.000564,0.000564,-0.004602,0.000000,-0.002555,0.5322,-0.0387,-0.5367
3.3874,0.016745,-0.001646,0.001646,-0.003068,0.000000,-0.002556,0.5277,-0.0347,-0.5306
3.4042,0.016759,-0.003551,0.003551,-0.003068,0.000000,-0.002556,0.5277,-0.0347,-0.5306
3.4209,0.016748,-0.006442,0.006442,0.001534,0.000000,-0.002569,0.4893,0.0004,-0.4778
3.4377,0.016751,-0.010442,0.010442,-0.001534,0.000000,-0.002555,0.5322,-0.0387,-0.5367
3.4544,0.016743,-0.015636,0.015636,-0.006136,0.000000,-0.002569,0.4888,0.0008,-0.4772
3.4712,0.016748,-0.022079,0.022079,-0.007670,0.006136,-0.002555,0.5322,-0.0388,-0.5368
3.4879,0.016743,-0.029790,0.029790,-0.007670,0.013806,-0.002555,0.5322,-0.0388,-0.5368
3.5047,0.016756,-0.038767,0.038767,-0.007670,0.013806,-0.002556,0.5277,-0.0347,-0.5306
3.5214,0.016744,-0.048962,0.048962,-0.015340,0.013806,-0.002556,0.5277,-0.0347,-0.5306
3.5382,0.016751,-0.060326,0.060326,-0.029146,0.018408,-0.002569,0.4893,0.0004,-0.4778
3.5549,0.016740,-0.072765,0.072765,-0.036816,0.027612,-0.002567,0.4933,-0.0033,-0.4833
3.5717,0.016752,-0.086195,0.086195,-0.041417,0.039884,-0.002555,0.5317,-0.0384,-0.5361
3.5884,0.016747,-0.100485,0.100485,-0.053689,0.058291,-0.002555,0.5317,-0.0384,-0.5361
3.6052,0.016751,-0.115511,0.115511,-0.053689,0.058291,-0.002569,0.4889,0.0008,-0.4772
3.6219,0.016751,-0.131125,0.131125,-0.076699,0.081301,-0.002567,0.4933,-0.0033,-0.4834
3.6387,0.016754,-0.147177,0.147177,-0.092039,0.093573,-0.002555,0.5317,-0.0384,-0.5361
3.6554,0.016746,-0.163496,0.163496,-0.108913,0.102777,-0.002569,0.4889,0.0008,-0.4772
3.6722,0.016822,-0.180002,0.180002,-0.127320,0.116583,-0.002555,0.5322,-0.0388,-0.5368
3.6895,0.017240,-0.196859,0.196859,-0.148796,0.139592,-0.002556,0.5277,-0.0347,-0.5306
3.7062,0.016752,-0.213012,0.213012,-0.148796,0.139592,-0.002556,0.5277,-0.0347,-0.5306
3.7230,0.016745,-0.228772,0.228772,-0.171806,0.165670,-0.002569,0.4893,0.0004,-0.4778
3.7397,0.016754,-0.243998,0.243998,-0.191748,0.187146,-0.002567,0.4933,-0.0033,-0.4833
3.7565,0.016746,-0.258529,0.258529,-0.207087,0.205553,-0.002555,0.5317,-0.0384,-0.5361
3.7732,0.016756,-0.272243,0.272243,-0.223961,0.225495,-0.002556,0.5277,-0.0347,-0.5306
3.7900,0.016753,-0.285007,0.285007,-0.248505,0.246971,-0.002569,0.4893,0.0004,-0.4778
3.8067,0.016744,-0.296710,0.296710,-0.248505,0.246971,-0.002569,0.4893,0.0004,-0.4778
3.8235,0.016745,-0.307273,0.307273,-0.268447,0.265379,-0.002567,0.4933,-0.0033,-0.4833
3.8402,0.016742,-0.316627,0.316627,-0.277651,0.277651,-0.002567,0.4933,-0.0033,-0.4833
3.8570,0.016743,-0.324730,0.324730,-0.285320,0.288388,-0.002567,0.4933,-0.0033,-0.4833
3.8737,0.016747,-0.331566,0.331566,-0.300660,0.302194,-0.002555,0.5317,-0.0384,-0.5361
3.8905,0.016829,-0.337169,0.337169,-0.323670,0.319068,-0.002555,0.5317,-0.0384,-0.5361
3.9073,0.016759,-0.341528,0.341528,-0.323670,0.319068,-0.002569,0.4889,0.0008,-0.4772
3.9240,0.016740,-0.344744,0.344744,-0.334408,0.329806,-0.002567,0.4933,-0.0033,-0.4834
3.9408,0.016742,-0.346933,0.346933,-0.332874,0.331340,-0.002555,0.5317,-0.0384,-0.5361
3.9575,0.016738,-0.348246,0.348246,-0.334408,0.335942,-0.002556,0.5277,-0.0347,-0.5306
3.9743,0.016752,-0.348877,0.348877,-0.348214,0.346680,-0.002569,0.4893,0.0004,-0.4778
3.9911,0.016838,-0.349058,0.349058,-0.354350,0.346680,-0.002555,0.5322,-0.0387,-0.5367
4.0079,0.016749,-0.349060,0.349060,-0.354350,0.346680,-0.002555,0.5322,-0.0387,-0.5367
4.0246,0.016750,-0.348900,0.348900,-0.352816,0.345146,-0.002556,0.5277,-0.0347,-0.5306
4.0413,0.016741,-0.348309,0.348309,-0.351282,0.349748,-0.002556,0.5277,-0.0347,-0.5306
4.0581,0.016740,-0.347048,0.347048,-0.352816,0.348214,-0.002569,0.4893,0.0004,-0.4778
4.0748,0.016744,-0.344924,0.344924,-0.351282,0.348214,-0.002555,0.5322,-0.0387,-0.5367
4.0917,0.016839,-0.341760,0.341760,-0.352816,0.348214,-0.002569,0.4888,0.0008,-0.4772
4.1084,0.016746,-0.337478,0.337478,-0.352816,0.348214,-0.002569,0.4888,0.0008,-0.4772
4.1252,0.016750,-0.331983,0.331983,-0.351282,0.346680,-0.002567,0.4933,-0.0033,-0.4834
4.1419,0.016727,-0.325242,0.325242,-0.349748,0.343612,-0.002555,0.5317,-0.0384,-0.5361
4.1586,0.016700,-0.317248,0.317248,-0.346680,0.342078,-0.002556,0.5277,-0.0347,-0.5306
4.1753,0.016743,-0.307982,0.307982,-0.342078,0.339010,-0.002569,0.4893,0.0004,-0.4778
4.1921,0.016756,-0.297495,0.297495,-0.337476,0.334408,-0.002567,0.4933,-0.0033,-0.4833
4.2088,0.016740,-0.285872,0.285872,-0.337476,0.334408,-0.002567,0.4933,-0.0033,-0.4833
4.2256,0.016753,-0.273179,0.273179,-0.328272,0.329806,-0.002567,0.4933,-0.0033,-0.4833
4.2423,0.016746,-0.259537,0.259537,-0.317534,0.322136,-0.002555,0.5317,-0.0384,-0.5361
4.2591,0.016757,-0.245051,0.245051,-0.306796,0.311398,-0.002556,0.5277,-0.0347,-0.5306
4.2758,0.016755,-0.229867,0.229867,-0.291456,0.297592,-0.002556,0.5277,-0.0347,-0.5306
4.2926,0.016780,-0.214107,0.214107,-0.274583,0.280718,-0.002556,0.5277,-0.0347,-0.5306
4.3094,0.016756,-0.197972,0.197972,-0.274583,0.280718,-0.002556,0.5277,-0.0347,-0.5306
4.3261,0.016762,-0.181594,0.181594,-0.256175,0.260777,-0.002556,0.5277,-0.0347,-0.5306
4.3433,0.017199,-0.164717,0.164717,-0.240835,0.245437,-0.002556,0.5277,-0.0347,-0.5306
4.3601,0.016781,-0.148349,0.148349,-0.240835,0.245437,-0.002556,0.5277,-0.0347,-0.5306
4.3769,0.016827,-0.132203,0.132203,-0.240835,0.245437,-0.002556,0.5277,-0.0347,-0.5306
4.3937,0.016759,-0.116547,0.116547,-0.240835,0.245437,-0.002556,0.5277,-0.0347,-0.5306
4.4107,0.017039,-0.101224,0.101224,-0.185612,0.191748,-0.002556,0.5277,-0.0347,-0.5306
4.4275,0.016757,-0.086885,0.086885,-0.177942,0.176408,-0.002556,0.5277,-0.0347,-0.5306
4.4443,0.016758,-0.073405,0.073405,-0.185612,0.179476,-0.002569,0.4893,0.0004,-0.4778
4.4610,0.016778,-0.060888,0.060888,-0.185612,0.176408,-0.002569,0.4893,0.0004,-0.4778
4.4778,0.016776,-0.049454,0.049454,-0.185612,0.176408,-0.002567,0.4933,-0.0033,-0.4833
4.4946,0.016751,-0.039201,0.039201,-0.156466,0.153398,-0.002555,0.5317,-0.0384,-0.5361
4.5113,0.016766,-0.030163,0.030163,-0.111981,0.111981,-0.002556,0.5277,-0.0347,-0.5306
4.5281,0.016765,-0.022386,0.022386,-0.041417,0.046019,-0.002569,0.4893,0.0004,-0.4778
4.5451,0.017035,-0.015788,0.015788,-0.024544,0.027612,-0.002555,0.5322,-0.0387,-0.5367
4.5619,0.016759,-0.010558,0.010558,-0.024544,0.027612,-0.002555,0.5322,-0.0387,-0.5367
4.5786,0.016759,-0.006527,0.006527,-0.023010,0.018408,-0.002569,0.4888,0.0008,-0.4772
4.5954,0.016763,-0.003608,0.003608,-0.023010,0.018408,-0.002567,0.4933,-0.0033,-0.4834
4.6122,0.016838,-0.001674,0.001674,-0.023010,0.016874,-0.002555,0.5317,-0.0384,-0.5361
4.6293,0.017068,-0.000563,0.000563,-0.012272,0.009204,-0.002556,0.5277,-0.0347,-0.5306
4.6462,0.016926,-0.000096,0.000096,0.000000,0.001534,-0.002556,0.5277,-0.0347,-0.5306
4.6631,0.016834,-0.000001,0.000001,0.000000,0.001534,-0.002556,0.5277,-0.0347,-0.5306
4.6798,0.016752,-0.000026,0.000026,0.004602,-0.001534,-0.002556,0.5277,-0.0347,-0.5306
4.6966,0.016762,-0.000295,0.000295,0.001534,0.000000,-0.002569,0.4893,0.0004,-0.4778
4.7133,0.016753,-0.001076,0.001076,-0.004602,0.000000,-0.002555,0.5322,-0.0387,-0.5367
4.7301,0.016765,-0.002595,0.002595,-0.003068,0.000000,-0.002556,0.5277,-0.0347,-0.5306
4.7469,0.016762,-0.005034,0.005034,0.003068,0.000000,-0.002569,0.4893,0.0004,-0.4778
4.7636,0.016770,-0.008535,0.008535,0.003068,0.000000,-0.002569,0.4893,0.0004,-0.4778
4.7804,0.016759,-0.013198,0.013198,0.000000,0.000000,-0.002555,0.5322,-0.0387,-0.5367
4.7972,0.016769,-0.019097,0.019097,-0.006136,0.001534,-0.002569,0.4888,0.0008,-0.4772
4.8139,0.016759,-0.026257,0.026257,-0.007670,0.007670,-0.002555,0.5322,-0.0388,-0.5368
4.8307,0.016774,-0.034695,0.034695,-0.009204,0.015340,-0.002556,0.5277,-0.0347,-0.5306
4.8475,0.016763,-0.044372,0.044372,-0.018408,0.021476,-0.002556,0.5277,-0.0347,-0.5306
4.8642,0.016763,-0.055246,0.055246,-0.018408,0.021476,-0.002556,0.5277,-0.0347,-0.5306
4.8810,0.016752,-0.067235,0.067235,-0.033748,0.026078,-0.002556,0.5277,-0.0347,-0.5306
4.8977,0.016763,-0.080261,0.080261,-0.041417,0.035282,-0.002556,0.5277,-0.0347,-0.5306
4.9145,0.016753,-0.094198,0.094198,-0.042951,0.049087,-0.002556,0.5277,-0.0347,-0.5306
4.9313,0.016770,-0.108940,0.108940,-0.056757,0.064427,-0.002569,0.4893,0.0004,-0.4778
4.9480,0.016772,-0.124338,0.124338,-0.075165,0.081301,-0.002569,0.4893,0.0004,-0.4778
4.9648,0.016766,-0.140233,0.140233,-0.075165,0.081301,-0.002567,0.4933,-0.0033,-0.4833
4.9816,0.016757,-0.156465,0.156465,-0.099709,0.101243,-0.002555,0.5317,-0.0384,-0.5361
4.9983,0.016760,-0.172882,0.172882,-0.119651,0.115049,-0.002556,0.5277,-0.0347,-0.5306
5.0151,0.016759,-0.189315,0.189315,-0.138058,0.130388,-0.002556,0.5277,-0.0347,-0.5306
5.0318,0.016757,-0.205597,0.205597,-0.156466,0.147262,-0.002556,0.5277,-0.0347,-0.5306
5.0490,0.017195,-0.221978,0.221978,-0.176408,0.167204,-0.002556,0.5277,-0.0347,-0.5306
5.0658,0.016790,-0.237491,0.237491,-0.176408,0.167204,-0.002556,0.5277,-0.0347,-0.5306
5.0826,0.016756,-0.252345,0.252345,-0.199418,0.191748,-0.002556,0.5277,-0.0347,-0.5306
5.0993,0.016763,-0.266437,0.266437,-0.216291,0.213223,-0.002569,0.4893,0.0004,-0.4778
5.1161,0.016758,-0.279628,0.279628,-0.225495,0.228563,-0.002567,0.4933,-0.0033,-0.4833
5.1328,0.016753,-0.291804,0.291804,-0.237767,0.240835,-0.002555,0.5317,-0.0384,-0.5361
5.1496,0.016782,-0.302892,0.302892,-0.257709,0.260777,-0.002569,0.4889,0.0008,-0.4772
5.1664,0.016767,-0.312784,0.312784,-0.257709,0.260777,-0.002569,0.4889,0.0008,-0.4772
5.1832,0.016814,-0.321459,0.321459,-0.283786,0.285320,-0.002555,0.5322,-0.0388,-0.5368
5.2000,0.016773,-0.328842,0.328842,-0.305262,0.300660,-0.002556,0.5277,-0.0347,-0.5306
5.2167,0.016760,-0.334951,0.334951,-0.309864,0.305262,-0.002569,0.4893,0.0004,-0.4778
5.2336,0.016879,-0.339850,0.339850,-0.312932,0.314466,-0.002555,0.5322,-0.0387,-0.5367
5.2504,0.016770,-0.343536,0.343536,-0.331340,0.332874,-0.002555,0.5322,-0.0387,-0.5367
5.2672,0.016765,-0.346140,0.346140,-0.331340,0.332874,-0.002569,0.4888,0.0008,-0.4772
5.2839,0.016725,-0.347795,0.347795,-0.345146,0.342078,-0.002567,0.4933,-0.0033,-0.4834
5.3006,0.016758,-0.348684,0.348684,-0.343612,0.340544,-0.002555,0.5317,-0.0384,-0.5361
5.3174,0.016754,-0.349020,0.349020,-0.343612,0.342078,-0.002556,0.5277,-0.0347,-0.5306
5.3346,0.017243,-0.349066,0.349066,-0.354350,0.348214,-0.002569,0.4893,0.0004,-0.4778
5.3514,0.016766,-0.348999,0.348999,-0.354350,0.348214,-0.002567,0.4933,-0.0033,-0.4833
5.3682,0.016762,-0.348606,0.348606,-0.354350,0.348214,-0.002567,0.4933,-0.0033,-0.4833
5.3849,0.016750,-0.347631,0.347631,-0.349748,0.348214,-0.002555,0.5317,-0.0384,-0.5361
5.4018,0.016850,-0.345848,0.345848,-0.351282,0.348214,-0.002569,0.4889,0.0008,-0.4772
5.4185,0.016779,-0.343103,0.343103,-0.351282,0.348214,-0.002569,0.4889,0.0008,-0.4772
5.4354,0.016820,-0.339249,0.339249,-0.351282,0.348214,-0.002569,0.4889,0.0008,-0.4772
5.4521,0.016745,-0.334224,0.334224,-0.349748,0.346680,-0.002555,0.5322,-0.0388,-0.5368
5.4689,0.016751,-0.327954,0.327954,-0.349748,0.346680,-0.002569,0.4888,0.0008,-0.4772
5.4856,0.016743,-0.320420,0.320420,-0.348214,0.345146,-0.002567,0.4933,-0.0033,-0.4834
5.5024,0.016753,-0.311618,0.311618,-0.345146,0.342078,-0.002555,0.5317,-0.0384,-0.5361
5.5191,0.016745,-0.301589,0.301589,-0.339010,0.335942,-0.002556,0.5277,-0.0347,-0.5306
5.5359,0.016761,-0.290375,0.290375,-0.339010,0.335942,-0.002556,0.5277,-0.0347,-0.5306
5.5526,0.016741,-0.278079,0.278079,-0.332874,0.332874,-0.002556,0.5277,-0.0347,-0.5306
5.5693,0.016745,-0.264783,0.264783,-0.323670,0.326738,-0.002569,0.4893,0.0004,-0.4778
5.5862,0.016827,-0.250536,0.250536,-0.312932,0.319068,-0.002567,0.4933,-0.0033,-0.4833
5.6029,0.016744,-0.235606,0.235606,-0.302194,0.306796,-0.002567,0.4933,-0.0033,-0.4833
5.6197,0.016751,-0.220062,0.220062,-0.283786,0.289922,-0.002567,0.4933,-0.0033,-0.4833
5.6364,0.016756,-0.204057,0.204057,-0.283786,0.289922,-0.002567,0.4933,-0.0033,-0.4833
5.6532,0.016747,-0.187763,0.187763,-0.269981,0.274583,-0.002567,0.4933,-0.0033,-0.4833
5.6699,0.016746,-0.171337,0.171337,-0.253107,0.257709,-0.002555,0.5317,-0.0384,-0.5361
5.6867,0.016744,-0.154946,0.154946,-0.237767,0.240835,-0.002569,0.4889,0.0008,-0.4772
5.7036,0.016948,-0.138557,0.138557,-0.220893,0.223961,-0.002567,0.4933,-0.0033,-0.4834
5.7204,0.016752,-0.122720,0.122720,-0.220893,0.223961,-0.002567,0.4933,-0.0033,-0.4834
5.7371,0.016770,-0.107384,0.107384,-0.199418,0.204019,-0.002555,0.5317,-0.0384,-0.5361
5.7539,0.016748,-0.092736,0.092736,-0.176408,0.182544,-0.002556,0.5277,-0.0347,-0.5306
5.7706,0.016750,-0.078890,0.078890,-0.131922,0.136524,-0.002556,0.5277,-0.0347,-0.5306
5.7874,0.016749,-0.065974,0.065974,-0.111981,0.111981,-0.002556,0.5277,-0.0347,-0.5306
5.8042,0.016781,-0.054075,0.054075,-0.090505,0.092039,-0.002569,0.4893,0.0004,-0.4778
5.8209,0.016753,-0.043328,0.043328,-0.090505,0.092039,-0.002569,0.4893,0.0004,-0.4778
5.8377,0.016751,-0.033781,0.033781,-0.073631,0.073631,-0.002555,0.5322,-0.0387,-0.5367
5.8544,0.016748,-0.025484,0.025484,-0.059825,0.058291,-0.002556,0.5277,-0.0347,-0.5306
5.8713,0.016847,-0.018417,0.018417,-0.046019,0.046019,-0.002569,0.4893,0.0004,-0.4778
5.8880,0.016751,-0.012656,0.012656,-0.032214,0.033748,-0.002555,0.5322,-0.0387,-0.5367
5.9048,0.016777,-0.008114,0.008114,-0.018408,0.023010,-0.002556,0.5277,-0.0347,-0.5306
5.9215,0.016752,-0.004732,0.004732,-0.018408,0.023010,-0.002556,0.5277,-0.0347,-0.5306
5.9383,0.016759,-0.002397,0.002397,-0.012272,0.013806,-0.002556,0.5277,-0.0347,-0.5306
5.9550,0.016747,-0.000965,0.000965,-0.012272,0.006136,-0.002569,0.4893,0.0004,-0.4778
5.9718,0.016747,-0.000248,0.000248,-0.012272,0.006136,-0.002555,0.5322,-0.0387,-0.5367
5.9888,0.017043,-0.000016,0.000016,-0.006136,0.004602,-0.002569,0.4888,0.0008,-0.4772
6.0058,0.016922,-0.000002,0.000002,0.001534,0.001534,-0.002569,0.4888,0.0008,-0.4772
6.0226,0.016814,-0.000129,0.000129,0.001534,0.001534,-0.002555,0.5322,-0.0388,-0.5368
6.0393,0.016754,-0.000655,0.000655,0.003068,-0.001534,-0.002569,0.4888,0.0008,-0.4772
6.0561,0.016745,-0.001824,0.001824,-0.003068,0.000000,-0.002555,0.5322,-0.0388,-0.5368
6.0728,0.016741,-0.003836,0.003836,-0.003068,0.000000,-0.002556,0.5277,-0.0347,-0.5306
6.0896,0.016750,-0.006850,0.006850,0.001534,0.000000,-0.002556,0.5277,-0.0347,-0.5306
6.1068,0.017228,-0.011122,0.011122,0.001534,0.000000,-0.002556,0.5277,-0.0347,-0.5306
6.1235,0.016751,-0.016498,0.016498,0.001534,0.000000,-0.002556,0.5277,-0.0347,-0.5306
6.1403,0.016746,-0.023125,0.023125,-0.004602,0.004602,-0.002556,0.5277,-0.0347,-0.5306
6.1570,0.016748,-0.031022,0.031022,-0.009204,0.009204,-0.002569,0.4893,0.0004,-0.4778
6.1738,0.016775,-0.040192,0.040192,-0.013806,0.012272,-0.002555,0.5322,-0.0387,-0.5367
6.1906,0.016743,-0.050562,0.050562,-0.023010,0.016874,-0.002556,0.5277,-0.0347,-0.5306
6.2074,0.016874,-0.062181,0.062181,-0.036816,0.029146,-0.002556,0.5277,-0.0347,-0.5306
6.2242,0.016758,-0.074792,0.074792,-0.036816,0.029146,-0.002556,0.5277,-0.0347,-0.5306
6.2410,0.016772,-0.088382,0.088382,-0.047553,0.042951,-0.002556,0.5277,-0.0347,-0.5306
6.2577,0.016752,-0.102800,0.102800,-0.055223,0.055223,-0.002556,0.5277,-0.0347,-0.5306
6.2745,0.016746,-0.117923,0.117923,-0.058291,0.065961,-0.002569,0.4893,0.0004,-0.4778
6.2912,0.016753,-0.133618,0.133618,-0.073631,0.081301,-0.002567,0.4933,-0.0033,-0.4833
6.3080,0.016830,-0.149798,0.149798,-0.099709,0.104311,-0.002567,0.4933,-0.0033,-0.4833
6.3248,0.016751,-0.166152,0.166152,-0.099709,0.104311,-0.002555,0.5317,-0.0384,-0.5361
6.3415,0.016741,-0.182581,0.182581,-0.122718,0.122718,-0.002556,0.5277,-0.0347,-0.5306
6.3583,0.016743,-0.198930,0.198930,-0.144194,0.142660,-0.002556,0.5277,-0.0347,-0.5306
6.3750,0.016744,-0.215035,0.215035,-0.164136,0.156466,-0.002556,0.5277,-0.0347,-0.5306
6.3918,0.016752,-0.230741,0.230741,-0.179476,0.171806,-0.002556,0.5277,-0.0347,-0.5306
6.4085,0.016748,-0.245882,0.245882,-0.205553,0.196350,-0.002556,0.5277,-0.0347,-0.5306
6.4253,0.016748,-0.260318,0.260318,-0.205553,0.196350,-0.002556,0.5277,-0.0347,-0.5306
6.4421,0.016810,-0.273960,0.273960,-0.223961,0.219359,-0.002556,0.5277,-0.0347,-0.5306
6.4591,0.017052,-0.286809,0.286809,-0.223961,0.219359,-0.002556,0.5277,-0.0347,-0.5306
6.4759,0.016752,-0.298354,0.298354,-0.223961,0.219359,-0.002556,0.5277,-0.0347,-0.5306
6.4926,0.016748,-0.308743,0.308743,-0.248505,0.250039,-0.002556,0.5277,-0.0347,-0.5306
6.5094,0.016742,-0.317913,0.317913,-0.246971,0.248505,-0.002556,0.5277,-0.0347,-0.5306
6.5261,0.016752,-0.325832,0.325832,-0.266913,0.269981,-0.002556,0.5277,-0.0347,-0.5306
6.5430,0.016834,-0.332510,0.332510,-0.300660,0.302194,-0.002569,0.4893,0.0004,-0.4778
6.5597,0.016752,-0.337898,0.337898,-0.300660,0.302194,-0.002569,0.4893,0.0004,-0.4778
6.5765,0.016743,-0.342077,0.342077,-0.335942,0.332874,-0.002555,0.5322,-0.0387,-0.5367
6.5932,0.016747,-0.345133,0.345133,-0.343612,0.337476,-0.002556,0.5277,-0.0347,-0.5306
6.6099,0.016739,-0.347181,0.347181,-0.340544,0.335942,-0.002556,0.5277,-0.0347,-0.5306
6.6267,0.016753,-0.348379,0.348379,-0.343612,0.342078,-0.002556,0.5277,-0.0347,-0.5306
6.6435,0.016823,-0.348927,0.348927,-0.354350,0.346680,-0.002556,0.5277,-0.0347,-0.5306
6.6603,0.016751,-0.349063,0.349063,-0.354350,0.346680,-0.002556,0.5277,-0.0347,-0.5306
6.6770,0.016743,-0.349053,0.349053,-0.352816,0.345146,-0.002556,0.5277,-0.0347,-0.5306
6.6938,0.016749,-0.348846,0.348846,-0.349748,0.348214,-0.002569,0.4893,0.0004,-0.4778
6.7106,0.016811,-0.348165,0.348165,-0.352816,0.349748,-0.002555,0.5322,-0.0387,-0.5367
6.7273,0.016752,-0.346783,0.346783,-0.351282,0.348214,-0.002569,0.4888,0.0008,-0.4772
6.7442,0.016900,-0.344485,0.344485,-0.351282,0.348214,-0.002555,0.5322,-0.0388,-0.5368
6.7610,0.016750,-0.341163,0.341163,-0.351282,0.348214,-0.002555,0.5322,-0.0388,-0.5368
6.7777,0.016743,-0.336695,0.336695,-0.351282,0.348214,-0.002569,0.4888,0.0008,-0.4772
6.7945,0.016748,-0.331006,0.331006,-0.348214,0.345146,-0.002555,0.5322,-0.0388,-0.5368
6.8112,0.016744,-0.324057,0.324057,-0.346680,0.343612,-0.002556,0.5277,-0.0347,-0.5306
6.8280,0.016748,-0.315838,0.315838,-0.343612,0.339010,-0.002569,0.4893,0.0004,-0.4778
6.8447,0.016792,-0.306344,0.306344,-0.340544,0.335942,-0.002555,0.5322,-0.0387,-0.5367
6.8615,0.016753,-0.295667,0.295667,-0.340544,0.335942,-0.002555,0.5322,-0.0387,-0.5367
6.8782,0.016745,-0.283860,0.283860,-0.337476,0.332874,-0.002569,0.4888,0.0008,-0.4772
6.8950,0.016757,-0.271000,0.271000,-0.328272,0.328272,-0.002555,0.5322,-0.0388,-0.5368
6.9117,0.016745,-0.257213,0.257213,-0.316000,0.319068,-0.002569,0.4888,0.0008,-0.4772
6.9285,0.016756,-0.242603,0.242603,-0.299126,0.302194,-0.002555,0.5322,-0.0388,-0.5368
6.9455,0.017021,-0.227072,0.227072,-0.279185,0.285320,-0.002556,0.5277,-0.0347,-0.5306
6.9623,0.016757,-0.211250,0.211250,-0.279185,0.285320,-0.002556,0.5277,-0.0347,-0.5306
6.9790,0.016747,-0.195070,0.195070,-0.262311,0.268447,-0.002556,0.5277,-0.0347,-0.5306
6.9958,0.016756,-0.178674,0.178674,-0.246971,0.251573,-0.002569,0.4893,0.0004,-0.4778
7.0125,0.016749,-0.162242,0.162242,-0.230097,0.234699,-0.002555,0.5322,-0.0387,-0.5367
7.0298,0.017312,-0.145391,0.145391,-0.210155,0.214757,-0.002569,0.5769,-0.0172,-0.4772
7.0467,0.016864,-0.129275,0.129275,-0.185612,0.191748,-0.002567,0.4841,-0.0014,-0.4834
7.0635,0.016750,-0.113723,0.113723,-0.185612,0.191748,-0.002567,0.4841,-0.0014,-0.4834
7.0802,0.016748,-0.098778,0.098778,-0.164136,0.168738,-0.002555,0.5327,-0.0386,-0.5361
7.0970,0.016750,-0.084580,0.084580,-0.144194,0.147262,-0.002556,0.5276,-0.0347,-0.5306
7.1137,0.016742,-0.071267,0.071267,-0.125786,0.128854,-0.002569,0.4893,0.0004,-0.4778
7.1310,0.017304,-0.058552,0.058552,-0.107379,0.107379,-0.002555,0.5322,-0.0387,-0.5367
7.1477,0.016744,-0.047363,0.047363,-0.087437,0.087437,-0.002556,0.5277,-0.0347,-0.5306
7.1645,0.016754,-0.037341,0.037341,-0.087437,0.087437,-0.002556,0.5277,-0.0347,-0.5306
7.1812,0.016747,-0.028556,0.028556,-0.069029,0.067495,-0.002569,0.4893,0.0004,-0.4778
7.1980,0.016747,-0.021034,0.021034,-0.053689,0.053689,-0.002555,0.5322,-0.0387,-0.5367
7.2147,0.016745,-0.014781,0.014781,-0.039884,0.039884,-0.002569,0.4888,0.0008,-0.4772
7.2315,0.016756,-0.009766,0.009766,-0.029146,0.029146,-0.002555,0.5322,-0.0388,-0.5368
7.2482,0.016745,-0.005940,0.005940,-0.015340,0.018408,-0.002556,0.5277,-0.0347,-0.5306
7.2650,0.016759,-0.003205,0.003205,-0.015340,0.018408,-0.002556,0.5277,-0.0347,-0.5306
7.2817,0.016748,-0.001436,0.001436,-0.010738,0.010738,-0.002556,0.5277,-0.0347,-0.5306
7.2985,0.016750,-0.000460,0.000460,-0.012272,0.006136,-0.002569,0.4893,0.0004,-0.4778
7.3152,0.016737,-0.000067,0.000067,-0.012272,0.006136,-0.002567,0.4933,-0.0033,-0.4833
7.3320,0.016753,-0.000000,0.000000,-0.007670,0.003068,-0.002567,0.4933,-0.0033,-0.4833
7.3487,0.016746,-0.000042,0.000042,0.000000,0.000000,-0.002555,0.5317,-0.0384,-0.5361
7.3655,0.016750,-0.000364,0.000364,0.000000,0.000000,-0.002555,0.5317,-0.0384,-0.5361
7.3822,0.016740,-0.001230,0.001230,0.003068,-0.001534,-0.002556,0.5277,-0.0347,-0.5306
7.3990,0.016747,-0.002859,0.002859,-0.001534,0.000000,-0.002569,0.4893,0.0004,-0.4778
7.4157,0.016738,-0.005425,0.005425,-0.004602,0.000000,-0.002567,0.4933,-0.0033,-0.4833
7.4325,0.016748,-0.009067,0.009067,-0.001534,0.000000,-0.002567,0.4933,-0.0033,-0.4833
7.4492,0.016745,-0.013880,0.013880,0.001534,0.000000,-0.002555,0.5317,-0.0384,-0.5361
7.4660,0.016756,-0.019933,0.019933,0.001534,0.000000,-0.002555,0.5317,-0.0384,-0.5361
7.4828,0.016834,-0.027290,0.027290,-0.003068,0.004602,-0.002556,0.5277,-0.0347,-0.5306
7.4995,0.016757,-0.035884,0.035884,-0.003068,0.004602,-0.002556,0.5277,-0.0347,-0.5306
7.5163,0.016744,-0.045709,0.045709,-0.018408,0.013806,-0.002556,0.5277,-0.0347,-0.5306
7.5330,0.016757,-0.056728,0.056728,-0.019942,0.012272,-0.002556,0.5277,-0.0347,-0.5306
7.5498,0.016777,-0.068873,0.068873,-0.024544,0.019942,-0.002556,0.5277,-0.0347,-0.5306
7.5666,0.016765,-0.082027,0.082027,-0.024544,0.019942,-0.002556,0.5277,-0.0347,-0.5306
7.5833,0.016744,-0.096066,0.096066,-0.036816,0.036816,-0.002556,0.5277,-0.0347,-0.5306
7.6001,0.016748,-0.110882,0.110882,-0.056757,0.056757,-0.002556,0.5277,-0.0347,-0.5306
7.6168,0.016741,-0.126323,0.126323,-0.075165,0.075165,-0.002569,0.4893,0.0004,-0.4778
7.6336,0.016749,-0.142255,0.142255,-0.090505,0.092039,-0.002555,0.5322,-0.0387,-0.5367
7.6503,0.016739,-0.158501,0.158501,-0.113515,0.111981,-0.002556,0.5277,-0.0347,-0.5306
7.6671,0.016759,-0.174928,0.174928,-0.113515,0.111981,-0.002556,0.5277,-0.0347,-0.5306
7.6838,0.016744,-0.191337,0.191337,-0.134990,0.131922,-0.002556,0.5277,-0.0347,-0.5306
7.7006,0.016754,-0.207586,0.207586,-0.153398,0.148796,-0.002569,0.4893,0.0004,-0.4778
7.7173,0.016740,-0.223489,0.223489,-0.167204,0.162602,-0.002555,0.5322,-0.0387,-0.5367
7.7341,0.016751,-0.238913,0.238913,-0.187146,0.181010,-0.002556,0.5277,-0.0347,-0.5306
7.7508,0.016747,-0.253694,0.253694,-0.210155,0.207087,-0.002569,0.4893,0.0004,-0.4778
7.7676,0.016757,-0.267703,0.267703,-0.210155,0.207087,-0.002569,0.4893,0.0004,-0.4778
7.7843,0.016741,-0.280792,0.280792,-0.231631,0.227029,-0.002555,0.5322,-0.0387,-0.5367
7.8010,0.016746,-0.292865,0.292865,-0.246971,0.243903,-0.002569,0.4888,0.0008,-0.4772
7.8178,0.016762,-0.303835,0.303835,-0.256175,0.257709,-0.002567,0.4933,-0.0033,-0.4834
7.8346,0.016744,-0.313604,0.313604,-0.268447,0.273049,-0.002555,0.5317,-0.0384,-0.5361
7.8513,0.016792,-0.322156,0.322156,-0.291456,0.294524,-0.002569,0.4889,0.0008,-0.4772
7.8681,0.016764,-0.329424,0.329424,-0.291456,0.294524,-0.002569,0.4889,0.0008,-0.4772
7.8849,0.016742,-0.335418,0.335418,-0.312932,0.309864,-0.002555,0.5322,-0.0388,-0.5368
7.9016,0.016747,-0.340180,0.340180,-0.322136,0.316000,-0.002569,0.4888,0.0008,-0.4772
7.9183,0.016744,-0.343773,0.343773,-0.325204,0.320602,-0.002555,0.5322,-0.0388,-0.5368
7.9351,0.016769,-0.346299,0.346299,-0.332874,0.332874,-0.002569,0.4888,0.0008,-0.4772
7.9520,0.016924,-0.347902,0.347902,-0.332874,0.332874,-0.002569,0.4888,0.0008,-0.4772
7.9688,0.016760,-0.348733,0.348733,-0.345146,0.345146,-0.002555,0.5322,-0.0388,-0.5368
7.9855,0.016749,-0.349031,0.349031,-0.351282,0.343612,-0.002569,0.4888,0.0008,-0.4772
8.0023,0.016751,-0.349066,0.349066,-0.348214,0.343612,-0.002555,0.5322,-0.0388,-0.5368
8.0191,0.016752,-0.348988,0.348988,-0.348214,0.348214,-0.002556,0.5277,-0.0347,-0.5306
8.0358,0.016757,-0.348568,0.348568,-0.352816,0.346680,-0.002556,0.5277,-0.0347,-0.5306
8.0526,0.016746,-0.347552,0.347552,-0.351282,0.346680,-0.002582,0.5385,0.0179,-0.4245
8.0693,0.016759,-0.345729,0.345729,-0.351282,0.346680,-0.002582,0.5385,0.0179,-0.4245
8.0861,0.016743,-0.342937,0.342937,-0.351282,0.346680,-0.002553,0.5270,-0.0406,-0.5423
8.1028,0.016751,-0.339043,0.339043,-0.351282,0.346680,-0.002556,0.5282,-0.0345,-0.5300
8.1196,0.016744,-0.333962,0.333962,-0.351282,0.346680,-0.002569,0.4892,0.0004,-0.4779
8.1363,0.016755,-0.327633,0.327633,-0.346680,0.343612,-0.002555,0.5322,-0.0387,-0.5367
8.1531,0.016796,-0.320014,0.320014,-0.343612,0.340544,-0.002569,0.4888,0.0008,-0.4772
8.1698,0.016713,-0.311172,0.311172,-0.343612,0.340544,-0.002569,0.4888,0.0008,-0.4772
8.1866,0.016745,-0.301086,0.301086,-0.342078,0.337476,-0.002555,0.5322,-0.0388,-0.5368
8.2033,0.016745,-0.289830,0.289830,-0.339010,0.335942,-0.002556,0.5277,-0.0347,-0.5306
8.2201,0.016816,-0.277427,0.277427,-0.335942,0.332874,-0.002556,0.5277,-0.0347,-0.5306
8.2369,0.016751,-0.264079,0.264079,-0.325204,0.326738,-0.002556,0.5277,-0.0347,-0.5306
8.2542,0.017284,-0.249390,0.249390,-0.306796,0.311398,-0.002556,0.5277,-0.0347,-0.5306
8.2709,0.016746,-0.234406,0.234406,-0.306796,0.311398,-0.002556,0.5277,-0.0347,-0.5306
8.2876,0.016744,-0.218827,0.218827,-0.286854,0.296058,-0.002569,0.4893,0.0004,-0.4778
8.3044,0.016741,-0.202808,0.202808,-0.274583,0.280718,-0.002555,0.5322,-0.0387,-0.5367
8.3211,0.016741,-0.186505,0.186505,-0.259243,0.265379,-0.002556,0.5277,-0.0347,-0.5306
8.3379,0.016744,-0.170078,0.170078,-0.243903,0.246971,-0.002556,0.5277,-0.0347,-0.5306
8.3548,0.016888,-0.153555,0.153555,-0.222427,0.223961,-0.002556,0.5277,-0.0347,-0.5306
8.3715,0.016744,-0.137385,0.137385,-0.222427,0.223961,-0.002556,0.5277,-0.0347,-0.5306
8.3882,0.016743,-0.121589,0.121589,-0.199418,0.204019,-0.002556,0.5277,-0.0347,-0.5306
8.4050,0.016741,-0.106323,0.106323,-0.177942,0.185612,-0.002556,0.5277,-0.0347,-0.5306
8.4217,0.016738,-0.091736,0.091736,-0.159534,0.165670,-0.002556,0.5277,-0.0347,-0.5306
8.4385,0.016752,-0.077950,0.077950,-0.141126,0.144194,-0.002556,0.5277,-0.0347,-0.5306
8.4552,0.016764,-0.065093,0.065093,-0.119651,0.121184,-0.002569,0.4893,0.0004,-0.4778
8.4720,0.016749,-0.053294,0.053294,-0.119651,0.121184,-0.002569,0.4893,0.0004,-0.4778
8.4887,0.016744,-0.042633,0.042633,-0.099709,0.099709,-0.002555,0.5322,-0.0387,-0.5367
8.5056,0.016865,-0.033111,0.033111,-0.082835,0.081301,-0.002569,0.4888,0.0008,-0.4772
8.5224,0.016753,-0.024907,0.024907,-0.082835,0.081301,-0.002569,0.4888,0.0008,-0.4772
8.5391,0.016748,-0.017974,0.017974,-0.050621,0.050621,-0.002555,0.5322,-0.0388,-0.5368
8.5558,0.016746,-0.012302,0.012302,-0.035282,0.036816,-0.002569,0.4888,0.0008,-0.4772
8.5726,0.016753,-0.007848,0.007848,-0.035282,0.036816,-0.002569,0.4888,0.0008,-0.4772
8.5893,0.016742,-0.004543,0.004543,-0.026078,0.029146,-0.002555,0.5322,-0.0388,-0.5368
8.6061,0.016740,-0.002276,0.002276,-0.018408,0.021476,-0.002556,0.5277,-0.0347,-0.5306
8.6228,0.016742,-0.000897,0.000897,-0.009204,0.010738,-0.002556,0.5277,-0.0347,-0.5306
8.6396,0.016750,-0.000220,0.000220,-0.003068,0.003068,-0.002556,0.5277,-0.0347,-0.5306
8.6563,0.016742,-0.000013,0.000013,-0.003068,0.000000,-0.002556,0.5277,-0.0347,-0.5306
8.6739,0.017538,-0.000004,0.000004,-0.003068,0.000000,-0.002556,0.5277,-0.0347,-0.5306
8.6906,0.016751,-0.000153,0.000153,-0.003068,0.001534,-0.002569,0.4893,0.0004,-0.4778
8.7073,0.016744,-0.000722,0.000722,-0.003068,0.000000,-0.002555,0.5322,-0.0387,-0.5367
8.7241,0.016741,-0.001953,0.001953,-0.003068,0.000000,-0.002569,0.4888,0.0008,-0.4772
8.7408,0.016741,-0.004040,0.004040,-0.001534,0.000000,-0.002555,0.5322,-0.0388,-0.5368
8.7576,0.016745,-0.007140,0.007140,-0.003068,0.000000,-0.002556,0.5277,-0.0347,-0.5306
8.7743,0.016747,-0.011369,0.011369,-0.003068,0.000000,-0.002556,0.5277,-0.0347,-0.5306
8.7911,0.016756,-0.016810,0.016810,-0.003068,0.000000,-0.002556,0.5277,-0.0347,-0.5306
8.8078,0.016742,-0.023501,0.023501,-0.003068,0.001534,-0.002556,0.5277,-0.0347,-0.5306
8.8247,0.016912,-0.031549,0.031549,-0.003068,0.004602,-0.002556,0.5277,-0.0347,-0.5306
8.8415,0.016776,-0.040796,0.040796,-0.009204,0.012272,-0.002569,0.4893,0.0004,-0.4778
8.8583,0.016757,-0.051248,0.051248,-0.021476,0.023010,-0.002555,0.5322,-0.0387,-0.5367
8.8750,0.016752,-0.062848,0.062848,-0.021476,0.023010,-0.002555,0.5322,-0.0387,-0.5367
8.8918,0.016814,-0.075559,0.075559,-0.033748,0.030680,-0.002556,0.5277,-0.0347,-0.5306
8.9086,0.016744,-0.089178,0.089178,-0.044485,0.039884,-0.002556,0.5277,-0.0347,-0.5306
8.9253,0.016746,-0.103635,0.103635,-0.050621,0.050621,-0.002569,0.4893,0.0004,-0.4778
8.9421,0.016746,-0.118795,0.118795,-0.055223,0.059825,-0.002555,0.5322,-0.0387,-0.5367
8.9588,0.016745,-0.134508,0.134508,-0.069029,0.075165,-0.002569,0.4888,0.0008,-0.4772
8.9756,0.016746,-0.150625,0.150625,-0.069029,0.075165,-0.002569,0.4888,0.0008,-0.4772
8.9923,0.016741,-0.166978,0.166978,-0.092039,0.096641,-0.002555,0.5322,-0.0388,-0.5368
9.0090,0.016741,-0.183406,0.183406,-0.116583,0.116583,-0.002556,0.5277,-0.0347,-0.5306
9.0258,0.016772,-0.199775,0.199775,-0.138058,0.133456,-0.002556,0.5277,-0.0347,-0.5306
9.0426,0.016745,-0.215864,0.215864,-0.153398,0.150330,-0.002556,0.5277,-0.0347,-0.5306
9.0593,0.016746,-0.231539,0.231539,-0.171806,0.168738,-0.002556,0.5277,-0.0347,-0.5306
9.0760,0.016744,-0.246644,0.246644,-0.171806,0.168738,-0.002556,0.5277,-0.0347,-0.5306
9.0928,0.016749,-0.261039,0.261039,-0.196350,0.193282,-0.002556,0.5277,-0.0347,-0.5306
9.1095,0.016744,-0.274583,0.274583,-0.219359,0.217825,-0.002569,0.4893,0.0004,-0.4778
9.1263,0.016746,-0.287163,0.287163,-0.233165,0.231631,-0.002567,0.4933,-0.0033,-0.4833
9.1430,0.016722,-0.298656,0.298656,-0.243903,0.243903,-0.002567,0.4933,-0.0033,-0.4833
9.1598,0.016753,-0.309015,0.309015,-0.243903,0.243903,-0.002567,0.4933,-0.0033,-0.4833
9.1765,0.016747,-0.318153,0.318153,-0.263845,0.262311,-0.002555,0.5317,-0.0384,-0.5361
9.1933,0.016751,-0.326035,0.326035,-0.288388,0.285320,-0.002556,0.5277,-0.0347,-0.5306
9.2100,0.016742,-0.332645,0.332645,-0.306796,0.303728,-0.002556,0.5277,-0.0347,-0.5306
9.2267,0.016745,-0.338003,0.338003,-0.309864,0.309864,-0.002556,0.5277,-0.0347,-0.5306
9.2435,0.016745,-0.342157,0.342157,-0.314466,0.316000,-0.002556,0.5277,-0.0347,-0.5306
9.2610,0.017516,-0.345303,0.345303,-0.332874,0.329806,-0.002556,0.5277,-0.0347,-0.5306
9.2778,0.016747,-0.347288,0.347288,-0.332874,0.329806,-0.002556,0.5277,-0.0347,-0.5306
9.2945,0.016759,-0.348436,0.348436,-0.346680,0.342078,-0.002556,0.5277,-0.0347,-0.5306
9.3113,0.016743,-0.348945,0.348945,-0.345146,0.342078,-0.002556,0.5277,-0.0347,-0.5306
9.3280,0.016761,-0.349064,0.349064,-0.345146,0.342078,-0.002556,0.5277,-0.0347,-0.5306
9.3448,0.016745,-0.349049,0.349049,-0.354350,0.349748,-0.002569,0.4893,0.0004,-0.4778
9.3615,0.016769,-0.348818,0.348818,-0.354350,0.349748,-0.002569,0.4893,0.0004,-0.4778
9.3783,0.016747,-0.348101,0.348101,-0.354350,0.349748,-0.002555,0.5322,-0.0387,-0.5367
9.3950,0.016757,-0.346668,0.346668,-0.351282,0.348214,-0.002556,0.5277,-0.0347,-0.5306
9.4118,0.016744,-0.344335,0.344335,-0.352816,0.348214,-0.002569,0.4893,0.0004,-0.4778
9.4285,0.016748,-0.340955,0.340955,-0.351282,0.348214,-0.002567,0.4933,-0.0033,-0.4833
9.4453,0.016745,-0.336424,0.336424,-0.351282,0.348214,-0.002555,0.5317,-0.0384,-0.5361
9.4621,0.016780,-0.330655,0.330655,-0.349748,0.348214,-0.002555,0.5317,-0.0384,-0.5361
9.4788,0.016748,-0.323635,0.323635,-0.349748,0.348214,-0.002556,0.5277,-0.0347,-0.5306
9.4956,0.016756,-0.315342,0.315342,-0.343612,0.340544,-0.002556,0.5277,-0.0347,-0.5306
9.5123,0.016745,-0.305807,0.305807,-0.343612,0.340544,-0.002556,0.5277,-0.0347,-0.5306
9.5291,0.016825,-0.295018,0.295018,-0.342078,0.339010,-0.002556,0.5277,-0.0347,-0.5306
9.5459,0.016769,-0.283131,0.283131,-0.342078,0.339010,-0.002556,0.5277,-0.0347,-0.5306
9.5626,0.016749,-0.270219,0.270219,-0.342078,0.339010,-0.002556,0.5277,-0.0347,-0.5306
9.5795,0.016869,-0.256275,0.256275,-0.320602,0.320602,-0.002556,0.5277,-0.0347,-0.5306
9.5963,0.016753,-0.241619,0.241619,-0.320602,0.320602,-0.002556,0.5277,-0.0347,-0.5306
9.6130,0.016745,-0.226304,0.226304,-0.308330,0.311398,-0.002569,0.4893,0.0004,-0.4778
9.6298,0.016742,-0.210475,0.210475,-0.299126,0.302194,-0.002555,0.5322,-0.0387,-0.5367
9.6465,0.016743,-0.194284,0.194284,-0.280718,0.285320,-0.002556,0.5277,-0.0347,-0.5306
9.6633,0.016757,-0.177881,0.177881,-0.259243,0.265379,-0.002556,0.5277,-0.0347,-0.5306
9.6800,0.016747,-0.161454,0.161454,-0.236233,0.240835,-0.002556,0.5277,-0.0347,-0.5306
9.6968,0.016755,-0.145151,0.145151,-0.236233,0.240835,-0.002556,0.5277,-0.0347,-0.5306
9.7135,0.016745,-0.129154,0.129154,-0.210155,0.216291,-0.002569,0.4893,0.0004,-0.4778
9.7302,0.016747,-0.113608,0.113608,-0.187146,0.193282,-0.002555,0.5322,-0.0387,-0.5367
9.7470,0.016743,-0.098673,0.098673,-0.168738,0.174874,-0.002556,0.5277,-0.0347,-0.5306
9.7637,0.016744,-0.084486,0.084486,-0.150330,0.154932,-0.002569,0.4893,0.0004,-0.4778
9.7806,0.016816,-0.071122,0.071122,-0.130388,0.131922,-0.002567,0.4933,-0.0033,-0.4833
9.7973,0.016758,-0.058803,0.058803,-0.130388,0.131922,-0.002567,0.4933,-0.0033,-0.4833
9.8140,0.016710,-0.047611,0.047611,-0.110447,0.110447,-0.002555,0.5317,-0.0384,-0.5361
9.8308,0.016752,-0.037563,0.037563,-0.090505,0.090505,-0.002569,0.4889,0.0008,-0.4772
9.8475,0.016745,-0.028749,0.028749,-0.075165,0.073631,-0.002555,0.5322,-0.0388,-0.5368
9.8643,0.016742,-0.021199,0.021199,-0.061359,0.059825,-0.002556,0.5277,-0.0347,-0.5306
9.8810,0.016747,-0.014915,0.014915,-0.047553,0.047553,-0.002556,0.5277,-0.0347,-0.5306
9.8978,0.016756,-0.009872,0.009872,-0.047553,0.047553,-0.002556,0.5277,-0.0347,-0.5306
9.9145,0.016742,-0.006019,0.006019,-0.029146,0.032214,-0.002569,0.4893,0.0004,-0.4778
9.9312,0.016744,-0.003261,0.003261,-0.016874,0.023010,-0.002555,0.5322,-0.0387,-0.5367
9.9480,0.016743,-0.001470,0.001470,-0.015340,0.013806,-0.002556,0.5277,-0.0347,-0.5306
9.9647,0.016749,-0.000476,0.000476,-0.016874,0.007670,-0.002569,0.4893,0.0004,-0.4778
9.9816,0.016871,-0.000070,0.000070,-0.012272,0.004602,-0.002555,0.5322,-0.0387,-0.5367
9.9984,0.016752,-0.000000,0.000000,-0.012272,0.004602,-0.002555,0.5322,-0.0387,-0.5367
10.0151,0.016749,-0.000039,0.000039,-0.003068,0.001534,-0.002556,0.5277,-0.0347,-0.5306
10.0319,0.016757,-0.000354,0.000354,0.003068,-0.001534,-0.002569,0.4893,0.0004,-0.4778
10.0486,0.016751,-0.001210,0.001210,0.001534,-0.001534,-0.002567,0.4933,-0.0033,-0.4833
10.0654,0.016752,-0.002826,0.002826,-0.006136,0.000000,-0.002567,0.4933,-0.0033,-0.4833
10.0822,0.016862,-0.005399,0.005399,-0.003068,-0.001534,-0.002567,0.4933,-0.0033,-0.4833
10.0990,0.016759,-0.009034,0.009034,-0.003068,-0.001534,-0.002555,0.5317,-0.0384,-0.5361
10.1157,0.016750,-0.013839,0.013839,0.003068,-0.001534,-0.002556,0.5277,-0.0347,-0.5306
10.1325,0.016752,-0.019881,0.019881,0.000000,-0.001534,-0.002569,0.4893,0.0004,-0.4778
10.1492,0.016744,-0.027185,0.027185,-0.006136,0.001534,-0.002555,0.5322,-0.0387,-0.5367
10.1660,0.016741,-0.035754,0.035754,-0.015340,0.018408,-0.002569,0.4888,0.0008,-0.4772
10.1828,0.016816,-0.045606,0.045606,-0.024544,0.021476,-0.002555,0.5322,-0.0388,-0.5368
10.1995,0.016757,-0.056614,0.056614,-0.024544,0.021476,-0.002555,0.5322,-0.0388,-0.5368
10.2163,0.016746,-0.068725,0.068725,-0.036816,0.024544,-0.002556,0.5277,-0.0347,-0.5306
10.2330,0.016747,-0.081853,0.081853,-0.039884,0.036816,-0.002556,0.5277,-0.0347,-0.5306
10.2500,0.016911,-0.096025,0.096025,-0.046019,0.052155,-0.002556,0.5277,-0.0347,-0.5306
10.2667,0.016744,-0.110835,0.110835,-0.061359,0.069029,-0.002556,0.5277,-0.0347,-0.5306
10.2836,0.016938,-0.126460,0.126460,-0.082835,0.087437,-0.002556,0.5277,-0.0347,-0.5306
10.3004,0.016753,-0.142399,0.142399,-0.082835,0.087437,-0.002556,0.5277,-0.0347,-0.5306
10.3171,0.016746,-0.158654,0.158654,-0.105845,0.105845,-0.002556,0.5277,-0.0347,-0.5306
10.3339,0.016748,-0.175071,0.175071,-0.125786,0.122718,-0.002556,0.5277,-0.0347,-0.5306
10.3506,0.016746,-0.191480,0.191480,-0.141126,0.134990,-0.002569,0.4893,0.0004,-0.4778
10.3674,0.016821,-0.207791,0.207791,-0.159534,0.153398,-0.002555,0.5322,-0.0387,-0.5367
10.3845,0.017078,-0.224006,0.224006,-0.184078,0.179476,-0.002569,0.4888,0.0008,-0.4772
10.4013,0.016759,-0.239418,0.239418,-0.184078,0.179476,-0.002569,0.4888,0.0008,-0.4772
10.4180,0.016751,-0.254178,0.254178,-0.205553,0.202485,-0.002567,0.4933,-0.0033,-0.4834
10.4348,0.016752,-0.268155,0.268155,-0.222427,0.219359,-0.002555,0.5317,-0.0384,-0.5361
10.4515,0.016757,-0.281223,0.281223,-0.236233,0.236233,-0.002582,0.5381,0.0183,-0.4239
10.4683,0.016763,-0.293271,0.293271,-0.253107,0.254641,-0.002553,0.5271,-0.0406,-0.5423
10.4851,0.016753,-0.304194,0.304194,-0.271515,0.274583,-0.002553,0.5271,-0.0406,-0.5423
10.5018,0.016768,-0.313934,0.313934,-0.271515,0.274583,-0.002569,0.4894,0.0010,-0.4766
10.5186,0.016754,-0.322423,0.322423,-0.292990,0.291456,-0.002567,0.4933,-0.0033,-0.4834
10.5353,0.016757,-0.329645,0.329645,-0.305262,0.299126,-0.002555,0.5318,-0.0384,-0.5361
10.5521,0.016748,-0.335599,0.335599,-0.308330,0.303728,-0.002556,0.5277,-0.0347,-0.5306
10.5689,0.016779,-0.340328,0.340328,-0.308330,0.303728,-0.002556,0.5277,-0.0347,-0.5306
10.5857,0.016804,-0.343891,0.343891,-0.308330,0.303728,-0.002556,0.5277,-0.0347,-0.5306
10.6024,0.016754,-0.346376,0.346376,-0.308330,0.303728,-0.002556,0.5277,-0.0347,-0.5306
10.6192,0.016751,-0.347935,0.347935,-0.339010,0.334408,-0.002556,0.5277,-0.0347,-0.5306
10.6359,0.016759,-0.348747,0.348747,-0.331340,0.329806,-0.002556,0.5277,-0.0347,-0.5306
10.6527,0.016747,-0.349035,0.349035,-0.340544,0.340544,-0.002556,0.5277,-0.0347,-0.5306
10.6694,0.016747,-0.349066,0.349066,-0.355884,0.351282,-0.002556,0.5277,-0.0347,-0.5306
10.6863,0.016878,-0.348981,0.348981,-0.355884,0.351282,-0.002569,0.4893,0.0004,-0.4778
10.7031,0.016777,-0.348543,0.348543,-0.355884,0.351282,-0.002555,0.5322,-0.0387,-0.5367
10.7198,0.016747,-0.347501,0.347501,-0.348214,0.346680,-0.002556,0.5277,-0.0347,-0.5306
10.7366,0.016748,-0.345647,0.345647,-0.352816,0.349748,-0.002569,0.4893,0.0004,-0.4778
10.7533,0.016747,-0.342816,0.342816,-0.354350,0.348214,-0.002567,0.4933,-0.0033,-0.4833
10.7701,0.016768,-0.338877,0.338877,-0.354350,0.348214,-0.002567,0.4933,-0.0033,-0.4833
10.7868,0.016752,-0.333748,0.333748,-0.351282,0.346680,-0.002567,0.4933,-0.0033,-0.4833
10.8036,0.016741,-0.327377,0.327377,-0.348214,0.345146,-0.002567,0.4933,-0.0033,-0.4833
10.8203,0.016744,-0.319737,0.319737,-0.345146,0.342078,-0.002555,0.5317,-0.0384,-0.5361
10.8371,0.016743,-0.310836,0.310836,-0.342078,0.340544,-0.002556,0.5277,-0.0347,-0.5306
10.8538,0.016755,-0.300702,0.300702,-0.339010,0.335942,-0.002556,0.5277,-0.0347,-0.5306
10.8706,0.016770,-0.289387,0.289387,-0.339010,0.335942,-0.002556,0.5277,-0.0347,-0.5306
10.8873,0.016748,-0.276998,0.276998,-0.334408,0.331340,-0.002556,0.5277,-0.0347,-0.5306
10.9041,0.016753,-0.263617,0.263617,-0.323670,0.325204,-0.002556,0.5277,-0.0347,-0.5306
10.9208,0.016741,-0.249376,0.249376,-0.311398,0.316000,-0.002556,0.5277,-0.0347,-0.5306
10.9376,0.016743,-0.234393,0.234393,-0.299126,0.302194,-0.002556,0.5277,-0.0347,-0.5306
10.9543,0.016743,-0.218815,0.218815,-0.279185,0.285320,-0.002569,0.4893,0.0004,-0.4778
10.9711,0.016756,-0.202781,0.202781,-0.279185,0.285320,-0.002569,0.4893,0.0004,-0.4778
10.9879,0.016812,-0.186407,0.186407,-0.260777,0.265379,-0.002567,0.4933,-0.0033,-0.4833
11.0046,0.016743,-0.169981,0.169981,-0.243903,0.248505,-0.002567,0.4933,-0.0033,-0.4833
11.0214,0.016744,-0.153599,0.153599,-0.227029,0.231631,-0.002555,0.5317,-0.0384,-0.5361
11.0381,0.016746,-0.137426,0.137426,-0.207087,0.211689,-0.002556,0.5277,-0.0347,-0.5306
11.0549,0.016743,-0.121629,0.121629,-0.182544,0.190214,-0.002569,0.4893,0.0004,-0.4778
11.0716,0.016714,-0.106385,0.106385,-0.182544,0.190214,-0.002569,0.4893,0.0004,-0.4778
11.0883,0.016761,-0.091776,0.091776,-0.158000,0.167204,-0.002567,0.4933,-0.0033,-0.4833
11.1051,0.016744,-0.077994,0.077994,-0.141126,0.145728,-0.002567,0.4933,-0.0033,-0.4833
11.1218,0.016752,-0.065143,0.065143,-0.125786,0.128854,-0.002567,0.4933,-0.0033,-0.4833
11.1386,0.016746,-0.053341,0.053341,-0.108913,0.108913,-0.002567,0.4933,-0.0033,-0.4833
11.1553,0.016748,-0.042673,0.042673,-0.088971,0.087437,-0.002567,0.4933,-0.0033,-0.4833
11.1721,0.016750,-0.033206,0.033206,-0.088971,0.087437,-0.002567,0.4933,-0.0033,-0.4833
11.1888,0.016750,-0.024990,0.024990,-0.069029,0.067495,-0.002555,0.5317,-0.0384,-0.5361
11.2056,0.016742,-0.018045,0.018045,-0.052155,0.052155,-0.002556,0.5277,-0.0347,-0.5306
11.2223,0.016741,-0.012360,0.012360,-0.038350,0.039884,-0.002556,0.5277,-0.0347,-0.5306
11.2391,0.016747,-0.007894,0.007894,-0.027612,0.030680,-0.002556,0.5277,-0.0347,-0.5306
11.2558,0.016743,-0.004576,0.004576,-0.015340,0.021476,-0.002556,0.5277,-0.0347,-0.5306
11.2726,0.016746,-0.002296,0.002296,-0.015340,0.021476,-0.002556,0.5277,-0.0347,-0.5306
11.2893,0.016750,-0.000909,0.000909,-0.009204,0.012272,-0.002569,0.4893,0.0004,-0.4778
11.3060,0.016743,-0.000225,0.000225,-0.009204,0.004602,-0.002567,0.4933,-0.0033,-0.4833
11.3228,0.016744,-0.000013,0.000013,-0.012272,0.004602,-0.002555,0.5317,-0.0384,-0.5361
11.3395,0.016748,-0.000003,0.000003,-0.006136,0.001534,-0.002556,0.5277,-0.0347,-0.5306
11.3563,0.016745,-0.000135,0.000135,0.003068,0.000000,-0.002556,0.5277,-0.0347,-0.5306
11.3730,0.016742,-0.000673,0.000673,0.003068,0.000000,-0.002556,0.5277,-0.0347,-0.5306
11.3898,0.016744,-0.001858,0.001858,0.003068,0.000000,-0.002556,0.5277,-0.0347,-0.5306
11.4065,0.016740,-0.003890,0.003890,-0.004602,0.000000,-0.002569,0.4893,0.0004,-0.4778
11.4233,0.016741,-0.006926,0.006926,-0.003068,0.000000,-0.002555,0.5322,-0.0387,-0.5367
