t,loop_dt,cmd_ant_l,cmd_ant_r,pres_ant_l,pres_ant_r,pres_z,pres_roll,pres_pitch,pres_yaw
0.0000,0.000002,-0.349066,0.349066,-0.174874,0.170272,-0.002738,0.7147,0.2330,-0.2485
0.0167,0.016748,-0.348975,0.348975,-0.174874,0.170272,-0.002739,0.7135,0.2271,-0.2423
0.0335,0.016754,-0.348374,0.348374,-0.174874,0.170272,-0.002714,0.7142,0.1944,-0.2427
0.0502,0.016741,-0.346839,0.346839,-0.179476,0.179476,-0.002717,0.7142,0.1978,-0.2426
0.0670,0.016755,-0.344032,0.344032,-0.239301,0.242369,-0.002715,0.7424,0.1111,-0.2426
0.0839,0.016886,-0.339660,0.339660,-0.317534,0.323670,-0.002717,0.7112,0.2065,-0.2426
0.1006,0.016764,-0.333612,0.333612,-0.317534,0.323670,-0.002717,0.7112,0.2065,-0.2426
0.1174,0.016748,-0.325764,0.325764,-0.374291,0.372757,-0.002703,0.6649,0.1789,-0.2958
0.1341,0.016749,-0.316074,0.316074,-0.383495,0.375825,-0.002691,0.6202,0.1641,-0.3434
0.1509,0.016749,-0.304560,0.304560,-0.366621,0.363553,-0.002680,0.6637,0.1300,-0.3918
0.1676,0.016754,-0.291290,0.291290,-0.345146,0.346680,-0.002694,0.6204,0.1692,-0.3334
0.1846,0.016917,-0.276237,0.276237,-0.322136,0.328272,-0.002654,0.5648,0.0943,-0.4993
0.2013,0.016750,-0.259857,0.259857,-0.322136,0.328272,-0.002654,0.5648,0.0943,-0.4993
0.2181,0.016744,-0.242211,0.242211,-0.306796,0.309864,-0.002645,0.5212,0.0847,-0.5352
0.2348,0.016751,-0.223512,0.223512,-0.286854,0.294524,-0.002596,0.5273,0.0191,-0.5311
0.2516,0.016741,-0.204027,0.204027,-0.269981,0.276117,-0.002614,0.4878,0.0614,-0.4782
0.2684,0.016880,-0.183845,0.183845,-0.269981,0.276117,-0.002614,0.4878,0.0614,-0.4782
0.2852,0.016743,-0.163573,0.163573,-0.269981,0.276117,-0.002614,0.4878,0.0614,-0.4782
0.3019,0.016754,-0.143319,0.143319,-0.230097,0.234699,-0.002600,0.5420,0.0412,-0.4302
0.3187,0.016744,-0.123390,0.123390,-0.217825,0.222427,-0.002577,0.6252,-0.0080,-0.4350
0.3354,0.016755,-0.104038,0.104038,-0.219359,0.219359,-0.002580,0.6165,-0.0029,-0.4345
0.3522,0.016741,-0.085552,0.085552,-0.200951,0.199418,-0.002592,0.5786,0.0322,-0.3812
0.3689,0.016759,-0.068144,0.068144,-0.161068,0.164136,-0.002578,0.6214,-0.0070,-0.4401
0.3857,0.016740,-0.052070,0.052070,-0.161068,0.164136,-0.002578,0.6214,-0.0070,-0.4401
0.4024,0.016752,-0.037491,0.037491,-0.122718,0.127320,-0.002580,0.6169,-0.0029,-0.4340
0.4192,0.016750,-0.024572,0.024572,-0.085903,0.095107,-0.002592,0.5785,0.0322,-0.3812
0.4359,0.016746,-0.013425,0.013425,-0.061359,0.065961,-0.002591,0.5825,0.0285,-0.3867
0.4527,0.016745,-0.004110,0.004110,-0.041417,0.042951,-0.002578,0.6210,-0.0067,-0.4396
0.4694,0.016756,0.003369,-0.003369,-0.041417,0.042951,-0.002578,0.6210,-0.0067,-0.4396
0.4862,0.016750,0.009058,-0.009058,-0.023010,0.023010,-0.002580,0.6170,-0.0030,-0.4340
0.5029,0.016743,0.013074,-0.013074,-0.004602,0.007670,-0.002580,0.6170,-0.0030,-0.4340
0.5197,0.016740,0.015612,-0.015612,0.000000,-0.001534,-0.002580,0.6170,-0.0030,-0.4340
0.5364,0.016746,0.016938,-0.016938,0.000000,-0.004602,-0.002592,0.5785,0.0322,-0.3812
0.5531,0.016741,0.017405,-0.017405,0.004602,-0.010738,-0.002578,0.6214,-0.0070,-0.4401
0.5699,0.016755,0.017448,-0.017448,0.004602,-0.010738,-0.002578,0.6214,-0.0070,-0.4401
0.5866,0.016744,0.016446,-0.016446,0.012272,-0.018408,-0.002580,0.6169,-0.0029,-0.4340
0.6034,0.016742,0.012875,-0.012875,0.021476,-0.018408,-0.002580,0.6169,-0.0029,-0.4340
0.6201,0.016742,0.007600,-0.007600,0.016874,-0.016874,-0.002592,0.5785,0.0322,-0.3812
0.6369,0.016745,0.002800,-0.002800,0.009204,-0.015340,-0.002591,0.5825,0.0285,-0.3867
0.6536,0.016743,0.000316,-0.000316,0.010738,-0.013806,-0.002578,0.6210,-0.0067,-0.4396
0.6704,0.016756,-0.000001,0.000001,0.010738,-0.013806,-0.002578,0.6210,-0.0067,-0.4396
0.6871,0.016748,-0.000163,0.000163,0.012272,-0.007670,-0.002580,0.6170,-0.0030,-0.4340
0.7039,0.016745,-0.000937,0.000937,0.003068,-0.001534,-0.002580,0.6170,-0.0030,-0.4340
0.7206,0.016746,-0.002727,0.002727,-0.004602,-0.001534,-0.002580,0.6170,-0.0030,-0.4340
0.7374,0.016761,-0.005852,0.005852,-0.003068,-0.001534,-0.002592,0.5785,0.0322,-0.3812
0.7541,0.016747,-0.010544,0.010544,0.003068,-0.001534,-0.002578,0.6214,-0.0070,-0.4401
0.7709,0.016756,-0.016966,0.016966,0.003068,-0.001534,-0.002578,0.6214,-0.0070,-0.4401
0.7876,0.016751,-0.025205,0.025205,-0.001534,0.000000,-0.002580,0.6169,-0.0029,-0.4340
0.8044,0.016748,-0.035285,0.035285,-0.007670,0.003068,-0.002592,0.5785,0.0322,-0.3812
0.8211,0.016750,-0.047180,0.047180,-0.010738,0.010738,-0.002591,0.5825,0.0285,-0.3867
0.8382,0.017088,-0.061095,0.061095,-0.013806,0.021476,-0.002578,0.6210,-0.0067,-0.4396
0.8550,0.016748,-0.076347,0.076347,-0.026078,0.033748,-0.002580,0.6170,-0.0030,-0.4340
0.8717,0.016755,-0.093033,0.093033,-0.026078,0.033748,-0.002580,0.6170,-0.0030,-0.4340
0.8885,0.016749,-0.110937,0.110937,-0.047553,0.047553,-0.002592,0.5785,0.0322,-0.3812
0.9052,0.016694,-0.129770,0.129770,-0.061359,0.059825,-0.002591,0.5825,0.0285,-0.3867
0.9219,0.016744,-0.149398,0.149398,-0.076699,0.073631,-0.002591,0.5825,0.0285,-0.3867
0.9386,0.016745,-0.169497,0.169497,-0.093573,0.092039,-0.002578,0.6210,-0.0067,-0.4396
0.9554,0.016745,-0.189789,0.189789,-0.118117,0.115049,-0.002592,0.5781,0.0326,-0.3806
0.9721,0.016751,-0.209996,0.209996,-0.118117,0.115049,-0.002592,0.5781,0.0326,-0.3806
0.9889,0.016756,-0.229837,0.229837,-0.148796,0.145728,-0.002578,0.6214,-0.0071,-0.4402
1.0056,0.016743,-0.249017,0.249017,-0.170272,0.168738,-0.002580,0.6169,-0.0029,-0.4340
1.0224,0.016746,-0.267296,0.267296,-0.196350,0.190214,-0.002580,0.6169,-0.0029,-0.4340
1.0391,0.016747,-0.284431,0.284431,-0.217825,0.214757,-0.002592,0.5785,0.0322,-0.3812
1.0559,0.016808,-0.300263,0.300263,-0.242369,0.240835,-0.002591,0.5825,0.0285,-0.3867
1.0728,0.016848,-0.314574,0.314574,-0.242369,0.240835,-0.002591,0.5825,0.0285,-0.3867
1.0895,0.016763,-0.327119,0.327119,-0.268447,0.266913,-0.002578,0.6210,-0.0067,-0.4396
1.1063,0.016745,-0.337863,0.337863,-0.291456,0.289922,-0.002580,0.6170,-0.0030,-0.4340
1.1256,0.019307,-0.347969,0.347969,-0.305262,0.302194,-0.002580,0.6170,-0.0030,-0.4340
1.1424,0.016752,-0.354768,0.354768,-0.316000,0.312932,-0.002605,0.6278,0.0498,-0.3279
1.1591,0.016748,-0.359813,0.359813,-0.332874,0.332874,-0.002589,0.5773,0.0267,-0.3923
1.1759,0.016763,-0.363254,0.363254,-0.332874,0.332874,-0.002589,0.5773,0.0267,-0.3923
1.1926,0.016768,-0.365303,0.365303,-0.354350,0.351282,-0.002578,0.6215,-0.0065,-0.4390
1.2094,0.016765,-0.366260,0.366260,-0.358952,0.355884,-0.002593,0.6662,0.0146,-0.3808
1.2262,0.016767,-0.366512,0.366512,-0.357418,0.357418,-0.002591,0.5734,0.0303,-0.3868
1.2429,0.016756,-0.366387,0.366387,-0.365087,0.366621,-0.002591,0.5830,0.0287,-0.3861
1.2597,0.016790,-0.364450,0.364450,-0.369689,0.365087,-0.002591,0.5830,0.0287,-0.3861
1.2765,0.016767,-0.360009,0.360009,-0.369689,0.365087,-0.002578,0.6209,-0.0067,-0.4396
1.2934,0.016895,-0.354595,0.354595,-0.368155,0.362019,-0.002592,0.5781,0.0326,-0.3806
1.3102,0.016824,-0.350547,0.350547,-0.368155,0.362019,-0.002592,0.5781,0.0326,-0.3806
1.3270,0.016765,-0.349107,0.349107,-0.368155,0.362019,-0.002592,0.5781,0.0326,-0.3806
1.3437,0.016749,-0.349044,0.349044,-0.366621,0.363553,-0.002591,0.5825,0.0285,-0.3868
1.3605,0.016765,-0.348692,0.348692,-0.368155,0.363553,-0.002591,0.5825,0.0285,-0.3868
1.3772,0.016754,-0.347554,0.347554,-0.366621,0.362019,-0.002591,0.5825,0.0285,-0.3868
1.3940,0.016759,-0.345262,0.345262,-0.366621,0.362019,-0.002591,0.5825,0.0285,-0.3868
1.4107,0.016744,-0.341536,0.341536,-0.362019,0.360485,-0.002591,0.5825,0.0285,-0.3868
1.4275,0.016757,-0.336165,0.336165,-0.357418,0.360485,-0.002591,0.5825,0.0285,-0.3868
1.4442,0.016738,-0.329030,0.329030,-0.349748,0.360485,-0.002578,0.6210,-0.0067,-0.4396
1.4610,0.016759,-0.320049,0.320049,-0.348214,0.360485,-0.002592,0.5781,0.0326,-0.3806
1.4777,0.016743,-0.309240,0.309240,-0.345146,0.357418,-0.002591,0.5825,0.0285,-0.3868
1.4945,0.016776,-0.296621,0.296621,-0.343612,0.349748,-0.002591,0.5825,0.0285,-0.3868
1.5112,0.016746,-0.282342,0.282342,-0.343612,0.349748,-0.002591,0.5825,0.0285,-0.3868
1.5280,0.016751,-0.266522,0.266522,-0.337476,0.339010,-0.002578,0.6210,-0.0067,-0.4396
1.5447,0.016740,-0.249359,0.249359,-0.326738,0.326738,-0.002592,0.5781,0.0326,-0.3806
1.5615,0.016761,-0.231035,0.231035,-0.311398,0.311398,-0.002578,0.6214,-0.0071,-0.4402
1.5783,0.016748,-0.211828,0.211828,-0.289922,0.292990,-0.002580,0.6169,-0.0029,-0.4340
1.5950,0.016756,-0.191973,0.191973,-0.289922,0.292990,-0.002580,0.6169,-0.0029,-0.4340
1.6118,0.016746,-0.171765,0.171765,-0.269981,0.273049,-0.002580,0.6169,-0.0029,-0.4340
1.6285,0.016749,-0.151470,0.151470,-0.248505,0.250039,-0.002580,0.6169,-0.0029,-0.4340
1.6452,0.016740,-0.131386,0.131386,-0.225495,0.233165,-0.002580,0.6169,-0.0029,-0.4340
1.6620,0.016756,-0.111762,0.111762,-0.204019,0.211689,-0.002592,0.5785,0.0322,-0.3812
1.6787,0.016742,-0.092902,0.092902,-0.176408,0.184078,-0.002578,0.6214,-0.0070,-0.4401
1.6955,0.016764,-0.075018,0.075018,-0.176408,0.184078,-0.002578,0.6214,-0.0070,-0.4401
1.7122,0.016745,-0.058385,0.058385,-0.148796,0.153398,-0.002580,0.6169,-0.0029,-0.4340
1.7290,0.016756,-0.043174,0.043174,-0.122718,0.125786,-0.002592,0.5785,0.0322,-0.3812
1.7457,0.016739,-0.029580,0.029580,-0.101243,0.102777,-0.002591,0.5825,0.0285,-0.3867
1.7625,0.016754,-0.017703,0.017703,-0.079767,0.079767,-0.002591,0.5825,0.0285,-0.3867
1.7792,0.016741,-0.007647,0.007647,-0.058291,0.056757,-0.002591,0.5825,0.0285,-0.3867
1.7961,0.016827,0.000603,-0.000603,-0.058291,0.056757,-0.002591,0.5825,0.0285,-0.3867
1.8128,0.016746,0.006994,-0.006994,-0.035282,0.033748,-0.002591,0.5825,0.0285,-0.3867
1.8296,0.016765,0.011664,-0.011664,-0.015340,0.018408,-0.002578,0.6210,-0.0067,-0.4396
1.8463,0.016742,0.014763,-0.014763,-0.003068,0.004602,-0.002592,0.5781,0.0326,-0.3806
1.8631,0.016757,0.016536,-0.016536,0.003068,-0.003068,-0.002591,0.5825,0.0285,-0.3868
1.8798,0.016744,0.017296,-0.017296,0.007670,-0.012272,-0.002578,0.6210,-0.0067,-0.4396
1.8966,0.016767,0.017452,-0.017452,0.007670,-0.012272,-0.002578,0.6210,-0.0067,-0.4396
1.9133,0.016743,0.017118,-0.017118,0.018408,-0.016874,-0.002580,0.6170,-0.0030,-0.4340
1.9301,0.016750,0.014589,-0.014589,0.016874,-0.013806,-0.002580,0.6170,-0.0030,-0.4340
1.9468,0.016741,0.009765,-0.009765,0.010738,-0.013806,-0.002592,0.5785,0.0322,-0.3812
1.9636,0.016747,0.004500,-0.004500,0.013806,-0.016874,-0.002591,0.5825,0.0285,-0.3867
1.9803,0.016743,0.000970,-0.000970,0.018408,-0.015340,-0.002591,0.5825,0.0285,-0.3867
1.9971,0.016756,0.000004,-0.000004,0.018408,-0.015340,-0.002591,0.5825,0.0285,-0.3867
2.0138,0.016739,-0.000051,0.000051,0.013806,-0.010738,-0.002591,0.5825,0.0285,-0.3867
2.0306,0.016747,-0.000529,0.000529,0.001534,-0.006136,-0.002578,0.6210,-0.0067,-0.4396
2.0473,0.016742,-0.001873,0.001873,-0.003068,-0.003068,-0.002592,0.5781,0.0326,-0.3806
2.0640,0.016747,-0.004434,0.004434,0.000000,0.001534,-0.002578,0.6214,-0.0071,-0.4402
2.0809,0.016908,-0.008525,0.008525,0.001534,0.000000,-0.002580,0.6169,-0.0029,-0.4340
2.0977,0.016763,-0.014266,0.014266,0.001534,0.000000,-0.002580,0.6169,-0.0029,-0.4340
2.1145,0.016747,-0.021792,0.021792,-0.001534,-0.001534,-0.002580,0.6169,-0.0029,-0.4340
2.1312,0.016747,-0.031158,0.031158,-0.004602,0.001534,-0.002592,0.5785,0.0322,-0.3812
2.1480,0.016748,-0.042355,0.042355,-0.006136,0.007670,-0.002578,0.6214,-0.0070,-0.4401
2.1647,0.016743,-0.055315,0.055315,-0.007670,0.010738,-0.002580,0.6169,-0.0029,-0.4340
2.1814,0.016723,-0.069910,0.069910,-0.019942,0.016874,-0.002592,0.5785,0.0322,-0.3812
2.1982,0.016763,-0.086042,0.086042,-0.019942,0.016874,-0.002592,0.5785,0.0322,-0.3812
2.2149,0.016747,-0.103470,0.103470,-0.036816,0.029146,-0.002578,0.6214,-0.0070,-0.4401
2.2317,0.016746,-0.121985,0.121985,-0.053689,0.046019,-0.002580,0.6169,-0.0029,-0.4340
2.2484,0.016745,-0.141345,0.141345,-0.065961,0.061359,-0.002592,0.5785,0.0322,-0.3812
2.2652,0.016753,-0.161295,0.161295,-0.076699,0.079767,-0.002578,0.6214,-0.0070,-0.4401
2.2819,0.016763,-0.181564,0.181564,-0.125786,0.128854,-0.002580,0.6169,-0.0029,-0.4340
2.2987,0.016759,-0.201851,0.201851,-0.125786,0.128854,-0.002580,0.6169,-0.0029,-0.4340
2.3154,0.016750,-0.221870,0.221870,-0.151864,0.151864,-0.002592,0.5785,0.0322,-0.3812
2.3324,0.016919,-0.241544,0.241544,-0.176408,0.174874,-0.002591,0.5825,0.0285,-0.3867
2.3492,0.016794,-0.260262,0.260262,-0.176408,0.174874,-0.002591,0.5825,0.0285,-0.3867
2.3659,0.016770,-0.277896,0.277896,-0.176408,0.174874,-0.002591,0.5825,0.0285,-0.3867
2.3827,0.016742,-0.294222,0.294222,-0.222427,0.217825,-0.002578,0.6210,-0.0067,-0.4396
2.3994,0.016754,-0.309085,0.309085,-0.233165,0.230097,-0.002592,0.5781,0.0326,-0.3806
2.4162,0.016746,-0.322307,0.322307,-0.239301,0.236233,-0.002578,0.6214,-0.0071,-0.4402
2.4329,0.016755,-0.333782,0.333782,-0.239301,0.236233,-0.002578,0.6214,-0.0071,-0.4402
2.4497,0.016752,-0.343430,0.343430,-0.260777,0.259243,-0.002580,0.6169,-0.0029,-0.4340
2.4664,0.016749,-0.351234,0.351234,-0.299126,0.297592,-0.002592,0.5785,0.0322,-0.3812
2.4833,0.016843,-0.357263,0.357263,-0.329806,0.328272,-0.002591,0.5825,0.0285,-0.3867
2.5000,0.016745,-0.361558,0.361558,-0.348214,0.345146,-0.002591,0.5825,0.0285,-0.3867
2.5168,0.016751,-0.364335,0.364335,-0.354350,0.351282,-0.002578,0.6210,-0.0067,-0.4396
2.5335,0.016770,-0.365849,0.365849,-0.354350,0.351282,-0.002578,0.6210,-0.0067,-0.4396
2.5503,0.016745,-0.366434,0.366434,-0.357418,0.354350,-0.002580,0.6170,-0.0030,-0.4340
2.5670,0.016745,-0.366519,0.366519,-0.362019,0.360485,-0.002592,0.5785,0.0322,-0.3812
2.5838,0.016753,-0.365854,0.365854,-0.368155,0.366621,-0.002591,0.5825,0.0285,-0.3867
2.6005,0.016748,-0.362719,0.362719,-0.368155,0.365087,-0.002578,0.6210,-0.0067,-0.4396
2.6173,0.016757,-0.357590,0.357590,-0.368155,0.365087,-0.002578,0.6210,-0.0067,-0.4396
2.6340,0.016745,-0.352551,0.352551,-0.368155,0.365087,-0.002593,0.6663,0.0146,-0.3808
2.6508,0.016736,-0.349611,0.349611,-0.368155,0.366621,-0.002578,0.6122,-0.0052,-0.4402
2.6675,0.016742,-0.349066,0.349066,-0.366621,0.363553,-0.002592,0.5790,0.0324,-0.3806
2.6842,0.016741,-0.348961,0.348961,-0.365087,0.362019,-0.002578,0.6213,-0.0071,-0.4402
2.7011,0.016816,-0.348319,0.348319,-0.363553,0.360485,-0.002592,0.5781,0.0326,-0.3806
2.7178,0.016750,-0.346722,0.346722,-0.363553,0.360485,-0.002592,0.5781,0.0326,-0.3806
2.7346,0.016748,-0.343840,0.343840,-0.357418,0.360485,-0.002591,0.5825,0.0285,-0.3868
2.7513,0.016740,-0.339427,0.339427,-0.351282,0.358952,-0.002591,0.5825,0.0285,-0.3868
2.7680,0.016743,-0.333308,0.333308,-0.351282,0.358952,-0.002591,0.5825,0.0285,-0.3868
2.7848,0.016747,-0.325381,0.325381,-0.351282,0.358952,-0.002591,0.5825,0.0285,-0.3868
2.8016,0.016762,-0.315602,0.315602,-0.349748,0.355884,-0.002591,0.5825,0.0285,-0.3868
2.8183,0.016749,-0.304008,0.304008,-0.349748,0.355884,-0.002591,0.5825,0.0285,-0.3868
2.8350,0.016742,-0.290674,0.290674,-0.346680,0.351282,-0.002591,0.5825,0.0285,-0.3868
2.8518,0.016752,-0.275708,0.275708,-0.342078,0.342078,-0.002604,0.6314,0.0465,-0.3328
2.8686,0.016759,-0.259271,0.259271,-0.334408,0.332874,-0.002590,0.5770,0.0270,-0.3918
2.8853,0.016744,-0.241586,0.241586,-0.322136,0.322136,-0.002591,0.6709,0.0111,-0.3857
2.9020,0.016748,-0.222859,0.222859,-0.306796,0.308330,-0.002578,0.6117,-0.0049,-0.4397
2.9188,0.016756,-0.203334,0.203334,-0.306796,0.308330,-0.002578,0.6117,-0.0049,-0.4397
2.9355,0.016740,-0.183307,0.183307,-0.283786,0.286854,-0.002592,0.5791,0.0324,-0.3806
2.9523,0.016748,-0.163026,0.163026,-0.263845,0.268447,-0.002578,0.6213,-0.0071,-0.4402
2.9690,0.016740,-0.142794,0.142794,-0.245437,0.248505,-0.002580,0.6169,-0.0029,-0.4340
2.9858,0.016742,-0.122879,0.122879,-0.222427,0.228563,-0.002592,0.5785,0.0322,-0.3812
3.0025,0.016747,-0.103555,0.103555,-0.197884,0.202485,-0.002591,0.6707,0.0105,-0.3868
3.0193,0.016750,-0.085086,0.085086,-0.197884,0.202485,-0.002591,0.6707,0.0105,-0.3868
3.0360,0.016751,-0.067717,0.067717,-0.168738,0.174874,-0.002591,0.5729,0.0308,-0.3861
3.0528,0.016747,-0.051673,0.051673,-0.142660,0.147262,-0.002591,0.5831,0.0287,-0.3862
3.0695,0.016744,-0.037142,0.037142,-0.118117,0.121184,-0.002578,0.6209,-0.0067,-0.4396
3.0863,0.016751,-0.024266,0.024266,-0.073631,0.073631,-0.002592,0.5781,0.0326,-0.3806
3.1030,0.016742,-0.013168,0.013168,-0.052155,0.050621,-0.002591,0.5825,0.0285,-0.3868
3.1198,0.016755,-0.003894,0.003894,-0.052155,0.050621,-0.002591,0.5825,0.0285,-0.3868
3.1365,0.016727,0.003527,-0.003527,-0.030680,0.029146,-0.002591,0.5825,0.0285,-0.3868
3.1532,0.016743,0.009172,-0.009172,-0.010738,0.013806,-0.002578,0.6210,-0.0067,-0.4396
3.1702,0.016957,0.013192,-0.013192,-0.001534,0.003068,-0.002580,0.6170,-0.0030,-0.4340
3.1869,0.016747,0.015680,-0.015680,0.004602,-0.006136,-0.002592,0.5785,0.0322,-0.3812
3.2037,0.016750,0.016969,-0.016969,0.013806,-0.013806,-0.002578,0.6214,-0.0070,-0.4401
3.2204,0.016745,0.017411,-0.017411,0.013806,-0.013806,-0.002578,0.6214,-0.0070,-0.4401
3.2372,0.016748,0.017444,-0.017444,0.016874,-0.016874,-0.002593,0.6662,0.0146,-0.3807
3.2539,0.016744,0.016362,-0.016362,0.012272,-0.013806,-0.002591,0.5734,0.0303,-0.3868
3.2707,0.016745,0.012698,-0.012698,0.013806,-0.016874,-0.002578,0.6219,-0.0068,-0.4396
3.2874,0.016747,0.007397,-0.007397,0.018408,-0.016874,-0.002592,0.5780,0.0326,-0.3806
3.3042,0.016807,0.002644,-0.002644,0.015340,-0.015340,-0.002578,0.6215,-0.0071,-0.4402
3.3210,0.016748,0.000272,-0.000272,0.015340,-0.015340,-0.002578,0.6215,-0.0071,-0.4402
3.3377,0.016747,-0.000002,0.000002,0.006136,-0.010738,-0.002592,0.5780,0.0326,-0.3806
3.3546,0.016897,-0.000183,0.000183,-0.001534,-0.003068,-0.002591,0.5825,0.0285,-0.3868
3.3715,0.016839,-0.001006,0.001006,-0.001534,-0.001534,-0.002591,0.5825,0.0285,-0.3868
3.3882,0.016752,-0.002863,0.002863,-0.001534,-0.001534,-0.002591,0.5825,0.0285,-0.3868
3.4050,0.016748,-0.006068,0.006068,0.000000,-0.001534,-0.002578,0.6210,-0.0067,-0.4396
3.4222,0.017295,-0.011036,0.011036,-0.004602,0.000000,-0.002592,0.5781,0.0326,-0.3806
3.4390,0.016749,-0.017613,0.017613,-0.004602,0.000000,-0.002592,0.5781,0.0326,-0.3806
3.4558,0.016759,-0.026017,0.026017,-0.004602,0.000000,-0.002591,0.5825,0.0285,-0.3868
3.4725,0.016748,-0.036259,0.036259,-0.003068,0.006136,-0.002578,0.6210,-0.0067,-0.4396
3.4893,0.016752,-0.048311,0.048311,-0.010738,0.016874,-0.002592,0.5781,0.0326,-0.3806
3.5060,0.016746,-0.062077,0.062077,-0.023010,0.029146,-0.002578,0.6214,-0.0071,-0.4402
3.5228,0.016802,-0.077484,0.077484,-0.023010,0.029146,-0.002578,0.6214,-0.0071,-0.4402
3.5395,0.016743,-0.094251,0.094251,-0.041417,0.042951,-0.002592,0.5780,0.0326,-0.3806
3.5563,0.016752,-0.112236,0.112236,-0.056757,0.052155,-0.002591,0.6708,0.0105,-0.3869
3.5730,0.016748,-0.131191,0.131191,-0.069029,0.061359,-0.002578,0.6118,-0.0048,-0.4395
3.5898,0.016759,-0.150880,0.150880,-0.085903,0.081301,-0.002592,0.5791,0.0324,-0.3806
3.6066,0.016744,-0.171002,0.171002,-0.111981,0.108913,-0.002578,0.6213,-0.0071,-0.4402
3.6233,0.016752,-0.191304,0.191304,-0.111981,0.108913,-0.002578,0.6213,-0.0071,-0.4402
3.6400,0.016744,-0.211485,0.211485,-0.138058,0.136524,-0.002580,0.6169,-0.0029,-0.4340
3.6568,0.016749,-0.231279,0.231279,-0.161068,0.158000,-0.002605,0.6278,0.0498,-0.3279
3.6735,0.016706,-0.250359,0.250359,-0.185612,0.184078,-0.002577,0.6163,-0.0089,-0.4457
3.6903,0.016755,-0.268573,0.268573,-0.205553,0.202485,-0.002592,0.5786,0.0328,-0.3800
3.7070,0.016758,-0.285628,0.285628,-0.205553,0.202485,-0.002592,0.5786,0.0328,-0.3800
3.7238,0.016754,-0.301304,0.301304,-0.231631,0.228563,-0.002591,0.5825,0.0285,-0.3868
3.7405,0.016746,-0.315420,0.315420,-0.257709,0.254641,-0.002591,0.5825,0.0285,-0.3868
3.7573,0.016765,-0.327855,0.327855,-0.279185,0.276117,-0.002591,0.5825,0.0285,-0.3868
3.7740,0.016745,-0.338484,0.338484,-0.296058,0.294524,-0.002578,0.6210,-0.0066,-0.4395
3.7908,0.016751,-0.347276,0.347276,-0.311398,0.309864,-0.002580,0.6170,-0.0030,-0.4340
3.8075,0.016751,-0.354235,0.354235,-0.311398,0.309864,-0.002580,0.6170,-0.0030,-0.4340
3.8243,0.016757,-0.359434,0.359434,-0.332874,0.329806,-0.002580,0.6170,-0.0030,-0.4340
3.8410,0.016743,-0.363006,0.363006,-0.349748,0.346680,-0.002580,0.6170,-0.0030,-0.4340
3.8578,0.016747,-0.365167,0.365167,-0.354350,0.349748,-0.002580,0.6170,-0.0030,-0.4340
3.8745,0.016746,-0.366208,0.366208,-0.358952,0.351282,-0.002580,0.6170,-0.0030,-0.4340
3.8927,0.018141,-0.366511,0.366511,-0.368155,0.366621,-0.002592,0.5785,0.0322,-0.3812
3.9095,0.016798,-0.366392,0.366392,-0.371223,0.368155,-0.002578,0.6214,-0.0070,-0.4401
3.9262,0.016753,-0.364482,0.364482,-0.371223,0.368155,-0.002578,0.6214,-0.0070,-0.4401
3.9430,0.016743,-0.360068,0.360068,-0.368155,0.365087,-0.002580,0.6169,-0.0029,-0.4340
3.9597,0.016746,-0.354697,0.354697,-0.368155,0.365087,-0.002592,0.6667,0.0142,-0.3813
3.9764,0.016742,-0.350617,0.350617,-0.368155,0.365087,-0.002591,0.5733,0.0304,-0.3867
3.9932,0.016754,-0.349115,0.349115,-0.366621,0.363553,-0.002591,0.5830,0.0287,-0.3861
4.0099,0.016746,-0.349047,0.349047,-0.366621,0.363553,-0.002591,0.5830,0.0287,-0.3861
4.0267,0.016751,-0.348709,0.348709,-0.366621,0.363553,-0.002591,0.5830,0.0287,-0.3861
4.0434,0.016743,-0.347599,0.347599,-0.366621,0.362019,-0.002591,0.5830,0.0287,-0.3861
4.0602,0.016749,-0.345345,0.345345,-0.365087,0.362019,-0.002591,0.5830,0.0287,-0.3861
4.0769,0.016739,-0.341663,0.341663,-0.362019,0.362019,-0.002591,0.5830,0.0287,-0.3861
4.0937,0.016747,-0.336344,0.336344,-0.354350,0.362019,-0.002591,0.5830,0.0287,-0.3861
4.1104,0.016741,-0.329260,0.329260,-0.354350,0.362019,-0.002591,0.5830,0.0287,-0.3861
4.1272,0.016754,-0.320336,0.320336,-0.348214,0.362019,-0.002578,0.6209,-0.0067,-0.4396
4.1439,0.016739,-0.309583,0.309583,-0.345146,0.362019,-0.002580,0.6170,-0.0030,-0.4340
4.1607,0.016747,-0.297038,0.297038,-0.343612,0.358952,-0.002592,0.5785,0.0322,-0.3812
4.1774,0.016742,-0.282813,0.282813,-0.339010,0.349748,-0.002591,0.5825,0.0285,-0.3867
4.1943,0.016864,-0.266926,0.266926,-0.331340,0.335942,-0.002591,0.5825,0.0285,-0.3867
4.2110,0.016739,-0.249795,0.249795,-0.331340,0.335942,-0.002591,0.5825,0.0285,-0.3867
4.2277,0.016749,-0.231510,0.231510,-0.317534,0.317534,-0.002591,0.5825,0.0285,-0.3867
4.2445,0.016744,-0.212327,0.212327,-0.300660,0.299126,-0.002578,0.6210,-0.0067,-0.4396
4.2612,0.016756,-0.192485,0.192485,-0.282252,0.280718,-0.002580,0.6170,-0.0030,-0.4340
4.2780,0.016743,-0.172286,0.172286,-0.262311,0.262311,-0.002592,0.5785,0.0322,-0.3812
4.2949,0.016906,-0.151801,0.151801,-0.234699,0.239301,-0.002578,0.6214,-0.0070,-0.4401
4.3116,0.016739,-0.131713,0.131713,-0.234699,0.239301,-0.002578,0.6214,-0.0070,-0.4401
4.3284,0.016755,-0.112080,0.112080,-0.208621,0.214757,-0.002592,0.5781,0.0326,-0.3806
4.3451,0.016743,-0.093204,0.093204,-0.184078,0.191748,-0.002591,0.5825,0.0285,-0.3868
4.3621,0.017009,-0.075048,0.075048,-0.159534,0.165670,-0.002591,0.5825,0.0285,-0.3868
4.3789,0.016740,-0.058417,0.058417,-0.138058,0.141126,-0.002591,0.5825,0.0285,-0.3868
4.3957,0.016780,-0.043183,0.043183,-0.111981,0.113515,-0.002591,0.5825,0.0285,-0.3868
4.4124,0.016777,-0.029558,0.029558,-0.111981,0.113515,-0.002591,0.5825,0.0285,-0.3868
4.4293,0.016870,-0.017608,0.017608,-0.111981,0.113515,-0.002591,0.5825,0.0285,-0.3868
4.4461,0.016745,-0.007566,0.007566,-0.111981,0.113515,-0.002591,0.5825,0.0285,-0.3868
4.4628,0.016746,0.000633,-0.000633,-0.049087,0.050621,-0.002578,0.6210,-0.0067,-0.4396
4.4795,0.016742,0.007015,-0.007015,-0.049087,0.052155,-0.002580,0.6170,-0.0030,-0.4340
4.4963,0.016756,0.011677,-0.011677,-0.052155,0.049087,-0.002580,0.6170,-0.0030,-0.4340
4.5130,0.016742,0.014771,-0.014771,-0.033748,0.032214,-0.002592,0.5785,0.0322,-0.3812
4.5298,0.016768,0.016540,-0.016540,-0.033748,0.032214,-0.002592,0.5785,0.0322,-0.3812
4.5465,0.016743,0.017298,-0.017298,-0.006136,0.007670,-0.002591,0.5825,0.0285,-0.3867
4.5633,0.016752,0.017453,-0.017453,0.015340,-0.009204,-0.002578,0.6210,-0.0067,-0.4396
4.5801,0.016762,0.017113,-0.017113,0.026078,-0.023010,-0.002580,0.6170,-0.0030,-0.4340
4.5968,0.016762,0.014570,-0.014570,0.018408,-0.019942,-0.002592,0.5785,0.0322,-0.3812
4.6136,0.016752,0.009735,-0.009735,0.009204,-0.012272,-0.002578,0.6214,-0.0070,-0.4401
4.6303,0.016771,0.004468,-0.004468,0.009204,-0.012272,-0.002578,0.6214,-0.0070,-0.4401
4.6471,0.016751,0.000954,-0.000954,0.012272,-0.013806,-0.002580,0.6169,-0.0029,-0.4340
4.6639,0.016751,0.000004,-0.000004,0.018408,-0.016874,-0.002580,0.6169,-0.0029,-0.4340
4.6806,0.016747,-0.000052,0.000052,0.012272,-0.009204,-0.002580,0.6169,-0.0029,-0.4340
4.6974,0.016755,-0.000536,0.000536,0.000000,-0.001534,-0.002580,0.6169,-0.0029,-0.4340
4.7141,0.016751,-0.001889,0.001889,-0.004602,0.000000,-0.002580,0.6169,-0.0029,-0.4340
4.7309,0.016777,-0.004468,0.004468,-0.004602,0.000000,-0.002580,0.6169,-0.0029,-0.4340
4.7476,0.016751,-0.008530,0.008530,-0.001534,-0.001534,-0.002592,0.5785,0.0322,-0.3812
4.7644,0.016753,-0.014268,0.014268,0.003068,0.000000,-0.002591,0.5825,0.0285,-0.3867
4.7811,0.016747,-0.021795,0.021795,0.000000,0.003068,-0.002591,0.5825,0.0285,-0.3867
4.7979,0.016757,-0.031168,0.031168,-0.006136,0.006136,-0.002578,0.6210,-0.0067,-0.4396
4.8146,0.016748,-0.042367,0.042367,-0.016874,0.013806,-0.002580,0.6170,-0.0030,-0.4340
4.8314,0.016772,-0.055352,0.055352,-0.016874,0.013806,-0.002580,0.6170,-0.0030,-0.4340
4.8482,0.016748,-0.069975,0.069975,-0.027612,0.023010,-0.002592,0.5785,0.0322,-0.3812
4.8649,0.016746,-0.086096,0.086096,-0.032214,0.029146,-0.002591,0.5825,0.0285,-0.3867
4.8816,0.016745,-0.103525,0.103525,-0.036816,0.038350,-0.002591,0.5825,0.0285,-0.3867
4.8984,0.016770,-0.122071,0.122071,-0.047553,0.052155,-0.002578,0.6210,-0.0067,-0.4396
4.9152,0.016746,-0.141435,0.141435,-0.072097,0.076699,-0.002580,0.6170,-0.0030,-0.4340
4.9319,0.016761,-0.161398,0.161398,-0.072097,0.076699,-0.002580,0.6170,-0.0030,-0.4340
4.9487,0.016747,-0.181649,0.181649,-0.096641,0.099709,-0.002592,0.5785,0.0322,-0.3812
4.9654,0.016744,-0.201918,0.201918,-0.124252,0.122718,-0.002578,0.6214,-0.0070,-0.4401
4.9822,0.016744,-0.221928,0.221928,-0.144194,0.141126,-0.002592,0.5781,0.0326,-0.3806
4.9989,0.016748,-0.241405,0.241405,-0.168738,0.162602,-0.002578,0.6214,-0.0071,-0.4402
5.0157,0.016805,-0.260141,0.260141,-0.194816,0.190214,-0.002580,0.6169,-0.0029,-0.4340
5.0325,0.016758,-0.277771,0.277771,-0.194816,0.190214,-0.002580,0.6169,-0.0029,-0.4340
5.0492,0.016746,-0.294110,0.294110,-0.223961,0.217825,-0.002580,0.6169,-0.0029,-0.4340
5.0660,0.016751,-0.308982,0.308982,-0.246971,0.242369,-0.002580,0.6169,-0.0029,-0.4340
5.0827,0.016744,-0.322215,0.322215,-0.263845,0.263845,-0.002580,0.6169,-0.0029,-0.4340
5.0995,0.016747,-0.333699,0.333699,-0.277651,0.283786,-0.002580,0.6169,-0.0029,-0.4340
5.1162,0.016748,-0.343359,0.343359,-0.303728,0.305262,-0.002580,0.6169,-0.0029,-0.4340
5.1330,0.016749,-0.351177,0.351177,-0.303728,0.305262,-0.002580,0.6169,-0.0029,-0.4340
5.1497,0.016748,-0.357192,0.357192,-0.328272,0.326738,-0.002592,0.5785,0.0322,-0.3812
5.1664,0.016742,-0.361509,0.361509,-0.343612,0.339010,-0.002578,0.6214,-0.0070,-0.4401
5.1832,0.016745,-0.364305,0.364305,-0.345146,0.342078,-0.002580,0.6169,-0.0029,-0.4340
5.1999,0.016749,-0.365834,0.365834,-0.348214,0.348214,-0.002592,0.5785,0.0322,-0.3812
5.2167,0.016754,-0.366430,0.366430,-0.365087,0.360485,-0.002591,0.5825,0.0285,-0.3867
5.2334,0.016742,-0.366519,0.366519,-0.365087,0.360485,-0.002591,0.5825,0.0285,-0.3867
5.2502,0.016750,-0.365881,0.365881,-0.372757,0.368155,-0.002591,0.5825,0.0285,-0.3867
5.2669,0.016741,-0.362788,0.362788,-0.369689,0.366621,-0.002591,0.5825,0.0285,-0.3867
5.2837,0.016745,-0.357681,0.357681,-0.366621,0.365087,-0.002591,0.5825,0.0285,-0.3867
5.3004,0.016744,-0.352622,0.352622,-0.368155,0.365087,-0.002591,0.5825,0.0285,-0.3867
5.3172,0.016748,-0.349636,0.349636,-0.366621,0.365087,-0.002591,0.5825,0.0285,-0.3867
5.3339,0.016748,-0.349066,0.349066,-0.366621,0.365087,-0.002591,0.5825,0.0285,-0.3867
5.3507,0.016749,-0.348966,0.348966,-0.366621,0.363553,-0.002591,0.5825,0.0285,-0.3867
5.3674,0.016739,-0.348340,0.348340,-0.366621,0.363553,-0.002578,0.6210,-0.0067,-0.4396
5.3841,0.016743,-0.346766,0.346766,-0.365087,0.362019,-0.002580,0.6170,-0.0030,-0.4340
5.4009,0.016745,-0.343913,0.343913,-0.365087,0.362019,-0.002592,0.5785,0.0322,-0.3812
5.4176,0.016760,-0.339527,0.339527,-0.360485,0.362019,-0.002592,0.5785,0.0322,-0.3812
5.4344,0.016741,-0.333442,0.333442,-0.360485,0.362019,-0.002591,0.6707,0.0105,-0.3868
5.4536,0.019186,-0.324248,0.324248,-0.352816,0.362019,-0.002578,0.6118,-0.0048,-0.4395
5.4704,0.016781,-0.314223,0.314223,-0.352816,0.362019,-0.002578,0.6118,-0.0048,-0.4395
5.4871,0.016741,-0.302407,0.302407,-0.343612,0.360485,-0.002580,0.6179,-0.0032,-0.4340
5.5039,0.016752,-0.288851,0.288851,-0.342078,0.355884,-0.002580,0.6179,-0.0032,-0.4340
5.5206,0.016756,-0.273684,0.273684,-0.337476,0.345146,-0.002592,0.5784,0.0322,-0.3812
5.5376,0.017015,-0.256810,0.256810,-0.326738,0.329806,-0.002578,0.6214,-0.0070,-0.4401
5.5544,0.016755,-0.238950,0.238950,-0.326738,0.329806,-0.002578,0.6214,-0.0070,-0.4401
5.5711,0.016745,-0.220097,0.220097,-0.311398,0.309864,-0.002580,0.6169,-0.0029,-0.4340
5.5879,0.016751,-0.200487,0.200487,-0.291456,0.292990,-0.002580,0.6169,-0.0029,-0.4340
5.6046,0.016747,-0.180399,0.180399,-0.274583,0.274583,-0.002592,0.5785,0.0322,-0.3812
5.6214,0.016747,-0.160108,0.160108,-0.251573,0.253107,-0.002591,0.5825,0.0285,-0.3867
5.6381,0.016748,-0.139895,0.139895,-0.227029,0.230097,-0.002578,0.6210,-0.0067,-0.4396
5.6549,0.016757,-0.120032,0.120032,-0.227029,0.230097,-0.002578,0.6210,-0.0067,-0.4396
5.6716,0.016741,-0.100822,0.100822,-0.202485,0.207087,-0.002592,0.5781,0.0326,-0.3806
5.6896,0.017958,-0.081217,0.081217,-0.176408,0.184078,-0.002578,0.6214,-0.0071,-0.4402
5.7063,0.016747,-0.064121,0.064121,-0.153398,0.159534,-0.002580,0.6169,-0.0029,-0.4340
5.7231,0.016749,-0.048387,0.048387,-0.124252,0.127320,-0.002580,0.6169,-0.0029,-0.4340
5.7398,0.016760,-0.034192,0.034192,-0.124252,0.127320,-0.002580,0.6169,-0.0029,-0.4340
5.7566,0.016757,-0.021690,0.021690,-0.101243,0.102777,-0.002580,0.6169,-0.0029,-0.4340
5.7733,0.016751,-0.010983,0.010983,-0.076699,0.078233,-0.002592,0.5785,0.0322,-0.3812
5.7901,0.016751,-0.002115,0.002115,-0.058291,0.056757,-0.002591,0.5825,0.0285,-0.3867
5.8068,0.016741,0.004915,-0.004915,-0.024544,0.026078,-0.002578,0.6210,-0.0067,-0.4396
5.8236,0.016744,0.010182,-0.010182,-0.007670,0.010738,-0.002592,0.5781,0.0326,-0.3806
5.8403,0.016755,0.013821,-0.013821,-0.007670,0.010738,-0.002592,0.5781,0.0326,-0.3806
5.8571,0.016760,0.016037,-0.016037,0.007670,-0.001534,-0.002578,0.6214,-0.0071,-0.4402
5.8738,0.016725,0.017116,-0.017116,0.010738,-0.012272,-0.002580,0.6169,-0.0029,-0.4340
5.8906,0.016746,0.017437,-0.017437,0.006136,-0.013806,-0.002580,0.6169,-0.0029,-0.4340
5.9074,0.016823,0.017391,-0.017391,0.007670,-0.016874,-0.002580,0.6169,-0.0029,-0.4340
5.9241,0.016750,0.015803,-0.015803,0.019942,-0.018408,-0.002592,0.5785,0.0322,-0.3812
5.9409,0.016752,0.011645,-0.011645,0.019942,-0.018408,-0.002592,0.5785,0.0322,-0.3812
5.9576,0.016761,0.006264,-0.006264,0.018408,-0.016874,-0.002578,0.6214,-0.0070,-0.4401
5.9744,0.016744,0.001921,-0.001921,0.010738,-0.016874,-0.002592,0.5781,0.0326,-0.3806
5.9911,0.016744,0.000106,-0.000106,0.006136,-0.015340,-0.002578,0.6214,-0.0071,-0.4402
6.0079,0.016743,-0.000010,0.000010,0.007670,-0.009204,-0.002580,0.6169,-0.0029,-0.4340
6.0249,0.017020,-0.000291,0.000291,0.007670,-0.009204,-0.002580,0.6169,-0.0029,-0.4340
6.0417,0.016811,-0.001305,0.001305,0.007670,-0.009204,-0.002580,0.6169,-0.0029,-0.4340
6.0585,0.016761,-0.003428,0.003428,-0.004602,0.000000,-0.002580,0.6169,-0.0029,-0.4340
6.0752,0.016745,-0.006954,0.006954,-0.003068,-0.001534,-0.002592,0.5785,0.0322,-0.3812
6.0921,0.016917,-0.012159,0.012159,0.003068,0.000000,-0.002578,0.6214,-0.0070,-0.4401
6.1089,0.016749,-0.019081,0.019081,0.000000,0.004602,-0.002580,0.6169,-0.0029,-0.4340
6.1257,0.016777,-0.027850,0.027850,-0.007670,0.009204,-0.002580,0.6169,-0.0029,-0.4340
6.1424,0.016749,-0.038445,0.038445,-0.007670,0.009204,-0.002580,0.6169,-0.0029,-0.4340
6.1592,0.016753,-0.050838,0.050838,-0.015340,0.010738,-0.002592,0.5785,0.0322,-0.3812
6.1759,0.016748,-0.064924,0.064924,-0.023010,0.013806,-0.002591,0.5825,0.0285,-0.3867
6.1927,0.016809,-0.080626,0.080626,-0.032214,0.024544,-0.002578,0.6210,-0.0067,-0.4396
6.2095,0.016741,-0.097642,0.097642,-0.041417,0.041417,-0.002592,0.5781,0.0326,-0.3806
6.2263,0.016831,-0.115923,0.115923,-0.059825,0.064427,-0.002578,0.6214,-0.0071,-0.4402
6.2430,0.016738,-0.135031,0.135031,-0.059825,0.064427,-0.002578,0.6214,-0.0071,-0.4402
6.2598,0.016753,-0.154824,0.154824,-0.082835,0.087437,-0.002592,0.5780,0.0326,-0.3806
6.2765,0.016742,-0.175000,0.175000,-0.105845,0.105845,-0.002591,0.5825,0.0285,-0.3868
6.2933,0.016751,-0.195302,0.195302,-0.125786,0.124252,-0.002578,0.6210,-0.0067,-0.4396
6.3100,0.016746,-0.215430,0.215430,-0.151864,0.147262,-0.002580,0.6170,-0.0030,-0.4340
6.3268,0.016782,-0.235151,0.235151,-0.181010,0.176408,-0.002592,0.5785,0.0322,-0.3812
6.3435,0.016742,-0.254108,0.254108,-0.181010,0.176408,-0.002592,0.5785,0.0322,-0.3812
6.3603,0.016748,-0.272099,0.272099,-0.207087,0.199418,-0.002591,0.5825,0.0285,-0.3867
6.3770,0.016742,-0.288879,0.288879,-0.227029,0.222427,-0.002578,0.6210,-0.0067,-0.4396
6.3938,0.016763,-0.304266,0.304266,-0.242369,0.243903,-0.002580,0.6170,-0.0030,-0.4340
6.4106,0.016759,-0.318062,0.318062,-0.262311,0.266913,-0.002580,0.6170,-0.0030,-0.4340
6.4274,0.016873,-0.330214,0.330214,-0.288388,0.291456,-0.002580,0.6170,-0.0030,-0.4340
6.4442,0.016752,-0.340467,0.340467,-0.288388,0.291456,-0.002580,0.6170,-0.0030,-0.4340
6.4609,0.016770,-0.348883,0.348883,-0.317534,0.314466,-0.002592,0.5785,0.0322,-0.3812
6.4778,0.016821,-0.355489,0.355489,-0.331340,0.325204,-0.002591,0.5825,0.0285,-0.3867
6.4946,0.016835,-0.360346,0.360346,-0.331340,0.325204,-0.002591,0.5825,0.0285,-0.3867
6.5114,0.016753,-0.363590,0.363590,-0.331340,0.325204,-0.002591,0.5825,0.0285,-0.3867
6.5281,0.016761,-0.365480,0.365480,-0.337476,0.342078,-0.002578,0.6210,-0.0067,-0.4396
6.5449,0.016753,-0.366322,0.366322,-0.355884,0.354350,-0.002580,0.6170,-0.0030,-0.4340
6.5618,0.016902,-0.366517,0.366517,-0.365087,0.357418,-0.002580,0.6170,-0.0030,-0.4340
6.5785,0.016746,-0.366278,0.366278,-0.366621,0.363553,-0.002592,0.5785,0.0322,-0.3812
6.5953,0.016768,-0.363983,0.363983,-0.368155,0.368155,-0.002591,0.5825,0.0285,-0.3867
6.6120,0.016751,-0.359298,0.359298,-0.368155,0.368155,-0.002591,0.5825,0.0285,-0.3867
6.6288,0.016756,-0.353977,0.353977,-0.368155,0.366621,-0.002591,0.5825,0.0285,-0.3867
6.6456,0.016765,-0.350231,0.350231,-0.368155,0.365087,-0.002591,0.5825,0.0285,-0.3867
6.6623,0.016760,-0.349079,0.349079,-0.368155,0.366621,-0.002578,0.6210,-0.0067,-0.4396
6.6794,0.017068,-0.349026,0.349026,-0.363553,0.363553,-0.002580,0.6170,-0.0030,-0.4340
6.6962,0.016765,-0.348589,0.348589,-0.358952,0.360485,-0.002580,0.6170,-0.0030,-0.4340
6.7129,0.016755,-0.347310,0.347310,-0.358952,0.360485,-0.002580,0.6170,-0.0030,-0.4340
6.7297,0.016759,-0.344832,0.344832,-0.352816,0.358952,-0.002580,0.6170,-0.0030,-0.4340
6.7464,0.016764,-0.340881,0.340881,-0.351282,0.357418,-0.002592,0.5785,0.0322,-0.3812
6.7632,0.016777,-0.335258,0.335258,-0.351282,0.357418,-0.002591,0.5825,0.0285,-0.3867
6.7800,0.016759,-0.327854,0.327854,-0.351282,0.355884,-0.002578,0.6210,-0.0067,-0.4396
6.7967,0.016771,-0.318600,0.318600,-0.348214,0.354350,-0.002578,0.6210,-0.0067,-0.4396
6.8135,0.016758,-0.307519,0.307519,-0.348214,0.354350,-0.002580,0.6170,-0.0030,-0.4340
6.8303,0.016755,-0.294664,0.294664,-0.345146,0.348214,-0.002605,0.6278,0.0498,-0.3279
6.8470,0.016754,-0.280146,0.280146,-0.340544,0.339010,-0.002602,0.6267,0.0443,-0.3390
6.8638,0.016759,-0.264109,0.264109,-0.335942,0.332874,-0.002577,0.6164,-0.0083,-0.4445
6.8805,0.016758,-0.246748,0.246748,-0.322136,0.320602,-0.002580,0.6174,-0.0028,-0.4335
6.8973,0.016772,-0.228266,0.228266,-0.306796,0.306796,-0.002580,0.6174,-0.0028,-0.4335
6.9140,0.016756,-0.208939,0.208939,-0.306796,0.306796,-0.002580,0.6174,-0.0028,-0.4335
6.9308,0.016750,-0.189020,0.189020,-0.285320,0.288388,-0.002580,0.6174,-0.0028,-0.4335
6.9476,0.016752,-0.168775,0.168775,-0.263845,0.266913,-0.002580,0.6174,-0.0028,-0.4335
6.9643,0.016762,-0.148476,0.148476,-0.243903,0.248505,-0.002580,0.6174,-0.0028,-0.4335
6.9811,0.016753,-0.128431,0.128431,-0.223961,0.228563,-0.002592,0.5785,0.0322,-0.3813
6.9978,0.016763,-0.108894,0.108894,-0.223961,0.228563,-0.002592,0.5785,0.0322,-0.3813
7.0146,0.016763,-0.090144,0.090144,-0.196350,0.202485,-0.002578,0.6214,-0.0070,-0.4401
7.0314,0.016758,-0.072436,0.072436,-0.168738,0.174874,-0.002592,0.5781,0.0326,-0.3806
7.0483,0.016919,-0.055842,0.055842,-0.141126,0.145728,-0.002578,0.6214,-0.0071,-0.4402
7.0650,0.016758,-0.040877,0.040877,-0.115049,0.118117,-0.002580,0.6169,-0.0029,-0.4340
7.0818,0.016768,-0.027531,0.027531,-0.115049,0.118117,-0.002580,0.6169,-0.0029,-0.4340
7.0985,0.016753,-0.015945,0.015945,-0.067495,0.065961,-0.002592,0.5785,0.0322,-0.3812
7.1153,0.016759,-0.006179,0.006179,-0.049087,0.049087,-0.002578,0.6214,-0.0070,-0.4401
7.1324,0.017102,0.001885,-0.001885,-0.032214,0.032214,-0.002592,0.5781,0.0326,-0.3806
7.1492,0.016756,0.007960,-0.007960,-0.013806,0.016874,-0.002591,0.5825,0.0285,-0.3868
7.1659,0.016784,0.012337,-0.012337,0.001534,0.003068,-0.002591,0.5825,0.0285,-0.3868
7.1827,0.016764,0.015178,-0.015178,0.001534,0.003068,-0.002578,0.6210,-0.0067,-0.4396
7.1995,0.016754,0.016739,-0.016739,0.007670,-0.007670,-0.002580,0.6170,-0.0030,-0.4340
7.2162,0.016756,0.017357,-0.017357,0.006136,-0.012272,-0.002592,0.5785,0.0322,-0.3812
7.2330,0.016765,0.017453,-0.017453,0.007670,-0.012272,-0.002578,0.6214,-0.0070,-0.4401
7.2497,0.016758,0.016859,-0.016859,0.016874,-0.013806,-0.002592,0.5781,0.0326,-0.3806
7.2665,0.016773,0.013828,-0.013828,0.018408,-0.016874,-0.002592,0.5781,0.0326,-0.3806
7.2833,0.016758,0.008745,-0.008745,0.018408,-0.016874,-0.002591,0.5825,0.0285,-0.3868
7.3000,0.016764,0.003652,-0.003652,0.013806,-0.016874,-0.002591,0.5825,0.0285,-0.3868
7.3168,0.016762,0.000606,-0.000606,0.009204,-0.015340,-0.002578,0.6210,-0.0067,-0.4396
7.3336,0.016771,-0.000000,0.000000,0.013806,-0.013806,-0.002592,0.5781,0.0326,-0.3806
7.3503,0.016763,-0.000095,0.000095,0.012272,-0.009204,-0.002578,0.6214,-0.0071,-0.4402
7.3671,0.016773,-0.000709,0.000709,0.012272,-0.009204,-0.002578,0.6214,-0.0071,-0.4402
7.3839,0.016755,-0.002264,0.002264,0.000000,0.000000,-0.002592,0.5780,0.0326,-0.3806
7.4006,0.016764,-0.005097,0.005097,-0.006136,0.001534,-0.002591,0.5825,0.0285,-0.3868
7.4174,0.016758,-0.009459,0.009459,0.000000,-0.001534,-0.002578,0.6210,-0.0067,-0.4396
7.4342,0.016772,-0.015528,0.015528,0.004602,0.000000,-0.002580,0.6170,-0.0030,-0.4340
7.4509,0.016766,-0.023404,0.023404,-0.003068,0.007670,-0.002580,0.6170,-0.0030,-0.4340
7.4677,0.016767,-0.033128,0.033128,-0.003068,0.007670,-0.002580,0.6170,-0.0030,-0.4340
7.4845,0.016758,-0.044672,0.044672,-0.009204,0.010738,-0.002580,0.6170,-0.0030,-0.4340
7.5012,0.016763,-0.057972,0.057972,-0.019942,0.013806,-0.002580,0.6170,-0.0030,-0.4340
7.5184,0.017168,-0.073282,0.073282,-0.030680,0.018408,-0.002592,0.5785,0.0322,-0.3812
7.5352,0.016799,-0.089753,0.089753,-0.030680,0.018408,-0.002592,0.5785,0.0322,-0.3812
7.5520,0.016769,-0.107462,0.107462,-0.030680,0.018408,-0.002592,0.5785,0.0322,-0.3812
7.5687,0.016762,-0.126205,0.126205,-0.052155,0.050621,-0.002591,0.5825,0.0285,-0.3867
7.5855,0.016752,-0.145725,0.145725,-0.065961,0.064427,-0.002578,0.6210,-0.0067,-0.4396
7.6022,0.016750,-0.165764,0.165764,-0.076699,0.070563,-0.002592,0.5781,0.0326,-0.3806
7.6190,0.016745,-0.186041,0.186041,-0.095107,0.087437,-0.002578,0.6214,-0.0071,-0.4402
7.6357,0.016750,-0.206285,0.206285,-0.125786,0.121184,-0.002592,0.5780,0.0326,-0.3806
7.6525,0.016746,-0.226203,0.226203,-0.125786,0.121184,-0.002592,0.5780,0.0326,-0.3806
7.6692,0.016741,-0.245521,0.245521,-0.161068,0.158000,-0.002591,0.5825,0.0285,-0.3868
7.6859,0.016742,-0.263981,0.263981,-0.190214,0.190214,-0.002591,0.5825,0.0285,-0.3868
7.7027,0.016742,-0.281341,0.281341,-0.214757,0.211689,-0.002578,0.6210,-0.0067,-0.4396
7.7194,0.016752,-0.297389,0.297389,-0.231631,0.228563,-0.002592,0.5781,0.0326,-0.3806
7.7362,0.016784,-0.311954,0.311954,-0.251573,0.250039,-0.002591,0.5825,0.0285,-0.3868
7.7530,0.016752,-0.324826,0.324826,-0.251573,0.250039,-0.002591,0.5825,0.0285,-0.3868
7.7697,0.016746,-0.335923,0.335923,-0.279185,0.277651,-0.002591,0.5825,0.0285,-0.3868
7.7865,0.016753,-0.345191,0.345191,-0.305262,0.302194,-0.002591,0.5825,0.0285,-0.3868
7.8032,0.016747,-0.352616,0.352616,-0.317534,0.314466,-0.002591,0.5825,0.0285,-0.3868
7.8200,0.016753,-0.358257,0.358257,-0.326738,0.323670,-0.002578,0.6210,-0.0067,-0.4396
7.8369,0.016924,-0.362265,0.362265,-0.343612,0.339010,-0.002592,0.5781,0.0326,-0.3806
7.8536,0.016750,-0.364751,0.364751,-0.343612,0.339010,-0.002592,0.5781,0.0326,-0.3806
7.8704,0.016745,-0.366036,0.366036,-0.360485,0.355884,-0.002578,0.6214,-0.0071,-0.4402
7.8873,0.016863,-0.366479,0.366479,-0.360485,0.357418,-0.002580,0.6169,-0.0029,-0.4340
7.9042,0.016964,-0.366507,0.366507,-0.358952,0.358952,-0.002592,0.5785,0.0322,-0.3812
7.9210,0.016761,-0.365373,0.365373,-0.369689,0.369689,-0.002578,0.6214,-0.0070,-0.4401
7.9380,0.017016,-0.361574,0.361574,-0.372757,0.368155,-0.002605,0.6274,0.0502,-0.3273
7.9547,0.016758,-0.356248,0.356248,-0.372757,0.368155,-0.002605,0.6274,0.0502,-0.3273
7.9715,0.016724,-0.351582,0.351582,-0.368155,0.363553,-0.002577,0.6163,-0.0089,-0.4458
7.9882,0.016753,-0.349303,0.349303,-0.368155,0.366621,-0.002580,0.6174,-0.0028,-0.4334
8.0050,0.016748,-0.349063,0.349063,-0.368155,0.365087,-0.002592,0.5785,0.0322,-0.3813
8.0217,0.016756,-0.348871,0.348871,-0.365087,0.362019,-0.002591,0.5825,0.0285,-0.3867
8.0388,0.017103,-0.348004,0.348004,-0.363553,0.360485,-0.002591,0.5825,0.0285,-0.3867
8.0556,0.016757,-0.346095,0.346095,-0.363553,0.360485,-0.002578,0.6210,-0.0067,-0.4396
8.0723,0.016744,-0.342828,0.342828,-0.355884,0.360485,-0.002580,0.6170,-0.0030,-0.4340
8.0891,0.016747,-0.337974,0.337974,-0.351282,0.358952,-0.002592,0.5785,0.0322,-0.3812
8.1058,0.016752,-0.331378,0.331378,-0.349748,0.358952,-0.002591,0.5825,0.0285,-0.3867
8.1226,0.016762,-0.322954,0.322954,-0.349748,0.357418,-0.002578,0.6210,-0.0067,-0.4396
8.1395,0.016893,-0.312597,0.312597,-0.346680,0.351282,-0.002580,0.6170,-0.0030,-0.4340
8.1562,0.016752,-0.300512,0.300512,-0.346680,0.351282,-0.002580,0.6170,-0.0030,-0.4340
8.1730,0.016741,-0.286719,0.286719,-0.343612,0.346680,-0.002580,0.6170,-0.0030,-0.4340
8.1897,0.016756,-0.271329,0.271329,-0.339010,0.335942,-0.002592,0.5785,0.0322,-0.3812
8.2065,0.016738,-0.254546,0.254546,-0.331340,0.328272,-0.002578,0.6214,-0.0070,-0.4401
8.2232,0.016752,-0.236545,0.236545,-0.316000,0.316000,-0.002592,0.5781,0.0326,-0.3806
8.2401,0.016922,-0.217375,0.217375,-0.297592,0.299126,-0.002591,0.5825,0.0285,-0.3868
8.2569,0.016754,-0.197677,0.197677,-0.297592,0.299126,-0.002591,0.5825,0.0285,-0.3868
8.2736,0.016744,-0.177547,0.177547,-0.274583,0.277651,-0.002591,0.5825,0.0285,-0.3868
8.2904,0.016753,-0.157243,0.157243,-0.254641,0.257709,-0.002591,0.5825,0.0285,-0.3868
8.3071,0.016742,-0.137071,0.137071,-0.236233,0.240835,-0.002578,0.6210,-0.0067,-0.4396
8.3239,0.016753,-0.117286,0.117286,-0.214757,0.220893,-0.002580,0.6170,-0.0030,-0.4340
8.3406,0.016750,-0.098177,0.098177,-0.185612,0.191748,-0.002580,0.6170,-0.0030,-0.4340
8.3574,0.016755,-0.079993,0.079993,-0.185612,0.191748,-0.002580,0.6170,-0.0030,-0.4340
8.3741,0.016744,-0.062988,0.062988,-0.161068,0.167204,-0.002592,0.5785,0.0322,-0.3812
8.3909,0.016746,-0.047359,0.047359,-0.134990,0.139592,-0.002591,0.5825,0.0285,-0.3867
8.4077,0.016796,-0.033248,0.033248,-0.108913,0.110447,-0.002578,0.6210,-0.0067,-0.4396
8.4244,0.016744,-0.020879,0.020879,-0.090505,0.090505,-0.002592,0.5781,0.0326,-0.3806
8.4412,0.016756,-0.010297,0.010297,-0.067495,0.065961,-0.002578,0.6214,-0.0071,-0.4402
8.4579,0.016731,-0.001569,0.001569,-0.067495,0.065961,-0.002578,0.6214,-0.0071,-0.4402
8.4747,0.016742,0.005336,-0.005336,-0.042951,0.041417,-0.002592,0.5780,0.0326,-0.3806
8.4914,0.016752,0.010487,-0.010487,-0.024544,0.026078,-0.002578,0.6214,-0.0071,-0.4402
8.5082,0.016744,0.014017,-0.014017,-0.009204,0.009204,-0.002592,0.5780,0.0326,-0.3806
8.5249,0.016747,0.016143,-0.016143,-0.003068,0.001534,-0.002578,0.6214,-0.0071,-0.4402
8.5417,0.016793,0.017160,-0.017160,0.001534,-0.006136,-0.002578,0.6214,-0.0071,-0.4402
8.5585,0.016772,0.017442,-0.017442,0.001534,-0.006136,-0.002592,0.5780,0.0326,-0.3806
8.5753,0.016815,0.017356,-0.017356,0.001534,-0.006136,-0.002592,0.5780,0.0326,-0.3806
8.5920,0.016769,0.015576,-0.015576,0.001534,-0.006136,-0.002592,0.5780,0.0326,-0.3806
8.6088,0.016742,0.011262,-0.011262,0.013806,-0.013806,-0.002591,0.5825,0.0285,-0.3868
8.6255,0.016752,0.005883,-0.005883,0.009204,-0.013806,-0.002591,0.5825,0.0285,-0.3868
8.6423,0.016748,0.001694,-0.001694,0.013806,-0.018408,-0.002578,0.6210,-0.0067,-0.4396
8.6590,0.016749,0.000069,-0.000069,0.016874,-0.013806,-0.002592,0.5781,0.0326,-0.3806
8.6758,0.016753,-0.000015,0.000015,0.009204,-0.004602,-0.002578,0.6214,-0.0071,-0.4402
8.6925,0.016755,-0.000326,0.000326,0.009204,-0.004602,-0.002578,0.6214,-0.0071,-0.4402
8.7093,0.016742,-0.001389,0.001389,-0.003068,-0.001534,-0.002592,0.5780,0.0326,-0.3806
8.7260,0.016748,-0.003581,0.003581,-0.001534,-0.001534,-0.002578,0.6214,-0.0071,-0.4402
8.7428,0.016741,-0.007188,0.007188,0.004602,-0.001534,-0.002593,0.6662,0.0146,-0.3807
8.7595,0.016752,-0.012425,0.012425,0.001534,0.000000,-0.002578,0.6122,-0.0052,-0.4402
8.7763,0.016744,-0.019424,0.019424,-0.006136,0.001534,-0.002592,0.5790,0.0324,-0.3806
8.7930,0.016761,-0.028264,0.028264,-0.006136,0.001534,-0.002592,0.5790,0.0324,-0.3806
8.8098,0.016743,-0.038933,0.038933,-0.006136,0.004602,-0.002578,0.6213,-0.0071,-0.4402
8.8265,0.016744,-0.051393,0.051393,-0.004602,0.012272,-0.002592,0.5781,0.0326,-0.3806
8.8433,0.016743,-0.065542,0.065542,-0.012272,0.018408,-0.002578,0.6214,-0.0071,-0.4402
8.8600,0.016747,-0.081244,0.081244,-0.027612,0.024544,-0.002592,0.5780,0.0326,-0.3806
8.8768,0.016745,-0.098312,0.098312,-0.044485,0.036816,-0.002578,0.6214,-0.0071,-0.4402
8.8935,0.016779,-0.116574,0.116574,-0.044485,0.036816,-0.002578,0.6214,-0.0071,-0.4402
8.9103,0.016743,-0.135716,0.135716,-0.065961,0.056757,-0.002592,0.5780,0.0326,-0.3806
8.9270,0.016749,-0.155522,0.155522,-0.084369,0.078233,-0.002591,0.5825,0.0285,-0.3868
8.9438,0.016739,-0.175703,0.175703,-0.099709,0.096641,-0.002578,0.6210,-0.0067,-0.4396
8.9605,0.016753,-0.196007,0.196007,-0.113515,0.116583,-0.002592,0.5781,0.0326,-0.3806
8.9773,0.016745,-0.216122,0.216122,-0.138058,0.141126,-0.002591,0.5825,0.0285,-0.3868
8.9940,0.016763,-0.235801,0.235801,-0.138058,0.141126,-0.002591,0.5825,0.0285,-0.3868
9.0108,0.016745,-0.254732,0.254732,-0.167204,0.168738,-0.002591,0.5825,0.0285,-0.3868
9.0275,0.016743,-0.272681,0.272681,-0.196350,0.193282,-0.002578,0.6210,-0.0067,-0.4396
9.0443,0.016741,-0.289415,0.289415,-0.220893,0.214757,-0.002592,0.5781,0.0326,-0.3806
9.0610,0.016748,-0.304738,0.304738,-0.237767,0.234699,-0.002591,0.5825,0.0285,-0.3868
9.0778,0.016812,-0.318522,0.318522,-0.259243,0.260777,-0.002604,0.6314,0.0465,-0.3328
9.0946,0.016761,-0.330537,0.330537,-0.259243,0.260777,-0.002604,0.6314,0.0465,-0.3328
9.1113,0.016746,-0.340732,0.340732,-0.285320,0.286854,-0.002577,0.6159,-0.0086,-0.4452
9.1281,0.016746,-0.349085,0.349085,-0.311398,0.308330,-0.002580,0.6175,-0.0028,-0.4335
9.1448,0.016742,-0.355616,0.355616,-0.325204,0.320602,-0.002592,0.5785,0.0322,-0.3813
9.1616,0.016776,-0.360422,0.360422,-0.331340,0.326738,-0.002591,0.5825,0.0285,-0.3867
9.1786,0.016997,-0.363674,0.363674,-0.345146,0.340544,-0.002578,0.6210,-0.0067,-0.4396
9.1953,0.016758,-0.365523,0.365523,-0.345146,0.340544,-0.002578,0.6210,-0.0067,-0.4396
9.2121,0.016741,-0.366337,0.366337,-0.362019,0.358952,-0.002580,0.6170,-0.0030,-0.4340
9.2288,0.016747,-0.366517,0.366517,-0.362019,0.362019,-0.002592,0.5785,0.0322,-0.3812
9.2456,0.016751,-0.366255,0.366255,-0.360485,0.360485,-0.002578,0.6214,-0.0070,-0.4401
9.2623,0.016754,-0.363899,0.363899,-0.371223,0.366621,-0.002580,0.6169,-0.0029,-0.4340
9.2791,0.016755,-0.359174,0.359174,-0.372757,0.365087,-0.002580,0.6169,-0.0029,-0.4340
9.2959,0.016772,-0.353861,0.353861,-0.372757,0.365087,-0.002580,0.6169,-0.0029,-0.4340
9.3126,0.016750,-0.350176,0.350176,-0.366621,0.365087,-0.002580,0.6169,-0.0029,-0.4340
9.3294,0.016744,-0.349076,0.349076,-0.368155,0.365087,-0.002580,0.6169,-0.0029,-0.4340
9.3461,0.016741,-0.349025,0.349025,-0.366621,0.363553,-0.002580,0.6169,-0.0029,-0.4340
9.3628,0.016750,-0.348588,0.348588,-0.365087,0.360485,-0.002592,0.5785,0.0322,-0.3812
9.3796,0.016760,-0.347307,0.347307,-0.365087,0.360485,-0.002578,0.6214,-0.0070,-0.4401
9.3964,0.016751,-0.344827,0.344827,-0.365087,0.360485,-0.002578,0.6214,-0.0070,-0.4401
9.4131,0.016753,-0.340877,0.340877,-0.360485,0.358952,-0.002580,0.6169,-0.0029,-0.4340
9.4299,0.016755,-0.335261,0.335261,-0.354350,0.358952,-0.002580,0.6169,-0.0029,-0.4340
9.4466,0.016776,-0.327849,0.327849,-0.349748,0.357418,-0.002580,0.6169,-0.0029,-0.4340
9.4634,0.016756,-0.318604,0.318604,-0.349748,0.357418,-0.002605,0.6278,0.0498,-0.3279
9.4802,0.016758,-0.307523,0.307523,-0.346680,0.351282,-0.002605,0.6278,0.0498,-0.3279
9.4969,0.016758,-0.294667,0.294667,-0.346680,0.351282,-0.002589,0.5773,0.0267,-0.3923
9.5137,0.016748,-0.280154,0.280154,-0.342078,0.345146,-0.002591,0.6708,0.0111,-0.3857
9.5304,0.016742,-0.264135,0.264135,-0.326738,0.325204,-0.002591,0.5729,0.0307,-0.3863
9.5472,0.016753,-0.246782,0.246782,-0.311398,0.309864,-0.002591,0.5831,0.0287,-0.3862
9.5639,0.016754,-0.228321,0.228321,-0.288388,0.292990,-0.002591,0.5817,0.0290,-0.3862
9.5807,0.016753,-0.209000,0.209000,-0.288388,0.292990,-0.002591,0.5817,0.0290,-0.3862
9.5976,0.016897,-0.188906,0.188906,-0.269981,0.273049,-0.002578,0.6211,-0.0067,-0.4396
9.6143,0.016754,-0.168658,0.168658,-0.269981,0.273049,-0.002578,0.6211,-0.0067,-0.4396
9.6313,0.016986,-0.148089,0.148089,-0.230097,0.234699,-0.002580,0.6169,-0.0030,-0.4340
9.6481,0.016748,-0.128056,0.128056,-0.230097,0.234699,-0.002580,0.6169,-0.0030,-0.4340
9.6648,0.016741,-0.108556,0.108556,-0.220893,0.222427,-0.002592,0.5785,0.0322,-0.3812
9.6815,0.016753,-0.089834,0.089834,-0.204019,0.202485,-0.002591,0.5825,0.0285,-0.3867
9.6983,0.016762,-0.072142,0.072142,-0.174874,0.176408,-0.002578,0.6210,-0.0067,-0.4396
9.7151,0.016749,-0.055731,0.055731,-0.134990,0.136524,-0.002592,0.5781,0.0326,-0.3806
9.7318,0.016785,-0.040754,0.040754,-0.104311,0.105845,-0.002578,0.6214,-0.0071,-0.4402
9.7496,0.017743,-0.026701,0.026701,-0.104311,0.105845,-0.002578,0.6214,-0.0071,-0.4402
9.7663,0.016746,-0.015239,0.015239,-0.070563,0.075165,-0.002580,0.6169,-0.0029,-0.4340
9.7831,0.016749,-0.005600,0.005600,-0.047553,0.049087,-0.002592,0.5785,0.0322,-0.3812
9.7998,0.016744,0.002193,-0.002193,-0.038350,0.035282,-0.002578,0.6214,-0.0070,-0.4401
9.8166,0.016748,0.008187,-0.008187,-0.030680,0.023010,-0.002580,0.6169,-0.0029,-0.4340
9.8333,0.016743,0.012485,-0.012485,-0.016874,0.009204,-0.002592,0.5785,0.0322,-0.3812
9.8501,0.016753,0.015265,-0.015265,-0.016874,0.009204,-0.002592,0.5785,0.0322,-0.3812
9.8668,0.016744,0.016780,-0.016780,0.004602,-0.001534,-0.002578,0.6214,-0.0070,-0.4401
9.8836,0.016743,0.017368,-0.017368,0.013806,-0.012272,-0.002580,0.6169,-0.0029,-0.4340
9.9003,0.016742,0.017453,-0.017453,0.010738,-0.013806,-0.002592,0.5785,0.0322,-0.3812
9.9170,0.016752,0.016795,-0.016795,0.007670,-0.015340,-0.002591,0.5825,0.0285,-0.3867
9.9339,0.016901,0.013630,-0.013630,0.016874,-0.016874,-0.002591,0.5825,0.0285,-0.3867
9.9508,0.016805,0.008480,-0.008480,0.016874,-0.016874,-0.002591,0.5825,0.0285,-0.3867
9.9675,0.016741,0.003451,-0.003451,0.018408,-0.016874,-0.002578,0.6210,-0.0067,-0.4396
9.9842,0.016745,0.000532,-0.000532,0.013806,-0.016874,-0.002592,0.5781,0.0326,-0.3806
10.0012,0.016944,-0.000000,0.000000,0.006136,-0.012272,-0.002591,0.5825,0.0285,-0.3868
10.0179,0.016750,-0.000111,0.000111,0.003068,-0.006136,-0.002578,0.6210,-0.0067,-0.4396
10.0347,0.016744,-0.000765,0.000765,0.001534,0.000000,-0.002580,0.6170,-0.0030,-0.4340
10.0514,0.016755,-0.002381,0.002381,0.001534,0.000000,-0.002580,0.6170,-0.0030,-0.4340
10.0682,0.016742,-0.005286,0.005286,-0.003068,0.000000,-0.002592,0.5785,0.0322,-0.3812
10.0849,0.016742,-0.009727,0.009727,-0.004602,-0.001534,-0.002578,0.6214,-0.0070,-0.4401
10.1017,0.016742,-0.015876,0.015876,-0.001534,0.000000,-0.002592,0.5781,0.0326,-0.3806
10.1184,0.016748,-0.023834,0.023834,0.001534,0.004602,-0.002578,0.6214,-0.0071,-0.4402
10.1351,0.016741,-0.033631,0.033631,-0.003068,0.009204,-0.002580,0.6169,-0.0029,-0.4340
10.1519,0.016758,-0.045259,0.045259,-0.003068,0.009204,-0.002580,0.6169,-0.0029,-0.4340
10.1686,0.016742,-0.058620,0.058620,-0.013806,0.016874,-0.002592,0.5785,0.0322,-0.3812
10.1854,0.016758,-0.073617,0.073617,-0.026078,0.018408,-0.002578,0.6214,-0.0070,-0.4401
10.2021,0.016743,-0.090059,0.090059,-0.035282,0.023010,-0.002580,0.6169,-0.0029,-0.4340
10.2189,0.016752,-0.107771,0.107771,-0.042951,0.038350,-0.002580,0.6169,-0.0029,-0.4340
10.2356,0.016742,-0.126506,0.126506,-0.056757,0.059825,-0.002580,0.6169,-0.0029,-0.4340
10.2524,0.016756,-0.146041,0.146041,-0.056757,0.059825,-0.002580,0.6169,-0.0029,-0.4340
10.2691,0.016745,-0.166080,0.166080,-0.081301,0.085903,-0.002592,0.5785,0.0322,-0.3812
10.2859,0.016753,-0.186368,0.186368,-0.104311,0.107379,-0.002578,0.6214,-0.0070,-0.4401
10.3026,0.016743,-0.206601,0.206601,-0.127320,0.127320,-0.002592,0.5781,0.0326,-0.3806
10.3194,0.016757,-0.226526,0.226526,-0.151864,0.148796,-0.002578,0.6214,-0.0071,-0.4402
10.3361,0.016750,-0.245841,0.245841,-0.181010,0.174874,-0.002592,0.5780,0.0326,-0.3806
10.3529,0.016759,-0.264304,0.264304,-0.181010,0.174874,-0.002592,0.5780,0.0326,-0.3806
10.3696,0.016743,-0.281643,0.281643,-0.208621,0.202485,-0.002604,0.6319,0.0461,-0.3335
10.3864,0.016756,-0.297670,0.297670,-0.233165,0.228563,-0.002577,0.6158,-0.0085,-0.4451
10.4032,0.016746,-0.312174,0.312174,-0.246971,0.246971,-0.002580,0.6175,-0.0028,-0.4335
10.4199,0.016718,-0.324994,0.324994,-0.265379,0.268447,-0.002580,0.6175,-0.0028,-0.4335
10.4366,0.016746,-0.336066,0.336066,-0.291456,0.294524,-0.002580,0.6175,-0.0028,-0.4335
10.4534,0.016762,-0.345312,0.345312,-0.291456,0.294524,-0.002580,0.6175,-0.0028,-0.4335
10.4701,0.016747,-0.352711,0.352711,-0.316000,0.314466,-0.002580,0.6175,-0.0028,-0.4335
10.4869,0.016758,-0.358328,0.358328,-0.332874,0.328272,-0.002592,0.5785,0.0322,-0.3813
10.5036,0.016757,-0.362280,0.362280,-0.335942,0.331340,-0.002604,0.6318,0.0461,-0.3334
10.5204,0.016764,-0.364761,0.364761,-0.342078,0.340544,-0.002590,0.5769,0.0270,-0.3917
10.5372,0.016753,-0.366041,0.366041,-0.342078,0.340544,-0.002590,0.5769,0.0270,-0.3917
10.5539,0.016755,-0.366479,0.366479,-0.362019,0.360485,-0.002604,0.6320,0.0467,-0.3323
10.5707,0.016749,-0.366509,0.366509,-0.371223,0.366621,-0.002590,0.5769,0.0270,-0.3918
10.5874,0.016758,-0.365405,0.365405,-0.366621,0.363553,-0.002591,0.5827,0.0291,-0.3856
10.6042,0.016748,-0.361716,0.361716,-0.368155,0.363553,-0.002591,0.5827,0.0291,-0.3856
10.6209,0.016756,-0.356407,0.356407,-0.369689,0.363553,-0.002591,0.6703,0.0109,-0.3864
10.6377,0.016783,-0.351677,0.351677,-0.369689,0.363553,-0.002591,0.6703,0.0109,-0.3864
10.6545,0.016822,-0.349324,0.349324,-0.369689,0.363553,-0.002591,0.6703,0.0109,-0.3864
10.6713,0.016762,-0.349064,0.349064,-0.366621,0.363553,-0.002591,0.6703,0.0109,-0.3864
10.6880,0.016757,-0.348880,0.348880,-0.366621,0.363553,-0.002578,0.6118,-0.0048,-0.4396
10.7048,0.016745,-0.348059,0.348059,-0.366621,0.363553,-0.002593,0.6672,0.0144,-0.3808
10.7215,0.016757,-0.346202,0.346202,-0.366621,0.363553,-0.002578,0.6121,-0.0052,-0.4402
10.7383,0.016743,-0.342997,0.342997,-0.365087,0.362019,-0.002580,0.6179,-0.0031,-0.4340
10.7550,0.016751,-0.338213,0.338213,-0.362019,0.362019,-0.002580,0.6179,-0.0031,-0.4340
10.7719,0.016887,-0.331634,0.331634,-0.354350,0.362019,-0.002592,0.5784,0.0322,-0.3812
10.7886,0.016718,-0.323297,0.323297,-0.354350,0.362019,-0.002592,0.5784,0.0322,-0.3812
10.8054,0.016745,-0.313106,0.313106,-0.346680,0.360485,-0.002591,0.5825,0.0285,-0.3867
10.8221,0.016752,-0.301102,0.301102,-0.342078,0.357418,-0.002591,0.5825,0.0285,-0.3867
10.8389,0.016744,-0.287382,0.287382,-0.339010,0.349748,-0.002591,0.5825,0.0285,-0.3867
10.8556,0.016754,-0.272062,0.272062,-0.334408,0.335942,-0.002578,0.6210,-0.0067,-0.4396
10.8724,0.016755,-0.255321,0.255321,-0.322136,0.320602,-0.002593,0.6663,0.0146,-0.3808
10.8892,0.016757,-0.237363,0.237363,-0.322136,0.320602,-0.002593,0.6663,0.0146,-0.3808
10.9059,0.016747,-0.218433,0.218433,-0.305262,0.302194,-0.002604,0.6227,0.0480,-0.3335
10.9226,0.016745,-0.198777,0.198777,-0.285320,0.285320,-0.002590,0.5779,0.0269,-0.3917
10.9394,0.016750,-0.178658,0.178658,-0.266913,0.269981,-0.002578,0.6215,-0.0065,-0.4390
10.9562,0.016852,-0.158235,0.158235,-0.245437,0.248505,-0.002580,0.6169,-0.0030,-0.4341
10.9730,0.016797,-0.137985,0.137985,-0.219359,0.223961,-0.002580,0.6169,-0.0030,-0.4341
10.9898,0.016734,-0.118198,0.118198,-0.219359,0.223961,-0.002580,0.6169,-0.0030,-0.4341
11.0065,0.016745,-0.099058,0.099058,-0.190214,0.197884,-0.002592,0.5785,0.0322,-0.3812
11.0233,0.016749,-0.080831,0.080831,-0.165670,0.171806,-0.002591,0.5825,0.0285,-0.3867
11.0400,0.016745,-0.063765,0.063765,-0.142660,0.147262,-0.002591,0.5825,0.0285,-0.3867
11.0568,0.016751,-0.048062,0.048062,-0.119651,0.122718,-0.002578,0.6210,-0.0067,-0.4396
11.0735,0.016775,-0.033890,0.033890,-0.096641,0.098175,-0.002592,0.5781,0.0326,-0.3806
11.0903,0.016755,-0.021429,0.021429,-0.096641,0.098175,-0.002592,0.5781,0.0326,-0.3806
11.1070,0.016742,-0.010768,0.010768,-0.070563,0.072097,-0.002591,0.5825,0.0285,-0.3868
11.1238,0.016741,-0.001946,0.001946,-0.049087,0.049087,-0.002578,0.6210,-0.0067,-0.4396
11.1405,0.016755,0.005051,-0.005051,-0.032214,0.032214,-0.002580,0.6170,-0.0030,-0.4340
11.1573,0.016774,0.010288,-0.010288,-0.015340,0.018408,-0.002592,0.6667,0.0142,-0.3813
11.1741,0.016759,0.013890,-0.013890,-0.015340,0.018408,-0.002592,0.6667,0.0142,-0.3813
11.1908,0.016762,0.016075,-0.016075,-0.001534,0.004602,-0.002591,0.5733,0.0304,-0.3867
11.2076,0.016745,0.017132,-0.017132,0.009204,-0.006136,-0.002591,0.5830,0.0287,-0.3861
11.2243,0.016743,0.017439,-0.017439,0.010738,-0.012272,-0.002591,0.5830,0.0287,-0.3861
11.2411,0.016744,0.017382,-0.017382,0.007670,-0.013806,-0.002578,0.6209,-0.0067,-0.4396
11.2579,0.016838,0.015726,-0.015726,0.012272,-0.016874,-0.002580,0.6170,-0.0030,-0.4340
11.2746,0.016745,0.011513,-0.011513,0.012272,-0.016874,-0.002580,0.6170,-0.0030,-0.4340
11.2914,0.016749,0.006134,-0.006134,0.019942,-0.018408,-0.002580,0.6170,-0.0030,-0.4340
11.3081,0.016744,0.001843,-0.001843,0.018408,-0.016874,-0.002592,0.5785,0.0322,-0.3812
11.3250,0.016876,0.000088,-0.000088,0.007670,-0.016874,-0.002578,0.6214,-0.0070,-0.4401
11.3418,0.016746,-0.000012,0.000012,0.006136,-0.013806,-0.002580,0.6169,-0.0029,-0.4340
11.3585,0.016766,-0.000301,0.000301,0.003068,-0.006136,-0.002580,0.6169,-0.0029,-0.4340
11.3753,0.016742,-0.001325,0.001325,0.003068,-0.006136,-0.002580,0.6169,-0.0029,-0.4340
11.3920,0.016753,-0.003465,0.003465,-0.004602,0.001534,-0.002592,0.5785,0.0322,-0.3812
11.4088,0.016744,-0.007011,0.007011,-0.003068,0.000000,-0.002578,0.6214,-0.0070,-0.4401
11.4257,0.016973,-0.012259,0.012259,0.003068,-0.001534,-0.002580,0.6169,-0.0029,-0.4340
11.4425,0.016742,-0.019206,0.019206,0.000000,0.003068,-0.002580,0.6169,-0.0029,-0.4340
