t,loop_dt,cmd_ant_l,cmd_ant_r,pres_ant_l,pres_ant_r,pres_z,pres_roll,pres_pitch,pres_yaw
0.0000,0.000001,-0.349066,0.349066,-0.177942,0.176408,-0.002679,0.4900,0.1478,-0.4831
0.0167,0.016746,-0.348667,0.348667,-0.177942,0.176408,-0.002679,0.4900,0.1478,-0.4831
0.0335,0.016754,-0.346002,0.346002,-0.176408,0.176408,-0.002668,0.5396,0.1321,-0.4303
0.0503,0.016839,-0.339373,0.339373,-0.204019,0.202485,-0.002679,0.5124,0.0634,-0.4891
0.0671,0.016753,-0.328256,0.328256,-0.204019,0.202485,-0.002679,0.5124,0.0634,-0.4891
0.0838,0.016744,-0.313272,0.313272,-0.276117,0.271515,-0.002655,0.5760,0.1054,-0.4831
0.1005,0.016705,-0.296422,0.296422,-0.352816,0.346680,-0.002670,0.5306,0.1366,-0.4303
0.1173,0.016743,-0.287655,0.287655,-0.381961,0.372757,-0.002669,0.5354,0.1333,-0.4358
0.1340,0.016756,-0.278882,0.278882,-0.372757,0.363553,-0.002669,0.5354,0.1333,-0.4358
0.1508,0.016752,-0.270111,0.270111,-0.342078,0.335942,-0.002656,0.5737,0.0981,-0.4886
0.1675,0.016754,-0.261338,0.261338,-0.342078,0.335942,-0.002656,0.5737,0.0981,-0.4886
0.1843,0.016745,-0.252571,0.252571,-0.311398,0.309864,-0.002670,0.5309,0.1373,-0.4298
0.2010,0.016741,-0.243805,0.243805,-0.280718,0.286854,-0.002669,0.5353,0.1332,-0.4359
0.2178,0.016742,-0.235039,0.235039,-0.265379,0.271515,-0.002656,0.5737,0.0981,-0.4886
0.2345,0.016749,-0.226269,0.226269,-0.260777,0.260777,-0.002657,0.5696,0.1018,-0.4831
0.2516,0.017123,-0.217303,0.217303,-0.257709,0.251573,-0.002657,0.5696,0.1018,-0.4831
0.2684,0.016752,-0.208532,0.208532,-0.257709,0.251573,-0.002657,0.5696,0.1018,-0.4831
0.2851,0.016745,-0.199764,0.199764,-0.251573,0.243903,-0.002670,0.5313,0.1370,-0.4303
0.3019,0.016747,-0.190996,0.190996,-0.239301,0.236233,-0.002669,0.5353,0.1333,-0.4358
0.3186,0.016748,-0.182227,0.182227,-0.225495,0.227029,-0.002669,0.5353,0.1333,-0.4358
0.3354,0.016756,-0.173453,0.173453,-0.210155,0.216291,-0.002669,0.5353,0.1333,-0.4358
0.3522,0.016795,-0.164659,0.164659,-0.210155,0.216291,-0.002669,0.5353,0.1333,-0.4358
0.3689,0.016754,-0.155887,0.155887,-0.194816,0.204019,-0.002669,0.5353,0.1333,-0.4358
0.3857,0.016745,-0.147120,0.147120,-0.184078,0.193282,-0.002656,0.5737,0.0981,-0.4886
0.4024,0.016746,-0.138352,0.138352,-0.177942,0.185612,-0.002657,0.5696,0.1018,-0.4831
0.4192,0.016748,-0.129582,0.129582,-0.171806,0.171806,-0.002657,0.5696,0.1018,-0.4831
0.4360,0.016823,-0.120774,0.120774,-0.164136,0.162602,-0.002670,0.5313,0.1370,-0.4303
0.4527,0.016721,-0.112019,0.112019,-0.164136,0.162602,-0.002670,0.5313,0.1370,-0.4303
0.4694,0.016720,-0.103265,0.103265,-0.150330,0.148796,-0.002669,0.5353,0.1333,-0.4358
0.4862,0.016749,-0.094495,0.094495,-0.138058,0.138058,-0.002656,0.5737,0.0981,-0.4886
0.5029,0.016754,-0.085723,0.085723,-0.125786,0.127320,-0.002670,0.5309,0.1373,-0.4298
0.5197,0.016742,-0.076957,0.076957,-0.115049,0.118117,-0.002669,0.5353,0.1332,-0.4359
0.5365,0.016856,-0.068131,0.068131,-0.104311,0.107379,-0.002669,0.5353,0.1332,-0.4359
0.5533,0.016766,-0.059353,0.059353,-0.104311,0.107379,-0.002669,0.5353,0.1332,-0.4359
0.5701,0.016751,-0.050583,0.050583,-0.092039,0.095107,-0.002669,0.5353,0.1332,-0.4359
0.5868,0.016743,-0.042160,0.042160,-0.081301,0.082835,-0.002669,0.5353,0.1332,-0.4359
0.6036,0.016758,-0.035063,0.035063,-0.070563,0.072097,-0.002656,0.5737,0.0981,-0.4886
0.6203,0.016744,-0.030038,0.030038,-0.056757,0.052155,-0.002657,0.5696,0.1018,-0.4831
0.6371,0.016760,-0.027249,0.027249,-0.056757,0.052155,-0.002657,0.5696,0.1018,-0.4831
0.6538,0.016744,-0.026271,0.026271,-0.056757,0.052155,-0.002657,0.5696,0.1018,-0.4831
0.6706,0.016756,-0.000005,0.000005,-0.027612,0.030680,-0.002657,0.5696,0.1018,-0.4831
0.6873,0.016744,-0.000742,0.000742,-0.023010,0.026078,-0.002657,0.5696,0.1018,-0.4831
0.7044,0.017082,-0.004311,0.004311,-0.027612,0.023010,-0.002657,0.5696,0.1018,-0.4831
0.7211,0.016751,-0.012023,0.012023,-0.018408,0.013806,-0.002670,0.5313,0.1370,-0.4303
0.7379,0.016774,-0.024221,0.024221,-0.001534,0.000000,-0.002670,0.5313,0.1370,-0.4303
0.7547,0.016746,-0.039941,0.039941,-0.001534,0.000000,-0.002669,0.5353,0.1333,-0.4358
0.7714,0.016750,-0.054847,0.054847,0.003068,0.000000,-0.002656,0.5737,0.0981,-0.4886
0.7882,0.016746,-0.063615,0.063615,-0.004602,0.012272,-0.002670,0.5309,0.1373,-0.4298
0.8049,0.016760,-0.072390,0.072390,-0.023010,0.029146,-0.002656,0.5741,0.0977,-0.4893
0.8217,0.016747,-0.081159,0.081159,-0.046019,0.049087,-0.002657,0.5696,0.1018,-0.4830
0.8385,0.016865,-0.089990,0.089990,-0.046019,0.049087,-0.002657,0.5696,0.1018,-0.4830
0.8553,0.016750,-0.098760,0.098760,-0.046019,0.049087,-0.002657,0.5696,0.1018,-0.4830
0.8720,0.016746,-0.107528,0.107528,-0.082835,0.079767,-0.002657,0.5696,0.1018,-0.4830
0.8888,0.016756,-0.116301,0.116301,-0.079767,0.075165,-0.002657,0.5696,0.1018,-0.4830
0.9062,0.017373,-0.125398,0.125398,-0.079767,0.076699,-0.002670,0.5313,0.1370,-0.4303
0.9229,0.016757,-0.134172,0.134172,-0.079767,0.076699,-0.002670,0.5313,0.1370,-0.4303
0.9397,0.016748,-0.142941,0.142941,-0.095107,0.096641,-0.002669,0.5353,0.1333,-0.4358
0.9564,0.016747,-0.151710,0.151710,-0.118117,0.118117,-0.002669,0.5353,0.1333,-0.4358
0.9732,0.016755,-0.160483,0.160483,-0.134990,0.133456,-0.002669,0.5353,0.1333,-0.4358
0.9899,0.016751,-0.169254,0.169254,-0.150330,0.142660,-0.002656,0.5737,0.0981,-0.4886
1.0069,0.016991,-0.178151,0.178151,-0.158000,0.153398,-0.002670,0.5309,0.1373,-0.4298
1.0237,0.016762,-0.186927,0.186927,-0.158000,0.153398,-0.002670,0.5309,0.1373,-0.4298
1.0404,0.016754,-0.195700,0.195700,-0.164136,0.164136,-0.002656,0.5741,0.0977,-0.4893
1.0572,0.016751,-0.204471,0.204471,-0.167204,0.168738,-0.002670,0.5308,0.1374,-0.4297
1.0739,0.016750,-0.213241,0.213241,-0.176408,0.179476,-0.002669,0.5353,0.1332,-0.4359
1.0907,0.016755,-0.222014,0.222014,-0.193282,0.193282,-0.002669,0.5353,0.1332,-0.4359
1.1076,0.016902,-0.230864,0.230864,-0.211689,0.208621,-0.002669,0.5353,0.1332,-0.4359
1.1243,0.016756,-0.239637,0.239637,-0.211689,0.208621,-0.002669,0.5353,0.1332,-0.4359
1.1411,0.016742,-0.248403,0.248403,-0.219359,0.216291,-0.002669,0.5353,0.1332,-0.4359
1.1578,0.016750,-0.257174,0.257174,-0.220893,0.220893,-0.002656,0.5737,0.0981,-0.4886
1.1746,0.016762,-0.265950,0.265950,-0.225495,0.231631,-0.002657,0.5696,0.1018,-0.4831
1.1913,0.016747,-0.274719,0.274719,-0.239301,0.243903,-0.002670,0.5313,0.1370,-0.4303
1.2082,0.016891,-0.283563,0.283563,-0.256175,0.256175,-0.002670,0.5313,0.1370,-0.4303
1.2250,0.016746,-0.292331,0.292331,-0.256175,0.256175,-0.002669,0.5353,0.1333,-0.4358
1.2417,0.016745,-0.301074,0.301074,-0.273049,0.269981,-0.002656,0.5737,0.0981,-0.4886
1.2585,0.016768,-0.309214,0.309214,-0.277651,0.279185,-0.002670,0.5309,0.1373,-0.4298
1.2752,0.016754,-0.315744,0.315744,-0.279185,0.283786,-0.002669,0.5353,0.1332,-0.4359
1.2920,0.016761,-0.320092,0.320092,-0.291456,0.291456,-0.002656,0.5737,0.0981,-0.4886
1.3088,0.016753,-0.322266,0.322266,-0.314466,0.306796,-0.002670,0.5309,0.1373,-0.4298
1.3255,0.016751,-0.322865,0.322865,-0.314466,0.306796,-0.002670,0.5309,0.1373,-0.4298
1.3423,0.016744,-0.349005,0.349005,-0.325204,0.319068,-0.002656,0.5741,0.0977,-0.4893
1.3590,0.016751,-0.347655,0.347655,-0.325204,0.319068,-0.002657,0.5696,0.1018,-0.4830
1.3758,0.016747,-0.343052,0.343052,-0.322136,0.317534,-0.002657,0.5696,0.1018,-0.4830
1.3925,0.016751,-0.334065,0.334065,-0.334408,0.331340,-0.002670,0.5313,0.1370,-0.4303
1.4093,0.016750,-0.320754,0.320754,-0.352816,0.349748,-0.002669,0.5353,0.1333,-0.4358
1.4260,0.016744,-0.304354,0.304354,-0.352816,0.349748,-0.002669,0.5353,0.1333,-0.4358
1.4428,0.016753,-0.291775,0.291775,-0.355884,0.351282,-0.002656,0.5737,0.0981,-0.4886
1.4595,0.016742,-0.283009,0.283009,-0.349748,0.345146,-0.002670,0.5309,0.1373,-0.4298
1.4762,0.016749,-0.274239,0.274239,-0.339010,0.334408,-0.002656,0.5741,0.0977,-0.4893
1.4930,0.016744,-0.265473,0.265473,-0.322136,0.322136,-0.002670,0.5308,0.1374,-0.4297
1.5097,0.016760,-0.256697,0.256697,-0.302194,0.303728,-0.002669,0.5353,0.1332,-0.4359
1.5265,0.016745,-0.247930,0.247930,-0.302194,0.303728,-0.002669,0.5353,0.1332,-0.4359
1.5432,0.016743,-0.239163,0.239163,-0.280718,0.286854,-0.002669,0.5353,0.1332,-0.4359
1.5600,0.016743,-0.230396,0.230396,-0.265379,0.274583,-0.002669,0.5353,0.1332,-0.4359
1.5768,0.016781,-0.221610,0.221610,-0.257709,0.263845,-0.002669,0.5353,0.1332,-0.4359
1.5935,0.016788,-0.212820,0.212820,-0.250039,0.251573,-0.002669,0.5353,0.1332,-0.4359
1.6103,0.016770,-0.204039,0.204039,-0.250039,0.251573,-0.002669,0.5353,0.1332,-0.4359
1.6271,0.016745,-0.195272,0.195272,-0.240835,0.242369,-0.002669,0.5353,0.1332,-0.4359
1.6438,0.016746,-0.186503,0.186503,-0.230097,0.233165,-0.002669,0.5353,0.1332,-0.4359
1.6606,0.016750,-0.177733,0.177733,-0.219359,0.225495,-0.002669,0.5353,0.1332,-0.4359
1.6773,0.016748,-0.168964,0.168964,-0.208621,0.216291,-0.002656,0.5737,0.0981,-0.4886
1.6940,0.016736,-0.160201,0.160201,-0.196350,0.207087,-0.002670,0.5309,0.1373,-0.4298
1.7108,0.016768,-0.151421,0.151421,-0.196350,0.207087,-0.002670,0.5309,0.1373,-0.4298
1.7276,0.016759,-0.142646,0.142646,-0.185612,0.193282,-0.002669,0.5353,0.1332,-0.4359
1.7443,0.016742,-0.133880,0.133880,-0.173340,0.182544,-0.002669,0.5353,0.1332,-0.4359
1.7611,0.016744,-0.125113,0.125113,-0.164136,0.167204,-0.002656,0.5737,0.0981,-0.4886
1.7778,0.016738,-0.116349,0.116349,-0.154932,0.156466,-0.002670,0.5309,0.1373,-0.4298
1.7945,0.016748,-0.107580,0.107580,-0.144194,0.145728,-0.002656,0.5741,0.0977,-0.4893
1.8113,0.016773,-0.098797,0.098797,-0.144194,0.145728,-0.002656,0.5741,0.0977,-0.4893
1.8281,0.016750,-0.090027,0.090027,-0.133456,0.134990,-0.002657,0.5696,0.1018,-0.4830
1.8448,0.016742,-0.081261,0.081261,-0.121184,0.122718,-0.002657,0.5696,0.1018,-0.4830
1.8616,0.016774,-0.072478,0.072478,-0.110447,0.111981,-0.002670,0.5313,0.1370,-0.4303
1.8784,0.016792,-0.063686,0.063686,-0.110447,0.111981,-0.002670,0.5313,0.1370,-0.4303
1.8951,0.016770,-0.054905,0.054905,-0.110447,0.111981,-0.002670,0.5313,0.1370,-0.4303
1.9119,0.016750,-0.046207,0.046207,-0.078233,0.078233,-0.002656,0.5741,0.0977,-0.4892
1.9287,0.016809,-0.038311,0.038311,-0.078233,0.078233,-0.002656,0.5741,0.0977,-0.4892
1.9454,0.016744,-0.032215,0.032215,-0.076699,0.076699,-0.002670,0.5308,0.1374,-0.4297
1.9622,0.016730,-0.028352,0.028352,-0.076699,0.073631,-0.002669,0.5353,0.1332,-0.4359
1.9789,0.016742,-0.026575,0.026575,-0.065961,0.062893,-0.002656,0.5737,0.0981,-0.4886
1.9957,0.016755,-0.026183,0.026183,-0.047553,0.049087,-0.002670,0.5309,0.1373,-0.4298
2.0124,0.016741,-0.000163,0.000163,-0.029146,0.035282,-0.002669,0.5353,0.1332,-0.4359
2.0292,0.016762,-0.002050,0.002050,-0.029146,0.035282,-0.002669,0.5353,0.1332,-0.4359
2.0459,0.016745,-0.007512,0.007512,-0.018408,0.023010,-0.002669,0.5353,0.1332,-0.4359
2.0627,0.016761,-0.017456,0.017456,-0.021476,0.023010,-0.002669,0.5353,0.1332,-0.4359
2.0794,0.016743,-0.031545,0.031545,-0.027612,0.023010,-0.002669,0.5353,0.1332,-0.4359
2.0962,0.016764,-0.048369,0.048369,-0.016874,0.013806,-0.002669,0.5353,0.1332,-0.4359
2.1130,0.016813,-0.059165,0.059165,-0.007670,0.006136,-0.002669,0.5353,0.1332,-0.4359
2.1298,0.016759,-0.067940,0.067940,-0.007670,0.006136,-0.002669,0.5353,0.1332,-0.4359
2.1465,0.016747,-0.076709,0.076709,-0.015340,0.015340,-0.002656,0.5737,0.0981,-0.4886
2.1633,0.016759,-0.085484,0.085484,-0.033748,0.032214,-0.002657,0.5696,0.1018,-0.4831
2.1800,0.016752,-0.094255,0.094255,-0.050621,0.053689,-0.002670,0.5313,0.1370,-0.4303
2.1968,0.016756,-0.103029,0.103029,-0.072097,0.073631,-0.002669,0.5353,0.1333,-0.4358
2.2136,0.016831,-0.111841,0.111841,-0.090505,0.090505,-0.002656,0.5737,0.0981,-0.4886
2.2304,0.016759,-0.120616,0.120616,-0.090505,0.090505,-0.002656,0.5737,0.0981,-0.4886
2.2471,0.016751,-0.129387,0.129387,-0.096641,0.093573,-0.002657,0.5696,0.1018,-0.4831
2.2639,0.016762,-0.138164,0.138164,-0.099709,0.095107,-0.002670,0.5313,0.1370,-0.4303
2.2806,0.016742,-0.146930,0.146930,-0.105845,0.102777,-0.002669,0.5353,0.1333,-0.4358
2.2974,0.016752,-0.155701,0.155701,-0.121184,0.118117,-0.002669,0.5353,0.1333,-0.4358
2.3143,0.016940,-0.164571,0.164571,-0.138058,0.134990,-0.002643,0.5243,0.0806,-0.5419
2.3311,0.016755,-0.173344,0.173344,-0.138058,0.134990,-0.002643,0.5243,0.0806,-0.5419
2.3478,0.016745,-0.182111,0.182111,-0.153398,0.150330,-0.002646,0.5254,0.0861,-0.5308
2.3646,0.016754,-0.190883,0.190883,-0.158000,0.154932,-0.002646,0.5254,0.0861,-0.5308
2.3813,0.016748,-0.199652,0.199652,-0.159534,0.154932,-0.002632,0.4759,0.0681,-0.5852
2.3981,0.016745,-0.208420,0.208420,-0.168738,0.165670,-0.002634,0.4811,0.0700,-0.5796
2.4152,0.017179,-0.217415,0.217415,-0.185612,0.184078,-0.002646,0.4418,0.1053,-0.5268
2.4320,0.016758,-0.226189,0.226189,-0.185612,0.184078,-0.002646,0.4418,0.1053,-0.5268
2.4487,0.016743,-0.234955,0.234955,-0.204019,0.202485,-0.002632,0.4847,0.0661,-0.5857
2.4655,0.016756,-0.243729,0.243729,-0.211689,0.208621,-0.002634,0.4802,0.0702,-0.5795
2.4822,0.016743,-0.252496,0.252496,-0.210155,0.207087,-0.002634,0.4802,0.0702,-0.5795
2.4990,0.016751,-0.261266,0.261266,-0.214757,0.211689,-0.002634,0.4802,0.0702,-0.5795
2.5157,0.016743,-0.270033,0.270033,-0.233165,0.230097,-0.002646,0.4419,0.1053,-0.5268
2.5325,0.016766,-0.278812,0.278812,-0.233165,0.230097,-0.002646,0.4419,0.1053,-0.5268
2.5492,0.016745,-0.287579,0.287579,-0.253107,0.251573,-0.002645,0.4459,0.1016,-0.5323
2.5660,0.016752,-0.296350,0.296350,-0.263845,0.262311,-0.002633,0.4842,0.0665,-0.5851
2.5828,0.016793,-0.304965,0.304965,-0.263845,0.263845,-0.002634,0.4802,0.0701,-0.5796
2.5995,0.016758,-0.312467,0.312467,-0.271515,0.268447,-0.002646,0.4419,0.1053,-0.5268
2.6164,0.016871,-0.318062,0.318062,-0.288388,0.286854,-0.002645,0.4459,0.1016,-0.5323
2.6332,0.016752,-0.321353,0.321353,-0.288388,0.286854,-0.002645,0.4459,0.1016,-0.5323
2.6499,0.016747,-0.322686,0.322686,-0.309864,0.306796,-0.002645,0.4459,0.1016,-0.5323
2.6667,0.016749,-0.322886,0.322886,-0.314466,0.312932,-0.002633,0.4842,0.0665,-0.5851
2.6834,0.016742,-0.348668,0.348668,-0.314466,0.312932,-0.002646,0.4415,0.1057,-0.5262
2.7001,0.016746,-0.346008,0.346008,-0.322136,0.319068,-0.002645,0.4459,0.1016,-0.5324
2.7169,0.016743,-0.339436,0.339436,-0.329806,0.325204,-0.002633,0.4842,0.0665,-0.5851
2.7336,0.016754,-0.328350,0.328350,-0.329806,0.325204,-0.002633,0.4842,0.0665,-0.5851
2.7504,0.016744,-0.313389,0.313389,-0.329806,0.323670,-0.002646,0.4415,0.1057,-0.5262
2.7671,0.016748,-0.296461,0.296461,-0.335942,0.332874,-0.002632,0.4847,0.0661,-0.5857
2.7839,0.016744,-0.287694,0.287694,-0.352816,0.349748,-0.002634,0.4802,0.0702,-0.5795
2.8012,0.017336,-0.278618,0.278618,-0.335942,0.329806,-0.002646,0.4419,0.1053,-0.5268
2.8180,0.016743,-0.269851,0.269851,-0.314466,0.312932,-0.002632,0.4847,0.0661,-0.5856
2.8347,0.016734,-0.261089,0.261089,-0.314466,0.312932,-0.002632,0.4847,0.0661,-0.5856
2.8514,0.016744,-0.252322,0.252322,-0.289922,0.294524,-0.002634,0.4802,0.0702,-0.5795
2.8682,0.016774,-0.243539,0.243539,-0.274583,0.279185,-0.002646,0.4419,0.1053,-0.5268
2.8850,0.016749,-0.234770,0.234770,-0.260777,0.268447,-0.002645,0.4459,0.1016,-0.5323
2.9017,0.016786,-0.225981,0.225981,-0.251573,0.257709,-0.002645,0.4459,0.1016,-0.5323
2.9185,0.016793,-0.217188,0.217188,-0.251573,0.257709,-0.002645,0.4459,0.1016,-0.5323
2.9353,0.016759,-0.208413,0.208413,-0.251573,0.257709,-0.002645,0.4459,0.1016,-0.5323
2.9520,0.016741,-0.199648,0.199648,-0.234699,0.240835,-0.002645,0.4459,0.1016,-0.5323
2.9689,0.016847,-0.190827,0.190827,-0.233165,0.234699,-0.002633,0.4842,0.0665,-0.5851
2.9856,0.016752,-0.182055,0.182055,-0.231631,0.230097,-0.002634,0.4802,0.0701,-0.5796
3.0024,0.016752,-0.173284,0.173284,-0.220893,0.220893,-0.002634,0.4802,0.0701,-0.5796
3.0191,0.016756,-0.164510,0.164510,-0.202485,0.205553,-0.002634,0.4802,0.0701,-0.5796
3.0359,0.016764,-0.155733,0.155733,-0.202485,0.205553,-0.002634,0.4802,0.0701,-0.5796
3.0527,0.016747,-0.146964,0.146964,-0.185612,0.191748,-0.002634,0.4802,0.0701,-0.5796
3.0694,0.016745,-0.138196,0.138196,-0.171806,0.177942,-0.002634,0.4802,0.0701,-0.5796
3.0861,0.016746,-0.129428,0.129428,-0.161068,0.165670,-0.002646,0.4419,0.1053,-0.5268
3.1029,0.016759,-0.120653,0.120653,-0.150330,0.151864,-0.002632,0.4847,0.0661,-0.5857
3.1197,0.016752,-0.111882,0.111882,-0.150330,0.151864,-0.002632,0.4847,0.0661,-0.5857
3.1364,0.016751,-0.103111,0.103111,-0.141126,0.139592,-0.002634,0.4802,0.0702,-0.5795
3.1532,0.016746,-0.094343,0.094343,-0.130388,0.128854,-0.002634,0.4802,0.0702,-0.5795
3.1699,0.016747,-0.085575,0.085575,-0.121184,0.119651,-0.002634,0.4802,0.0702,-0.5795
3.1867,0.016755,-0.076802,0.076802,-0.105845,0.107379,-0.002646,0.4419,0.1053,-0.5268
3.2034,0.016774,-0.068019,0.068019,-0.093573,0.096641,-0.002646,0.4419,0.1053,-0.5268
3.2202,0.016750,-0.059249,0.059249,-0.093573,0.096641,-0.002632,0.4847,0.0661,-0.5856
3.2369,0.016755,-0.050478,0.050478,-0.084369,0.085903,-0.002646,0.4414,0.1057,-0.5262
3.2537,0.016753,-0.042060,0.042060,-0.073631,0.075165,-0.002645,0.4459,0.1016,-0.5324
3.2705,0.016808,-0.034968,0.034968,-0.065961,0.064427,-0.002645,0.4459,0.1016,-0.5324
3.2873,0.016759,-0.029974,0.029974,-0.058291,0.055223,-0.002633,0.4842,0.0665,-0.5851
3.3040,0.016775,-0.027219,0.027219,-0.058291,0.055223,-0.002633,0.4842,0.0665,-0.5851
3.3208,0.016747,-0.026265,0.026265,-0.046019,0.044485,-0.002634,0.4802,0.0701,-0.5796
3.3375,0.016755,-0.000006,0.000006,-0.030680,0.033748,-0.002634,0.4802,0.0701,-0.5796
3.3543,0.016747,-0.000774,0.000774,-0.024544,0.027612,-0.002634,0.4802,0.0701,-0.5796
3.3713,0.016991,-0.004378,0.004378,-0.026078,0.026078,-0.002634,0.4802,0.0701,-0.5796
3.3880,0.016742,-0.012140,0.012140,-0.021476,0.016874,-0.002634,0.4802,0.0701,-0.5796
3.4054,0.017360,-0.024887,0.024887,-0.006136,0.003068,-0.002634,0.4802,0.0701,-0.5796
3.4234,0.018007,-0.042016,0.042016,0.003068,0.000000,-0.002634,0.4802,0.0701,-0.5796
3.4401,0.016745,-0.055913,0.055913,0.003068,0.000000,-0.002634,0.4802,0.0701,-0.5796
3.4569,0.016748,-0.064682,0.064682,-0.001534,0.009204,-0.002635,0.4920,0.0894,-0.4733
3.4736,0.016744,-0.073450,0.073450,-0.013806,0.023010,-0.002610,0.5797,0.0361,-0.4843
3.4904,0.016744,-0.082216,0.082216,-0.035282,0.042951,-0.002614,0.5817,0.0614,-0.3762
3.5071,0.016756,-0.090990,0.090990,-0.062893,0.062893,-0.002613,0.5815,0.0588,-0.3875
3.5239,0.016749,-0.099760,0.099760,-0.062893,0.062893,-0.002613,0.5815,0.0588,-0.3875
3.5406,0.016749,-0.108530,0.108530,-0.084369,0.079767,-0.002601,0.6204,0.0235,-0.4397
3.5574,0.016746,-0.117298,0.117298,-0.084369,0.079767,-0.002602,0.6163,0.0272,-0.4343
3.5741,0.016740,-0.126063,0.126063,-0.081301,0.081301,-0.002613,0.5667,0.0425,-0.4883
3.5908,0.016751,-0.134834,0.134834,-0.092039,0.098175,-0.002601,0.6219,0.0252,-0.4292
3.6076,0.016767,-0.143613,0.143613,-0.111981,0.116583,-0.002626,0.5273,0.0783,-0.4355
3.6245,0.016915,-0.152470,0.152470,-0.111981,0.116583,-0.002626,0.5273,0.0783,-0.4355
3.6412,0.016700,-0.161214,0.161214,-0.133456,0.131922,-0.002624,0.5371,0.0728,-0.4348
3.6580,0.016739,-0.169978,0.169978,-0.142660,0.133456,-0.002624,0.5371,0.0728,-0.4348
3.6747,0.016743,-0.178745,0.178745,-0.144194,0.134990,-0.002599,0.6250,0.0220,-0.4348
3.6915,0.016741,-0.187511,0.187511,-0.148796,0.148796,-0.002615,0.5770,0.0629,-0.3814
3.7082,0.016746,-0.196279,0.196279,-0.167204,0.170272,-0.002613,0.5820,0.0586,-0.3869
3.7249,0.016751,-0.205050,0.205050,-0.167204,0.170272,-0.002613,0.5820,0.0586,-0.3869
3.7417,0.016744,-0.213817,0.213817,-0.187146,0.184078,-0.002613,0.5820,0.0586,-0.3869
3.7584,0.016743,-0.222584,0.222584,-0.193282,0.187146,-0.002612,0.5703,0.0393,-0.4933
3.7752,0.016742,-0.231350,0.231350,-0.196350,0.190214,-0.002612,0.5715,0.0413,-0.4822
3.7919,0.016742,-0.240116,0.240116,-0.204019,0.202485,-0.002625,0.5325,0.0766,-0.4300
3.8087,0.016762,-0.248892,0.248892,-0.222427,0.222427,-0.002599,0.6255,0.0216,-0.4353
3.8254,0.016747,-0.257661,0.257661,-0.222427,0.222427,-0.002599,0.6255,0.0216,-0.4353
3.8422,0.016764,-0.266439,0.266439,-0.239301,0.236233,-0.002615,0.5769,0.0629,-0.3813
3.8589,0.016754,-0.275211,0.275211,-0.243903,0.239301,-0.002613,0.5820,0.0586,-0.3870
3.8757,0.016763,-0.283988,0.283988,-0.243903,0.242369,-0.002601,0.6203,0.0235,-0.4398
3.8925,0.016771,-0.292770,0.292770,-0.256175,0.257709,-0.002626,0.5275,0.0785,-0.4344
3.9093,0.016772,-0.301517,0.301517,-0.271515,0.273049,-0.002599,0.6260,0.0214,-0.4348
3.9260,0.016759,-0.309593,0.309593,-0.271515,0.273049,-0.002599,0.6260,0.0214,-0.4348
3.9429,0.016854,-0.316053,0.316053,-0.289922,0.289922,-0.002615,0.5769,0.0630,-0.3814
3.9597,0.016796,-0.320278,0.320278,-0.289922,0.289922,-0.002615,0.5769,0.0630,-0.3814
3.9764,0.016774,-0.322338,0.322338,-0.289922,0.289922,-0.002615,0.5769,0.0630,-0.3814
3.9933,0.016832,-0.322873,0.322873,-0.305262,0.300660,-0.002625,0.5320,0.0744,-0.4405
4.0100,0.016767,-0.348979,0.348979,-0.305262,0.303728,-0.002625,0.5320,0.0744,-0.4405
4.0268,0.016743,-0.347470,0.347470,-0.305262,0.303728,-0.002599,0.6255,0.0219,-0.4342
4.0435,0.016742,-0.342601,0.342601,-0.303728,0.305262,-0.002626,0.5269,0.0786,-0.4350
4.0603,0.016736,-0.333325,0.333325,-0.317534,0.320602,-0.002612,0.5872,0.0570,-0.3814
4.0770,0.016751,-0.319764,0.319764,-0.340544,0.340544,-0.002613,0.5809,0.0592,-0.3869
4.0937,0.016739,-0.303234,0.303234,-0.355884,0.349748,-0.002613,0.5809,0.0592,-0.3869
4.1105,0.016745,-0.291213,0.291213,-0.354350,0.348214,-0.002613,0.5809,0.0592,-0.3869
4.1272,0.016752,-0.282442,0.282442,-0.354350,0.348214,-0.002612,0.5704,0.0392,-0.4933
4.1440,0.016747,-0.273673,0.273673,-0.340544,0.335942,-0.002625,0.5327,0.0769,-0.4288
4.1608,0.016782,-0.264886,0.264886,-0.328272,0.326738,-0.002599,0.6255,0.0216,-0.4354
4.1775,0.016744,-0.256119,0.256119,-0.308330,0.309864,-0.002615,0.5769,0.0629,-0.3813
4.1943,0.016755,-0.247346,0.247346,-0.288388,0.294524,-0.002613,0.5820,0.0586,-0.3870
4.2110,0.016748,-0.238577,0.238577,-0.273049,0.277651,-0.002613,0.5820,0.0586,-0.3870
4.2278,0.016756,-0.229803,0.229803,-0.273049,0.277651,-0.002613,0.5820,0.0586,-0.3870
4.2445,0.016744,-0.221036,0.221036,-0.259243,0.265379,-0.002613,0.5820,0.0586,-0.3870
4.2613,0.016751,-0.212265,0.212265,-0.251573,0.253107,-0.002613,0.5820,0.0586,-0.3870
4.2780,0.016745,-0.203497,0.203497,-0.242369,0.245437,-0.002613,0.5820,0.0586,-0.3870
4.2948,0.016756,-0.194724,0.194724,-0.233165,0.239301,-0.002601,0.6203,0.0235,-0.4398
4.3115,0.016754,-0.185952,0.185952,-0.233165,0.239301,-0.002601,0.6203,0.0235,-0.4398
4.3283,0.016754,-0.177179,0.177179,-0.222427,0.228563,-0.002602,0.6163,0.0272,-0.4343
4.3450,0.016746,-0.168411,0.168411,-0.210155,0.217825,-0.002602,0.6163,0.0272,-0.4343
4.3618,0.016758,-0.159637,0.159637,-0.199418,0.208621,-0.002602,0.6163,0.0272,-0.4343
4.3785,0.016748,-0.150868,0.150868,-0.187146,0.194816,-0.002602,0.6163,0.0272,-0.4343
4.3953,0.016753,-0.142096,0.142096,-0.174874,0.182544,-0.002602,0.6163,0.0272,-0.4343
4.4120,0.016752,-0.133325,0.133325,-0.174874,0.182544,-0.002602,0.6163,0.0272,-0.4343
4.4288,0.016750,-0.124554,0.124554,-0.164136,0.168738,-0.002603,0.6279,0.0466,-0.3279
4.4455,0.016746,-0.115786,0.115786,-0.153398,0.156466,-0.002590,0.6656,0.0090,-0.3924
4.4623,0.016754,-0.107014,0.107014,-0.145728,0.145728,-0.002604,0.6228,0.0485,-0.3323
4.4790,0.016750,-0.098244,0.098244,-0.138058,0.136524,-0.002603,0.6272,0.0444,-0.3385
4.4958,0.016763,-0.089467,0.089467,-0.124252,0.124252,-0.002590,0.6656,0.0093,-0.3913
4.5125,0.016747,-0.080698,0.080698,-0.124252,0.124252,-0.002590,0.6656,0.0093,-0.3913
4.5293,0.016754,-0.071926,0.071926,-0.111981,0.113515,-0.002591,0.6616,0.0129,-0.3858
4.5460,0.016750,-0.063156,0.063156,-0.101243,0.102777,-0.002604,0.6232,0.0481,-0.3329
4.5630,0.016939,-0.054287,0.054287,-0.092039,0.093573,-0.002603,0.6272,0.0445,-0.3384
4.5797,0.016750,-0.045612,0.045612,-0.087437,0.084369,-0.002590,0.6656,0.0093,-0.3913
4.5965,0.016775,-0.037829,0.037829,-0.075165,0.072097,-0.002590,0.6656,0.0093,-0.3913
4.6133,0.016742,-0.031878,0.031878,-0.075165,0.072097,-0.002591,0.6616,0.0129,-0.3858
4.6300,0.016751,-0.028166,0.028166,-0.061359,0.061359,-0.002591,0.6616,0.0129,-0.3858
4.6467,0.016743,-0.026514,0.026514,-0.047553,0.050621,-0.002604,0.6232,0.0481,-0.3329
4.6635,0.016769,-0.026181,0.026181,-0.038350,0.041417,-0.002590,0.6661,0.0089,-0.3919
4.6803,0.016746,-0.000215,0.000215,-0.030680,0.032214,-0.002591,0.6616,0.0130,-0.3857
4.6970,0.016760,-0.002302,0.002302,-0.024544,0.024544,-0.002591,0.6616,0.0130,-0.3857
4.7138,0.016744,-0.008065,0.008065,-0.024544,0.024544,-0.002591,0.6616,0.0130,-0.3857
4.7305,0.016754,-0.018322,0.018322,-0.023010,0.023010,-0.002591,0.6616,0.0130,-0.3857
4.7473,0.016744,-0.032661,0.032661,-0.015340,0.013806,-0.002604,0.6232,0.0481,-0.3329
4.7640,0.016762,-0.049597,0.049597,-0.006136,0.006136,-0.002590,0.6661,0.0089,-0.3919
4.7808,0.016745,-0.059746,0.059746,-0.010738,0.010738,-0.002604,0.6227,0.0486,-0.3323
4.7975,0.016760,-0.068521,0.068521,-0.027612,0.026078,-0.002604,0.6227,0.0486,-0.3323
4.8143,0.016744,-0.077288,0.077288,-0.027612,0.026078,-0.002603,0.6272,0.0444,-0.3385
4.8310,0.016751,-0.086059,0.086059,-0.047553,0.049087,-0.002603,0.6272,0.0444,-0.3385
4.8478,0.016748,-0.094828,0.094828,-0.069029,0.070563,-0.002590,0.6656,0.0093,-0.3913
4.8645,0.016755,-0.103601,0.103601,-0.085903,0.085903,-0.002591,0.6616,0.0129,-0.3858
4.8813,0.016743,-0.112368,0.112368,-0.095107,0.092039,-0.002591,0.6616,0.0129,-0.3858
4.8980,0.016748,-0.121137,0.121137,-0.095107,0.092039,-0.002591,0.6616,0.0129,-0.3858
4.9148,0.016746,-0.129905,0.129905,-0.093573,0.093573,-0.002591,0.6616,0.0129,-0.3858
4.9315,0.016752,-0.138677,0.138677,-0.099709,0.098175,-0.002591,0.6616,0.0129,-0.3858
4.9483,0.016743,-0.147443,0.147443,-0.113515,0.111981,-0.002591,0.6616,0.0129,-0.3858
4.9650,0.016752,-0.156215,0.156215,-0.131922,0.130388,-0.002604,0.6232,0.0481,-0.3329
4.9818,0.016745,-0.164983,0.164983,-0.148796,0.147262,-0.002603,0.6272,0.0445,-0.3384
4.9986,0.016865,-0.173813,0.173813,-0.148796,0.147262,-0.002603,0.6272,0.0445,-0.3384
5.0154,0.016762,-0.182589,0.182589,-0.148796,0.147262,-0.002603,0.6272,0.0445,-0.3384
5.0321,0.016748,-0.191359,0.191359,-0.156466,0.153398,-0.002590,0.6656,0.0093,-0.3913
5.0489,0.016757,-0.200133,0.200133,-0.158000,0.154932,-0.002604,0.6228,0.0485,-0.3324
5.0656,0.016750,-0.208903,0.208903,-0.170272,0.165670,-0.002603,0.6272,0.0444,-0.3385
5.0824,0.016763,-0.217680,0.217680,-0.170272,0.165670,-0.002603,0.6272,0.0444,-0.3385
5.0992,0.016753,-0.226452,0.226452,-0.188680,0.182544,-0.002590,0.6656,0.0093,-0.3913
5.1159,0.016743,-0.235218,0.235218,-0.210155,0.207087,-0.002604,0.6228,0.0485,-0.3324
5.1327,0.016751,-0.243989,0.243989,-0.216291,0.216291,-0.002590,0.6661,0.0088,-0.3919
5.1494,0.016750,-0.252759,0.252759,-0.219359,0.220893,-0.002604,0.6227,0.0486,-0.3323
5.1662,0.016752,-0.261531,0.261531,-0.228563,0.231631,-0.002590,0.6661,0.0088,-0.3919
5.1829,0.016746,-0.270299,0.270299,-0.228563,0.231631,-0.002590,0.6661,0.0088,-0.3919
5.1997,0.016751,-0.279070,0.279070,-0.246971,0.248505,-0.002604,0.6227,0.0486,-0.3323
5.2164,0.016744,-0.287837,0.287837,-0.259243,0.256175,-0.002590,0.6661,0.0088,-0.3919
5.2332,0.016776,-0.296620,0.296620,-0.262311,0.260777,-0.002604,0.6227,0.0486,-0.3323
5.2499,0.016750,-0.305197,0.305197,-0.268447,0.271515,-0.002603,0.6272,0.0444,-0.3385
5.2667,0.016762,-0.312656,0.312656,-0.283786,0.286854,-0.002590,0.6656,0.0093,-0.3913
5.2834,0.016740,-0.318153,0.318153,-0.283786,0.286854,-0.002590,0.6656,0.0093,-0.3913
5.3002,0.016742,-0.321398,0.321398,-0.303728,0.302194,-0.002591,0.6616,0.0129,-0.3858
5.3169,0.016740,-0.322697,0.322697,-0.311398,0.306796,-0.002591,0.6616,0.0129,-0.3858
5.3337,0.016759,-0.349066,0.349066,-0.314466,0.309864,-0.002591,0.6616,0.0129,-0.3858
5.3504,0.016745,-0.348643,0.348643,-0.322136,0.322136,-0.002604,0.6232,0.0481,-0.3329
5.3677,0.017330,-0.345757,0.345757,-0.329806,0.323670,-0.002603,0.6272,0.0445,-0.3384
5.3845,0.016747,-0.338938,0.338938,-0.329806,0.323670,-0.002603,0.6272,0.0445,-0.3384
5.4012,0.016756,-0.327606,0.327606,-0.335942,0.328272,-0.002603,0.6272,0.0445,-0.3384
5.4180,0.016744,-0.312470,0.312470,-0.349748,0.348214,-0.002590,0.6656,0.0093,-0.3913
5.4347,0.016745,-0.295974,0.295974,-0.357418,0.352816,-0.002604,0.6228,0.0485,-0.3324
5.4515,0.016740,-0.287209,0.287209,-0.349748,0.342078,-0.002603,0.6272,0.0444,-0.3385
5.4682,0.016775,-0.278426,0.278426,-0.332874,0.328272,-0.002603,0.6272,0.0444,-0.3385
5.4850,0.016743,-0.269659,0.269659,-0.332874,0.328272,-0.002603,0.6272,0.0444,-0.3385
5.5017,0.016745,-0.260891,0.260891,-0.314466,0.312932,-0.002590,0.6656,0.0093,-0.3913
5.5185,0.016737,-0.252127,0.252127,-0.296058,0.297592,-0.002591,0.6616,0.0129,-0.3858
5.5355,0.016993,-0.243230,0.243230,-0.280718,0.286854,-0.002591,0.6616,0.0129,-0.3858
5.5525,0.017009,-0.234324,0.234324,-0.266913,0.274583,-0.002591,0.6616,0.0129,-0.3858
5.5692,0.016768,-0.225544,0.225544,-0.257709,0.263845,-0.002591,0.6616,0.0129,-0.3858
5.5860,0.016747,-0.216775,0.216775,-0.257709,0.263845,-0.002591,0.6616,0.0129,-0.3858
5.6027,0.016748,-0.208006,0.208006,-0.248505,0.251573,-0.002604,0.6232,0.0481,-0.3329
5.6195,0.016746,-0.199238,0.199238,-0.239301,0.243903,-0.002603,0.6272,0.0445,-0.3384
5.6362,0.016752,-0.190467,0.190467,-0.230097,0.234699,-0.002603,0.6272,0.0445,-0.3384
5.6530,0.016756,-0.181693,0.181693,-0.220893,0.223961,-0.002590,0.6656,0.0093,-0.3913
5.6698,0.016776,-0.172909,0.172909,-0.207087,0.213223,-0.002591,0.6616,0.0129,-0.3858
5.6865,0.016745,-0.164142,0.164142,-0.207087,0.213223,-0.002591,0.6616,0.0129,-0.3858
5.7033,0.016755,-0.155369,0.155369,-0.193282,0.200951,-0.002604,0.6232,0.0481,-0.3329
5.7200,0.016746,-0.146600,0.146600,-0.184078,0.191748,-0.002590,0.6661,0.0089,-0.3919
5.7368,0.016768,-0.137821,0.137821,-0.174874,0.181010,-0.002604,0.6227,0.0486,-0.3323
5.7535,0.016750,-0.129050,0.129050,-0.167204,0.168738,-0.002590,0.6661,0.0088,-0.3919
5.7703,0.016764,-0.120273,0.120273,-0.154932,0.154932,-0.002590,0.6661,0.0088,-0.3919
5.7870,0.016744,-0.111506,0.111506,-0.154932,0.154932,-0.002604,0.6227,0.0486,-0.3323
5.8038,0.016752,-0.102734,0.102734,-0.141126,0.142660,-0.002603,0.6272,0.0444,-0.3385
5.8205,0.016741,-0.093968,0.093968,-0.130388,0.131922,-0.002603,0.6272,0.0444,-0.3385
5.8373,0.016796,-0.085174,0.085174,-0.121184,0.122718,-0.002603,0.6272,0.0444,-0.3385
5.8541,0.016750,-0.076404,0.076404,-0.113515,0.113515,-0.002603,0.6272,0.0444,-0.3385
5.8709,0.016772,-0.067622,0.067622,-0.102777,0.102777,-0.002603,0.6272,0.0444,-0.3385
5.8876,0.016739,-0.058858,0.058858,-0.102777,0.102777,-0.002603,0.6272,0.0444,-0.3385
5.9043,0.016755,-0.050088,0.050088,-0.088971,0.088971,-0.002603,0.6272,0.0444,-0.3385
5.9211,0.016750,-0.041710,0.041710,-0.076699,0.078233,-0.002603,0.6272,0.0444,-0.3385
5.9378,0.016718,-0.034731,0.034731,-0.065961,0.069029,-0.002603,0.6272,0.0444,-0.3385
5.9546,0.016744,-0.029829,0.029829,-0.061359,0.059825,-0.002590,0.6656,0.0093,-0.3913
5.9713,0.016787,-0.027153,0.027153,-0.061359,0.059825,-0.002590,0.6656,0.0093,-0.3913
5.9881,0.016751,-0.026252,0.026252,-0.050621,0.049087,-0.002591,0.6616,0.0129,-0.3858
6.0048,0.016752,-0.000010,0.000010,-0.035282,0.036816,-0.002591,0.6616,0.0129,-0.3858
6.0218,0.016906,-0.000866,0.000866,-0.026078,0.029146,-0.002591,0.6616,0.0129,-0.3858
6.0385,0.016764,-0.004574,0.004574,-0.026078,0.029146,-0.002591,0.6616,0.0129,-0.3858
6.0553,0.016748,-0.012497,0.012497,-0.026078,0.019942,-0.002591,0.6616,0.0129,-0.3858
6.0722,0.016895,-0.024994,0.024994,-0.015340,0.010738,-0.002604,0.6232,0.0481,-0.3329
6.0889,0.016770,-0.040883,0.040883,-0.015340,0.010738,-0.002604,0.6232,0.0481,-0.3329
6.1057,0.016745,-0.055331,0.055331,0.001534,-0.001534,-0.002590,0.6661,0.0089,-0.3919
6.1224,0.016754,-0.064103,0.064103,0.001534,0.003068,-0.002591,0.6616,0.0130,-0.3857
6.1392,0.016742,-0.072869,0.072869,-0.010738,0.018408,-0.002591,0.6616,0.0130,-0.3857
6.1559,0.016756,-0.081642,0.081642,-0.032214,0.036816,-0.002591,0.6616,0.0130,-0.3857
6.1727,0.016746,-0.090411,0.090411,-0.058291,0.059825,-0.002604,0.6232,0.0481,-0.3329
6.1894,0.016758,-0.099185,0.099185,-0.058291,0.059825,-0.002604,0.6232,0.0481,-0.3329
6.2062,0.016741,-0.107951,0.107951,-0.081301,0.078233,-0.002590,0.6661,0.0089,-0.3919
6.2229,0.016748,-0.116720,0.116720,-0.085903,0.082835,-0.002604,0.6227,0.0486,-0.3323
6.2397,0.016741,-0.125486,0.125486,-0.082835,0.082835,-0.002603,0.6272,0.0444,-0.3385
6.2564,0.016760,-0.134262,0.134262,-0.088971,0.096641,-0.002590,0.6656,0.0093,-0.3913
6.2732,0.016743,-0.143029,0.143029,-0.108913,0.115049,-0.002591,0.6616,0.0129,-0.3858
6.2899,0.016760,-0.151804,0.151804,-0.108913,0.115049,-0.002591,0.6616,0.0129,-0.3858
6.3067,0.016744,-0.160571,0.160571,-0.127320,0.128854,-0.002591,0.6616,0.0129,-0.3858
6.3234,0.016753,-0.169343,0.169343,-0.141126,0.133456,-0.002591,0.6616,0.0129,-0.3858
6.3402,0.016747,-0.178112,0.178112,-0.144194,0.134990,-0.002591,0.6616,0.0129,-0.3858
6.3569,0.016751,-0.186883,0.186883,-0.145728,0.144194,-0.002604,0.6232,0.0481,-0.3329
6.3737,0.016750,-0.195653,0.195653,-0.161068,0.164136,-0.002603,0.6272,0.0445,-0.3384
6.3904,0.016751,-0.204424,0.204424,-0.161068,0.164136,-0.002603,0.6272,0.0445,-0.3384
6.4072,0.016744,-0.213191,0.213191,-0.181010,0.182544,-0.002603,0.6272,0.0445,-0.3384
6.4239,0.016750,-0.221961,0.221961,-0.193282,0.185612,-0.002603,0.6272,0.0445,-0.3384
6.4407,0.016748,-0.230730,0.230730,-0.194816,0.185612,-0.002590,0.6656,0.0093,-0.3913
6.4574,0.016764,-0.239508,0.239508,-0.199418,0.196350,-0.002591,0.6616,0.0129,-0.3858
6.4743,0.016876,-0.248345,0.248345,-0.216291,0.216291,-0.002604,0.6232,0.0481,-0.3329
6.4911,0.016763,-0.257122,0.257122,-0.216291,0.216291,-0.002604,0.6232,0.0481,-0.3329
6.5078,0.016745,-0.265890,0.265890,-0.234699,0.234699,-0.002603,0.6272,0.0445,-0.3384
6.5246,0.016749,-0.274659,0.274659,-0.243903,0.239301,-0.002603,0.6272,0.0445,-0.3384
6.5413,0.016749,-0.283429,0.283429,-0.243903,0.240835,-0.002590,0.6656,0.0093,-0.3913
6.5581,0.016750,-0.292199,0.292199,-0.251573,0.251573,-0.002591,0.6616,0.0129,-0.3858
6.5748,0.016746,-0.300945,0.300945,-0.266913,0.268447,-0.002604,0.6232,0.0481,-0.3329
6.5916,0.016751,-0.309095,0.309095,-0.266913,0.268447,-0.002604,0.6232,0.0481,-0.3329
6.6083,0.016743,-0.315653,0.315653,-0.285320,0.286854,-0.002603,0.6272,0.0445,-0.3384
6.6250,0.016745,-0.320036,0.320036,-0.296058,0.291456,-0.002590,0.6656,0.0093,-0.3913
6.6418,0.016745,-0.322243,0.322243,-0.297592,0.289922,-0.002604,0.6228,0.0485,-0.3324
6.6585,0.016747,-0.322863,0.322863,-0.309864,0.300660,-0.002590,0.6661,0.0088,-0.3919
6.6755,0.016970,-0.349007,0.349007,-0.326738,0.319068,-0.002591,0.6616,0.0130,-0.3857
6.6923,0.016840,-0.347654,0.347654,-0.326738,0.319068,-0.002591,0.6616,0.0130,-0.3857
6.7091,0.016740,-0.343051,0.343051,-0.328272,0.326738,-0.002591,0.6616,0.0130,-0.3857
6.7258,0.016746,-0.334067,0.334067,-0.323670,0.322136,-0.002604,0.6232,0.0481,-0.3329
6.7426,0.016743,-0.320764,0.320764,-0.329806,0.325204,-0.002603,0.6272,0.0445,-0.3384
6.7593,0.016739,-0.304371,0.304371,-0.345146,0.342078,-0.002590,0.6656,0.0093,-0.3913
6.7761,0.016820,-0.291748,0.291748,-0.351282,0.346680,-0.002591,0.6616,0.0129,-0.3858
6.7929,0.016747,-0.282980,0.282980,-0.351282,0.346680,-0.002591,0.6616,0.0129,-0.3858
6.8096,0.016746,-0.274212,0.274212,-0.343612,0.337476,-0.002591,0.6616,0.0129,-0.3858
6.8264,0.016742,-0.265446,0.265446,-0.329806,0.326738,-0.002604,0.6232,0.0481,-0.3329
6.8431,0.016741,-0.256680,0.256680,-0.314466,0.316000,-0.002590,0.6661,0.0089,-0.3919
6.8599,0.016745,-0.247912,0.247912,-0.296058,0.299126,-0.002591,0.6616,0.0130,-0.3857
6.8766,0.016743,-0.239146,0.239146,-0.277651,0.285320,-0.002591,0.6616,0.0130,-0.3857
6.8933,0.016748,-0.230377,0.230377,-0.277651,0.285320,-0.002591,0.6616,0.0130,-0.3857
6.9101,0.016741,-0.221611,0.221611,-0.263845,0.269981,-0.002591,0.6616,0.0130,-0.3857
6.9268,0.016744,-0.212844,0.212844,-0.253107,0.259243,-0.002591,0.6616,0.0130,-0.3857
6.9436,0.016751,-0.204073,0.204073,-0.243903,0.248505,-0.002604,0.6232,0.0481,-0.3329
6.9603,0.016744,-0.195306,0.195306,-0.236233,0.240835,-0.002590,0.6661,0.0089,-0.3919
6.9772,0.016833,-0.186493,0.186493,-0.225495,0.231631,-0.002591,0.6616,0.0130,-0.3857
6.9948,0.017663,-0.177244,0.177244,-0.225495,0.231631,-0.002591,0.6616,0.0130,-0.3857
7.0116,0.016748,-0.168475,0.168475,-0.200951,0.210155,-0.002591,0.6616,0.0130,-0.3857
7.0283,0.016757,-0.159701,0.159701,-0.200951,0.210155,-0.002591,0.6616,0.0130,-0.3857
7.0452,0.016825,-0.150892,0.150892,-0.191748,0.199418,-0.002604,0.6232,0.0481,-0.3329
7.0619,0.016765,-0.142114,0.142114,-0.191748,0.199418,-0.002604,0.6232,0.0481,-0.3329
7.0787,0.016752,-0.133342,0.133342,-0.171806,0.176408,-0.002603,0.6272,0.0445,-0.3384
7.0954,0.016755,-0.124569,0.124569,-0.159534,0.164136,-0.002590,0.6656,0.0093,-0.3913
7.1122,0.016752,-0.115798,0.115798,-0.159534,0.164136,-0.002590,0.6656,0.0093,-0.3913
7.1289,0.016757,-0.107024,0.107024,-0.153398,0.151864,-0.002604,0.6228,0.0485,-0.3324
7.1457,0.016742,-0.098257,0.098257,-0.145728,0.141126,-0.002590,0.6661,0.0088,-0.3919
7.1624,0.016760,-0.089482,0.089482,-0.133456,0.130388,-0.002604,0.6227,0.0486,-0.3323
7.1792,0.016746,-0.080714,0.080714,-0.119651,0.119651,-0.002590,0.6661,0.0088,-0.3919
7.1959,0.016762,-0.071937,0.071937,-0.119651,0.119651,-0.002590,0.6661,0.0088,-0.3919
7.2127,0.016743,-0.063170,0.063170,-0.104311,0.105845,-0.002604,0.6227,0.0486,-0.3323
7.2294,0.016753,-0.054398,0.054398,-0.090505,0.095107,-0.002603,0.6272,0.0444,-0.3385
7.2462,0.016743,-0.045723,0.045723,-0.081301,0.082835,-0.002590,0.6656,0.0093,-0.3913
7.2630,0.016770,-0.037923,0.037923,-0.072097,0.073631,-0.002591,0.6616,0.0129,-0.3858
7.2797,0.016749,-0.031942,0.031942,-0.065961,0.064427,-0.002604,0.6232,0.0481,-0.3329
7.2965,0.016832,-0.028187,0.028187,-0.052155,0.052155,-0.002603,0.6272,0.0445,-0.3384
7.3133,0.016746,-0.026520,0.026520,-0.052155,0.052155,-0.002603,0.6272,0.0445,-0.3384
7.3300,0.016748,-0.026181,0.026181,-0.038350,0.041417,-0.002590,0.6656,0.0093,-0.3913
7.3468,0.016742,-0.000207,0.000207,-0.027612,0.033748,-0.002604,0.6228,0.0485,-0.3324
7.3635,0.016750,-0.002264,0.002264,-0.026078,0.027612,-0.002603,0.6272,0.0444,-0.3385
7.3803,0.016749,-0.007985,0.007985,-0.029146,0.026078,-0.002590,0.6656,0.0093,-0.3913
7.3971,0.016817,-0.018244,0.018244,-0.027612,0.024544,-0.002591,0.6616,0.0129,-0.3858
7.4138,0.016749,-0.032566,0.032566,-0.027612,0.024544,-0.002591,0.6616,0.0129,-0.3858
7.4306,0.016758,-0.049490,0.049490,-0.015340,0.013806,-0.002591,0.6616,0.0129,-0.3858
7.4473,0.016746,-0.059692,0.059692,-0.001534,0.006136,-0.002591,0.6616,0.0129,-0.3858
7.4641,0.016748,-0.068461,0.068461,-0.013806,0.019942,-0.002604,0.6232,0.0481,-0.3329
7.4812,0.017082,-0.077405,0.077405,-0.036816,0.039884,-0.002603,0.6272,0.0445,-0.3384
7.4983,0.017085,-0.086351,0.086351,-0.064427,0.064427,-0.002590,0.6656,0.0093,-0.3913
7.5150,0.016744,-0.095118,0.095118,-0.064427,0.064427,-0.002590,0.6656,0.0093,-0.3913
7.5317,0.016751,-0.103889,0.103889,-0.082835,0.079767,-0.002604,0.6228,0.0485,-0.3324
7.5485,0.016725,-0.112646,0.112646,-0.084369,0.079767,-0.002590,0.6661,0.0088,-0.3919
7.5653,0.016824,-0.121455,0.121455,-0.084369,0.082835,-0.002604,0.6227,0.0486,-0.3323
7.5821,0.016820,-0.130262,0.130262,-0.095107,0.099709,-0.002590,0.6661,0.0088,-0.3919
7.5989,0.016812,-0.139065,0.139065,-0.113515,0.116583,-0.002604,0.6227,0.0486,-0.3323
7.6157,0.016744,-0.147832,0.147832,-0.113515,0.116583,-0.002604,0.6227,0.0486,-0.3323
7.6324,0.016756,-0.156605,0.156605,-0.134990,0.130388,-0.002603,0.6272,0.0444,-0.3385
7.6492,0.016738,-0.165370,0.165370,-0.141126,0.133456,-0.002590,0.6656,0.0093,-0.3913
7.6662,0.016996,-0.174268,0.174268,-0.139592,0.134990,-0.002591,0.6616,0.0129,-0.3858
7.6829,0.016748,-0.183038,0.183038,-0.148796,0.148796,-0.002604,0.6232,0.0481,-0.3329
7.6997,0.016778,-0.191823,0.191823,-0.168738,0.168738,-0.002603,0.6272,0.0445,-0.3384
7.7164,0.016744,-0.200590,0.200590,-0.168738,0.168738,-0.002603,0.6272,0.0445,-0.3384
7.7332,0.016757,-0.209364,0.209364,-0.185612,0.182544,-0.002603,0.6272,0.0445,-0.3384
7.7499,0.016746,-0.218132,0.218132,-0.193282,0.184078,-0.002590,0.6656,0.0093,-0.3913
7.7667,0.016761,-0.226909,0.226909,-0.193282,0.188680,-0.002591,0.6616,0.0129,-0.3858
7.7834,0.016740,-0.235673,0.235673,-0.202485,0.204019,-0.002591,0.6616,0.0129,-0.3858
7.8010,0.017550,-0.244862,0.244862,-0.202485,0.204019,-0.002591,0.6616,0.0129,-0.3858
7.8177,0.016742,-0.253629,0.253629,-0.220893,0.223961,-0.002604,0.6232,0.0481,-0.3329
7.8345,0.016754,-0.262401,0.262401,-0.237767,0.234699,-0.002603,0.6272,0.0445,-0.3384
7.8512,0.016743,-0.271168,0.271168,-0.242369,0.234699,-0.002603,0.6272,0.0445,-0.3384
7.8680,0.016767,-0.279947,0.279947,-0.243903,0.240835,-0.002590,0.6656,0.0093,-0.3913
7.8847,0.016746,-0.288715,0.288715,-0.253107,0.253107,-0.002591,0.6616,0.0129,-0.3858
7.9015,0.016780,-0.297501,0.297501,-0.273049,0.276117,-0.002591,0.6616,0.0129,-0.3858
7.9183,0.016743,-0.306010,0.306010,-0.273049,0.276117,-0.002591,0.6616,0.0129,-0.3858
7.9350,0.016749,-0.313298,0.313298,-0.286854,0.288388,-0.002604,0.6232,0.0481,-0.3329
7.9518,0.016743,-0.318576,0.318576,-0.297592,0.289922,-0.002603,0.6272,0.0445,-0.3384
7.9685,0.016740,-0.321604,0.321604,-0.303728,0.294524,-0.002603,0.6272,0.0445,-0.3384
7.9852,0.016742,-0.322749,0.322749,-0.317534,0.311398,-0.002603,0.6272,0.0445,-0.3384
8.0020,0.016776,-0.349065,0.349065,-0.317534,0.311398,-0.002603,0.6272,0.0445,-0.3384
8.0188,0.016795,-0.348503,0.348503,-0.328272,0.323670,-0.002603,0.6272,0.0445,-0.3384
8.0356,0.016755,-0.345427,0.345427,-0.325204,0.322136,-0.002590,0.6656,0.0093,-0.3913
8.0523,0.016741,-0.338303,0.338303,-0.323670,0.320602,-0.002604,0.6228,0.0485,-0.3324
8.0691,0.016758,-0.326673,0.326673,-0.337476,0.335942,-0.002590,0.6661,0.0088,-0.3919
8.0858,0.016770,-0.311302,0.311302,-0.337476,0.335942,-0.002590,0.6661,0.0088,-0.3919
8.1026,0.016762,-0.295348,0.295348,-0.337476,0.335942,-0.002590,0.6661,0.0088,-0.3919
8.1193,0.016746,-0.286580,0.286580,-0.355884,0.349748,-0.002604,0.6227,0.0486,-0.3323
8.1361,0.016749,-0.277811,0.277811,-0.345146,0.342078,-0.002590,0.6661,0.0088,-0.3919
8.1529,0.016844,-0.268991,0.268991,-0.340544,0.339010,-0.002604,0.6227,0.0486,-0.3323
8.1697,0.016766,-0.260213,0.260213,-0.340544,0.339010,-0.002604,0.6227,0.0486,-0.3323
8.1864,0.016751,-0.251442,0.251442,-0.331340,0.329806,-0.002590,0.6661,0.0088,-0.3919
8.2032,0.016748,-0.242672,0.242672,-0.312932,0.312932,-0.002591,0.6616,0.0130,-0.3857
8.2199,0.016743,-0.233906,0.233906,-0.288388,0.291456,-0.002591,0.6616,0.0130,-0.3857
8.2367,0.016749,-0.225136,0.225136,-0.265379,0.271515,-0.002604,0.6232,0.0481,-0.3329
8.2536,0.016907,-0.216283,0.216283,-0.246971,0.253107,-0.002590,0.6661,0.0089,-0.3919
8.2704,0.016773,-0.207501,0.207501,-0.246971,0.253107,-0.002590,0.6661,0.0089,-0.3919
8.2871,0.016747,-0.198732,0.198732,-0.233165,0.240835,-0.002591,0.6616,0.0130,-0.3857
8.3039,0.016749,-0.189962,0.189962,-0.227029,0.230097,-0.002591,0.6616,0.0130,-0.3857
8.3206,0.016745,-0.181195,0.181195,-0.220893,0.223961,-0.002604,0.6232,0.0481,-0.3329
8.3374,0.016764,-0.172417,0.172417,-0.211689,0.216291,-0.002590,0.6661,0.0089,-0.3919
8.3545,0.017129,-0.163448,0.163448,-0.199418,0.207087,-0.002604,0.6227,0.0486,-0.3323
8.3712,0.016744,-0.154681,0.154681,-0.199418,0.207087,-0.002604,0.6227,0.0486,-0.3323
8.3880,0.016749,-0.145911,0.145911,-0.188680,0.194816,-0.002603,0.6272,0.0444,-0.3385
8.4047,0.016747,-0.137142,0.137142,-0.176408,0.184078,-0.002603,0.6272,0.0444,-0.3385
8.4215,0.016743,-0.128376,0.128376,-0.167204,0.171806,-0.002590,0.6656,0.0093,-0.3913
8.4382,0.016741,-0.119610,0.119610,-0.156466,0.159534,-0.002591,0.6616,0.0129,-0.3858
8.4550,0.016742,-0.110844,0.110844,-0.144194,0.145728,-0.002591,0.6616,0.0129,-0.3858
8.4717,0.016748,-0.102075,0.102075,-0.144194,0.145728,-0.002591,0.6616,0.0129,-0.3858
8.4885,0.016753,-0.093303,0.093303,-0.133456,0.134990,-0.002604,0.6232,0.0481,-0.3329
8.5052,0.016740,-0.084538,0.084538,-0.122718,0.122718,-0.002603,0.6272,0.0445,-0.3384
8.5220,0.016743,-0.075771,0.075771,-0.115049,0.115049,-0.002603,0.6272,0.0445,-0.3384
8.5387,0.016752,-0.066999,0.066999,-0.104311,0.104311,-0.002590,0.6656,0.0093,-0.3913
8.5557,0.016975,-0.058111,0.058111,-0.095107,0.095107,-0.002604,0.6228,0.0485,-0.3324
8.5724,0.016741,-0.049354,0.049354,-0.095107,0.095107,-0.002604,0.6228,0.0485,-0.3324
8.5892,0.016752,-0.041054,0.041054,-0.084369,0.082835,-0.002590,0.6661,0.0088,-0.3919
8.6059,0.016743,-0.034221,0.034221,-0.072097,0.072097,-0.002591,0.6616,0.0130,-0.3857
8.6227,0.016745,-0.029514,0.029514,-0.059825,0.062893,-0.002591,0.6616,0.0130,-0.3857
8.6394,0.016743,-0.027021,0.027021,-0.050621,0.052155,-0.002604,0.6232,0.0481,-0.3329
8.6566,0.017226,-0.026223,0.026223,-0.038350,0.041417,-0.002603,0.6272,0.0445,-0.3384
8.6734,0.016747,-0.000026,0.000026,-0.038350,0.041417,-0.002603,0.6272,0.0445,-0.3384
8.6901,0.016747,-0.001082,0.001082,-0.027612,0.032214,-0.002603,0.6272,0.0445,-0.3384
8.7069,0.016756,-0.005172,0.005172,-0.024544,0.026078,-0.002590,0.6656,0.0093,-0.3913
8.7236,0.016749,-0.013558,0.013558,-0.029146,0.024544,-0.002591,0.6616,0.0129,-0.3858
8.7404,0.016746,-0.026342,0.026342,-0.027612,0.023010,-0.002604,0.6232,0.0481,-0.3329
8.7571,0.016750,-0.042445,0.042445,-0.003068,0.006136,-0.002603,0.6272,0.0445,-0.3384
8.7739,0.016743,-0.056132,0.056132,-0.003068,0.006136,-0.002603,0.6272,0.0445,-0.3384
8.7906,0.016748,-0.064901,0.064901,-0.003068,0.006136,-0.002603,0.6272,0.0445,-0.3384
8.8074,0.016756,-0.073674,0.073674,-0.023010,0.026078,-0.002590,0.6656,0.0093,-0.3913
8.8241,0.016750,-0.082444,0.082444,-0.042951,0.042951,-0.002591,0.6616,0.0129,-0.3858
8.8409,0.016749,-0.091214,0.091214,-0.064427,0.064427,-0.002591,0.6616,0.0129,-0.3858
8.8576,0.016767,-0.099993,0.099993,-0.087437,0.084369,-0.002591,0.6616,0.0129,-0.3858
8.8744,0.016746,-0.108762,0.108762,-0.087437,0.084369,-0.002604,0.6232,0.0481,-0.3329
8.8911,0.016746,-0.117530,0.117530,-0.092039,0.090505,-0.002590,0.6661,0.0089,-0.3919
8.9079,0.016746,-0.126298,0.126298,-0.090505,0.088971,-0.002591,0.6616,0.0130,-0.3857
8.9246,0.016757,-0.135072,0.135072,-0.096641,0.096641,-0.002604,0.6232,0.0481,-0.3329
8.9414,0.016748,-0.143841,0.143841,-0.113515,0.113515,-0.002603,0.6272,0.0445,-0.3384
8.9582,0.016774,-0.152624,0.152624,-0.133456,0.133456,-0.002603,0.6272,0.0445,-0.3384
8.9749,0.016743,-0.161390,0.161390,-0.133456,0.133456,-0.002603,0.6272,0.0445,-0.3384
8.9916,0.016750,-0.170161,0.170161,-0.150330,0.145728,-0.002590,0.6656,0.0093,-0.3913
9.0084,0.016744,-0.178928,0.178928,-0.153398,0.147262,-0.002591,0.6616,0.0129,-0.3858
9.0253,0.016902,-0.187778,0.187778,-0.154932,0.153398,-0.002591,0.6616,0.0129,-0.3858
9.0421,0.016756,-0.196551,0.196551,-0.167204,0.168738,-0.002591,0.6616,0.0129,-0.3858
9.0588,0.016772,-0.205333,0.205333,-0.185612,0.185612,-0.002591,0.6616,0.0129,-0.3858
9.0756,0.016762,-0.214110,0.214110,-0.185612,0.185612,-0.002591,0.6616,0.0129,-0.3858
9.0924,0.016776,-0.222894,0.222894,-0.197884,0.194816,-0.002591,0.6616,0.0129,-0.3858
9.1092,0.016883,-0.231734,0.231734,-0.205553,0.199418,-0.002591,0.6616,0.0129,-0.3858
9.1276,0.018388,-0.241362,0.241362,-0.205553,0.199418,-0.002591,0.6616,0.0129,-0.3858
9.1444,0.016759,-0.250137,0.250137,-0.205553,0.199418,-0.002591,0.6616,0.0129,-0.3858
9.1611,0.016753,-0.258909,0.258909,-0.214757,0.220893,-0.002591,0.6616,0.0129,-0.3858
9.1779,0.016759,-0.267684,0.267684,-0.228563,0.228563,-0.002604,0.6232,0.0481,-0.3329
9.1947,0.016773,-0.276466,0.276466,-0.239301,0.231631,-0.002603,0.6272,0.0445,-0.3384
9.2114,0.016770,-0.285246,0.285246,-0.239301,0.231631,-0.002603,0.6272,0.0445,-0.3384
9.2282,0.016767,-0.294025,0.294025,-0.251573,0.242369,-0.002603,0.6272,0.0445,-0.3384
9.2450,0.016750,-0.302728,0.302728,-0.269981,0.265379,-0.002590,0.6656,0.0093,-0.3913
9.2617,0.016753,-0.310621,0.310621,-0.279185,0.283786,-0.002591,0.6616,0.0129,-0.3858
9.2785,0.016750,-0.316758,0.316758,-0.280718,0.283786,-0.002604,0.6232,0.0481,-0.3329
9.2955,0.017070,-0.320719,0.320719,-0.289922,0.285320,-0.002590,0.6661,0.0089,-0.3919
9.3123,0.016755,-0.322493,0.322493,-0.289922,0.285320,-0.002590,0.6661,0.0089,-0.3919
9.3291,0.016758,-0.322883,0.322883,-0.311398,0.300660,-0.002604,0.6227,0.0486,-0.3323
9.3458,0.016756,-0.348900,0.348900,-0.326738,0.320602,-0.002590,0.6661,0.0088,-0.3919
9.3626,0.016781,-0.346999,0.346999,-0.326738,0.322136,-0.002604,0.6227,0.0486,-0.3323
9.3793,0.016752,-0.341513,0.341513,-0.322136,0.320602,-0.002603,0.6272,0.0444,-0.3385
9.3963,0.016990,-0.331378,0.331378,-0.331340,0.326738,-0.002590,0.6656,0.0093,-0.3913
9.4131,0.016759,-0.317206,0.317206,-0.331340,0.326738,-0.002590,0.6656,0.0093,-0.3913
9.4299,0.016762,-0.300350,0.300350,-0.348214,0.343612,-0.002604,0.6228,0.0485,-0.3324
9.4466,0.016749,-0.289760,0.289760,-0.355884,0.349748,-0.002578,0.7161,-0.0068,-0.3384
9.4634,0.016771,-0.280979,0.280979,-0.354350,0.348214,-0.002593,0.6564,0.0146,-0.3913
9.4801,0.016753,-0.272207,0.272207,-0.340544,0.335942,-0.002591,0.6626,0.0124,-0.3858
9.4969,0.016774,-0.263424,0.263424,-0.322136,0.322136,-0.002591,0.6626,0.0124,-0.3858
9.5137,0.016759,-0.254649,0.254649,-0.322136,0.322136,-0.002591,0.6626,0.0124,-0.3858
9.5304,0.016768,-0.245869,0.245869,-0.297592,0.300660,-0.002591,0.6626,0.0124,-0.3858
9.5472,0.016748,-0.237100,0.237100,-0.279185,0.285320,-0.002591,0.6626,0.0124,-0.3858
9.5639,0.016751,-0.228329,0.228329,-0.259243,0.262311,-0.002604,0.6231,0.0482,-0.3329
9.5807,0.016779,-0.219544,0.219544,-0.253107,0.253107,-0.002590,0.6661,0.0089,-0.3919
9.5975,0.016770,-0.210763,0.210763,-0.243903,0.242369,-0.002590,0.6661,0.0089,-0.3919
9.6142,0.016749,-0.201993,0.201993,-0.243903,0.242369,-0.002591,0.6616,0.0130,-0.3857
9.6310,0.016762,-0.193217,0.193217,-0.231631,0.231631,-0.002604,0.6232,0.0481,-0.3329
9.6477,0.016749,-0.184447,0.184447,-0.219359,0.223961,-0.002603,0.6272,0.0445,-0.3384
9.6645,0.016777,-0.175663,0.175663,-0.207087,0.216291,-0.002590,0.6656,0.0093,-0.3913
9.6813,0.016750,-0.166893,0.166893,-0.194816,0.204019,-0.002604,0.6228,0.0485,-0.3324
9.6980,0.016766,-0.158114,0.158114,-0.182544,0.191748,-0.002604,0.6228,0.0485,-0.3324
9.7148,0.016751,-0.149343,0.149343,-0.182544,0.191748,-0.002603,0.6272,0.0444,-0.3385
9.7315,0.016771,-0.140561,0.140561,-0.173340,0.179476,-0.002603,0.6272,0.0444,-0.3385
9.7483,0.016753,-0.131790,0.131790,-0.164136,0.167204,-0.002603,0.6272,0.0444,-0.3385
9.7651,0.016767,-0.123011,0.123011,-0.156466,0.158000,-0.002590,0.6656,0.0093,-0.3913
9.7820,0.016886,-0.114169,0.114169,-0.145728,0.145728,-0.002591,0.6616,0.0129,-0.3858
9.7987,0.016771,-0.105388,0.105388,-0.145728,0.145728,-0.002591,0.6616,0.0129,-0.3858
9.8155,0.016764,-0.096610,0.096610,-0.134990,0.134990,-0.002604,0.6232,0.0481,-0.3329
9.8325,0.017044,-0.087686,0.087686,-0.122718,0.122718,-0.002603,0.6272,0.0445,-0.3384
9.8494,0.016873,-0.078851,0.078851,-0.110447,0.111981,-0.002603,0.6272,0.0445,-0.3384
9.8662,0.016762,-0.070075,0.070075,-0.099709,0.099709,-0.002590,0.6656,0.0093,-0.3913
9.8832,0.017029,-0.061158,0.061158,-0.085903,0.087437,-0.002604,0.6228,0.0485,-0.3324
9.9000,0.016763,-0.052381,0.052381,-0.085903,0.087437,-0.002604,0.6228,0.0485,-0.3324
9.9167,0.016749,-0.043810,0.043810,-0.075165,0.076699,-0.002603,0.6272,0.0444,-0.3385
9.9335,0.016756,-0.036365,0.036365,-0.065961,0.067495,-0.002603,0.6272,0.0444,-0.3385
9.9502,0.016754,-0.030879,0.030879,-0.058291,0.058291,-0.002590,0.6656,0.0093,-0.3913
9.9670,0.016751,-0.027650,0.027650,-0.047553,0.046019,-0.002591,0.6616,0.0129,-0.3858
9.9838,0.016877,-0.026359,0.026359,-0.035282,0.036816,-0.002591,0.6616,0.0129,-0.3858
10.0006,0.016764,-0.000000,0.000000,-0.035282,0.036816,-0.002591,0.6616,0.0129,-0.3858
10.0174,0.016757,-0.000445,0.000445,-0.026078,0.027612,-0.002591,0.6616,0.0129,-0.3858
10.0341,0.016757,-0.003231,0.003231,-0.026078,0.026078,-0.002604,0.6232,0.0481,-0.3329
10.0509,0.016766,-0.009986,0.009986,-0.029146,0.026078,-0.002603,0.6272,0.0445,-0.3384
10.0676,0.016758,-0.021251,0.021251,-0.021476,0.018408,-0.002590,0.6656,0.0093,-0.3913
10.0844,0.016754,-0.036350,0.036350,-0.003068,0.004602,-0.002590,0.6656,0.0093,-0.3913
10.1012,0.016754,-0.052965,0.052965,-0.003068,0.004602,-0.002591,0.6616,0.0129,-0.3858
10.1179,0.016747,-0.061734,0.061734,-0.003068,0.006136,-0.002591,0.6616,0.0129,-0.3858
10.1348,0.016885,-0.070575,0.070575,-0.012272,0.016874,-0.002604,0.6232,0.0481,-0.3329
10.1516,0.016796,-0.079370,0.079370,-0.012272,0.016874,-0.002604,0.6232,0.0481,-0.3329
10.1684,0.016776,-0.088154,0.088154,-0.012272,0.016874,-0.002604,0.6232,0.0481,-0.3329
10.1851,0.016757,-0.096927,0.096927,-0.012272,0.016874,-0.002604,0.6232,0.0481,-0.3329
10.2019,0.016756,-0.105701,0.105701,-0.072097,0.069029,-0.002590,0.6661,0.0089,-0.3919
10.2186,0.016759,-0.114476,0.114476,-0.072097,0.069029,-0.002604,0.6227,0.0486,-0.3323
10.2354,0.016774,-0.123259,0.123259,-0.061359,0.059825,-0.002590,0.6661,0.0088,-0.3919
10.2522,0.016748,-0.132028,0.132028,-0.069029,0.069029,-0.002604,0.6227,0.0486,-0.3323
10.2689,0.016770,-0.140809,0.140809,-0.095107,0.093573,-0.002603,0.6272,0.0444,-0.3385
10.2857,0.016752,-0.149580,0.149580,-0.095107,0.093573,-0.002603,0.6272,0.0444,-0.3385
10.3024,0.016747,-0.158349,0.158349,-0.121184,0.119651,-0.002590,0.6656,0.0093,-0.3913
10.3192,0.016745,-0.167116,0.167116,-0.142660,0.139592,-0.002591,0.6616,0.0129,-0.3858
10.3361,0.016906,-0.175968,0.175968,-0.144194,0.141126,-0.002591,0.6616,0.0129,-0.3858
10.3529,0.016846,-0.184789,0.184789,-0.144194,0.142660,-0.002604,0.6232,0.0481,-0.3329
10.3699,0.016975,-0.193677,0.193677,-0.158000,0.159534,-0.002603,0.6272,0.0445,-0.3384
10.3867,0.016773,-0.202459,0.202459,-0.158000,0.159534,-0.002603,0.6272,0.0445,-0.3384
10.4034,0.016744,-0.211226,0.211226,-0.177942,0.177942,-0.002590,0.6656,0.0093,-0.3913
10.4202,0.016745,-0.219994,0.219994,-0.193282,0.187146,-0.002604,0.6228,0.0485,-0.3324
10.4369,0.016745,-0.228762,0.228762,-0.196350,0.191748,-0.002590,0.6661,0.0088,-0.3919
10.4537,0.016760,-0.237537,0.237537,-0.199418,0.199418,-0.002604,0.6227,0.0486,-0.3323
10.4704,0.016759,-0.246312,0.246312,-0.214757,0.219359,-0.002590,0.6661,0.0088,-0.3919
10.4872,0.016746,-0.255081,0.255081,-0.214757,0.219359,-0.002590,0.6661,0.0088,-0.3919
10.5039,0.016742,-0.263847,0.263847,-0.233165,0.234699,-0.002604,0.6227,0.0486,-0.3323
10.5207,0.016750,-0.272617,0.272617,-0.243903,0.234699,-0.002603,0.6272,0.0444,-0.3385
10.5374,0.016754,-0.281389,0.281389,-0.245437,0.234699,-0.002590,0.6656,0.0093,-0.3913
10.5542,0.016751,-0.290160,0.290160,-0.250039,0.246971,-0.002604,0.6228,0.0485,-0.3324
10.5709,0.016751,-0.298927,0.298927,-0.265379,0.268447,-0.002590,0.6661,0.0088,-0.3919
10.5877,0.016748,-0.307310,0.307310,-0.265379,0.268447,-0.002590,0.6661,0.0088,-0.3919
10.6044,0.016746,-0.314310,0.314310,-0.282252,0.286854,-0.002604,0.6227,0.0486,-0.3323
10.6212,0.016747,-0.319222,0.319222,-0.299126,0.289922,-0.002603,0.6272,0.0444,-0.3385
10.6379,0.016743,-0.321902,0.321902,-0.299126,0.289922,-0.002603,0.6272,0.0444,-0.3385
10.6546,0.016744,-0.322812,0.322812,-0.300660,0.302194,-0.002590,0.6656,0.0093,-0.3913
10.6714,0.016756,-0.349057,0.349057,-0.316000,0.320602,-0.002591,0.6616,0.0129,-0.3858
10.6881,0.016744,-0.348232,0.348232,-0.316000,0.320602,-0.002591,0.6616,0.0129,-0.3858
10.7049,0.016744,-0.344592,0.344592,-0.329806,0.325204,-0.002604,0.6232,0.0481,-0.3329
10.7216,0.016741,-0.336753,0.336753,-0.328272,0.322136,-0.002603,0.6272,0.0445,-0.3384
10.7384,0.016741,-0.324464,0.324464,-0.326738,0.323670,-0.002603,0.6272,0.0445,-0.3384
10.7551,0.016743,-0.308674,0.308674,-0.343612,0.342078,-0.002590,0.6656,0.0093,-0.3913
10.7719,0.016752,-0.293985,0.293985,-0.352816,0.348214,-0.002604,0.6228,0.0485,-0.3324
10.7886,0.016748,-0.285216,0.285216,-0.352816,0.348214,-0.002604,0.6228,0.0485,-0.3324
10.8054,0.016741,-0.276450,0.276450,-0.349748,0.342078,-0.002603,0.6272,0.0444,-0.3385
10.8221,0.016745,-0.267683,0.267683,-0.331340,0.326738,-0.002590,0.6656,0.0093,-0.3913
10.8388,0.016750,-0.258913,0.258913,-0.317534,0.316000,-0.002580,0.7116,-0.0027,-0.3322
10.8556,0.016745,-0.250145,0.250145,-0.296058,0.299126,-0.002592,0.6568,0.0142,-0.3919
10.8723,0.016754,-0.241372,0.241372,-0.277651,0.283786,-0.002604,0.6237,0.0480,-0.3323
10.8891,0.016753,-0.232601,0.232601,-0.277651,0.283786,-0.002604,0.6237,0.0480,-0.3323
10.9058,0.016723,-0.223845,0.223845,-0.262311,0.268447,-0.002603,0.6271,0.0445,-0.3385
10.9226,0.016746,-0.215076,0.215076,-0.251573,0.257709,-0.002590,0.6657,0.0093,-0.3913
10.9393,0.016750,-0.206306,0.206306,-0.243903,0.248505,-0.002591,0.6616,0.0129,-0.3858
10.9561,0.016743,-0.197539,0.197539,-0.234699,0.240835,-0.002591,0.6616,0.0129,-0.3858
10.9728,0.016761,-0.188763,0.188763,-0.225495,0.230097,-0.002591,0.6616,0.0129,-0.3858
10.9896,0.016747,-0.179995,0.179995,-0.225495,0.230097,-0.002591,0.6616,0.0129,-0.3858
11.0063,0.016741,-0.171229,0.171229,-0.213223,0.220893,-0.002604,0.6232,0.0481,-0.3329
11.0231,0.016752,-0.162458,0.162458,-0.202485,0.211689,-0.002603,0.6272,0.0445,-0.3384
11.0398,0.016750,-0.153688,0.153688,-0.193282,0.199418,-0.002603,0.6272,0.0445,-0.3384
11.0566,0.016747,-0.144919,0.144919,-0.182544,0.188680,-0.002603,0.6272,0.0445,-0.3384
11.0733,0.016739,-0.136155,0.136155,-0.182544,0.188680,-0.002603,0.6272,0.0445,-0.3384
11.0900,0.016748,-0.127386,0.127386,-0.171806,0.174874,-0.002603,0.6272,0.0445,-0.3384
11.1068,0.016735,-0.118623,0.118623,-0.159534,0.162602,-0.002590,0.6656,0.0093,-0.3913
11.1235,0.016739,-0.109859,0.109859,-0.148796,0.151864,-0.002591,0.6616,0.0129,-0.3858
11.1403,0.016745,-0.101091,0.101091,-0.141126,0.141126,-0.002591,0.6616,0.0129,-0.3858
11.1570,0.016762,-0.092315,0.092315,-0.141126,0.141126,-0.002591,0.6616,0.0129,-0.3858
11.1738,0.016755,-0.083542,0.083542,-0.131922,0.130388,-0.002604,0.6232,0.0481,-0.3329
11.1907,0.016893,-0.074697,0.074697,-0.105845,0.108913,-0.002603,0.6272,0.0445,-0.3384
11.2074,0.016759,-0.065922,0.065922,-0.105845,0.108913,-0.002603,0.6272,0.0445,-0.3384
11.2242,0.016747,-0.057153,0.057153,-0.093573,0.096641,-0.002603,0.6272,0.0445,-0.3384
11.2409,0.016743,-0.048405,0.048405,-0.090505,0.088971,-0.002603,0.6272,0.0445,-0.3384
11.2577,0.016821,-0.040187,0.040187,-0.084369,0.081301,-0.002590,0.6656,0.0093,-0.3913
11.2745,0.016742,-0.033573,0.033573,-0.084369,0.081301,-0.002590,0.6656,0.0093,-0.3913
11.2912,0.016754,-0.029123,0.029123,-0.064427,0.065961,-0.002604,0.6228,0.0485,-0.3324
11.3080,0.016741,-0.026860,0.026860,-0.064427,0.065961,-0.002603,0.6272,0.0444,-0.3385
11.3248,0.016852,-0.026206,0.026206,-0.030680,0.033748,-0.002590,0.6656,0.0093,-0.3913
11.3416,0.016742,-0.000048,0.000048,-0.021476,0.024544,-0.002591,0.6616,0.0129,-0.3858
11.3583,0.016760,-0.001305,0.001305,-0.023010,0.023010,-0.002591,0.6616,0.0129,-0.3858
11.3751,0.016749,-0.005750,0.005750,-0.023010,0.023010,-0.002591,0.6616,0.0129,-0.3858
11.3918,0.016756,-0.014558,0.014558,-0.029146,0.023010,-0.002604,0.6232,0.0481,-0.3329
11.4086,0.016743,-0.027707,0.027707,-0.018408,0.015340,-0.002590,0.6661,0.0089,-0.3919
11.4253,0.016750,-0.044024,0.044024,-0.004602,0.004602,-0.002604,0.6227,0.0486,-0.3323
11.4421,0.016745,-0.056937,0.056937,-0.007670,0.009204,-0.002603,0.6272,0.0444,-0.3385
11.4588,0.016757,-0.065711,0.065711,-0.024544,0.026078,-0.002603,0.6272,0.0444,-0.3385
11.4756,0.016745,-0.074479,0.074479,-0.024544,0.026078,-0.002603,0.6272,0.0444,-0.3385
11.4923,0.016756,-0.083252,0.083252,-0.042951,0.044485,-0.002590,0.6656,0.0093,-0.3913
11.5091,0.016747,-0.092021,0.092021,-0.065961,0.061359,-0.002591,0.6616,0.0129,-0.3858
