t,loop_dt,cmd_ant_l,cmd_ant_r,pres_ant_l,pres_ant_r,pres_z,pres_roll,pres_pitch,pres_yaw
0.0000,0.000001,-0.174532,0.174532,-0.177942,0.174874,-0.002703,0.4155,0.2158,-0.3823
0.0167,0.016746,-0.160773,0.160773,-0.177942,0.174874,-0.002690,0.4584,0.1764,-0.4410
0.0335,0.016763,-0.147086,0.147086,-0.177942,0.174874,-0.002692,0.4652,0.2003,-0.3282
0.0503,0.016757,-0.133575,0.133575,-0.176408,0.174874,-0.002703,0.4144,0.2136,-0.3934
0.0677,0.017456,-0.119773,0.119773,-0.176408,0.174874,-0.002703,0.4144,0.2136,-0.3934
0.0845,0.016746,-0.106879,0.106879,-0.173340,0.170272,-0.002678,0.5086,0.1609,-0.3864
0.1012,0.016747,-0.094406,0.094406,-0.159534,0.162602,-0.002680,0.4988,0.1664,-0.3871
0.1180,0.016745,-0.082433,0.082433,-0.144194,0.150330,-0.002680,0.4988,0.1664,-0.3871
0.1347,0.016747,-0.071031,0.071031,-0.121184,0.128854,-0.002680,0.4988,0.1664,-0.3871
0.1515,0.016741,-0.060278,0.060278,-0.096641,0.105845,-0.002693,0.4609,0.2014,-0.3338
0.1682,0.016764,-0.050223,0.050223,-0.096641,0.105845,-0.002693,0.4609,0.2014,-0.3338
0.1850,0.016749,-0.040951,0.040951,-0.076699,0.082835,-0.002679,0.5038,0.1622,-0.3926
0.2017,0.016746,-0.032511,0.032511,-0.062893,0.065961,-0.002705,0.4103,0.2176,-0.3867
0.2185,0.016748,-0.024955,0.024955,-0.055223,0.055223,-0.002678,0.5091,0.1605,-0.3871
0.2352,0.016751,-0.018329,0.018329,-0.044485,0.041417,-0.002680,0.4988,0.1664,-0.3870
0.2520,0.016746,-0.012678,0.012678,-0.032214,0.030680,-0.002680,0.5002,0.1656,-0.3870
0.2687,0.016766,-0.008028,0.008028,-0.032214,0.030680,-0.002680,0.5002,0.1656,-0.3870
0.2855,0.016739,-0.004423,0.004423,-0.018408,0.023010,-0.002680,0.5002,0.1656,-0.3870
0.3022,0.016749,-0.001874,0.001874,-0.012272,0.015340,-0.002680,0.5002,0.1656,-0.3870
0.3190,0.016750,-0.000400,0.000400,-0.010738,0.007670,-0.002693,0.4608,0.2015,-0.3338
0.3357,0.016760,-0.000011,0.000011,-0.012272,0.003068,-0.002679,0.5038,0.1622,-0.3926
0.3525,0.016747,-0.000709,0.000709,-0.006136,0.001534,-0.002680,0.4993,0.1663,-0.3865
0.3692,0.016760,-0.002490,0.002490,-0.006136,0.001534,-0.002680,0.4993,0.1663,-0.3865
0.3860,0.016753,-0.005343,0.005343,0.003068,0.000000,-0.002680,0.4993,0.1663,-0.3865
0.4027,0.016752,-0.009250,0.009250,0.003068,0.000000,-0.002693,0.4609,0.2014,-0.3339
0.4195,0.016742,-0.014182,0.014182,-0.004602,0.000000,-0.002679,0.5038,0.1622,-0.3926
0.4362,0.016758,-0.020119,0.020119,-0.007670,0.004602,-0.002680,0.4993,0.1663,-0.3865
0.4530,0.016749,-0.027014,0.027014,-0.007670,0.013806,-0.002680,0.4993,0.1663,-0.3865
0.4697,0.016760,-0.034833,0.034833,-0.007670,0.013806,-0.002680,0.4993,0.1663,-0.3865
0.4865,0.016746,-0.043515,0.043515,-0.012272,0.013806,-0.002680,0.4993,0.1663,-0.3865
0.5032,0.016750,-0.053016,0.053016,-0.021476,0.016874,-0.002692,0.4497,0.1816,-0.4406
0.5200,0.016741,-0.063267,0.063267,-0.033748,0.026078,-0.002679,0.5050,0.1642,-0.3814
0.5368,0.016798,-0.074249,0.074249,-0.042951,0.036816,-0.002680,0.4992,0.1660,-0.3876
0.5537,0.016881,-0.085918,0.085918,-0.052155,0.052155,-0.002680,0.4992,0.1660,-0.3876
0.5704,0.016763,-0.098060,0.098060,-0.052155,0.052155,-0.002680,0.4992,0.1660,-0.3876
0.5872,0.016743,-0.110663,0.110663,-0.065961,0.069029,-0.002680,0.4992,0.1660,-0.3876
0.6039,0.016751,-0.123670,0.123670,-0.079767,0.078233,-0.002680,0.4992,0.1660,-0.3876
0.6207,0.016741,-0.136986,0.136986,-0.090505,0.084369,-0.002668,0.5386,0.1303,-0.4403
0.6374,0.016752,-0.150544,0.150544,-0.101243,0.099709,-0.002656,0.5733,0.0984,-0.4882
0.6542,0.016755,-0.164254,0.164254,-0.115049,0.118117,-0.002657,0.5697,0.1017,-0.4832
0.6710,0.016856,-0.178111,0.178111,-0.115049,0.118117,-0.002657,0.5697,0.1017,-0.4832
0.6878,0.016750,-0.191860,0.191860,-0.115049,0.118117,-0.002657,0.5697,0.1017,-0.4832
0.7045,0.016750,-0.205499,0.205499,-0.158000,0.156466,-0.002657,0.5697,0.1017,-0.4832
0.7213,0.016780,-0.218970,0.218970,-0.162602,0.156466,-0.002657,0.5697,0.1017,-0.4832
0.7380,0.016748,-0.232139,0.232139,-0.161068,0.156466,-0.002657,0.5697,0.1017,-0.4832
0.7548,0.016748,-0.244949,0.244949,-0.161068,0.156466,-0.002657,0.5697,0.1017,-0.4832
0.7715,0.016751,-0.257322,0.257322,-0.173340,0.171806,-0.002657,0.5697,0.1017,-0.4832
0.7883,0.016745,-0.269176,0.269176,-0.204019,0.200951,-0.002657,0.5697,0.1017,-0.4832
0.8050,0.016743,-0.280440,0.280440,-0.231631,0.231631,-0.002657,0.5697,0.1017,-0.4832
0.8218,0.016743,-0.291045,0.291045,-0.260777,0.259243,-0.002657,0.5697,0.1017,-0.4832
0.8386,0.016866,-0.300994,0.300994,-0.277651,0.274583,-0.002657,0.5697,0.1017,-0.4832
0.8554,0.016750,-0.310086,0.310086,-0.277651,0.274583,-0.002657,0.5697,0.1017,-0.4832
0.8721,0.016745,-0.318330,0.318330,-0.280718,0.282252,-0.002657,0.5697,0.1017,-0.4832
0.8889,0.016753,-0.325683,0.325683,-0.283786,0.285320,-0.002657,0.5697,0.1017,-0.4832
0.9056,0.016743,-0.332091,0.332091,-0.299126,0.297592,-0.002657,0.5697,0.1017,-0.4832
0.9224,0.016743,-0.337518,0.337518,-0.320602,0.314466,-0.002670,0.5313,0.1370,-0.4303
0.9391,0.016747,-0.341933,0.341933,-0.334408,0.329806,-0.002656,0.5741,0.0977,-0.4892
0.9559,0.016746,-0.345305,0.345305,-0.334408,0.329806,-0.002656,0.5741,0.0977,-0.4892
0.9726,0.016744,-0.347614,0.347614,-0.334408,0.332874,-0.002657,0.5696,0.1018,-0.4831
0.9894,0.016741,-0.348846,0.348846,-0.331340,0.332874,-0.002657,0.5696,0.1018,-0.4831
1.0061,0.016740,-0.348994,0.348994,-0.345146,0.343612,-0.002657,0.5696,0.1018,-0.4831
1.0228,0.016746,-0.348056,0.348056,-0.354350,0.346680,-0.002657,0.5696,0.1018,-0.4831
1.0396,0.016755,-0.346037,0.346037,-0.352816,0.345146,-0.002657,0.5696,0.1018,-0.4831
1.0563,0.016742,-0.342952,0.342952,-0.352816,0.345146,-0.002657,0.5696,0.1018,-0.4831
1.0731,0.016762,-0.338813,0.338813,-0.351282,0.348214,-0.002657,0.5696,0.1018,-0.4831
1.0898,0.016742,-0.333657,0.333657,-0.351282,0.346680,-0.002657,0.5696,0.1018,-0.4831
1.1066,0.016739,-0.327512,0.327512,-0.349748,0.345146,-0.002657,0.5696,0.1018,-0.4831
1.1233,0.016741,-0.320415,0.320415,-0.346680,0.343612,-0.002657,0.5696,0.1018,-0.4831
1.1404,0.017104,-0.312228,0.312228,-0.342078,0.340544,-0.002657,0.5696,0.1018,-0.4831
1.1572,0.016751,-0.303342,0.303342,-0.342078,0.340544,-0.002657,0.5696,0.1018,-0.4831
1.1739,0.016746,-0.293657,0.293657,-0.339010,0.337476,-0.002657,0.5696,0.1018,-0.4831
1.1907,0.016747,-0.283230,0.283230,-0.334408,0.332874,-0.002657,0.5696,0.1018,-0.4831
1.2074,0.016702,-0.272157,0.272157,-0.325204,0.328272,-0.002657,0.5696,0.1018,-0.4831
1.2241,0.016746,-0.260448,0.260448,-0.314466,0.319068,-0.002657,0.5696,0.1018,-0.4831
1.2409,0.016757,-0.248196,0.248196,-0.300660,0.305262,-0.002657,0.5696,0.1018,-0.4831
1.2576,0.016753,-0.235488,0.235488,-0.300660,0.305262,-0.002657,0.5696,0.1018,-0.4831
1.2744,0.016749,-0.222404,0.222404,-0.283786,0.289922,-0.002657,0.5696,0.1018,-0.4831
1.2911,0.016741,-0.209028,0.209028,-0.269981,0.276117,-0.002657,0.5696,0.1018,-0.4831
1.3078,0.016713,-0.195461,0.195461,-0.257709,0.262311,-0.002657,0.5696,0.1018,-0.4831
1.3246,0.016743,-0.181738,0.181738,-0.245437,0.246971,-0.002670,0.5313,0.1370,-0.4303
1.3415,0.016978,-0.167778,0.167778,-0.228563,0.231631,-0.002656,0.5741,0.0977,-0.4892
1.3583,0.016748,-0.154049,0.154049,-0.228563,0.231631,-0.002656,0.5741,0.0977,-0.4892
1.3750,0.016746,-0.140449,0.140449,-0.208621,0.214757,-0.002657,0.5696,0.1018,-0.4831
1.3918,0.016744,-0.127063,0.127063,-0.191748,0.199418,-0.002657,0.5696,0.1018,-0.4831
1.4085,0.016744,-0.113972,0.113972,-0.176408,0.182544,-0.002657,0.5696,0.1018,-0.4831
1.4253,0.016747,-0.101255,0.101255,-0.158000,0.164136,-0.002657,0.5696,0.1018,-0.4831
1.4420,0.016746,-0.088996,0.088996,-0.139592,0.144194,-0.002657,0.5696,0.1018,-0.4831
1.4588,0.016749,-0.077267,0.077267,-0.139592,0.144194,-0.002657,0.5696,0.1018,-0.4831
1.4755,0.016742,-0.066149,0.066149,-0.122718,0.122718,-0.002657,0.5696,0.1018,-0.4831
1.4923,0.016741,-0.055705,0.055705,-0.107379,0.107379,-0.002657,0.5696,0.1018,-0.4831
1.5092,0.016919,-0.045901,0.045901,-0.092039,0.092039,-0.002657,0.5696,0.1018,-0.4831
1.5259,0.016753,-0.036998,0.036998,-0.079767,0.079767,-0.002657,0.5696,0.1018,-0.4831
1.5427,0.016773,-0.028943,0.028943,-0.064427,0.062893,-0.002657,0.5696,0.1018,-0.4831
1.5595,0.016760,-0.021803,0.021803,-0.064427,0.062893,-0.002657,0.5696,0.1018,-0.4831
1.5762,0.016715,-0.015630,0.015630,-0.047553,0.050621,-0.002657,0.5696,0.1018,-0.4831
1.5929,0.016747,-0.010433,0.010433,-0.035282,0.036816,-0.002657,0.5696,0.1018,-0.4831
1.6098,0.016918,-0.006221,0.006221,-0.026078,0.029146,-0.002657,0.5696,0.1018,-0.4831
1.6266,0.016753,-0.003103,0.003103,-0.024544,0.021476,-0.002657,0.5696,0.1018,-0.4831
1.6433,0.016742,-0.001054,0.001054,-0.018408,0.012272,-0.002657,0.5696,0.1018,-0.4831
1.6601,0.016750,-0.000084,0.000084,-0.018408,0.012272,-0.002657,0.5696,0.1018,-0.4831
1.6768,0.016742,-0.000200,0.000200,-0.007670,0.004602,-0.002657,0.5696,0.1018,-0.4831
1.6936,0.016796,-0.001406,0.001406,0.000000,0.003068,-0.002657,0.5696,0.1018,-0.4831
1.7104,0.016806,-0.003698,0.003698,0.000000,0.003068,-0.002657,0.5696,0.1018,-0.4831
1.7272,0.016754,-0.007049,0.007049,-0.006136,0.001534,-0.002657,0.5696,0.1018,-0.4831
1.7440,0.016790,-0.011454,0.011454,-0.003068,0.000000,-0.002657,0.5696,0.1018,-0.4831
1.7607,0.016751,-0.016865,0.016865,-0.003068,0.000000,-0.002657,0.5696,0.1018,-0.4831
1.7775,0.016749,-0.023258,0.023258,0.001534,0.001534,-0.002657,0.5696,0.1018,-0.4831
1.7942,0.016760,-0.030597,0.030597,-0.001534,0.004602,-0.002657,0.5696,0.1018,-0.4831
1.8110,0.016750,-0.038829,0.038829,-0.007670,0.009204,-0.002657,0.5696,0.1018,-0.4831
1.8277,0.016753,-0.047908,0.047908,-0.016874,0.015340,-0.002657,0.5696,0.1018,-0.4831
1.8445,0.016754,-0.057776,0.057776,-0.027612,0.019942,-0.002657,0.5696,0.1018,-0.4831
1.8613,0.016776,-0.068386,0.068386,-0.027612,0.019942,-0.002657,0.5696,0.1018,-0.4831
1.8780,0.016745,-0.079637,0.079637,-0.039884,0.030680,-0.002657,0.5696,0.1018,-0.4831
1.8948,0.016757,-0.091487,0.091487,-0.046019,0.042951,-0.002657,0.5696,0.1018,-0.4831
1.9115,0.016754,-0.103853,0.103853,-0.056757,0.064427,-0.002657,0.5696,0.1018,-0.4831
1.9283,0.016800,-0.116695,0.116695,-0.072097,0.076699,-0.002670,0.5313,0.1370,-0.4303
1.9451,0.016800,-0.129899,0.129899,-0.093573,0.096641,-0.002656,0.5741,0.0977,-0.4892
1.9619,0.016756,-0.143347,0.143347,-0.093573,0.096641,-0.002656,0.5741,0.0977,-0.4892
1.9786,0.016752,-0.156987,0.156987,-0.116583,0.113515,-0.002657,0.5696,0.1018,-0.4831
1.9954,0.016740,-0.170725,0.170725,-0.130388,0.125786,-0.002657,0.5696,0.1018,-0.4831
2.0121,0.016742,-0.184489,0.184489,-0.147262,0.142660,-0.002657,0.5696,0.1018,-0.4831
2.0289,0.016754,-0.198201,0.198201,-0.162602,0.162602,-0.002657,0.5696,0.1018,-0.4831
2.0456,0.016747,-0.211760,0.211760,-0.162602,0.162602,-0.002657,0.5696,0.1018,-0.4831
2.0624,0.016756,-0.225093,0.225093,-0.182544,0.181010,-0.002657,0.5696,0.1018,-0.4831
2.0791,0.016741,-0.238101,0.238101,-0.197884,0.191748,-0.002670,0.5313,0.1370,-0.4303
2.0959,0.016749,-0.250719,0.250719,-0.205553,0.204019,-0.002656,0.5741,0.0977,-0.4892
2.1126,0.016746,-0.262860,0.262860,-0.217825,0.220893,-0.002657,0.5696,0.1018,-0.4831
2.1294,0.016749,-0.274454,0.274454,-0.237767,0.242369,-0.002657,0.5696,0.1018,-0.4831
2.1461,0.016749,-0.285426,0.285426,-0.237767,0.242369,-0.002657,0.5696,0.1018,-0.4831
2.1629,0.016754,-0.295710,0.295710,-0.260777,0.262311,-0.002657,0.5696,0.1018,-0.4831
2.1796,0.016744,-0.305234,0.305234,-0.274583,0.266913,-0.002657,0.5696,0.1018,-0.4831
2.1963,0.016712,-0.313929,0.313929,-0.277651,0.274583,-0.002657,0.5696,0.1018,-0.4831
2.2131,0.016746,-0.321774,0.321774,-0.285320,0.289922,-0.002657,0.5696,0.1018,-0.4831
2.2298,0.016760,-0.328709,0.328709,-0.306796,0.311398,-0.002670,0.5313,0.1370,-0.4303
2.2466,0.016746,-0.334678,0.334678,-0.306796,0.311398,-0.002670,0.5313,0.1370,-0.4303
2.2633,0.016760,-0.339653,0.339653,-0.328272,0.320602,-0.002669,0.5353,0.1333,-0.4358
2.2801,0.016746,-0.343597,0.343597,-0.331340,0.322136,-0.002656,0.5737,0.0981,-0.4886
2.2968,0.016744,-0.346488,0.346488,-0.328272,0.326738,-0.002657,0.5696,0.1018,-0.4831
2.3136,0.016746,-0.348309,0.348309,-0.337476,0.342078,-0.002657,0.5696,0.1018,-0.4831
2.3305,0.016919,-0.349050,0.349050,-0.351282,0.346680,-0.002657,0.5696,0.1018,-0.4831
2.3472,0.016746,-0.348692,0.348692,-0.351282,0.346680,-0.002657,0.5696,0.1018,-0.4831
2.3640,0.016749,-0.347250,0.347250,-0.352816,0.343612,-0.002657,0.5696,0.1018,-0.4831
2.3807,0.016740,-0.344734,0.344734,-0.351282,0.349748,-0.002657,0.5696,0.1018,-0.4831
2.3975,0.016744,-0.341158,0.341158,-0.351282,0.349748,-0.002657,0.5696,0.1018,-0.4831
2.4142,0.016743,-0.336546,0.336546,-0.351282,0.346680,-0.002657,0.5696,0.1018,-0.4831
2.4310,0.016755,-0.330921,0.330921,-0.351282,0.346680,-0.002657,0.5696,0.1018,-0.4831
2.4477,0.016740,-0.324328,0.324328,-0.346680,0.342078,-0.002657,0.5696,0.1018,-0.4831
2.4645,0.016756,-0.316796,0.316796,-0.345146,0.342078,-0.002657,0.5696,0.1018,-0.4831
2.4812,0.016738,-0.308387,0.308387,-0.342078,0.339010,-0.002657,0.5696,0.1018,-0.4831
2.4979,0.016747,-0.299141,0.299141,-0.340544,0.337476,-0.002657,0.5696,0.1018,-0.4831
2.5147,0.016740,-0.289123,0.289123,-0.335942,0.331340,-0.002670,0.5313,0.1370,-0.4303
2.5318,0.017125,-0.278138,0.278138,-0.325204,0.323670,-0.002670,0.5313,0.1370,-0.4303
2.5485,0.016742,-0.266746,0.266746,-0.325204,0.323670,-0.002656,0.5741,0.0977,-0.4892
2.5653,0.016751,-0.254773,0.254773,-0.311398,0.312932,-0.002657,0.5696,0.1018,-0.4831
2.5820,0.016739,-0.242310,0.242310,-0.297592,0.300660,-0.002657,0.5696,0.1018,-0.4831
2.5989,0.016841,-0.229346,0.229346,-0.283786,0.289922,-0.002657,0.5696,0.1018,-0.4831
2.6156,0.016744,-0.216115,0.216115,-0.268447,0.274583,-0.002657,0.5696,0.1018,-0.4831
2.6326,0.016992,-0.202423,0.202423,-0.253107,0.256175,-0.002657,0.5696,0.1018,-0.4831
2.6493,0.016738,-0.188761,0.188761,-0.253107,0.256175,-0.002657,0.5696,0.1018,-0.4831
2.6661,0.016756,-0.174996,0.174996,-0.237767,0.242369,-0.002670,0.5313,0.1370,-0.4303
2.6828,0.016742,-0.161239,0.161239,-0.220893,0.225495,-0.002656,0.5741,0.0977,-0.4892
2.6996,0.016787,-0.147528,0.147528,-0.204019,0.211689,-0.002657,0.5696,0.1018,-0.4831
2.7164,0.016744,-0.134020,0.134020,-0.187146,0.194816,-0.002657,0.5696,0.1018,-0.4831
2.7332,0.016820,-0.120706,0.120706,-0.187146,0.194816,-0.002657,0.5696,0.1018,-0.4831
2.7500,0.016759,-0.107775,0.107775,-0.187146,0.194816,-0.002657,0.5696,0.1018,-0.4831
2.7667,0.016752,-0.095266,0.095266,-0.150330,0.154932,-0.002657,0.5696,0.1018,-0.4831
2.7835,0.016745,-0.083255,0.083255,-0.144194,0.141126,-0.002657,0.5696,0.1018,-0.4831
2.8002,0.016740,-0.071816,0.071816,-0.139592,0.127320,-0.002657,0.5696,0.1018,-0.4831
2.8169,0.016744,-0.061013,0.061013,-0.125786,0.113515,-0.002657,0.5696,0.1018,-0.4831
2.8338,0.016871,-0.050843,0.050843,-0.102777,0.093573,-0.002657,0.5696,0.1018,-0.4831
2.8506,0.016760,-0.041514,0.041514,-0.102777,0.093573,-0.002657,0.5696,0.1018,-0.4831
2.8673,0.016755,-0.033016,0.033016,-0.078233,0.076699,-0.002670,0.5313,0.1370,-0.4303
2.8841,0.016740,-0.025406,0.025406,-0.056757,0.058291,-0.002656,0.5741,0.0977,-0.4892
2.9008,0.016743,-0.018723,0.018723,-0.042951,0.046019,-0.002657,0.5696,0.1018,-0.4831
2.9176,0.016746,-0.013008,0.013008,-0.039884,0.036816,-0.002670,0.5313,0.1370,-0.4303
2.9343,0.016759,-0.008295,0.008295,-0.038350,0.030680,-0.002656,0.5741,0.0977,-0.4892
2.9511,0.016754,-0.004620,0.004620,-0.038350,0.030680,-0.002656,0.5741,0.0977,-0.4892
2.9678,0.016751,-0.002003,0.002003,-0.026078,0.023010,-0.002657,0.5696,0.1018,-0.4831
2.9846,0.016751,-0.000461,0.000461,-0.010738,0.012272,-0.002657,0.5696,0.1018,-0.4831
3.0015,0.016947,-0.000004,0.000004,-0.001534,0.004602,-0.002657,0.5696,0.1018,-0.4831
3.0183,0.016749,-0.000646,0.000646,0.000000,0.001534,-0.002657,0.5696,0.1018,-0.4831
3.0350,0.016775,-0.002374,0.002374,-0.004602,0.000000,-0.002657,0.5696,0.1018,-0.4831
3.0518,0.016743,-0.005171,0.005171,-0.004602,0.000000,-0.002657,0.5696,0.1018,-0.4831
3.0685,0.016755,-0.009024,0.009024,-0.003068,-0.001534,-0.002657,0.5696,0.1018,-0.4831
3.0853,0.016751,-0.013908,0.013908,0.003068,0.000000,-0.002657,0.5696,0.1018,-0.4831
3.1021,0.016779,-0.019802,0.019802,0.000000,0.000000,-0.002657,0.5696,0.1018,-0.4831
3.1188,0.016748,-0.026650,0.026650,-0.004602,0.004602,-0.002657,0.5696,0.1018,-0.4831
3.1356,0.016782,-0.034435,0.034435,-0.015340,0.016874,-0.002657,0.5696,0.1018,-0.4831
3.1523,0.016748,-0.043078,0.043078,-0.015340,0.016874,-0.002657,0.5696,0.1018,-0.4831
3.1691,0.016752,-0.052541,0.052541,-0.027612,0.019942,-0.002657,0.5696,0.1018,-0.4831
3.1858,0.016747,-0.062761,0.062761,-0.029146,0.021476,-0.002670,0.5313,0.1370,-0.4303
3.2027,0.016845,-0.073742,0.073742,-0.027612,0.026078,-0.002656,0.5741,0.0977,-0.4892
3.2194,0.016703,-0.085258,0.085258,-0.035282,0.042951,-0.002657,0.5696,0.1018,-0.4831
3.2362,0.016785,-0.097387,0.097387,-0.053689,0.061359,-0.002657,0.5696,0.1018,-0.4831
3.2529,0.016746,-0.109969,0.109969,-0.053689,0.061359,-0.002657,0.5696,0.1018,-0.4831
3.2697,0.016753,-0.122958,0.122958,-0.073631,0.078233,-0.002657,0.5696,0.1018,-0.4831
3.2864,0.016741,-0.136259,0.136259,-0.090505,0.088971,-0.002657,0.5696,0.1018,-0.4831
3.3032,0.016764,-0.149817,0.149817,-0.102777,0.095107,-0.002657,0.5696,0.1018,-0.4831
3.3199,0.016740,-0.163509,0.163509,-0.110447,0.105845,-0.002657,0.5696,0.1018,-0.4831
3.3367,0.016768,-0.177293,0.177293,-0.110447,0.105845,-0.002657,0.5696,0.1018,-0.4831
3.3534,0.016749,-0.191044,0.191044,-0.124252,0.125786,-0.002670,0.5313,0.1370,-0.4303
3.3702,0.016752,-0.204695,0.204695,-0.145728,0.148796,-0.002656,0.5741,0.0977,-0.4892
3.3869,0.016750,-0.218156,0.218156,-0.168738,0.167204,-0.002657,0.5696,0.1018,-0.4831
3.4040,0.017039,-0.231570,0.231570,-0.187146,0.181010,-0.002657,0.5696,0.1018,-0.4831
3.4207,0.016707,-0.244366,0.244366,-0.208621,0.197884,-0.002657,0.5696,0.1018,-0.4831
3.4374,0.016761,-0.256769,0.256769,-0.208621,0.197884,-0.002657,0.5696,0.1018,-0.4831
3.4542,0.016752,-0.268653,0.268653,-0.223961,0.217825,-0.002657,0.5696,0.1018,-0.4831
3.4709,0.016744,-0.279946,0.279946,-0.231631,0.234699,-0.002657,0.5696,0.1018,-0.4831
3.4877,0.016745,-0.290583,0.290583,-0.240835,0.243903,-0.002657,0.5696,0.1018,-0.4831
3.5044,0.016750,-0.300500,0.300500,-0.254641,0.251573,-0.002670,0.5313,0.1370,-0.4303
3.5212,0.016747,-0.309632,0.309632,-0.279185,0.277651,-0.002656,0.5741,0.0977,-0.4892
3.5379,0.016756,-0.317927,0.317927,-0.279185,0.277651,-0.002656,0.5741,0.0977,-0.4892
3.5547,0.016749,-0.325326,0.325326,-0.297592,0.294524,-0.002657,0.5696,0.1018,-0.4831
3.5714,0.016742,-0.331783,0.331783,-0.303728,0.300660,-0.002657,0.5696,0.1018,-0.4831
3.5882,0.016741,-0.337262,0.337262,-0.303728,0.302194,-0.002657,0.5696,0.1018,-0.4831
3.6049,0.016748,-0.341730,0.341730,-0.311398,0.314466,-0.002657,0.5696,0.1018,-0.4831
3.6217,0.016744,-0.345156,0.345156,-0.334408,0.334408,-0.002657,0.5696,0.1018,-0.4831
3.6384,0.016753,-0.347522,0.347522,-0.334408,0.334408,-0.002657,0.5696,0.1018,-0.4831
3.6552,0.016752,-0.348810,0.348810,-0.345146,0.339010,-0.002657,0.5696,0.1018,-0.4831
3.6719,0.016742,-0.349013,0.349013,-0.343612,0.337476,-0.002670,0.5313,0.1370,-0.4303
3.6887,0.016742,-0.348130,0.348130,-0.345146,0.343612,-0.002656,0.5741,0.0977,-0.4892
3.7054,0.016751,-0.346166,0.346166,-0.355884,0.349748,-0.002657,0.5696,0.1018,-0.4831
3.7222,0.016746,-0.343134,0.343134,-0.355884,0.348214,-0.002657,0.5696,0.1018,-0.4831
3.7389,0.016745,-0.339053,0.339053,-0.355884,0.348214,-0.002657,0.5696,0.1018,-0.4831
3.7557,0.016785,-0.333934,0.333934,-0.349748,0.346680,-0.002657,0.5696,0.1018,-0.4831
3.7725,0.016864,-0.327788,0.327788,-0.349748,0.346680,-0.002657,0.5696,0.1018,-0.4831
3.7893,0.016742,-0.320730,0.320730,-0.349748,0.346680,-0.002657,0.5696,0.1018,-0.4831
3.8060,0.016750,-0.312758,0.312758,-0.345146,0.342078,-0.002657,0.5696,0.1018,-0.4831
3.8228,0.016745,-0.303928,0.303928,-0.345146,0.342078,-0.002670,0.5313,0.1370,-0.4303
3.8395,0.016742,-0.294294,0.294294,-0.345146,0.342078,-0.002656,0.5741,0.0977,-0.4892
3.8563,0.016744,-0.283914,0.283914,-0.339010,0.335942,-0.002657,0.5696,0.1018,-0.4831
3.8730,0.016747,-0.272851,0.272851,-0.339010,0.335942,-0.002657,0.5696,0.1018,-0.4831
3.8898,0.016743,-0.261179,0.261179,-0.325204,0.326738,-0.002657,0.5696,0.1018,-0.4831
3.9065,0.016742,-0.248969,0.248969,-0.308330,0.309864,-0.002657,0.5696,0.1018,-0.4831
3.9232,0.016741,-0.236296,0.236296,-0.289922,0.297592,-0.002657,0.5696,0.1018,-0.4831
3.9400,0.016745,-0.223236,0.223236,-0.274583,0.280718,-0.002657,0.5696,0.1018,-0.4831
3.9568,0.016765,-0.209856,0.209856,-0.259243,0.265379,-0.002657,0.5696,0.1018,-0.4831
3.9735,0.016742,-0.196275,0.196275,-0.259243,0.265379,-0.002657,0.5696,0.1018,-0.4831
3.9902,0.016742,-0.182559,0.182559,-0.243903,0.248505,-0.002657,0.5696,0.1018,-0.4831
4.0070,0.016745,-0.168791,0.168791,-0.231631,0.236233,-0.002657,0.5696,0.1018,-0.4831
4.0237,0.016741,-0.155061,0.155061,-0.214757,0.220893,-0.002657,0.5696,0.1018,-0.4831
4.0405,0.016755,-0.141441,0.141441,-0.199418,0.207087,-0.002670,0.5313,0.1370,-0.4303
4.0572,0.016749,-0.128033,0.128033,-0.181010,0.188680,-0.002656,0.5741,0.0977,-0.4892
4.0740,0.016747,-0.114915,0.114915,-0.181010,0.188680,-0.002656,0.5741,0.0977,-0.4892
4.0908,0.016813,-0.102120,0.102120,-0.162602,0.168738,-0.002657,0.5696,0.1018,-0.4831
4.1075,0.016742,-0.089829,0.089829,-0.147262,0.150330,-0.002670,0.5313,0.1370,-0.4303
4.1243,0.016745,-0.078064,0.078064,-0.133456,0.134990,-0.002656,0.5741,0.0977,-0.4892
4.1410,0.016746,-0.066898,0.066898,-0.116583,0.116583,-0.002657,0.5696,0.1018,-0.4831
4.1578,0.016749,-0.056401,0.056401,-0.096641,0.099709,-0.002657,0.5696,0.1018,-0.4831
4.1745,0.016739,-0.046644,0.046644,-0.096641,0.099709,-0.002657,0.5696,0.1018,-0.4831
4.1913,0.016747,-0.037679,0.037679,-0.079767,0.081301,-0.002657,0.5696,0.1018,-0.4831
4.2080,0.016741,-0.029568,0.029568,-0.067495,0.065961,-0.002657,0.5696,0.1018,-0.4831
4.2248,0.016768,-0.022348,0.022348,-0.055223,0.055223,-0.002657,0.5696,0.1018,-0.4831
4.2415,0.016745,-0.016086,0.016086,-0.042951,0.044485,-0.002657,0.5696,0.1018,-0.4831
4.2587,0.017230,-0.010672,0.010672,-0.029146,0.032214,-0.002657,0.5696,0.1018,-0.4831
4.2755,0.016745,-0.006445,0.006445,-0.029146,0.032214,-0.002657,0.5696,0.1018,-0.4831
4.2922,0.016756,-0.003262,0.003262,-0.016874,0.021476,-0.002657,0.5696,0.1018,-0.4831
4.3090,0.016743,-0.001148,0.001148,-0.015340,0.013806,-0.002657,0.5696,0.1018,-0.4831
4.3257,0.016742,-0.000112,0.000112,-0.016874,0.006136,-0.002657,0.5696,0.1018,-0.4831
4.3425,0.016746,-0.000162,0.000162,-0.012272,0.004602,-0.002657,0.5696,0.1018,-0.4831
4.3592,0.016767,-0.001299,0.001299,-0.003068,0.001534,-0.002657,0.5696,0.1018,-0.4831
4.3760,0.016742,-0.003513,0.003513,-0.003068,0.001534,-0.002657,0.5696,0.1018,-0.4831
4.3928,0.016773,-0.006798,0.006798,0.003068,0.000000,-0.002657,0.5696,0.1018,-0.4831
4.4095,0.016742,-0.011121,0.011121,0.001534,0.000000,-0.002657,0.5696,0.1018,-0.4831
4.4266,0.017109,-0.016589,0.016589,-0.006136,0.000000,-0.002657,0.5696,0.1018,-0.4831
4.4433,0.016742,-0.022933,0.022933,-0.006136,0.003068,-0.002657,0.5696,0.1018,-0.4831
4.4601,0.016755,-0.030227,0.030227,-0.006136,0.012272,-0.002657,0.5696,0.1018,-0.4831
4.4768,0.016746,-0.038415,0.038415,-0.006136,0.012272,-0.002657,0.5696,0.1018,-0.4831
4.4936,0.016765,-0.047461,0.047461,-0.012272,0.016874,-0.002657,0.5696,0.1018,-0.4831
4.5104,0.016742,-0.057285,0.057285,-0.023010,0.016874,-0.002657,0.5696,0.1018,-0.4831
4.5271,0.016747,-0.067843,0.067843,-0.033748,0.023010,-0.002670,0.5313,0.1370,-0.4303
4.5439,0.016751,-0.079067,0.079067,-0.042951,0.033748,-0.002656,0.5741,0.0977,-0.4892
4.5610,0.017131,-0.091160,0.091160,-0.049087,0.047553,-0.002656,0.5741,0.0977,-0.4892
4.5777,0.016744,-0.103505,0.103505,-0.049087,0.047553,-0.002657,0.5696,0.1018,-0.4831
4.5945,0.016753,-0.116299,0.116299,-0.065961,0.069029,-0.002670,0.5313,0.1370,-0.4303
4.6112,0.016743,-0.129448,0.129448,-0.082835,0.081301,-0.002656,0.5741,0.0977,-0.4892
4.6280,0.016744,-0.142879,0.142879,-0.092039,0.088971,-0.002657,0.5696,0.1018,-0.4831
4.6447,0.016747,-0.156509,0.156509,-0.102777,0.099709,-0.002657,0.5696,0.1018,-0.4831
4.6615,0.016783,-0.170281,0.170281,-0.119651,0.118117,-0.002657,0.5696,0.1018,-0.4831
4.6783,0.016764,-0.184064,0.184064,-0.119651,0.118117,-0.002657,0.5696,0.1018,-0.4831
4.6950,0.016769,-0.197791,0.197791,-0.139592,0.139592,-0.002657,0.5696,0.1018,-0.4831
4.7118,0.016759,-0.211365,0.211365,-0.161068,0.159534,-0.002657,0.5696,0.1018,-0.4831
4.7286,0.016807,-0.224747,0.224747,-0.174874,0.170272,-0.002657,0.5696,0.1018,-0.4831
4.7454,0.016762,-0.237780,0.237780,-0.187146,0.182544,-0.002657,0.5696,0.1018,-0.4831
4.7621,0.016760,-0.250417,0.250417,-0.204019,0.202485,-0.002657,0.5696,0.1018,-0.4831
4.7789,0.016752,-0.262575,0.262575,-0.204019,0.202485,-0.002657,0.5696,0.1018,-0.4831
4.7957,0.016793,-0.274213,0.274213,-0.223961,0.222427,-0.002657,0.5696,0.1018,-0.4831
4.8125,0.016800,-0.285231,0.285231,-0.223961,0.222427,-0.002657,0.5696,0.1018,-0.4831
4.8292,0.016770,-0.295538,0.295538,-0.223961,0.222427,-0.002657,0.5696,0.1018,-0.4831
4.8460,0.016754,-0.305081,0.305081,-0.223961,0.222427,-0.002657,0.5696,0.1018,-0.4831
4.8628,0.016770,-0.313819,0.313819,-0.251573,0.253107,-0.002657,0.5696,0.1018,-0.4831
4.8795,0.016776,-0.321689,0.321689,-0.254641,0.254641,-0.002657,0.5696,0.1018,-0.4831
4.8963,0.016768,-0.328638,0.328638,-0.273049,0.271515,-0.002657,0.5696,0.1018,-0.4831
4.9131,0.016751,-0.334619,0.334619,-0.306796,0.305262,-0.002657,0.5696,0.1018,-0.4831
4.9298,0.016768,-0.339608,0.339608,-0.337476,0.332874,-0.002657,0.5696,0.1018,-0.4831
4.9466,0.016750,-0.343563,0.343563,-0.337476,0.332874,-0.002657,0.5696,0.1018,-0.4831
4.9633,0.016772,-0.346468,0.346468,-0.345146,0.340544,-0.002657,0.5696,0.1018,-0.4831
4.9801,0.016756,-0.348299,0.348299,-0.340544,0.337476,-0.002657,0.5696,0.1018,-0.4831
4.9969,0.016769,-0.349047,0.349047,-0.343612,0.340544,-0.002657,0.5696,0.1018,-0.4831
5.0136,0.016757,-0.348706,0.348706,-0.354350,0.349748,-0.002657,0.5696,0.1018,-0.4831
5.0304,0.016781,-0.347278,0.347278,-0.354350,0.349748,-0.002657,0.5696,0.1018,-0.4831
5.0471,0.016729,-0.344779,0.344779,-0.354350,0.349748,-0.002657,0.5696,0.1018,-0.4831
5.0639,0.016723,-0.341223,0.341223,-0.351282,0.349748,-0.002657,0.5696,0.1018,-0.4831
5.0806,0.016749,-0.336626,0.336626,-0.351282,0.348214,-0.002657,0.5696,0.1018,-0.4831
5.0974,0.016764,-0.331013,0.331013,-0.351282,0.348214,-0.002657,0.5696,0.1018,-0.4831
5.1141,0.016753,-0.324429,0.324429,-0.348214,0.343612,-0.002657,0.5696,0.1018,-0.4831
5.1309,0.016778,-0.316900,0.316900,-0.348214,0.343612,-0.002657,0.5696,0.1018,-0.4831
5.1477,0.016756,-0.308492,0.308492,-0.343612,0.340544,-0.002657,0.5696,0.1018,-0.4831
5.1644,0.016761,-0.299247,0.299247,-0.339010,0.335942,-0.002657,0.5696,0.1018,-0.4831
5.1812,0.016751,-0.289231,0.289231,-0.332874,0.332874,-0.002657,0.5696,0.1018,-0.4831
5.1979,0.016770,-0.278487,0.278487,-0.323670,0.328272,-0.002657,0.5696,0.1018,-0.4831
5.2147,0.016751,-0.267108,0.267108,-0.311398,0.319068,-0.002657,0.5696,0.1018,-0.4831
5.2315,0.016766,-0.255141,0.255141,-0.311398,0.319068,-0.002657,0.5696,0.1018,-0.4831
5.2482,0.016752,-0.242682,0.242682,-0.299126,0.305262,-0.002657,0.5696,0.1018,-0.4831
5.2661,0.017924,-0.228884,0.228884,-0.283786,0.291456,-0.002657,0.5696,0.1018,-0.4831
5.2829,0.016752,-0.215636,0.215636,-0.274583,0.279185,-0.002670,0.5313,0.1370,-0.4303
5.2996,0.016756,-0.202128,0.202128,-0.260777,0.263845,-0.002656,0.5741,0.0977,-0.4892
5.3164,0.016759,-0.188445,0.188445,-0.243903,0.245437,-0.002670,0.5308,0.1374,-0.4297
5.3332,0.016763,-0.174673,0.174673,-0.243903,0.245437,-0.002670,0.5308,0.1374,-0.4297
5.3499,0.016755,-0.160907,0.160907,-0.225495,0.228563,-0.002656,0.5741,0.0977,-0.4893
5.3667,0.016757,-0.147223,0.147223,-0.207087,0.214757,-0.002657,0.5696,0.1018,-0.4830
5.3836,0.016911,-0.133587,0.133587,-0.190214,0.197884,-0.002657,0.5696,0.1018,-0.4830
5.4003,0.016755,-0.120332,0.120332,-0.173340,0.181010,-0.002657,0.5696,0.1018,-0.4830
5.4178,0.017475,-0.106870,0.106870,-0.154932,0.159534,-0.002657,0.5696,0.1018,-0.4830
5.4346,0.016771,-0.094379,0.094379,-0.154932,0.159534,-0.002657,0.5696,0.1018,-0.4830
5.4513,0.016759,-0.082397,0.082397,-0.138058,0.141126,-0.002657,0.5696,0.1018,-0.4830
5.4681,0.016757,-0.070991,0.070991,-0.122718,0.122718,-0.002657,0.5696,0.1018,-0.4830
5.4849,0.016764,-0.060226,0.060226,-0.110447,0.110447,-0.002670,0.5313,0.1370,-0.4303
5.5016,0.016756,-0.050178,0.050178,-0.093573,0.093573,-0.002656,0.5741,0.0977,-0.4892
5.5184,0.016760,-0.040904,0.040904,-0.078233,0.078233,-0.002657,0.5696,0.1018,-0.4831
5.5352,0.016768,-0.032459,0.032459,-0.078233,0.078233,-0.002657,0.5696,0.1018,-0.4831
5.5519,0.016759,-0.024904,0.024904,-0.064427,0.062893,-0.002657,0.5696,0.1018,-0.4831
5.5687,0.016753,-0.018284,0.018284,-0.049087,0.050621,-0.002657,0.5696,0.1018,-0.4831
5.5855,0.016855,-0.012606,0.012606,-0.036816,0.038350,-0.002657,0.5696,0.1018,-0.4831
5.6023,0.016765,-0.007971,0.007971,-0.029146,0.030680,-0.002657,0.5696,0.1018,-0.4831
5.6191,0.016860,-0.004358,0.004358,-0.021476,0.021476,-0.002657,0.5696,0.1018,-0.4831
5.6360,0.016859,-0.001819,0.001819,-0.021476,0.021476,-0.002657,0.5696,0.1018,-0.4831
5.6528,0.016780,-0.000373,0.000373,-0.009204,0.012272,-0.002657,0.5696,0.1018,-0.4831
5.6695,0.016755,-0.000016,0.000016,-0.006136,0.004602,-0.002657,0.5696,0.1018,-0.4831
5.6863,0.016766,-0.000747,0.000747,-0.007670,0.004602,-0.002657,0.5696,0.1018,-0.4831
5.7031,0.016759,-0.002561,0.002561,-0.001534,0.003068,-0.002670,0.5313,0.1370,-0.4303
5.7199,0.016838,-0.005463,0.005463,0.003068,-0.001534,-0.002656,0.5741,0.0977,-0.4892
5.7367,0.016762,-0.009409,0.009409,0.003068,-0.001534,-0.002656,0.5741,0.0977,-0.4892
5.7534,0.016756,-0.014383,0.014383,-0.001534,-0.001534,-0.002657,0.5696,0.1018,-0.4831
5.7702,0.016754,-0.020354,0.020354,-0.004602,0.000000,-0.002657,0.5696,0.1018,-0.4831
5.7869,0.016757,-0.027287,0.027287,-0.003068,0.003068,-0.002657,0.5696,0.1018,-0.4831
5.8037,0.016759,-0.035138,0.035138,-0.003068,0.010738,-0.002657,0.5696,0.1018,-0.4831
5.8211,0.017376,-0.044196,0.044196,-0.012272,0.021476,-0.002657,0.5696,0.1018,-0.4831
5.8378,0.016763,-0.053762,0.053762,-0.012272,0.021476,-0.002657,0.5696,0.1018,-0.4831
5.8555,0.017640,-0.064641,0.064641,-0.024544,0.026078,-0.002657,0.5696,0.1018,-0.4831
5.8722,0.016756,-0.075679,0.075679,-0.024544,0.026078,-0.002657,0.5696,0.1018,-0.4831
5.8890,0.016746,-0.087325,0.087325,-0.046019,0.033748,-0.002657,0.5696,0.1018,-0.4831
5.9058,0.016809,-0.099562,0.099562,-0.044485,0.046019,-0.002657,0.5696,0.1018,-0.4831
5.9225,0.016749,-0.112222,0.112222,-0.046019,0.053689,-0.002657,0.5696,0.1018,-0.4831
5.9393,0.016809,-0.125317,0.125317,-0.046019,0.053689,-0.002657,0.5696,0.1018,-0.4831
5.9561,0.016747,-0.138672,0.138672,-0.061359,0.067495,-0.002657,0.5696,0.1018,-0.4831
5.9730,0.016942,-0.152409,0.152409,-0.088971,0.090505,-0.002670,0.5313,0.1370,-0.4303
5.9898,0.016739,-0.166120,0.166120,-0.113515,0.111981,-0.002656,0.5741,0.0977,-0.4892
6.0065,0.016747,-0.179889,0.179889,-0.134990,0.130388,-0.002670,0.5308,0.1374,-0.4297
6.0233,0.016746,-0.193625,0.193625,-0.154932,0.148796,-0.002656,0.5741,0.0977,-0.4893
6.0400,0.016762,-0.207255,0.207255,-0.154932,0.148796,-0.002656,0.5741,0.0977,-0.4893
6.0568,0.016749,-0.220670,0.220670,-0.170272,0.167204,-0.002670,0.5308,0.1374,-0.4297
6.0735,0.016740,-0.233791,0.233791,-0.181010,0.181010,-0.002656,0.5741,0.0977,-0.4893
6.0903,0.016739,-0.246543,0.246543,-0.191748,0.190214,-0.002657,0.5696,0.1018,-0.4830
6.1070,0.016739,-0.258847,0.258847,-0.208621,0.202485,-0.002657,0.5696,0.1018,-0.4830
6.1237,0.016748,-0.270633,0.270633,-0.230097,0.225495,-0.002657,0.5696,0.1018,-0.4830
6.1405,0.016719,-0.281801,0.281801,-0.230097,0.225495,-0.002657,0.5696,0.1018,-0.4830
6.1572,0.016749,-0.292323,0.292323,-0.250039,0.246971,-0.002657,0.5696,0.1018,-0.4830
6.1739,0.016743,-0.302108,0.302108,-0.260777,0.262311,-0.002657,0.5696,0.1018,-0.4830
6.1907,0.016746,-0.311100,0.311100,-0.265379,0.265379,-0.002657,0.5696,0.1018,-0.4830
6.2074,0.016744,-0.319241,0.319241,-0.276117,0.271515,-0.002657,0.5696,0.1018,-0.4830
6.2242,0.016751,-0.326485,0.326485,-0.296058,0.291456,-0.002657,0.5696,0.1018,-0.4830
6.2409,0.016739,-0.332779,0.332779,-0.296058,0.291456,-0.002657,0.5696,0.1018,-0.4830
6.2577,0.016740,-0.338088,0.338088,-0.314466,0.312932,-0.002657,0.5696,0.1018,-0.4830
6.2744,0.016751,-0.342383,0.342383,-0.322136,0.319068,-0.002657,0.5696,0.1018,-0.4830
6.2912,0.016751,-0.345632,0.345632,-0.323670,0.317534,-0.002657,0.5696,0.1018,-0.4830
6.3079,0.016748,-0.347816,0.347816,-0.331340,0.326738,-0.002657,0.5696,0.1018,-0.4830
6.3247,0.016763,-0.348921,0.348921,-0.346680,0.340544,-0.002657,0.5696,0.1018,-0.4830
6.3414,0.016744,-0.348939,0.348939,-0.346680,0.340544,-0.002657,0.5696,0.1018,-0.4830
6.3582,0.016755,-0.347871,0.347871,-0.349748,0.346680,-0.002670,0.5313,0.1370,-0.4303
6.3749,0.016745,-0.345724,0.345724,-0.348214,0.345146,-0.002656,0.5741,0.0977,-0.4892
6.3920,0.017117,-0.342429,0.342429,-0.351282,0.348214,-0.002657,0.5696,0.1018,-0.4831
6.4088,0.016749,-0.338148,0.338148,-0.351282,0.346680,-0.002657,0.5696,0.1018,-0.4831
6.4256,0.016763,-0.332843,0.332843,-0.346680,0.342078,-0.002657,0.5696,0.1018,-0.4831
6.4423,0.016742,-0.326559,0.326559,-0.346680,0.342078,-0.002657,0.5696,0.1018,-0.4831
6.4592,0.016859,-0.319276,0.319276,-0.346680,0.342078,-0.002657,0.5696,0.1018,-0.4831
6.4759,0.016741,-0.311140,0.311140,-0.342078,0.339010,-0.002657,0.5696,0.1018,-0.4831
6.4927,0.016783,-0.302131,0.302131,-0.340544,0.337476,-0.002657,0.5696,0.1018,-0.4831
6.5094,0.016750,-0.292343,0.292343,-0.334408,0.331340,-0.002657,0.5696,0.1018,-0.4831
6.5262,0.016769,-0.281811,0.281811,-0.334408,0.331340,-0.002657,0.5696,0.1018,-0.4831
6.5429,0.016743,-0.270626,0.270626,-0.323670,0.322136,-0.002657,0.5696,0.1018,-0.4831
6.5597,0.016758,-0.258833,0.258833,-0.311398,0.311398,-0.002657,0.5696,0.1018,-0.4831
6.5764,0.016696,-0.246560,0.246560,-0.296058,0.300660,-0.002657,0.5696,0.1018,-0.4831
6.5931,0.016746,-0.233803,0.233803,-0.282252,0.286854,-0.002657,0.5696,0.1018,-0.4831
6.6099,0.016744,-0.220680,0.220680,-0.268447,0.274583,-0.002657,0.5696,0.1018,-0.4831
6.6267,0.016772,-0.207246,0.207246,-0.268447,0.274583,-0.002657,0.5696,0.1018,-0.4831
6.6434,0.016746,-0.193630,0.193630,-0.253107,0.257709,-0.002657,0.5696,0.1018,-0.4831
6.6602,0.016759,-0.179884,0.179884,-0.236233,0.242369,-0.002657,0.5696,0.1018,-0.4831
6.6769,0.016742,-0.166118,0.166118,-0.222427,0.227029,-0.002657,0.5696,0.1018,-0.4831
6.6937,0.016759,-0.152391,0.152391,-0.202485,0.210155,-0.002657,0.5696,0.1018,-0.4831
6.7104,0.016744,-0.138814,0.138814,-0.184078,0.191748,-0.002657,0.5696,0.1018,-0.4831
6.7272,0.016756,-0.125449,0.125449,-0.184078,0.191748,-0.002657,0.5696,0.1018,-0.4831
6.7439,0.016747,-0.112397,0.112397,-0.167204,0.173340,-0.002657,0.5696,0.1018,-0.4831
6.7607,0.016756,-0.099726,0.099726,-0.150330,0.154932,-0.002657,0.5696,0.1018,-0.4831
6.7774,0.016746,-0.087527,0.087527,-0.136524,0.138058,-0.002657,0.5696,0.1018,-0.4831
6.7942,0.016755,-0.075865,0.075865,-0.119651,0.119651,-0.002657,0.5696,0.1018,-0.4831
6.8109,0.016749,-0.064821,0.064821,-0.102777,0.101243,-0.002657,0.5696,0.1018,-0.4831
6.8277,0.016765,-0.054451,0.054451,-0.102777,0.101243,-0.002657,0.5696,0.1018,-0.4831
6.8444,0.016749,-0.044838,0.044838,-0.085903,0.084369,-0.002657,0.5696,0.1018,-0.4831
6.8612,0.016752,-0.036032,0.036032,-0.070563,0.070563,-0.002670,0.5313,0.1370,-0.4303
6.8781,0.016896,-0.028023,0.028023,-0.059825,0.059825,-0.002656,0.5741,0.0977,-0.4892
6.8948,0.016761,-0.020996,0.020996,-0.059825,0.059825,-0.002656,0.5741,0.0977,-0.4892
6.9116,0.016749,-0.014930,0.014930,-0.030680,0.035282,-0.002657,0.5696,0.1018,-0.4831
6.9284,0.016763,-0.009854,0.009854,-0.030680,0.035282,-0.002657,0.5696,0.1018,-0.4831
6.9451,0.016746,-0.005809,0.005809,-0.027612,0.030680,-0.002657,0.5696,0.1018,-0.4831
6.9619,0.016792,-0.002807,0.002807,-0.024544,0.027612,-0.002657,0.5696,0.1018,-0.4831
6.9786,0.016754,-0.000883,0.000883,-0.015340,0.019942,-0.002657,0.5696,0.1018,-0.4831
6.9954,0.016762,-0.000041,0.000041,-0.004602,0.007670,-0.002657,0.5696,0.1018,-0.4831
7.0121,0.016744,-0.000286,0.000286,0.004602,-0.001534,-0.002657,0.5696,0.1018,-0.4831
7.0289,0.016755,-0.001616,0.001616,0.004602,-0.001534,-0.002657,0.5696,0.1018,-0.4831
7.0457,0.016750,-0.004023,0.004023,0.003068,-0.003068,-0.002657,0.5696,0.1018,-0.4831
7.0624,0.016791,-0.007502,0.007502,-0.006136,0.001534,-0.002657,0.5696,0.1018,-0.4831
7.0792,0.016743,-0.012011,0.012011,-0.003068,0.001534,-0.002657,0.5696,0.1018,-0.4831
7.0959,0.016758,-0.017537,0.017537,0.001534,0.000000,-0.002657,0.5696,0.1018,-0.4831
7.1127,0.016749,-0.024038,0.024038,-0.001534,0.006136,-0.002657,0.5696,0.1018,-0.4831
7.1294,0.016756,-0.031479,0.031479,-0.001534,0.006136,-0.002657,0.5696,0.1018,-0.4831
7.1462,0.016745,-0.039805,0.039805,-0.009204,0.013806,-0.002657,0.5696,0.1018,-0.4831
7.1629,0.016752,-0.048975,0.048975,-0.019942,0.016874,-0.002657,0.5696,0.1018,-0.4831
7.1797,0.016741,-0.058919,0.058919,-0.030680,0.018408,-0.002670,0.5313,0.1370,-0.4303
7.1964,0.016757,-0.069593,0.069593,-0.038350,0.027612,-0.002656,0.5741,0.0977,-0.4892
7.2133,0.016810,-0.080958,0.080958,-0.046019,0.044485,-0.002657,0.5696,0.1018,-0.4831
7.2300,0.016759,-0.092873,0.092873,-0.046019,0.044485,-0.002657,0.5696,0.1018,-0.4831
7.2468,0.016740,-0.105283,0.105283,-0.059825,0.062893,-0.002657,0.5696,0.1018,-0.4831
7.2635,0.016749,-0.118130,0.118130,-0.076699,0.075165,-0.002657,0.5696,0.1018,-0.4831
7.2802,0.016746,-0.131326,0.131326,-0.085903,0.081301,-0.002670,0.5313,0.1370,-0.4303
7.2970,0.016748,-0.144793,0.144793,-0.093573,0.090505,-0.002656,0.5741,0.0977,-0.4892
7.3138,0.016825,-0.158507,0.158507,-0.113515,0.111981,-0.002657,0.5696,0.1018,-0.4831
7.3306,0.016758,-0.172268,0.172268,-0.113515,0.111981,-0.002657,0.5696,0.1018,-0.4831
7.3473,0.016742,-0.186029,0.186029,-0.131922,0.133456,-0.002657,0.5696,0.1018,-0.4831
7.3641,0.016749,-0.199725,0.199725,-0.154932,0.151864,-0.002657,0.5696,0.1018,-0.4831
7.3808,0.016741,-0.213258,0.213258,-0.168738,0.162602,-0.002657,0.5696,0.1018,-0.4831
7.3976,0.016749,-0.226556,0.226556,-0.179476,0.171806,-0.002657,0.5696,0.1018,-0.4831
7.4143,0.016740,-0.239523,0.239523,-0.196350,0.194816,-0.002657,0.5696,0.1018,-0.4831
7.4311,0.016753,-0.252095,0.252095,-0.196350,0.194816,-0.002657,0.5696,0.1018,-0.4831
7.4478,0.016744,-0.264177,0.264177,-0.217825,0.216291,-0.002657,0.5696,0.1018,-0.4831
7.4646,0.016759,-0.275712,0.275712,-0.234699,0.234699,-0.002657,0.5696,0.1018,-0.4831
7.4813,0.016740,-0.286605,0.286605,-0.243903,0.242369,-0.002657,0.5696,0.1018,-0.4831
7.4980,0.016743,-0.296802,0.296802,-0.254641,0.251573,-0.002657,0.5696,0.1018,-0.4831
7.5148,0.016779,-0.306257,0.306257,-0.273049,0.273049,-0.002670,0.5313,0.1370,-0.4303
7.5316,0.016757,-0.314879,0.314879,-0.273049,0.273049,-0.002670,0.5313,0.1370,-0.4303
7.5483,0.016741,-0.322619,0.322619,-0.292990,0.291456,-0.002656,0.5741,0.0977,-0.4892
7.5651,0.016745,-0.329440,0.329440,-0.303728,0.299126,-0.002657,0.5696,0.1018,-0.4831
7.5818,0.016740,-0.335294,0.335294,-0.308330,0.305262,-0.002657,0.5696,0.1018,-0.4831
7.5985,0.016745,-0.340151,0.340151,-0.314466,0.319068,-0.002657,0.5696,0.1018,-0.4831
7.6153,0.016748,-0.343977,0.343977,-0.334408,0.334408,-0.002657,0.5696,0.1018,-0.4831
7.6320,0.016754,-0.346749,0.346749,-0.334408,0.334408,-0.002670,0.5313,0.1370,-0.4303
7.6488,0.016708,-0.348445,0.348445,-0.343612,0.337476,-0.002656,0.5741,0.0977,-0.4892
7.6655,0.016749,-0.349063,0.349063,-0.343612,0.337476,-0.002657,0.5696,0.1018,-0.4831
7.6822,0.016743,-0.348596,0.348596,-0.346680,0.342078,-0.002657,0.5696,0.1018,-0.4831
7.6990,0.016773,-0.347041,0.347041,-0.354350,0.349748,-0.002657,0.5696,0.1018,-0.4831
7.7159,0.016883,-0.344389,0.344389,-0.354350,0.349748,-0.002657,0.5696,0.1018,-0.4831
7.7327,0.016760,-0.340693,0.340693,-0.354350,0.349748,-0.002657,0.5696,0.1018,-0.4831
7.7494,0.016748,-0.335965,0.335965,-0.351282,0.348214,-0.002657,0.5696,0.1018,-0.4831
7.7662,0.016749,-0.330231,0.330231,-0.351282,0.348214,-0.002657,0.5696,0.1018,-0.4831
7.7829,0.016749,-0.323528,0.323528,-0.349748,0.346680,-0.002657,0.5696,0.1018,-0.4831
7.7997,0.016751,-0.315896,0.315896,-0.345146,0.342078,-0.002657,0.5696,0.1018,-0.4831
7.8164,0.016743,-0.307388,0.307388,-0.342078,0.339010,-0.002657,0.5696,0.1018,-0.4831
7.8332,0.016756,-0.298046,0.298046,-0.342078,0.339010,-0.002657,0.5696,0.1018,-0.4831
7.8499,0.016751,-0.287938,0.287938,-0.335942,0.332874,-0.002657,0.5696,0.1018,-0.4831
7.8667,0.016752,-0.277122,0.277122,-0.325204,0.329806,-0.002657,0.5696,0.1018,-0.4831
7.8835,0.016866,-0.265588,0.265588,-0.316000,0.320602,-0.002670,0.5313,0.1370,-0.4303
7.9003,0.016758,-0.253558,0.253558,-0.305262,0.308330,-0.002656,0.5741,0.0977,-0.4892
7.9171,0.016764,-0.241031,0.241031,-0.305262,0.308330,-0.002656,0.5741,0.0977,-0.4892
7.9338,0.016771,-0.228083,0.228083,-0.305262,0.308330,-0.002656,0.5741,0.0977,-0.4892
7.9506,0.016752,-0.214817,0.214817,-0.276117,0.279185,-0.002657,0.5696,0.1018,-0.4831
7.9673,0.016749,-0.201302,0.201302,-0.265379,0.269981,-0.002657,0.5696,0.1018,-0.4831
7.9841,0.016746,-0.187622,0.187622,-0.254641,0.257709,-0.002657,0.5696,0.1018,-0.4831
8.0008,0.016759,-0.173851,0.173851,-0.237767,0.242369,-0.002657,0.5696,0.1018,-0.4831
8.0176,0.016744,-0.160097,0.160097,-0.217825,0.222427,-0.002657,0.5696,0.1018,-0.4831
8.0343,0.016763,-0.146416,0.146416,-0.217825,0.222427,-0.002657,0.5696,0.1018,-0.4831
8.0511,0.016748,-0.132922,0.132922,-0.194816,0.204019,-0.002657,0.5696,0.1018,-0.4831
8.0678,0.016749,-0.119688,0.119688,-0.177942,0.187146,-0.002657,0.5696,0.1018,-0.4831
8.0846,0.016751,-0.106793,0.106793,-0.162602,0.168738,-0.002657,0.5696,0.1018,-0.4831
8.1013,0.016763,-0.094311,0.094311,-0.147262,0.150330,-0.002657,0.5696,0.1018,-0.4831
8.1181,0.016748,-0.082341,0.082341,-0.130388,0.131922,-0.002657,0.5696,0.1018,-0.4831
8.1349,0.016770,-0.070929,0.070929,-0.130388,0.131922,-0.002657,0.5696,0.1018,-0.4831
8.1516,0.016743,-0.060181,0.060181,-0.113515,0.113515,-0.002657,0.5696,0.1018,-0.4831
8.1684,0.016748,-0.050141,0.050141,-0.096641,0.096641,-0.002657,0.5696,0.1018,-0.4831
8.1851,0.016749,-0.040876,0.040876,-0.084369,0.082835,-0.002657,0.5696,0.1018,-0.4831
8.2019,0.016758,-0.032438,0.032438,-0.070563,0.069029,-0.002657,0.5696,0.1018,-0.4831
8.2186,0.016746,-0.024891,0.024891,-0.055223,0.056757,-0.002657,0.5696,0.1018,-0.4831
8.2354,0.016758,-0.018271,0.018271,-0.055223,0.056757,-0.002657,0.5696,0.1018,-0.4831
8.2521,0.016746,-0.012629,0.012629,-0.039884,0.041417,-0.002657,0.5696,0.1018,-0.4831
8.2689,0.016740,-0.007996,0.007996,-0.027612,0.030680,-0.002657,0.5696,0.1018,-0.4831
8.2856,0.016745,-0.004397,0.004397,-0.023010,0.023010,-0.002657,0.5696,0.1018,-0.4831
8.3024,0.016755,-0.001857,0.001857,-0.024544,0.016874,-0.002657,0.5696,0.1018,-0.4831
8.3191,0.016748,-0.000392,0.000392,-0.015340,0.007670,-0.002657,0.5696,0.1018,-0.4831
8.3358,0.016745,-0.000012,0.000012,-0.015340,0.007670,-0.002657,0.5696,0.1018,-0.4831
8.3527,0.016819,-0.000724,0.000724,-0.004602,0.003068,-0.002657,0.5696,0.1018,-0.4831
8.3694,0.016747,-0.002516,0.002516,0.004602,0.001534,-0.002670,0.5313,0.1370,-0.4303
8.3862,0.016742,-0.005379,0.005379,0.001534,0.000000,-0.002656,0.5741,0.0977,-0.4892
8.4029,0.016743,-0.009294,0.009294,-0.006136,0.000000,-0.002657,0.5696,0.1018,-0.4831
8.4196,0.016746,-0.014238,0.014238,-0.003068,0.000000,-0.002657,0.5696,0.1018,-0.4831
8.4364,0.016741,-0.020177,0.020177,-0.003068,0.000000,-0.002657,0.5696,0.1018,-0.4831
8.4531,0.016742,-0.027078,0.027078,0.000000,0.003068,-0.002657,0.5696,0.1018,-0.4831
8.4699,0.016738,-0.034894,0.034894,-0.003068,0.010738,-0.002657,0.5696,0.1018,-0.4831
8.4866,0.016744,-0.043581,0.043581,-0.012272,0.015340,-0.002657,0.5696,0.1018,-0.4831
8.5033,0.016742,-0.053082,0.053082,-0.024544,0.016874,-0.002657,0.5696,0.1018,-0.4831
8.5201,0.016728,-0.063330,0.063330,-0.038350,0.023010,-0.002657,0.5696,0.1018,-0.4831
8.5368,0.016741,-0.074277,0.074277,-0.038350,0.023010,-0.002657,0.5696,0.1018,-0.4831
8.5536,0.016747,-0.085852,0.085852,-0.047553,0.038350,-0.002657,0.5696,0.1018,-0.4831
8.5703,0.016739,-0.097973,0.097973,-0.049087,0.050621,-0.002657,0.5696,0.1018,-0.4831
8.5870,0.016741,-0.110572,0.110572,-0.055223,0.065961,-0.002657,0.5696,0.1018,-0.4831
8.6038,0.016710,-0.123544,0.123544,-0.067495,0.075165,-0.002657,0.5696,0.1018,-0.4831
8.6207,0.016913,-0.136995,0.136995,-0.087437,0.087437,-0.002657,0.5696,0.1018,-0.4831
8.6374,0.016744,-0.150547,0.150547,-0.087437,0.087437,-0.002657,0.5696,0.1018,-0.4831
8.6542,0.016748,-0.164251,0.164251,-0.110447,0.104311,-0.002657,0.5696,0.1018,-0.4831
8.6709,0.016740,-0.178013,0.178013,-0.130388,0.124252,-0.002657,0.5696,0.1018,-0.4831
8.6876,0.016740,-0.191753,0.191753,-0.141126,0.138058,-0.002657,0.5696,0.1018,-0.4831
8.7044,0.016746,-0.205391,0.205391,-0.145728,0.147262,-0.002670,0.5313,0.1370,-0.4303
8.7211,0.016751,-0.218841,0.218841,-0.161068,0.164136,-0.002656,0.5741,0.0977,-0.4892
8.7379,0.016741,-0.232007,0.232007,-0.161068,0.164136,-0.002656,0.5741,0.0977,-0.4892
8.7546,0.016749,-0.244822,0.244822,-0.185612,0.187146,-0.002657,0.5696,0.1018,-0.4831
8.7714,0.016742,-0.257194,0.257194,-0.211689,0.208621,-0.002657,0.5696,0.1018,-0.4831
8.7881,0.016746,-0.269055,0.269055,-0.222427,0.217825,-0.002657,0.5696,0.1018,-0.4831
8.8049,0.016744,-0.280326,0.280326,-0.225495,0.227029,-0.002657,0.5696,0.1018,-0.4831
8.8216,0.016754,-0.290945,0.290945,-0.240835,0.245437,-0.002657,0.5696,0.1018,-0.4831
8.8384,0.016747,-0.300834,0.300834,-0.240835,0.245437,-0.002657,0.5696,0.1018,-0.4831
8.8551,0.016746,-0.309937,0.309937,-0.265379,0.269981,-0.002657,0.5696,0.1018,-0.4831
8.8718,0.016744,-0.318196,0.318196,-0.286854,0.285320,-0.002657,0.5696,0.1018,-0.4831
8.8886,0.016744,-0.325561,0.325561,-0.297592,0.289922,-0.002657,0.5696,0.1018,-0.4831
8.9053,0.016739,-0.331984,0.331984,-0.309864,0.299126,-0.002657,0.5696,0.1018,-0.4831
8.9221,0.016743,-0.337430,0.337430,-0.309864,0.299126,-0.002657,0.5696,0.1018,-0.4831
8.9388,0.016762,-0.341866,0.341866,-0.325204,0.319068,-0.002657,0.5696,0.1018,-0.4831
8.9556,0.016756,-0.345258,0.345258,-0.325204,0.319068,-0.002657,0.5696,0.1018,-0.4831
8.9724,0.016767,-0.347587,0.347587,-0.325204,0.319068,-0.002657,0.5696,0.1018,-0.4831
8.9891,0.016739,-0.348836,0.348836,-0.334408,0.334408,-0.002657,0.5696,0.1018,-0.4831
9.0058,0.016740,-0.349000,0.349000,-0.334408,0.335942,-0.002657,0.5696,0.1018,-0.4831
9.0227,0.016829,-0.348071,0.348071,-0.335942,0.334408,-0.002657,0.5696,0.1018,-0.4831
9.0394,0.016743,-0.346065,0.346065,-0.335942,0.334408,-0.002657,0.5696,0.1018,-0.4831
9.0562,0.016741,-0.342991,0.342991,-0.351282,0.348214,-0.002657,0.5696,0.1018,-0.4831
9.0729,0.016745,-0.338869,0.338869,-0.357418,0.351282,-0.002657,0.5696,0.1018,-0.4831
9.0896,0.016746,-0.333724,0.333724,-0.352816,0.346680,-0.002657,0.5696,0.1018,-0.4831
9.1064,0.016743,-0.327588,0.327588,-0.346680,0.342078,-0.002657,0.5696,0.1018,-0.4831
9.1233,0.016954,-0.320406,0.320406,-0.343612,0.342078,-0.002657,0.5696,0.1018,-0.4831
9.1401,0.016743,-0.312399,0.312399,-0.343612,0.342078,-0.002657,0.5696,0.1018,-0.4831
9.1568,0.016747,-0.303532,0.303532,-0.340544,0.339010,-0.002670,0.5313,0.1370,-0.4303
9.1736,0.016741,-0.293866,0.293866,-0.340544,0.337476,-0.002669,0.5353,0.1333,-0.4358
9.1903,0.016744,-0.283456,0.283456,-0.337476,0.332874,-0.002656,0.5737,0.0981,-0.4886
9.2071,0.016742,-0.272369,0.272369,-0.329806,0.328272,-0.002657,0.5696,0.1018,-0.4831
9.2239,0.016814,-0.260622,0.260622,-0.314466,0.316000,-0.002657,0.5696,0.1018,-0.4831
9.2407,0.016809,-0.248339,0.248339,-0.314466,0.316000,-0.002657,0.5696,0.1018,-0.4831
9.2574,0.016751,-0.235637,0.235637,-0.299126,0.302194,-0.002670,0.5313,0.1370,-0.4303
9.2742,0.016744,-0.222561,0.222561,-0.285320,0.289922,-0.002656,0.5741,0.0977,-0.4892
9.2909,0.016754,-0.209177,0.209177,-0.271515,0.277651,-0.002657,0.5696,0.1018,-0.4831
9.3077,0.016749,-0.195582,0.195582,-0.259243,0.265379,-0.002657,0.5696,0.1018,-0.4831
9.3245,0.016868,-0.181758,0.181758,-0.243903,0.248505,-0.002657,0.5696,0.1018,-0.4831
9.3413,0.016749,-0.167986,0.167986,-0.243903,0.248505,-0.002657,0.5696,0.1018,-0.4831
9.3581,0.016760,-0.154246,0.154246,-0.227029,0.230097,-0.002657,0.5696,0.1018,-0.4831
9.3748,0.016741,-0.140648,0.140648,-0.210155,0.216291,-0.002657,0.5696,0.1018,-0.4831
9.3915,0.016754,-0.127250,0.127250,-0.194816,0.200951,-0.002657,0.5696,0.1018,-0.4831
9.4086,0.017057,-0.113913,0.113913,-0.177942,0.185612,-0.002657,0.5696,0.1018,-0.4831
9.4254,0.016769,-0.101182,0.101182,-0.177942,0.185612,-0.002657,0.5696,0.1018,-0.4831
9.4421,0.016744,-0.088927,0.088927,-0.159534,0.165670,-0.002670,0.5313,0.1370,-0.4303
9.4589,0.016757,-0.077195,0.077195,-0.141126,0.142660,-0.002656,0.5741,0.0977,-0.4892
9.4756,0.016743,-0.066080,0.066080,-0.124252,0.124252,-0.002657,0.5696,0.1018,-0.4831
9.4924,0.016755,-0.055632,0.055632,-0.110447,0.108913,-0.002657,0.5696,0.1018,-0.4831
9.5091,0.016748,-0.045929,0.045929,-0.093573,0.093573,-0.002657,0.5696,0.1018,-0.4831
9.5259,0.016758,-0.037021,0.037021,-0.078233,0.078233,-0.002657,0.5696,0.1018,-0.4831
9.5426,0.016749,-0.028975,0.028975,-0.078233,0.078233,-0.002657,0.5696,0.1018,-0.4831
9.5594,0.016754,-0.021833,0.021833,-0.062893,0.062893,-0.002657,0.5696,0.1018,-0.4831
9.5761,0.016745,-0.015645,0.015645,-0.047553,0.049087,-0.002657,0.5696,0.1018,-0.4831
9.5929,0.016747,-0.010446,0.010446,-0.030680,0.032214,-0.002670,0.5313,0.1370,-0.4303
9.6096,0.016701,-0.006278,0.006278,-0.024544,0.024544,-0.002656,0.5741,0.0977,-0.4892
9.6263,0.016755,-0.003143,0.003143,-0.012272,0.015340,-0.002657,0.5696,0.1018,-0.4831
9.6431,0.016744,-0.001077,0.001077,-0.012272,0.015340,-0.002657,0.5696,0.1018,-0.4831
9.6598,0.016756,-0.000090,0.000090,-0.004602,0.004602,-0.002657,0.5696,0.1018,-0.4831
9.6766,0.016741,-0.000190,0.000190,-0.004602,0.003068,-0.002657,0.5696,0.1018,-0.4831
9.6933,0.016770,-0.001377,0.001377,-0.006136,0.003068,-0.002657,0.5696,0.1018,-0.4831
9.7101,0.016741,-0.003640,0.003640,-0.001534,0.001534,-0.002670,0.5313,0.1370,-0.4303
9.7268,0.016761,-0.006971,0.006971,0.003068,-0.001534,-0.002670,0.5313,0.1370,-0.4303
9.7436,0.016745,-0.011342,0.011342,0.003068,-0.001534,-0.002656,0.5741,0.0977,-0.4892
9.7603,0.016755,-0.016732,0.016732,0.000000,0.000000,-0.002657,0.5696,0.1018,-0.4831
9.7771,0.016751,-0.023104,0.023104,-0.007670,0.004602,-0.002657,0.5696,0.1018,-0.4831
9.7939,0.016756,-0.030421,0.030421,-0.012272,0.015340,-0.002657,0.5696,0.1018,-0.4831
9.8106,0.016744,-0.038630,0.038630,-0.019942,0.018408,-0.002657,0.5696,0.1018,-0.4831
9.8274,0.016767,-0.047697,0.047697,-0.019942,0.018408,-0.002657,0.5696,0.1018,-0.4831
9.8441,0.016744,-0.057542,0.057542,-0.027612,0.019942,-0.002657,0.5696,0.1018,-0.4831
9.8609,0.016754,-0.068121,0.068121,-0.033748,0.026078,-0.002657,0.5696,0.1018,-0.4831
9.8776,0.016741,-0.079355,0.079355,-0.035282,0.038350,-0.002657,0.5696,0.1018,-0.4831
9.8944,0.016752,-0.091188,0.091188,-0.049087,0.055223,-0.002657,0.5696,0.1018,-0.4831
9.9111,0.016745,-0.103535,0.103535,-0.069029,0.072097,-0.002657,0.5696,0.1018,-0.4831
9.9279,0.016758,-0.116335,0.116335,-0.069029,0.072097,-0.002657,0.5696,0.1018,-0.4831
9.9446,0.016743,-0.129485,0.129485,-0.087437,0.087437,-0.002657,0.5696,0.1018,-0.4831
9.9614,0.016752,-0.142923,0.142923,-0.102777,0.096641,-0.002657,0.5696,0.1018,-0.4831
9.9782,0.016840,-0.156629,0.156629,-0.113515,0.105845,-0.002657,0.5696,0.1018,-0.4831
9.9950,0.016761,-0.170383,0.170383,-0.113515,0.105845,-0.002657,0.5696,0.1018,-0.4831
10.0118,0.016820,-0.184212,0.184212,-0.144194,0.144194,-0.002657,0.5696,0.1018,-0.4831
10.0288,0.017017,-0.198140,0.198140,-0.144194,0.144194,-0.002657,0.5696,0.1018,-0.4831
10.0455,0.016748,-0.211700,0.211700,-0.156466,0.151864,-0.002657,0.5696,0.1018,-0.4831
10.0623,0.016746,-0.225028,0.225028,-0.167204,0.159534,-0.002657,0.5696,0.1018,-0.4831
10.0790,0.016745,-0.238040,0.238040,-0.182544,0.179476,-0.002657,0.5696,0.1018,-0.4831
10.0958,0.016765,-0.250672,0.250672,-0.208621,0.205553,-0.002657,0.5696,0.1018,-0.4831
10.1125,0.016747,-0.262816,0.262816,-0.233165,0.231631,-0.002657,0.5696,0.1018,-0.4831
10.1293,0.016746,-0.274410,0.274410,-0.233165,0.231631,-0.002657,0.5696,0.1018,-0.4831
10.1460,0.016744,-0.285381,0.285381,-0.250039,0.246971,-0.002657,0.5696,0.1018,-0.4831
10.1628,0.016772,-0.295679,0.295679,-0.253107,0.254641,-0.002657,0.5696,0.1018,-0.4831
10.1795,0.016739,-0.305203,0.305203,-0.256175,0.262311,-0.002657,0.5696,0.1018,-0.4831
10.1963,0.016738,-0.313913,0.313913,-0.276117,0.279185,-0.002657,0.5696,0.1018,-0.4831
10.2130,0.016749,-0.321762,0.321762,-0.299126,0.297592,-0.002657,0.5696,0.1018,-0.4831
10.2318,0.018781,-0.329470,0.329470,-0.299126,0.297592,-0.002657,0.5696,0.1018,-0.4831
10.2486,0.016744,-0.335321,0.335321,-0.317534,0.312932,-0.002657,0.5696,0.1018,-0.4831
10.2653,0.016756,-0.340175,0.340175,-0.319068,0.314466,-0.002657,0.5696,0.1018,-0.4831
10.2821,0.016742,-0.343994,0.343994,-0.320602,0.317534,-0.002657,0.5696,0.1018,-0.4831
10.2988,0.016769,-0.346763,0.346763,-0.332874,0.329806,-0.002657,0.5696,0.1018,-0.4831
10.3156,0.016749,-0.348455,0.348455,-0.348214,0.345146,-0.002657,0.5696,0.1018,-0.4831
10.3324,0.016783,-0.349064,0.349064,-0.349748,0.346680,-0.002657,0.5696,0.1018,-0.4831
10.3491,0.016751,-0.348584,0.348584,-0.349748,0.346680,-0.002657,0.5696,0.1018,-0.4831
10.3659,0.016755,-0.347020,0.347020,-0.349748,0.345146,-0.002657,0.5696,0.1018,-0.4831
10.3826,0.016745,-0.344383,0.344383,-0.349748,0.348214,-0.002657,0.5696,0.1018,-0.4831
10.3994,0.016757,-0.340686,0.340686,-0.349748,0.349748,-0.002657,0.5696,0.1018,-0.4831
10.4161,0.016743,-0.335957,0.335957,-0.349748,0.346680,-0.002657,0.5696,0.1018,-0.4831
10.4329,0.016761,-0.330218,0.330218,-0.349748,0.346680,-0.002657,0.5696,0.1018,-0.4831
10.4496,0.016740,-0.323517,0.323517,-0.346680,0.343612,-0.002657,0.5696,0.1018,-0.4831
10.4664,0.016750,-0.315884,0.315884,-0.343612,0.342078,-0.002657,0.5696,0.1018,-0.4831
10.4831,0.016741,-0.307376,0.307376,-0.342078,0.340544,-0.002657,0.5696,0.1018,-0.4831
10.4998,0.016753,-0.298034,0.298034,-0.339010,0.335942,-0.002657,0.5696,0.1018,-0.4831
10.5166,0.016742,-0.287931,0.287931,-0.332874,0.329806,-0.002657,0.5696,0.1018,-0.4831
10.5334,0.016776,-0.277099,0.277099,-0.332874,0.329806,-0.002657,0.5696,0.1018,-0.4831
10.5501,0.016741,-0.265651,0.265651,-0.322136,0.320602,-0.002657,0.5696,0.1018,-0.4831
10.5669,0.016752,-0.253628,0.253628,-0.308330,0.309864,-0.002657,0.5696,0.1018,-0.4831
10.5836,0.016753,-0.241112,0.241112,-0.296058,0.300660,-0.002657,0.5696,0.1018,-0.4831
10.6004,0.016761,-0.228175,0.228175,-0.280718,0.286854,-0.002657,0.5696,0.1018,-0.4831
10.6171,0.016744,-0.214916,0.214916,-0.265379,0.273049,-0.002657,0.5696,0.1018,-0.4831
10.6339,0.016772,-0.201384,0.201384,-0.265379,0.273049,-0.002657,0.5696,0.1018,-0.4831
10.6506,0.016745,-0.187707,0.187707,-0.251573,0.256175,-0.002657,0.5696,0.1018,-0.4831
10.6674,0.016747,-0.173946,0.173946,-0.234699,0.239301,-0.002657,0.5696,0.1018,-0.4831
10.6841,0.016742,-0.160192,0.160192,-0.220893,0.225495,-0.002657,0.5696,0.1018,-0.4831
10.7009,0.016761,-0.146512,0.146512,-0.205553,0.213223,-0.002657,0.5696,0.1018,-0.4831
10.7176,0.016744,-0.133021,0.133021,-0.187146,0.194816,-0.002657,0.5696,0.1018,-0.4831
10.7344,0.016762,-0.119773,0.119773,-0.187146,0.194816,-0.002657,0.5696,0.1018,-0.4831
10.7511,0.016745,-0.106881,0.106881,-0.165670,0.173340,-0.002657,0.5696,0.1018,-0.4831
10.7679,0.016749,-0.094406,0.094406,-0.151864,0.156466,-0.002657,0.5696,0.1018,-0.4831
10.7846,0.016744,-0.082433,0.082433,-0.136524,0.139592,-0.002657,0.5696,0.1018,-0.4831
10.8014,0.016746,-0.071033,0.071033,-0.122718,0.121184,-0.002657,0.5696,0.1018,-0.4831
10.8181,0.016745,-0.060277,0.060277,-0.104311,0.102777,-0.002657,0.5696,0.1018,-0.4831
10.8349,0.016756,-0.050226,0.050226,-0.104311,0.102777,-0.002657,0.5696,0.1018,-0.4831
10.8516,0.016746,-0.040955,0.040955,-0.087437,0.085903,-0.002657,0.5696,0.1018,-0.4831
10.8684,0.016760,-0.032508,0.032508,-0.072097,0.070563,-0.002657,0.5696,0.1018,-0.4831
10.8851,0.016766,-0.024945,0.024945,-0.059825,0.059825,-0.002657,0.5696,0.1018,-0.4831
10.9019,0.016766,-0.018314,0.018314,-0.047553,0.049087,-0.002657,0.5696,0.1018,-0.4831
10.9189,0.016945,-0.012604,0.012604,-0.036816,0.036816,-0.002657,0.5696,0.1018,-0.4831
10.9356,0.016759,-0.007971,0.007971,-0.036816,0.036816,-0.002657,0.5696,0.1018,-0.4831
10.9524,0.016760,-0.004376,0.004376,-0.023010,0.026078,-0.002657,0.5696,0.1018,-0.4831
10.9691,0.016755,-0.001843,0.001843,-0.015340,0.016874,-0.002657,0.5696,0.1018,-0.4831
10.9859,0.016758,-0.000386,0.000386,-0.015340,0.007670,-0.002657,0.5696,0.1018,-0.4831
11.0027,0.016762,-0.000014,0.000014,-0.013806,0.006136,-0.002657,0.5696,0.1018,-0.4831
11.0194,0.016774,-0.000731,0.000731,-0.013806,0.006136,-0.002657,0.5696,0.1018,-0.4831
11.0362,0.016759,-0.002532,0.002532,-0.013806,0.006136,-0.002657,0.5696,0.1018,-0.4831
11.0529,0.016749,-0.005402,0.005402,0.001534,0.000000,-0.002657,0.5696,0.1018,-0.4831
11.0699,0.016916,-0.009371,0.009371,0.003068,0.000000,-0.002657,0.5696,0.1018,-0.4831
11.0866,0.016758,-0.014336,0.014336,-0.003068,0.000000,-0.002657,0.5696,0.1018,-0.4831
11.1037,0.017059,-0.020417,0.020417,-0.007670,0.003068,-0.002657,0.5696,0.1018,-0.4831
11.1208,0.017131,-0.027524,0.027524,-0.007670,0.003068,-0.002657,0.5696,0.1018,-0.4831
11.1376,0.016757,-0.035403,0.035403,-0.006136,0.007670,-0.002657,0.5696,0.1018,-0.4831
11.1543,0.016750,-0.044145,0.044145,-0.009204,0.015340,-0.002657,0.5696,0.1018,-0.4831
11.1715,0.017188,-0.053960,0.053960,-0.018408,0.016874,-0.002657,0.5696,0.1018,-0.4831
11.1882,0.016752,-0.064286,0.064286,-0.030680,0.021476,-0.002657,0.5696,0.1018,-0.4831
11.2050,0.016762,-0.075307,0.075307,-0.041417,0.032214,-0.002657,0.5696,0.1018,-0.4831
11.2218,0.016755,-0.086941,0.086941,-0.041417,0.032214,-0.002657,0.5696,0.1018,-0.4831
11.2385,0.016757,-0.099122,0.099122,-0.053689,0.046019,-0.002657,0.5696,0.1018,-0.4831
11.2553,0.016750,-0.111768,0.111768,-0.061359,0.061359,-0.002657,0.5696,0.1018,-0.4831
11.2722,0.016944,-0.124958,0.124958,-0.064427,0.072097,-0.002657,0.5696,0.1018,-0.4831
11.2890,0.016753,-0.138310,0.138310,-0.090505,0.093573,-0.002657,0.5696,0.1018,-0.4831
11.3061,0.017174,-0.152231,0.152231,-0.116583,0.113515,-0.002657,0.5696,0.1018,-0.4831
11.3229,0.016737,-0.165938,0.165938,-0.116583,0.113515,-0.002657,0.5696,0.1018,-0.4831
11.3396,0.016754,-0.179714,0.179714,-0.138058,0.134990,-0.002657,0.5696,0.1018,-0.4831
11.3564,0.016748,-0.193452,0.193452,-0.153398,0.150330,-0.002657,0.5696,0.1018,-0.4831
11.3731,0.016766,-0.207087,0.207087,-0.164136,0.159534,-0.002657,0.5696,0.1018,-0.4831
11.3899,0.016755,-0.220510,0.220510,-0.177942,0.174874,-0.002657,0.5696,0.1018,-0.4831
11.4067,0.016767,-0.233656,0.233656,-0.199418,0.196350,-0.002657,0.5696,0.1018,-0.4831
11.4234,0.016764,-0.246431,0.246431,-0.199418,0.196350,-0.002657,0.5696,0.1018,-0.4831
11.4402,0.016754,-0.258750,0.258750,-0.220893,0.217825,-0.002670,0.5313,0.1370,-0.4303
11.4569,0.016756,-0.270547,0.270547,-0.233165,0.231631,-0.002656,0.5741,0.0977,-0.4892
11.4737,0.016766,-0.281751,0.281751,-0.242369,0.240835,-0.002657,0.5696,0.1018,-0.4831
11.4910,0.017248,-0.292578,0.292578,-0.254641,0.250039,-0.002657,0.5696,0.1018,-0.4831
11.5077,0.016730,-0.302336,0.302336,-0.277651,0.273049,-0.002657,0.5696,0.1018,-0.4831
