t,loop_dt,cmd_z,cmd_ant_l,cmd_ant_r,cmd_roll,cmd_pitch,cmd_yaw,pres_z,pres_ant_l,pres_ant_r,pres_roll,pres_pitch,pres_yaw,pres_j0,pres_j1,pres_j2,pres_j3,pres_j4,pres_j5,pres_j6
0.0000,0.000001,0.000000,-0.349066,0.349066,0.0000,0.0000,0.0000,-0.002488,-0.176408,0.171806,0.5139,0.6603,0.2450,0.000000,0.572175,-0.562971,0.564505,-0.590583,0.575243,-0.550699
0.0167,0.016748,0.000000,-0.348189,0.348189,0.0000,0.0000,0.0000,-0.002487,-0.176408,0.171806,0.5155,0.6658,0.2382,0.000000,0.572175,-0.562971,0.564505,-0.590583,0.575243,-0.550699
0.0336,0.016834,0.000000,-0.347307,0.347307,0.0000,0.0000,0.0000,-0.002487,-0.176408,0.171806,0.5155,0.6658,0.2382,0.000000,0.572175,-0.562971,0.564505,-0.590583,0.575243,-0.552233
0.0503,0.016751,0.000000,-0.346430,0.346430,0.0000,0.0000,0.0000,-0.002474,-0.176408,0.171806,0.4656,0.6475,0.1856,0.000000,0.572175,-0.562971,0.564505,-0.590583,0.575243,-0.552233
0.0671,0.016754,0.000000,-0.345553,0.345553,0.0000,0.0000,0.0000,-0.002462,-0.216291,0.210155,0.4211,0.6318,0.1377,0.000000,0.572175,-0.562971,0.564505,-0.590583,0.575243,-0.553767
0.0838,0.016747,0.000000,-0.344676,0.344676,0.0000,0.0000,0.0000,-0.002437,-0.289922,0.285320,0.3263,0.5983,0.0359,0.000000,0.572175,-0.562971,0.564505,-0.590583,0.575243,-0.556835
0.1006,0.016742,0.000000,-0.343800,0.343800,0.0000,0.0000,0.0000,-0.002402,-0.360485,0.354350,0.2476,0.6176,-0.1141,0.000000,0.572175,-0.562971,0.564505,-0.592117,0.575243,-0.559903
0.1173,0.016747,0.000000,-0.342923,0.342923,0.0000,0.0000,0.0000,-0.002381,-0.381961,0.375825,0.2563,0.5824,-0.0982,0.000000,0.573709,-0.562971,0.564505,-0.592117,0.575243,-0.561437
0.1341,0.016756,0.000000,-0.342045,0.342045,0.0000,0.0000,0.0000,-0.002371,-0.375825,0.371223,0.3054,0.5703,-0.0462,0.000000,0.575243,-0.562971,0.564505,-0.592117,0.575243,-0.561437
0.1508,0.016748,0.000000,-0.341169,0.341169,0.0000,0.0000,0.0000,-0.002371,-0.375825,0.371223,0.3054,0.5703,-0.0462,0.000000,0.575243,-0.562971,0.564505,-0.592117,0.575243,-0.561437
0.1676,0.016750,0.000000,-0.340292,0.340292,0.0000,0.0000,0.0000,-0.002359,-0.358952,0.357418,0.2899,0.4876,0.0025,0.000000,0.576777,-0.562971,0.564505,-0.590583,0.575243,-0.562971
0.1843,0.016751,0.000000,-0.339414,0.339414,0.0000,0.0000,0.0000,-0.002360,-0.346680,0.348214,0.2915,0.4962,-0.0026,0.000000,0.576777,-0.562971,0.564505,-0.590583,0.575243,-0.562971
0.2011,0.016752,0.000000,-0.338537,0.338537,0.0000,0.0000,0.0000,-0.002335,-0.340544,0.339010,0.2917,0.4621,-0.0018,0.000000,0.578311,-0.562971,0.564505,-0.590583,0.575243,-0.564505
0.2178,0.016750,0.000000,-0.337660,0.337660,0.0000,0.0000,0.0000,-0.002326,-0.343612,0.339010,0.3025,0.5164,-0.0557,0.000000,0.578311,-0.562971,0.564505,-0.592117,0.575243,-0.564505
0.2346,0.016754,0.000000,-0.336783,0.336783,0.0000,0.0000,0.0000,-0.002339,-0.343612,0.339010,0.2905,0.4600,0.0037,0.000000,0.578311,-0.562971,0.564505,-0.590583,0.575243,-0.564505
0.2513,0.016753,0.000000,-0.335906,0.335906,0.0000,0.0000,0.0000,-0.002339,-0.343612,0.339010,0.2905,0.4600,0.0037,0.000000,0.578311,-0.562971,0.564505,-0.590583,0.575243,-0.564505
0.2681,0.016748,0.000000,-0.335029,0.335029,0.0000,0.0000,0.0000,-0.002337,-0.342078,0.339010,0.2918,0.4659,-0.0025,0.000000,0.578311,-0.562971,0.564505,-0.590583,0.575243,-0.564505
0.2848,0.016747,0.000000,-0.334152,0.334152,0.0000,0.0000,0.0000,-0.002337,-0.342078,0.339010,0.2918,0.4659,-0.0025,0.000000,0.578311,-0.562971,0.564505,-0.590583,0.575243,-0.564505
0.3016,0.016767,0.000000,-0.333274,0.333274,0.0000,0.0000,0.0000,-0.002337,-0.340544,0.339010,0.2918,0.4659,-0.0025,0.000000,0.578311,-0.562971,0.564505,-0.590583,0.575243,-0.564505
0.3183,0.016748,0.000000,-0.332397,0.332397,0.0000,0.0000,0.0000,-0.002326,-0.340544,0.339010,0.3415,0.4495,0.0520,0.000000,0.579845,-0.562971,0.564505,-0.590583,0.575243,-0.564505
0.3351,0.016756,0.000000,-0.331520,0.331520,0.0000,0.0000,0.0000,-0.002327,-0.340544,0.339010,0.2973,0.5177,-0.0613,0.000000,0.578311,-0.562971,0.564505,-0.592117,0.575243,-0.564505
0.3518,0.016745,0.000000,-0.330643,0.330643,0.0000,0.0000,0.0000,-0.002327,-0.340544,0.339010,0.2973,0.5177,-0.0613,0.000000,0.578311,-0.562971,0.564505,-0.592117,0.575243,-0.564505
0.3686,0.016747,0.000000,-0.329766,0.329766,0.0000,0.0000,0.0000,-0.002339,-0.340544,0.337476,0.2911,0.4599,0.0043,0.000000,0.578311,-0.562971,0.564505,-0.590583,0.575243,-0.564505
0.3853,0.016742,0.000000,-0.328890,0.328890,0.0000,0.0000,0.0000,-0.002326,-0.340544,0.335942,0.3025,0.5166,-0.0563,0.000000,0.578311,-0.562971,0.564505,-0.592117,0.575243,-0.564505
0.4021,0.016742,0.000000,-0.328013,0.328013,0.0000,0.0000,0.0000,-0.002327,-0.340544,0.337476,0.3014,0.5107,-0.0500,0.000000,0.578311,-0.562971,0.564505,-0.592117,0.575243,-0.564505
0.4188,0.016744,0.000000,-0.327136,0.327136,0.0000,0.0000,0.0000,-0.002315,-0.340544,0.335942,0.3513,0.4956,0.0032,0.000000,0.579845,-0.562971,0.564505,-0.592117,0.575243,-0.564505
0.4356,0.016764,0.000000,-0.326258,0.326258,0.0000,0.0000,0.0000,-0.002315,-0.340544,0.335942,0.3513,0.4956,0.0032,0.000000,0.579845,-0.562971,0.564505,-0.590583,0.575243,-0.564505
0.4523,0.016750,0.000000,-0.325381,0.325381,0.0000,0.0000,0.0000,-0.002328,-0.340544,0.335942,0.3352,0.4464,0.0514,0.000000,0.579845,-0.562971,0.564505,-0.590583,0.575243,-0.564505
0.4691,0.016747,0.000000,-0.324505,0.324505,0.0000,0.0000,0.0000,-0.002338,-0.340544,0.337476,0.2871,0.4672,-0.0074,0.000000,0.578311,-0.562971,0.564505,-0.590583,0.575243,-0.564505
0.4858,0.016725,0.000000,-0.323629,0.323629,0.0000,0.0000,0.0000,-0.002337,-0.340544,0.335942,0.2921,0.4651,-0.0013,0.000000,0.578311,-0.562971,0.564505,-0.590583,0.575243,-0.564505
0.5026,0.016745,0.000000,-0.322752,0.322752,0.0000,0.0000,0.0000,-0.002326,-0.340544,0.335942,0.3024,0.5161,-0.0557,0.000000,0.578311,-0.562971,0.564505,-0.592117,0.575243,-0.564505
0.5193,0.016773,0.000000,-0.321874,0.321874,0.0000,0.0000,0.0000,-0.002339,-0.340544,0.335942,0.2905,0.4600,0.0037,0.000000,0.578311,-0.562971,0.564505,-0.590583,0.575243,-0.564505
0.5361,0.016749,0.000000,-0.320997,0.320997,0.0000,0.0000,0.0000,-0.002339,-0.340544,0.335942,0.2905,0.4600,0.0037,0.000000,0.578311,-0.562971,0.564505,-0.590583,0.575243,-0.564505
0.5528,0.016758,0.000000,-0.320119,0.320119,0.0000,0.0000,0.0000,-0.002337,-0.340544,0.335942,0.2918,0.4658,-0.0025,0.000000,0.578311,-0.562971,0.564505,-0.590583,0.575243,-0.564505
0.5696,0.016755,0.000000,-0.319242,0.319242,0.0000,0.0000,0.0000,-0.002337,-0.340544,0.335942,0.2918,0.4658,-0.0025,0.000000,0.578311,-0.562971,0.564505,-0.590583,0.575243,-0.564505
0.5863,0.016759,0.000000,-0.318365,0.318365,0.0000,0.0000,0.0000,-0.002314,-0.339010,0.335942,0.3523,0.5003,-0.0018,0.000000,0.579845,-0.562971,0.564505,-0.592117,0.575243,-0.564505
0.6031,0.016774,0.000000,-0.317486,0.317486,0.0000,0.0000,0.0000,-0.002340,-0.337476,0.334408,0.2854,0.4617,-0.0019,0.000000,0.578311,-0.562971,0.564505,-0.590583,0.575243,-0.564505
0.6199,0.016771,0.000000,-0.316608,0.316608,0.0000,0.0000,0.0000,-0.002337,-0.331340,0.334408,0.2923,0.4657,-0.0019,0.000000,0.578311,-0.562971,0.564505,-0.590583,0.575243,-0.564505
0.6367,0.016760,0.000000,-0.315731,0.315731,0.0000,0.0000,0.0000,-0.002337,-0.331340,0.334408,0.2923,0.4657,-0.0019,0.000000,0.578311,-0.562971,0.564505,-0.590583,0.575243,-0.564505
0.6534,0.016753,0.000000,-0.314853,0.314853,0.0000,0.0000,0.0000,-0.002314,-0.323670,0.332874,0.3522,0.5003,-0.0019,0.000000,0.579845,-0.562971,0.564505,-0.592117,0.575243,-0.564505
0.6702,0.016744,0.000000,-0.313977,0.313977,0.0000,0.0000,0.0000,-0.002340,-0.319068,0.329806,0.2854,0.4617,-0.0019,0.000000,0.578311,-0.562971,0.564505,-0.590583,0.575243,-0.564505
0.6869,0.016742,0.000000,-0.313100,0.313100,0.0000,0.0000,0.0000,-0.002337,-0.319068,0.326738,0.2923,0.4657,-0.0019,0.000000,0.578311,-0.562971,0.564505,-0.590583,0.575243,-0.564505
0.7036,0.016746,0.000000,-0.312223,0.312223,0.0000,0.0000,0.0000,-0.002338,-0.319068,0.320602,0.2914,0.4651,-0.0019,0.000000,0.578311,-0.562971,0.564505,-0.590583,0.575243,-0.564505
0.7206,0.016994,0.000000,-0.311334,0.311334,0.0000,0.0000,0.0000,-0.002326,-0.317534,0.317534,0.3025,0.5161,-0.0557,0.000000,0.578311,-0.562971,0.564505,-0.592117,0.575243,-0.564505
0.7374,0.016741,0.000000,-0.310457,0.310457,0.0000,0.0000,0.0000,-0.002326,-0.317534,0.317534,0.3025,0.5161,-0.0557,0.000000,0.578311,-0.562971,0.564505,-0.592117,0.575243,-0.564505
0.7541,0.016755,0.000000,-0.309580,0.309580,0.0000,0.0000,0.0000,-0.002339,-0.317534,0.314466,0.2905,0.4600,0.0037,0.000000,0.578311,-0.562971,0.564505,-0.590583,0.575243,-0.564505
0.7709,0.016751,0.000000,-0.308703,0.308703,0.0000,0.0000,0.0000,-0.002326,-0.317534,0.314466,0.3416,0.4501,0.0513,0.000000,0.579845,-0.562971,0.564505,-0.590583,0.575243,-0.564505
0.7877,0.016838,0.000000,-0.307821,0.307821,0.0000,0.0000,0.0000,-0.002339,-0.317534,0.314466,0.2865,0.4669,-0.0074,0.000000,0.578311,-0.562971,0.564505,-0.590583,0.575243,-0.564505
0.8045,0.016801,0.000000,-0.306941,0.306941,0.0000,0.0000,0.0000,-0.002326,-0.317534,0.312932,0.3420,0.4494,0.0525,0.000000,0.579845,-0.562971,0.564505,-0.590583,0.575243,-0.564505
0.8214,0.016878,0.000000,-0.306058,0.306058,0.0000,0.0000,0.0000,-0.002327,-0.317534,0.312932,0.3362,0.4512,0.0462,0.000000,0.579845,-0.562971,0.564505,-0.590583,0.575243,-0.564505
0.8382,0.016756,0.000000,-0.305180,0.305180,0.0000,0.0000,0.0000,-0.002327,-0.317534,0.312932,0.3362,0.4512,0.0462,0.000000,0.579845,-0.562971,0.564505,-0.590583,0.575243,-0.564505
0.8549,0.016744,0.000000,-0.304303,0.304303,0.0000,0.0000,0.0000,-0.002327,-0.317534,0.312932,0.2978,0.5175,-0.0607,0.000000,0.578311,-0.562971,0.564505,-0.592117,0.575243,-0.564505
0.8717,0.016753,0.000000,-0.303426,0.303426,0.0000,0.0000,0.0000,-0.002339,-0.316000,0.312932,0.2910,0.4599,0.0042,0.000000,0.578311,-0.562971,0.564505,-0.590583,0.575243,-0.564505
0.8884,0.016758,0.000000,-0.302549,0.302549,0.0000,0.0000,0.0000,-0.002326,-0.316000,0.312932,0.3025,0.5166,-0.0563,0.000000,0.578311,-0.562971,0.564505,-0.592117,0.575243,-0.564505
0.9052,0.016757,0.000000,-0.301671,0.301671,0.0000,0.0000,0.0000,-0.002327,-0.314466,0.312932,0.3014,0.5107,-0.0500,0.000000,0.578311,-0.562971,0.564505,-0.592117,0.575243,-0.564505
0.9219,0.016743,0.000000,-0.300795,0.300795,0.0000,0.0000,0.0000,-0.002339,-0.312932,0.312932,0.2907,0.4606,0.0031,0.000000,0.578311,-0.562971,0.564505,-0.590583,0.575243,-0.564505
0.9387,0.016749,0.000000,-0.299918,0.299918,0.0000,0.0000,0.0000,-0.002339,-0.312932,0.312932,0.2907,0.4606,0.0031,0.000000,0.578311,-0.562971,0.564505,-0.590583,0.575243,-0.564505
0.9554,0.016749,0.000000,-0.299041,0.299041,0.0000,0.0000,0.0000,-0.002326,-0.312932,0.311398,0.3416,0.4500,0.0514,0.000000,0.579845,-0.562971,0.564505,-0.590583,0.575243,-0.564505
0.9722,0.016749,0.000000,-0.298164,0.298164,0.0000,0.0000,0.0000,-0.002327,-0.312932,0.311398,0.3363,0.4512,0.0464,0.000000,0.579845,-0.562971,0.564505,-0.590583,0.575243,-0.564505
0.9890,0.016822,0.000000,-0.297283,0.297283,0.0000,0.0000,0.0000,-0.002339,-0.312932,0.309864,0.2870,0.4668,-0.0069,0.000000,0.578311,-0.562971,0.564505,-0.590583,0.575243,-0.564505
1.0057,0.016745,0.000000,-0.296406,0.296406,0.0000,0.0000,0.0000,-0.002326,-0.312932,0.308330,0.3030,0.5159,-0.0552,0.000000,0.578311,-0.562971,0.564505,-0.592117,0.575243,-0.564505
1.0228,0.017115,0.000000,-0.295510,0.295510,0.0000,0.0000,0.0000,-0.002327,-0.312932,0.308330,0.3403,0.4443,0.0575,0.000000,0.579845,-0.562971,0.564505,-0.590583,0.575243,-0.564505
1.0396,0.016747,0.000000,-0.294633,0.294633,0.0000,0.0000,0.0000,-0.002327,-0.312932,0.308330,0.3403,0.4443,0.0575,0.000000,0.579845,-0.562971,0.564505,-0.590583,0.575243,-0.564505
1.0563,0.016740,0.000000,-0.293757,0.293757,0.0000,0.0000,0.0000,-0.002339,-0.312932,0.308330,0.2866,0.4675,-0.0081,0.000000,0.578311,-0.562971,0.564505,-0.590583,0.575243,-0.564505
1.0731,0.016751,0.000000,-0.292880,0.292880,0.0000,0.0000,0.0000,-0.002326,-0.312932,0.308330,0.3420,0.4493,0.0526,0.000000,0.579845,-0.562971,0.564505,-0.590583,0.575243,-0.564505
1.0899,0.016807,0.000000,-0.292000,0.292000,0.0000,0.0000,0.0000,-0.002327,-0.312932,0.308330,0.2972,0.5177,-0.0614,0.000000,0.578311,-0.562971,0.564505,-0.592117,0.575243,-0.564505
1.1066,0.016756,0.000000,-0.291122,0.291122,0.0000,0.0000,0.0000,-0.002339,-0.311398,0.308330,0.2911,0.4599,0.0043,0.000000,0.578311,-0.562971,0.564505,-0.590583,0.575243,-0.564505
1.1234,0.016745,0.000000,-0.290246,0.290246,0.0000,0.0000,0.0000,-0.002326,-0.311398,0.308330,0.3415,0.4501,0.0513,0.000000,0.579845,-0.562971,0.564505,-0.590583,0.575243,-0.564505
1.1401,0.016757,0.000000,-0.289368,0.289368,0.0000,0.0000,0.0000,-0.002326,-0.311398,0.308330,0.3415,0.4501,0.0513,0.000000,0.579845,-0.562971,0.564505,-0.590583,0.575243,-0.564505
1.1569,0.016743,0.000000,-0.288492,0.288492,0.0000,0.0000,0.0000,-0.002327,-0.311398,0.308330,0.3363,0.4512,0.0464,0.000000,0.579845,-0.562971,0.564505,-0.590583,0.575243,-0.564505
1.1736,0.016748,0.000000,-0.287615,0.287615,0.0000,0.0000,0.0000,-0.002327,-0.308330,0.306796,0.2978,0.5175,-0.0607,0.000000,0.578311,-0.562971,0.564505,-0.592117,0.575243,-0.564505
1.1906,0.016936,0.000000,-0.286728,0.286728,0.0000,0.0000,0.0000,-0.002327,-0.300660,0.303728,0.3018,0.5106,-0.0495,0.000000,0.578311,-0.562971,0.564505,-0.592117,0.575243,-0.564505
1.2073,0.016754,0.000000,-0.285851,0.285851,0.0000,0.0000,0.0000,-0.002315,-0.292990,0.299126,0.3512,0.4956,0.0031,0.000000,0.579845,-0.562971,0.564505,-0.592117,0.575243,-0.564505
1.2241,0.016803,0.000000,-0.284971,0.284971,0.0000,0.0000,0.0000,-0.002340,-0.288388,0.294524,0.2855,0.4621,-0.0024,0.000000,0.578311,-0.562971,0.564505,-0.590583,0.575243,-0.564505
1.2409,0.016747,0.000000,-0.284094,0.284094,0.0000,0.0000,0.0000,-0.002340,-0.288388,0.294524,0.2855,0.4621,-0.0024,0.000000,0.578311,-0.562971,0.564505,-0.590583,0.575243,-0.564505
1.2576,0.016743,0.000000,-0.283217,0.283217,0.0000,0.0000,0.0000,-0.002314,-0.288388,0.292990,0.3529,0.5007,-0.0018,0.000000,0.579845,-0.562971,0.564505,-0.592117,0.575243,-0.564505
1.2744,0.016751,0.000000,-0.282340,0.282340,0.0000,0.0000,0.0000,-0.002328,-0.286854,0.286854,0.2961,0.5123,-0.0557,0.000000,0.578311,-0.562971,0.564505,-0.592117,0.575243,-0.564505
1.2912,0.016819,0.000000,-0.281460,0.281460,0.0000,0.0000,0.0000,-0.002338,-0.286854,0.286854,0.2912,0.4604,0.0037,0.000000,0.578311,-0.562971,0.564505,-0.590583,0.575243,-0.564505
1.3079,0.016750,0.000000,-0.280582,0.280582,0.0000,0.0000,0.0000,-0.002337,-0.286854,0.285320,0.2917,0.4658,-0.0025,0.000000,0.578311,-0.562971,0.564505,-0.590583,0.575243,-0.564505
1.3250,0.017114,0.000000,-0.279686,0.279686,0.0000,0.0000,0.0000,-0.002326,-0.286854,0.285320,0.3415,0.4495,0.0520,0.000000,0.579845,-0.562971,0.564505,-0.590583,0.575243,-0.564505
1.3418,0.016751,0.000000,-0.278809,0.278809,0.0000,0.0000,0.0000,-0.002326,-0.286854,0.285320,0.3415,0.4495,0.0520,0.000000,0.579845,-0.562971,0.564505,-0.590583,0.575243,-0.564505
1.3585,0.016747,0.000000,-0.277932,0.277932,0.0000,0.0000,0.0000,-0.002327,-0.286854,0.285320,0.2973,0.5177,-0.0613,0.000000,0.578311,-0.562971,0.564505,-0.592117,0.575243,-0.564505
1.3753,0.016757,0.000000,-0.277055,0.277055,0.0000,0.0000,0.0000,-0.002327,-0.286854,0.285320,0.3019,0.5106,-0.0495,0.000000,0.578311,-0.562971,0.564505,-0.592117,0.575243,-0.564505
1.3920,0.016746,0.000000,-0.276178,0.276178,0.0000,0.0000,0.0000,-0.002327,-0.286854,0.283786,0.3019,0.5106,-0.0495,0.000000,0.578311,-0.562971,0.564505,-0.592117,0.575243,-0.564505
1.4088,0.016747,0.000000,-0.275301,0.275301,0.0000,0.0000,0.0000,-0.002339,-0.285320,0.282252,0.2906,0.4606,0.0031,0.000000,0.578311,-0.562971,0.564505,-0.590583,0.575243,-0.564505
1.4255,0.016748,0.000000,-0.274424,0.274424,0.0000,0.0000,0.0000,-0.002326,-0.283786,0.282252,0.3026,0.5166,-0.0562,0.000000,0.578311,-0.562971,0.564505,-0.592117,0.575243,-0.564505
1.4423,0.016751,0.000000,-0.273547,0.273547,0.0000,0.0000,0.0000,-0.002326,-0.283786,0.282252,0.3026,0.5166,-0.0562,0.000000,0.578311,-0.562971,0.564505,-0.592117,0.575243,-0.564505
1.4591,0.016766,0.000000,-0.272670,0.272670,0.0000,0.0000,0.0000,-0.002339,-0.283786,0.282252,0.2905,0.4600,0.0038,0.000000,0.578311,-0.562971,0.564505,-0.590583,0.575243,-0.564505
1.4758,0.016756,0.000000,-0.271792,0.271792,0.0000,0.0000,0.0000,-0.002337,-0.283786,0.282252,0.2918,0.4659,-0.0025,0.000000,0.578311,-0.562971,0.564505,-0.590583,0.575243,-0.564505
1.4926,0.016743,0.000000,-0.270916,0.270916,0.0000,0.0000,0.0000,-0.002326,-0.282252,0.282252,0.3025,0.5160,-0.0556,0.000000,0.578311,-0.562971,0.564505,-0.592117,0.575243,-0.564505
1.5093,0.016748,0.000000,-0.270039,0.270039,0.0000,0.0000,0.0000,-0.002327,-0.282252,0.282252,0.3014,0.5108,-0.0501,0.000000,0.578311,-0.562971,0.564505,-0.592117,0.575243,-0.564505
1.5261,0.016745,0.000000,-0.269162,0.269162,0.0000,0.0000,0.0000,-0.002327,-0.283786,0.282252,0.3014,0.5108,-0.0501,0.000000,0.578311,-0.562971,0.564505,-0.592117,0.575243,-0.564505
1.5428,0.016756,0.000000,-0.268285,0.268285,0.0000,0.0000,0.0000,-0.002327,-0.283786,0.282252,0.3014,0.5108,-0.0501,0.000000,0.578311,-0.562971,0.564505,-0.592117,0.575243,-0.564505
1.5595,0.016712,0.000000,-0.267409,0.267409,0.0000,0.0000,0.0000,-0.002327,-0.282252,0.282252,0.3404,0.4448,0.0569,0.000000,0.579845,-0.562971,0.564505,-0.590583,0.575243,-0.564505
1.5763,0.016746,0.000000,-0.266533,0.266533,0.0000,0.0000,0.0000,-0.002339,-0.282252,0.282252,0.2866,0.4674,-0.0080,0.000000,0.578311,-0.562971,0.564505,-0.590583,0.575243,-0.564505
1.5930,0.016739,0.000000,-0.265656,0.265656,0.0000,0.0000,0.0000,-0.002326,-0.282252,0.282252,0.3030,0.5158,-0.0550,0.000000,0.578311,-0.562971,0.564505,-0.592117,0.575243,-0.564505
1.6098,0.016746,0.000000,-0.264779,0.264779,0.0000,0.0000,0.0000,-0.002339,-0.282252,0.282252,0.2905,0.4601,0.0036,0.000000,0.578311,-0.562971,0.564505,-0.590583,0.575243,-0.564505
1.6266,0.016802,0.000000,-0.263900,0.263900,0.0000,0.0000,0.0000,-0.002337,-0.282252,0.280718,0.2918,0.4658,-0.0025,0.000000,0.578311,-0.562971,0.564505,-0.590583,0.575243,-0.564505
1.6433,0.016756,0.000000,-0.263022,0.263022,0.0000,0.0000,0.0000,-0.002337,-0.282252,0.280718,0.2918,0.4658,-0.0025,0.000000,0.578311,-0.562971,0.564505,-0.590583,0.575243,-0.564505
1.6601,0.016741,0.000000,-0.262146,0.262146,0.0000,0.0000,0.0000,-0.002337,-0.282252,0.280718,0.2918,0.4658,-0.0025,0.000000,0.578311,-0.562971,0.564505,-0.590583,0.575243,-0.564505
1.6768,0.016746,0.000000,-0.261269,0.261269,0.0000,0.0000,0.0000,-0.002326,-0.282252,0.279185,0.3415,0.4495,0.0520,0.000000,0.579845,-0.562971,0.564505,-0.590583,0.575243,-0.564505
1.6935,0.016739,0.000000,-0.260392,0.260392,0.0000,0.0000,0.0000,-0.002339,-0.280718,0.277651,0.2865,0.4669,-0.0075,0.000000,0.578311,-0.562971,0.564505,-0.590583,0.575243,-0.564505
1.7103,0.016752,0.000000,-0.259515,0.259515,0.0000,0.0000,0.0000,-0.002326,-0.274583,0.274583,0.3420,0.4494,0.0525,0.000000,0.579845,-0.562971,0.564505,-0.590583,0.575243,-0.564505
1.7271,0.016770,0.000000,-0.258637,0.258637,0.0000,0.0000,0.0000,-0.002327,-0.265379,0.269981,0.2972,0.5177,-0.0613,0.000000,0.578311,-0.562971,0.564505,-0.592117,0.575243,-0.564505
1.7438,0.016755,0.000000,-0.257760,0.257760,0.0000,0.0000,0.0000,-0.002327,-0.265379,0.269981,0.2972,0.5177,-0.0613,0.000000,0.578311,-0.562971,0.564505,-0.592117,0.575243,-0.564505
1.7606,0.016741,0.000000,-0.256883,0.256883,0.0000,0.0000,0.0000,-0.002327,-0.260777,0.263845,0.3019,0.5106,-0.0495,0.000000,0.578311,-0.562971,0.564505,-0.592117,0.575243,-0.564505
1.7773,0.016747,0.000000,-0.256007,0.256007,0.0000,0.0000,0.0000,-0.002339,-0.260777,0.259243,0.2906,0.4606,0.0031,0.000000,0.578311,-0.562971,0.564505,-0.590583,0.575243,-0.564505
1.7940,0.016740,0.000000,-0.255130,0.255130,0.0000,0.0000,0.0000,-0.002337,-0.260777,0.257709,0.2918,0.4658,-0.0024,0.000000,0.578311,-0.562971,0.564505,-0.590583,0.575243,-0.564505
1.8108,0.016752,0.000000,-0.254253,0.254253,0.0000,0.0000,0.0000,-0.002337,-0.260777,0.257709,0.2918,0.4658,-0.0024,0.000000,0.578311,-0.562971,0.564505,-0.590583,0.575243,-0.564505
1.8275,0.016744,0.000000,-0.253376,0.253376,0.0000,0.0000,0.0000,-0.002326,-0.259243,0.256175,0.3025,0.5160,-0.0556,0.000000,0.578311,-0.562971,0.564505,-0.592117,0.575243,-0.564505
1.8443,0.016752,0.000000,-0.252499,0.252499,0.0000,0.0000,0.0000,-0.002326,-0.259243,0.256175,0.3025,0.5160,-0.0556,0.000000,0.578311,-0.562971,0.564505,-0.592117,0.575243,-0.564505
1.8610,0.016745,0.000000,-0.251622,0.251622,0.0000,0.0000,0.0000,-0.002327,-0.259243,0.256175,0.3014,0.5108,-0.0501,0.000000,0.578311,-0.562971,0.564505,-0.592117,0.575243,-0.564505
1.8778,0.016770,0.000000,-0.250744,0.250744,0.0000,0.0000,0.0000,-0.002327,-0.259243,0.254641,0.3404,0.4448,0.0569,0.000000,0.579845,-0.562971,0.564505,-0.590583,0.575243,-0.564505
1.8945,0.016740,0.000000,-0.249868,0.249868,0.0000,0.0000,0.0000,-0.002315,-0.259243,0.256175,0.3472,0.5025,-0.0080,0.000000,0.579845,-0.562971,0.564505,-0.592117,0.575243,-0.564505
1.9113,0.016766,0.000000,-0.248990,0.248990,0.0000,0.0000,0.0000,-0.002340,-0.259243,0.254641,0.2859,0.4614,-0.0013,0.000000,0.578311,-0.562971,0.564505,-0.590583,0.575243,-0.564505
1.9280,0.016739,0.000000,-0.248113,0.248113,0.0000,0.0000,0.0000,-0.002340,-0.259243,0.254641,0.2859,0.4614,-0.0013,0.000000,0.578311,-0.562971,0.564505,-0.590583,0.575243,-0.564505
1.9448,0.016749,0.000000,-0.247236,0.247236,0.0000,0.0000,0.0000,-0.002337,-0.259243,0.256175,0.2923,0.4657,-0.0020,0.000000,0.578311,-0.562971,0.564505,-0.590583,0.575243,-0.564505
1.9615,0.016746,0.000000,-0.246360,0.246360,0.0000,0.0000,0.0000,-0.002337,-0.257709,0.256175,0.2923,0.4657,-0.0020,0.000000,0.578311,-0.562971,0.564505,-0.590583,0.575243,-0.564505
1.9783,0.016765,0.000000,-0.245482,0.245482,0.0000,0.0000,0.0000,-0.002326,-0.256175,0.254641,0.3024,0.5160,-0.0557,0.000000,0.578311,-0.562971,0.564505,-0.592117,0.575243,-0.564505
1.9951,0.016757,0.000000,-0.244604,0.244604,0.0000,0.0000,0.0000,-0.002327,-0.256175,0.254641,0.3014,0.5108,-0.0501,0.000000,0.578311,-0.562971,0.564505,-0.592117,0.575243,-0.564505
2.0118,0.016773,0.000000,-0.243726,0.243726,0.0000,0.0000,0.0000,-0.002327,-0.256175,0.254641,0.3014,0.5108,-0.0501,0.000000,0.578311,-0.562971,0.564505,-0.590583,0.575243,-0.564505
2.0286,0.016735,0.000000,-0.242850,0.242850,0.0000,0.0000,0.0000,-0.002339,-0.256175,0.254641,0.2907,0.4606,0.0031,0.000000,0.578311,-0.562971,0.564505,-0.590583,0.575243,-0.564505
2.0453,0.016743,0.000000,-0.241973,0.241973,0.0000,0.0000,0.0000,-0.002326,-0.256175,0.254641,0.3416,0.4501,0.0514,0.000000,0.579845,-0.562971,0.564505,-0.590583,0.575243,-0.564505
2.0621,0.016740,0.000000,-0.241097,0.241097,0.0000,0.0000,0.0000,-0.002339,-0.256175,0.254641,0.2865,0.4669,-0.0074,0.000000,0.578311,-0.562971,0.564505,-0.590583,0.575243,-0.564505
2.0788,0.016764,0.000000,-0.240219,0.240219,0.0000,0.0000,0.0000,-0.002337,-0.256175,0.254641,0.2922,0.4651,-0.0013,0.000000,0.578311,-0.562971,0.564505,-0.590583,0.575243,-0.564505
2.0956,0.016738,0.000000,-0.239343,0.239343,0.0000,0.0000,0.0000,-0.002337,-0.254641,0.254641,0.2922,0.4651,-0.0013,0.000000,0.578311,-0.562971,0.564505,-0.590583,0.575243,-0.564505
2.1123,0.016775,0.000000,-0.238464,0.238464,0.0000,0.0000,0.0000,-0.002337,-0.254641,0.254641,0.2922,0.4651,-0.0013,0.000000,0.578311,-0.562971,0.564505,-0.590583,0.575243,-0.564505
2.1291,0.016738,0.000000,-0.237588,0.237588,0.0000,0.0000,0.0000,-0.002314,-0.254641,0.253107,0.3522,0.5004,-0.0019,0.000000,0.579845,-0.562971,0.564505,-0.592117,0.575243,-0.564505
2.1458,0.016750,0.000000,-0.236711,0.236711,0.0000,0.0000,0.0000,-0.002328,-0.253107,0.253107,0.2962,0.5124,-0.0557,0.000000,0.578311,-0.562971,0.564505,-0.592117,0.575243,-0.564505
2.1626,0.016738,0.000000,-0.235834,0.235834,0.0000,0.0000,0.0000,-0.002338,-0.248505,0.251573,0.2912,0.4604,0.0037,0.000000,0.578311,-0.562971,0.564505,-0.590583,0.575243,-0.564505
2.1794,0.016842,0.000000,-0.234953,0.234953,0.0000,0.0000,0.0000,-0.002337,-0.240835,0.250039,0.2917,0.4658,-0.0025,0.000000,0.578311,-0.562971,0.564505,-0.590583,0.575243,-0.564505
2.1961,0.016743,0.000000,-0.234076,0.234076,0.0000,0.0000,0.0000,-0.002326,-0.236233,0.246971,0.3025,0.5160,-0.0556,0.000000,0.578311,-0.562971,0.564505,-0.592117,0.575243,-0.564505
2.2129,0.016761,0.000000,-0.233198,0.233198,0.0000,0.0000,0.0000,-0.002326,-0.236233,0.246971,0.3025,0.5160,-0.0556,0.000000,0.578311,-0.562971,0.564505,-0.592117,0.575243,-0.564505
2.2296,0.016740,0.000000,-0.232322,0.232322,0.0000,0.0000,0.0000,-0.002339,-0.236233,0.242369,0.2905,0.4600,0.0037,0.000000,0.578311,-0.562971,0.564505,-0.590583,0.575243,-0.564505
2.2464,0.016750,0.000000,-0.231445,0.231445,0.0000,0.0000,0.0000,-0.002326,-0.236233,0.237767,0.3416,0.4501,0.0513,0.000000,0.579845,-0.562971,0.564505,-0.590583,0.575243,-0.564505
2.2631,0.016742,0.000000,-0.230568,0.230568,0.0000,0.0000,0.0000,-0.002327,-0.234699,0.234699,0.2973,0.5176,-0.0612,0.000000,0.578311,-0.562971,0.564505,-0.592117,0.575243,-0.564505
2.2799,0.016756,0.000000,-0.229691,0.229691,0.0000,0.0000,0.0000,-0.002339,-0.233165,0.233165,0.2911,0.4599,0.0043,0.000000,0.578311,-0.562971,0.564505,-0.590583,0.575243,-0.564505
2.2966,0.016745,0.000000,-0.228814,0.228814,0.0000,0.0000,0.0000,-0.002314,-0.233165,0.231631,0.3524,0.5009,-0.0025,0.000000,0.579845,-0.562971,0.564505,-0.592117,0.575243,-0.564505
2.3134,0.016766,0.000000,-0.227936,0.227936,0.0000,0.0000,0.0000,-0.002314,-0.233165,0.231631,0.3524,0.5009,-0.0025,0.000000,0.579845,-0.562971,0.564505,-0.592117,0.575243,-0.564505
2.3301,0.016743,0.000000,-0.227060,0.227060,0.0000,0.0000,0.0000,-0.002340,-0.233165,0.231631,0.2854,0.4616,-0.0018,0.000000,0.578311,-0.562971,0.564505,-0.590583,0.575243,-0.564505
2.3469,0.016747,0.000000,-0.226183,0.226183,0.0000,0.0000,0.0000,-0.002337,-0.231631,0.231631,0.2923,0.4657,-0.0019,0.000000,0.578311,-0.562971,0.564505,-0.590583,0.575243,-0.564505
2.3636,0.016746,0.000000,-0.225306,0.225306,0.0000,0.0000,0.0000,-0.002326,-0.231631,0.231631,0.3024,0.5160,-0.0557,0.000000,0.578311,-0.562971,0.564505,-0.592117,0.575243,-0.564505
2.3804,0.016773,0.000000,-0.224428,0.224428,0.0000,0.0000,0.0000,-0.002327,-0.231631,0.231631,0.3403,0.4443,0.0575,0.000000,0.579845,-0.562971,0.564505,-0.590583,0.575243,-0.564505
2.3973,0.016841,0.000000,-0.223546,0.223546,0.0000,0.0000,0.0000,-0.002315,-0.230097,0.231631,0.3472,0.5025,-0.0081,0.000000,0.579845,-0.562971,0.564505,-0.592117,0.575243,-0.564505
2.4140,0.016752,0.000000,-0.222669,0.222669,0.0000,0.0000,0.0000,-0.002315,-0.230097,0.231631,0.3472,0.5025,-0.0081,0.000000,0.579845,-0.562971,0.564505,-0.592117,0.575243,-0.564505
2.4307,0.016741,0.000000,-0.221792,0.221792,0.0000,0.0000,0.0000,-0.002328,-0.230097,0.230097,0.2967,0.5121,-0.0550,0.000000,0.578311,-0.562971,0.564505,-0.592117,0.575243,-0.564505
2.4475,0.016746,0.000000,-0.220915,0.220915,0.0000,0.0000,0.0000,-0.002338,-0.230097,0.228563,0.2911,0.4604,0.0036,0.000000,0.578311,-0.562971,0.564505,-0.590583,0.575243,-0.564505
2.4642,0.016742,0.000000,-0.220039,0.220039,0.0000,0.0000,0.0000,-0.002337,-0.230097,0.228563,0.2917,0.4658,-0.0025,0.000000,0.578311,-0.562971,0.564505,-0.590583,0.575243,-0.564505
2.4810,0.016753,0.000000,-0.219162,0.219162,0.0000,0.0000,0.0000,-0.002326,-0.230097,0.228563,0.3415,0.4495,0.0520,0.000000,0.579845,-0.562971,0.564505,-0.590583,0.575243,-0.564505
2.4977,0.016746,0.000000,-0.218285,0.218285,0.0000,0.0000,0.0000,-0.002339,-0.230097,0.228563,0.2865,0.4669,-0.0075,0.000000,0.578311,-0.562971,0.564505,-0.590583,0.575243,-0.564505
2.5145,0.016751,0.000000,-0.217408,0.217408,0.0000,0.0000,0.0000,-0.002339,-0.230097,0.228563,0.2865,0.4669,-0.0075,0.000000,0.578311,-0.562971,0.564505,-0.590583,0.575243,-0.564505
2.5312,0.016742,0.000000,-0.216531,0.216531,0.0000,0.0000,0.0000,-0.002337,-0.230097,0.228563,0.2922,0.4651,-0.0013,0.000000,0.578311,-0.562971,0.564505,-0.590583,0.575243,-0.564505
2.5480,0.016752,0.000000,-0.215654,0.215654,0.0000,0.0000,0.0000,-0.002337,-0.230097,0.227029,0.2922,0.4651,-0.0013,0.000000,0.578311,-0.562971,0.564505,-0.590583,0.575243,-0.564505
2.5647,0.016743,0.000000,-0.214777,0.214777,0.0000,0.0000,0.0000,-0.002326,-0.228563,0.227029,0.3024,0.5161,-0.0557,0.000000,0.578311,-0.562971,0.564505,-0.592117,0.575243,-0.564505
2.5815,0.016754,0.000000,-0.213900,0.213900,0.0000,0.0000,0.0000,-0.002327,-0.228563,0.227029,0.3403,0.4443,0.0575,0.000000,0.579845,-0.562971,0.564505,-0.590583,0.575243,-0.564505
2.5982,0.016752,0.000000,-0.213023,0.213023,0.0000,0.0000,0.0000,-0.002327,-0.228563,0.227029,0.3364,0.4518,0.0457,0.000000,0.579845,-0.562971,0.564505,-0.590583,0.575243,-0.564505
2.6150,0.016761,0.000000,-0.212145,0.212145,0.0000,0.0000,0.0000,-0.002327,-0.228563,0.227029,0.3364,0.4518,0.0457,0.000000,0.579845,-0.562971,0.564505,-0.590583,0.575243,-0.564505
2.6317,0.016744,0.000000,-0.211269,0.211269,0.0000,0.0000,0.0000,-0.002327,-0.227029,0.227029,0.2978,0.5175,-0.0606,0.000000,0.578311,-0.562971,0.564505,-0.592117,0.575243,-0.564505
2.6485,0.016748,0.000000,-0.210392,0.210392,0.0000,0.0000,0.0000,-0.002327,-0.222427,0.227029,0.3408,0.4441,0.0580,0.000000,0.579845,-0.562971,0.564505,-0.590583,0.575243,-0.564505
2.6652,0.016741,0.000000,-0.209515,0.209515,0.0000,0.0000,0.0000,-0.002327,-0.213223,0.225495,0.2974,0.5182,-0.0619,0.000000,0.578311,-0.562971,0.564505,-0.592117,0.575243,-0.564505
2.6820,0.016752,0.000000,-0.208638,0.208638,0.0000,0.0000,0.0000,-0.002327,-0.211689,0.223961,0.3019,0.5105,-0.0494,0.000000,0.578311,-0.562971,0.564505,-0.592117,0.575243,-0.564505
2.6988,0.016813,0.000000,-0.207758,0.207758,0.0000,0.0000,0.0000,-0.002339,-0.211689,0.220893,0.2906,0.4606,0.0031,0.000000,0.578311,-0.562971,0.564505,-0.590583,0.575243,-0.564505
2.7155,0.016751,0.000000,-0.206881,0.206881,0.0000,0.0000,0.0000,-0.002339,-0.211689,0.220893,0.2906,0.4606,0.0031,0.000000,0.578311,-0.562971,0.564505,-0.590583,0.575243,-0.564505
2.7323,0.016746,0.000000,-0.206004,0.206004,0.0000,0.0000,0.0000,-0.002337,-0.210155,0.217825,0.2918,0.4658,-0.0024,0.000000,0.578311,-0.562971,0.564505,-0.590583,0.575243,-0.564505
2.7490,0.016754,0.000000,-0.205127,0.205127,0.0000,0.0000,0.0000,-0.002337,-0.210155,0.213223,0.2918,0.4658,-0.0024,0.000000,0.578311,-0.562971,0.564505,-0.590583,0.575243,-0.564505
2.7658,0.016800,0.000000,-0.204247,0.204247,0.0000,0.0000,0.0000,-0.002326,-0.208621,0.211689,0.3025,0.5160,-0.0556,0.000000,0.578311,-0.562971,0.564505,-0.592117,0.575243,-0.564505
2.7826,0.016745,0.000000,-0.203370,0.203370,0.0000,0.0000,0.0000,-0.002316,-0.207087,0.208621,0.3512,0.4950,0.0037,0.000000,0.579845,-0.562971,0.564505,-0.592117,0.575243,-0.564505
2.7993,0.016757,0.000000,-0.202493,0.202493,0.0000,0.0000,0.0000,-0.002340,-0.205553,0.205553,0.2855,0.4622,-0.0025,0.000000,0.578311,-0.562971,0.564505,-0.590583,0.575243,-0.564505
2.8161,0.016759,0.000000,-0.201615,0.201615,0.0000,0.0000,0.0000,-0.002340,-0.205553,0.205553,0.2855,0.4622,-0.0025,0.000000,0.578311,-0.562971,0.564505,-0.590583,0.575243,-0.564505
2.8328,0.016751,0.000000,-0.200738,0.200738,0.0000,0.0000,0.0000,-0.002326,-0.205553,0.205553,0.3421,0.4499,0.0520,0.000000,0.579845,-0.562971,0.564505,-0.590583,0.575243,-0.564505
2.8496,0.016746,0.000000,-0.199861,0.199861,0.0000,0.0000,0.0000,-0.002327,-0.205553,0.205553,0.2972,0.5176,-0.0613,0.000000,0.578311,-0.562971,0.564505,-0.592117,0.575243,-0.564505
2.8664,0.016757,0.000000,-0.198984,0.198984,0.0000,0.0000,0.0000,-0.002339,-0.205553,0.204019,0.2911,0.4599,0.0043,0.000000,0.578311,-0.562971,0.564505,-0.590583,0.575243,-0.564505
2.8831,0.016755,0.000000,-0.198107,0.198107,0.0000,0.0000,0.0000,-0.002326,-0.204019,0.204019,0.3025,0.5166,-0.0563,0.000000,0.578311,-0.562971,0.564505,-0.592117,0.575243,-0.564505
2.8999,0.016772,0.000000,-0.197229,0.197229,0.0000,0.0000,0.0000,-0.002326,-0.204019,0.204019,0.3025,0.5166,-0.0563,0.000000,0.578311,-0.562971,0.564505,-0.592117,0.575243,-0.564505
2.9166,0.016750,0.000000,-0.196352,0.196352,0.0000,0.0000,0.0000,-0.002339,-0.202485,0.204019,0.2905,0.4600,0.0038,0.000000,0.578311,-0.562971,0.564505,-0.590583,0.575243,-0.564505
2.9334,0.016752,0.000000,-0.195474,0.195474,0.0000,0.0000,0.0000,-0.002326,-0.200951,0.204019,0.3026,0.5166,-0.0563,0.000000,0.578311,-0.562971,0.564505,-0.592117,0.575243,-0.564505
2.9502,0.016787,0.000000,-0.194595,0.194595,0.0000,0.0000,0.0000,-0.002327,-0.200951,0.202485,0.3013,0.5107,-0.0500,0.000000,0.578311,-0.562971,0.564505,-0.592117,0.575243,-0.564505
2.9669,0.016751,0.000000,-0.193718,0.193718,0.0000,0.0000,0.0000,-0.002339,-0.200951,0.200951,0.2907,0.4606,0.0031,0.000000,0.578311,-0.562971,0.564505,-0.590583,0.575243,-0.564505
2.9837,0.016779,0.000000,-0.192840,0.192840,0.0000,0.0000,0.0000,-0.002326,-0.200951,0.199418,0.3416,0.4500,0.0514,0.000000,0.579845,-0.562971,0.564505,-0.590583,0.575243,-0.564505
3.0005,0.016753,0.000000,-0.191963,0.191963,0.0000,0.0000,0.0000,-0.002326,-0.200951,0.199418,0.3416,0.4500,0.0514,0.000000,0.579845,-0.562971,0.564505,-0.590583,0.575243,-0.564505
3.0172,0.016746,0.000000,-0.191086,0.191086,0.0000,0.0000,0.0000,-0.002339,-0.200951,0.199418,0.2865,0.4669,-0.0074,0.000000,0.578311,-0.562971,0.564505,-0.590583,0.575243,-0.564505
3.0339,0.016749,0.000000,-0.190209,0.190209,0.0000,0.0000,0.0000,-0.002326,-0.200951,0.199418,0.3030,0.5159,-0.0551,0.000000,0.578311,-0.562971,0.564505,-0.592117,0.575243,-0.564505
3.0507,0.016753,0.000000,-0.189332,0.189332,0.0000,0.0000,0.0000,-0.002316,-0.200951,0.199418,0.3511,0.4950,0.0037,0.000000,0.579845,-0.562971,0.564505,-0.592117,0.575243,-0.564505
3.0674,0.016748,0.000000,-0.188455,0.188455,0.0000,0.0000,0.0000,-0.002328,-0.200951,0.199418,0.2963,0.5129,-0.0563,0.000000,0.578311,-0.562971,0.564505,-0.592117,0.575243,-0.564505
3.0844,0.016911,0.000000,-0.187569,0.187569,0.0000,0.0000,0.0000,-0.002338,-0.200951,0.199418,0.2912,0.4603,0.0038,0.000000,0.578311,-0.562971,0.564505,-0.590583,0.575243,-0.564505
3.1011,0.016749,0.000000,-0.186692,0.186692,0.0000,0.0000,0.0000,-0.002338,-0.200951,0.199418,0.2912,0.4603,0.0038,0.000000,0.578311,-0.562971,0.564505,-0.590583,0.575243,-0.564505
3.1179,0.016747,0.000000,-0.185815,0.185815,0.0000,0.0000,0.0000,-0.002326,-0.200951,0.199418,0.3025,0.5166,-0.0563,0.000000,0.578311,-0.562971,0.564505,-0.592117,0.575243,-0.564505
3.1346,0.016742,0.000000,-0.184939,0.184939,0.0000,0.0000,0.0000,-0.002339,-0.200951,0.199418,0.2905,0.4600,0.0038,0.000000,0.578311,-0.562971,0.564505,-0.590583,0.575243,-0.564505
3.1513,0.016743,0.000000,-0.184062,0.184062,0.0000,0.0000,0.0000,-0.002326,-0.196350,0.199418,0.3026,0.5166,-0.0563,0.000000,0.578311,-0.562971,0.564505,-0.592117,0.575243,-0.564505
3.1681,0.016752,0.000000,-0.183185,0.183185,0.0000,0.0000,0.0000,-0.002339,-0.190214,0.199418,0.2905,0.4600,0.0038,0.000000,0.578311,-0.562971,0.564505,-0.590583,0.575243,-0.564505
3.1848,0.016753,0.000000,-0.182308,0.182308,0.0000,0.0000,0.0000,-0.002326,-0.184078,0.197884,0.3416,0.4501,0.0513,0.000000,0.579845,-0.562971,0.564505,-0.590583,0.575243,-0.564505
3.2016,0.016751,0.000000,-0.181431,0.181431,0.0000,0.0000,0.0000,-0.002326,-0.184078,0.197884,0.3416,0.4501,0.0513,0.000000,0.579845,-0.562971,0.564505,-0.590583,0.575243,-0.564505
3.2183,0.016743,0.000000,-0.180554,0.180554,0.0000,0.0000,0.0000,-0.002339,-0.184078,0.197884,0.2865,0.4669,-0.0074,0.000000,0.578311,-0.562971,0.564505,-0.590583,0.575243,-0.564505
3.2351,0.016741,0.000000,-0.179677,0.179677,0.0000,0.0000,0.0000,-0.002326,-0.184078,0.196350,0.3420,0.4494,0.0525,0.000000,0.579845,-0.562971,0.564505,-0.590583,0.575243,-0.564505
3.2518,0.016745,0.000000,-0.178801,0.178801,0.0000,0.0000,0.0000,-0.002327,-0.182544,0.193282,0.2972,0.5177,-0.0613,0.000000,0.578311,-0.562971,0.564505,-0.592117,0.575243,-0.564505
3.2688,0.016987,0.000000,-0.177911,0.177911,0.0000,0.0000,0.0000,-0.002339,-0.182544,0.190214,0.2911,0.4599,0.0043,0.000000,0.578311,-0.562971,0.564505,-0.590583,0.575243,-0.564505
3.2856,0.016751,0.000000,-0.177034,0.177034,0.0000,0.0000,0.0000,-0.002339,-0.182544,0.184078,0.2911,0.4599,0.0043,0.000000,0.579845,-0.562971,0.564505,-0.592117,0.575243,-0.564505
3.3037,0.018181,0.000000,-0.176082,0.176082,0.0000,0.0000,0.0000,-0.002340,-0.181010,0.177942,0.2854,0.4616,-0.0018,0.000000,0.578311,-0.562971,0.564505,-0.590583,0.575243,-0.564505
3.3205,0.016739,0.000000,-0.175206,0.175206,0.0000,0.0000,0.0000,-0.002340,-0.181010,0.177942,0.2854,0.4616,-0.0018,0.000000,0.578311,-0.562971,0.564505,-0.590583,0.575243,-0.564505
3.3373,0.016807,0.000000,-0.174326,0.174326,0.0000,0.0000,0.0000,-0.002326,-0.179476,0.176408,0.3421,0.4499,0.0519,0.000000,0.579845,-0.562971,0.564505,-0.590583,0.575243,-0.564505
3.3540,0.016743,0.000000,-0.173449,0.173449,0.0000,0.0000,0.0000,-0.002327,-0.179476,0.176408,0.3362,0.4512,0.0463,0.000000,0.579845,-0.562971,0.564505,-0.590583,0.575243,-0.564505
3.3708,0.016766,0.000000,-0.172571,0.172571,0.0000,0.0000,0.0000,-0.002339,-0.179476,0.176408,0.2870,0.4668,-0.0069,0.000000,0.578311,-0.562971,0.564505,-0.590583,0.575243,-0.564505
3.3875,0.016748,0.000000,-0.171694,0.171694,0.0000,0.0000,0.0000,-0.002337,-0.177942,0.174874,0.2922,0.4651,-0.0014,0.000000,0.578311,-0.562971,0.564505,-0.590583,0.575243,-0.564505
3.4043,0.016761,0.000000,-0.170817,0.170817,0.0000,0.0000,0.0000,-0.002337,-0.177942,0.174874,0.2922,0.4651,-0.0014,0.000000,0.578311,-0.562971,0.564505,-0.590583,0.575243,-0.564505
3.4211,0.016744,0.000000,-0.169940,0.169940,0.0000,0.0000,0.0000,-0.002337,-0.177942,0.173340,0.2922,0.4651,-0.0014,0.000000,0.578311,-0.562971,0.564505,-0.590583,0.575243,-0.564505
3.4378,0.016759,0.000000,-0.169062,0.169062,0.0000,0.0000,0.0000,-0.002326,-0.176408,0.171806,0.3414,0.4496,0.0519,0.000000,0.579845,-0.562971,0.564505,-0.590583,0.575243,-0.564505
3.4545,0.016720,0.000000,-0.168187,0.168187,0.0000,0.0000,0.0000,-0.002327,-0.174874,0.171806,0.2973,0.5177,-0.0613,0.000000,0.578311,-0.562971,0.564505,-0.592117,0.575243,-0.564505
3.4713,0.016758,0.000000,-0.167310,0.167310,0.0000,0.0000,0.0000,-0.002327,-0.174874,0.171806,0.3019,0.5106,-0.0495,0.000000,0.578311,-0.562971,0.564505,-0.592117,0.575243,-0.564505
3.4880,0.016745,0.000000,-0.166433,0.166433,0.0000,0.0000,0.0000,-0.002339,-0.174874,0.173340,0.2906,0.4606,0.0031,0.000000,0.578311,-0.562971,0.564505,-0.590583,0.575243,-0.564505
3.5048,0.016753,0.000000,-0.165556,0.165556,0.0000,0.0000,0.0000,-0.002339,-0.174874,0.173340,0.2906,0.4606,0.0031,0.000000,0.578311,-0.562971,0.564505,-0.590583,0.575243,-0.564505
3.5215,0.016744,0.000000,-0.164679,0.164679,0.0000,0.0000,0.0000,-0.002326,-0.174874,0.171806,0.3026,0.5166,-0.0562,0.000000,0.578311,-0.562971,0.564505,-0.592117,0.575243,-0.564505
3.5383,0.016762,0.000000,-0.163801,0.163801,0.0000,0.0000,0.0000,-0.002339,-0.173340,0.171806,0.2905,0.4600,0.0038,0.000000,0.578311,-0.562971,0.564505,-0.590583,0.575243,-0.564505
3.5550,0.016741,0.000000,-0.162925,0.162925,0.0000,0.0000,0.0000,-0.002326,-0.173340,0.171806,0.3416,0.4501,0.0513,0.000000,0.579845,-0.562971,0.564505,-0.590583,0.575243,-0.564505
3.5718,0.016768,0.000000,-0.162047,0.162047,0.0000,0.0000,0.0000,-0.002327,-0.173340,0.171806,0.3363,0.4512,0.0464,0.000000,0.579845,-0.562971,0.564505,-0.590583,0.575243,-0.564505
3.5885,0.016744,0.000000,-0.161170,0.161170,0.0000,0.0000,0.0000,-0.002339,-0.171806,0.171806,0.2870,0.4668,-0.0069,0.000000,0.578311,-0.562971,0.564505,-0.590583,0.575243,-0.564505
3.6053,0.016755,0.000000,-0.160293,0.160293,0.0000,0.0000,0.0000,-0.002339,-0.171806,0.171806,0.2870,0.4668,-0.0069,0.000000,0.578311,-0.562971,0.564505,-0.590583,0.575243,-0.564505
3.6220,0.016745,0.000000,-0.159416,0.159416,0.0000,0.0000,0.0000,-0.002337,-0.165670,0.171806,0.2922,0.4651,-0.0014,0.000000,0.578311,-0.562971,0.564505,-0.590583,0.575243,-0.564505
3.6388,0.016750,0.000000,-0.158539,0.158539,0.0000,0.0000,0.0000,-0.002337,-0.161068,0.171806,0.2922,0.4651,-0.0014,0.000000,0.578311,-0.562971,0.564505,-0.590583,0.575243,-0.564505
3.6555,0.016743,0.000000,-0.157662,0.157662,0.0000,0.0000,0.0000,-0.002326,-0.162602,0.170272,0.3024,0.5161,-0.0557,0.000000,0.578311,-0.562971,0.564505,-0.592117,0.575243,-0.564505
3.6723,0.016763,0.000000,-0.156785,0.156785,0.0000,0.0000,0.0000,-0.002352,-0.162602,0.170272,0.2514,0.4955,0.0569,0.000000,0.578311,-0.561437,0.564505,-0.590583,0.575243,-0.564505
3.6890,0.016748,0.000000,-0.155908,0.155908,0.0000,0.0000,0.0000,-0.002352,-0.162602,0.170272,0.2514,0.4955,0.0569,0.000000,0.578311,-0.561437,0.564505,-0.590583,0.575243,-0.564505
3.7058,0.016753,0.000000,-0.155031,0.155031,0.0000,0.0000,0.0000,-0.002336,-0.159534,0.167204,0.2959,0.4622,-0.0080,0.000000,0.578311,-0.562971,0.564505,-0.590583,0.575243,-0.564505
3.7225,0.016745,0.000000,-0.154154,0.154154,0.0000,0.0000,0.0000,-0.002338,-0.161068,0.165670,0.2912,0.4656,-0.0013,0.000000,0.578311,-0.562971,0.564505,-0.590583,0.575243,-0.564505
3.7395,0.016993,0.000000,-0.153264,0.153264,0.0000,0.0000,0.0000,-0.002314,-0.161068,0.161068,0.3523,0.5003,-0.0019,0.000000,0.579845,-0.562971,0.564505,-0.592117,0.575243,-0.564505
3.7562,0.016708,0.000000,-0.152389,0.152389,0.0000,0.0000,0.0000,-0.002328,-0.158000,0.154932,0.3351,0.4459,0.0519,0.000000,0.579845,-0.562971,0.564505,-0.590583,0.575243,-0.564505
3.7730,0.016761,0.000000,-0.151512,0.151512,0.0000,0.0000,0.0000,-0.002338,-0.156466,0.153398,0.2871,0.4673,-0.0075,0.000000,0.578311,-0.562971,0.564505,-0.590583,0.575243,-0.564505
3.7898,0.016745,0.000000,-0.150635,0.150635,0.0000,0.0000,0.0000,-0.002338,-0.156466,0.153398,0.2871,0.4673,-0.0075,0.000000,0.578311,-0.562971,0.564505,-0.590583,0.575243,-0.564505
3.8065,0.016755,0.000000,-0.149758,0.149758,0.0000,0.0000,0.0000,-0.002326,-0.154932,0.151864,0.3419,0.4493,0.0525,0.000000,0.579845,-0.562971,0.564505,-0.590583,0.575243,-0.564505
3.8233,0.016745,0.000000,-0.148881,0.148881,0.0000,0.0000,0.0000,-0.002339,-0.154932,0.151864,0.2864,0.4669,-0.0076,0.000000,0.578311,-0.562971,0.564505,-0.590583,0.575243,-0.564505
3.8404,0.017178,0.000000,-0.147981,0.147981,0.0000,0.0000,0.0000,-0.002326,-0.153398,0.151864,0.3030,0.5159,-0.0551,0.000000,0.578311,-0.562971,0.564505,-0.592117,0.575243,-0.564505
3.8572,0.016747,0.000000,-0.147104,0.147104,0.0000,0.0000,0.0000,-0.002339,-0.151864,0.150330,0.2905,0.4600,0.0036,0.000000,0.578311,-0.562971,0.564505,-0.590583,0.575243,-0.564505
3.8739,0.016766,0.000000,-0.146227,0.146227,0.0000,0.0000,0.0000,-0.002337,-0.151864,0.148796,0.2918,0.4658,-0.0025,0.000000,0.578311,-0.562971,0.564505,-0.590583,0.575243,-0.564505
3.8907,0.016745,0.000000,-0.145350,0.145350,0.0000,0.0000,0.0000,-0.002337,-0.151864,0.148796,0.2918,0.4658,-0.0025,0.000000,0.578311,-0.562971,0.564505,-0.590583,0.575243,-0.564505
3.9074,0.016758,0.000000,-0.144472,0.144472,0.0000,0.0000,0.0000,-0.002326,-0.151864,0.148796,0.3415,0.4495,0.0520,0.000000,0.579845,-0.562971,0.564505,-0.590583,0.575243,-0.564505
3.9242,0.016745,0.000000,-0.143596,0.143596,0.0000,0.0000,0.0000,-0.002327,-0.150330,0.148796,0.2973,0.5177,-0.0613,0.000000,0.578311,-0.562971,0.564505,-0.592117,0.575243,-0.564505
3.9409,0.016747,0.000000,-0.142719,0.142719,0.0000,0.0000,0.0000,-0.002327,-0.148796,0.148796,0.3409,0.4441,0.0581,0.000000,0.579845,-0.562971,0.564505,-0.590583,0.575243,-0.564505
3.9577,0.016748,0.000000,-0.141842,0.141842,0.0000,0.0000,0.0000,-0.002339,-0.148796,0.147262,0.2866,0.4675,-0.0081,0.000000,0.578311,-0.562971,0.564505,-0.590583,0.575243,-0.564505
3.9744,0.016760,0.000000,-0.140964,0.140964,0.0000,0.0000,0.0000,-0.002326,-0.148796,0.147262,0.3420,0.4493,0.0526,0.000000,0.579845,-0.562971,0.564505,-0.590583,0.575243,-0.564505
3.9912,0.016746,0.000000,-0.140087,0.140087,0.0000,0.0000,0.0000,-0.002326,-0.148796,0.147262,0.3420,0.4493,0.0526,0.000000,0.579845,-0.562971,0.564505,-0.590583,0.575243,-0.564505
4.0079,0.016757,0.000000,-0.139210,0.139210,0.0000,0.0000,0.0000,-0.002316,-0.148796,0.145728,0.3470,0.5020,-0.0075,0.000000,0.579845,-0.562971,0.564505,-0.592117,0.575243,-0.564505
4.0247,0.016746,0.000000,-0.138333,0.138333,0.0000,0.0000,0.0000,-0.002328,-0.147262,0.145728,0.2967,0.5122,-0.0551,0.000000,0.578311,-0.562971,0.564505,-0.592117,0.575243,-0.564505
4.0415,0.016831,0.000000,-0.137452,0.137452,0.0000,0.0000,0.0000,-0.002315,-0.147262,0.144194,0.3518,0.4954,0.0037,0.000000,0.579845,-0.562971,0.564505,-0.592117,0.575243,-0.564505
4.0583,0.016741,0.000000,-0.136575,0.136575,0.0000,0.0000,0.0000,-0.002340,-0.147262,0.144194,0.2854,0.4622,-0.0025,0.000000,0.578311,-0.562971,0.564505,-0.590583,0.575243,-0.564505
4.0752,0.016911,0.000000,-0.135690,0.135690,0.0000,0.0000,0.0000,-0.002337,-0.147262,0.144194,0.2923,0.4656,-0.0018,0.000000,0.578311,-0.562971,0.564505,-0.590583,0.575243,-0.564505
4.0919,0.016744,0.000000,-0.134813,0.134813,0.0000,0.0000,0.0000,-0.002337,-0.147262,0.144194,0.2923,0.4656,-0.0018,0.000000,0.578311,-0.562971,0.564505,-0.590583,0.575243,-0.564505
4.1087,0.016751,0.000000,-0.133936,0.133936,0.0000,0.0000,0.0000,-0.002337,-0.147262,0.144194,0.2923,0.4656,-0.0018,0.000000,0.578311,-0.562971,0.564505,-0.590583,0.575243,-0.564505
4.1254,0.016747,0.000000,-0.133059,0.133059,0.0000,0.0000,0.0000,-0.002337,-0.147262,0.144194,0.2923,0.4656,-0.0018,0.000000,0.578311,-0.562971,0.564505,-0.590583,0.575243,-0.564505
4.1422,0.016749,0.000000,-0.132182,0.132182,0.0000,0.0000,0.0000,-0.002326,-0.147262,0.144194,0.3414,0.4495,0.0519,0.000000,0.579845,-0.562971,0.564505,-0.590583,0.575243,-0.564505
4.1589,0.016748,0.000000,-0.131305,0.131305,0.0000,0.0000,0.0000,-0.002327,-0.144194,0.144194,0.3363,0.4512,0.0463,0.000000,0.579845,-0.562971,0.564505,-0.590583,0.575243,-0.564505
4.1757,0.016774,0.000000,-0.130427,0.130427,0.0000,0.0000,0.0000,-0.002339,-0.139592,0.142660,0.2870,0.4668,-0.0069,0.000000,0.578311,-0.562971,0.564505,-0.590583,0.575243,-0.564505
4.1924,0.016743,0.000000,-0.129550,0.129550,0.0000,0.0000,0.0000,-0.002339,-0.139592,0.142660,0.2870,0.4668,-0.0069,0.000000,0.578311,-0.562971,0.564505,-0.590583,0.575243,-0.564505
4.2092,0.016753,0.000000,-0.128673,0.128673,0.0000,0.0000,0.0000,-0.002326,-0.133456,0.141126,0.3030,0.5159,-0.0552,0.000000,0.578311,-0.562971,0.564505,-0.592117,0.575243,-0.564505
4.2259,0.016741,0.000000,-0.127797,0.127797,0.0000,0.0000,0.0000,-0.002339,-0.131922,0.138058,0.2905,0.4600,0.0037,0.000000,0.578311,-0.562971,0.564505,-0.590583,0.575243,-0.564505
4.2427,0.016760,0.000000,-0.126919,0.126919,0.0000,0.0000,0.0000,-0.002326,-0.133456,0.133456,0.3416,0.4501,0.0513,0.000000,0.579845,-0.562971,0.564505,-0.590583,0.575243,-0.564505
4.2594,0.016744,0.000000,-0.126042,0.126042,0.0000,0.0000,0.0000,-0.002339,-0.131922,0.127320,0.2865,0.4669,-0.0074,0.000000,0.578311,-0.562971,0.564505,-0.590583,0.575243,-0.564505
4.2762,0.016754,0.000000,-0.125165,0.125165,0.0000,0.0000,0.0000,-0.002337,-0.130388,0.125786,0.2922,0.4651,-0.0013,0.000000,0.578311,-0.562971,0.564505,-0.590583,0.575243,-0.564505
4.2929,0.016745,0.000000,-0.124288,0.124288,0.0000,0.0000,0.0000,-0.002337,-0.130388,0.125786,0.2922,0.4651,-0.0013,0.000000,0.578311,-0.562971,0.564505,-0.590583,0.575243,-0.564505
4.3097,0.016749,0.000000,-0.123412,0.123412,0.0000,0.0000,0.0000,-0.002314,-0.128854,0.127320,0.3522,0.5004,-0.0019,0.000000,0.579845,-0.562971,0.564505,-0.592117,0.575243,-0.564505
4.3264,0.016741,0.000000,-0.122535,0.122535,0.0000,0.0000,0.0000,-0.002317,-0.128854,0.125786,0.3460,0.4967,-0.0019,0.000000,0.579845,-0.562971,0.564505,-0.592117,0.575243,-0.564505
4.3432,0.016761,0.000000,-0.121657,0.121657,0.0000,0.0000,0.0000,-0.002340,-0.127320,0.124252,0.2860,0.4620,-0.0019,0.000000,0.578311,-0.562971,0.564505,-0.590583,0.575243,-0.564505
4.3599,0.016748,0.000000,-0.120780,0.120780,0.0000,0.0000,0.0000,-0.002337,-0.125786,0.124252,0.2923,0.4656,-0.0019,0.000000,0.578311,-0.562971,0.564505,-0.590583,0.575243,-0.564505
4.3767,0.016771,0.000000,-0.119902,0.119902,0.0000,0.0000,0.0000,-0.002326,-0.124252,0.122718,0.3024,0.5160,-0.0557,0.000000,0.578311,-0.562971,0.564505,-0.592117,0.575243,-0.564505
4.3934,0.016741,0.000000,-0.119026,0.119026,0.0000,0.0000,0.0000,-0.002326,-0.124252,0.122718,0.3024,0.5160,-0.0557,0.000000,0.578311,-0.562971,0.564505,-0.592117,0.575243,-0.564505
4.4102,0.016748,0.000000,-0.118149,0.118149,0.0000,0.0000,0.0000,-0.002316,-0.125786,0.121184,0.3512,0.4950,0.0038,0.000000,0.579845,-0.562971,0.564505,-0.592117,0.575243,-0.564505
4.4269,0.016746,0.000000,-0.117272,0.117272,0.0000,0.0000,0.0000,-0.002340,-0.124252,0.121184,0.2855,0.4622,-0.0025,0.000000,0.578311,-0.562971,0.564505,-0.590583,0.575243,-0.564505
4.4437,0.016761,0.000000,-0.116394,0.116394,0.0000,0.0000,0.0000,-0.002337,-0.122718,0.121184,0.2923,0.4656,-0.0018,0.000000,0.578311,-0.562971,0.564505,-0.590583,0.575243,-0.564505
4.4604,0.016740,0.000000,-0.115518,0.115518,0.0000,0.0000,0.0000,-0.002337,-0.121184,0.119651,0.2923,0.4656,-0.0018,0.000000,0.578311,-0.562971,0.564505,-0.590583,0.575243,-0.564505
4.4772,0.016771,0.000000,-0.114640,0.114640,0.0000,0.0000,0.0000,-0.002337,-0.121184,0.119651,0.2923,0.4656,-0.0018,0.000000,0.578311,-0.562971,0.564505,-0.590583,0.575243,-0.564505
4.4940,0.016743,0.000000,-0.113763,0.113763,0.0000,0.0000,0.0000,-0.002326,-0.121184,0.118117,0.3414,0.4495,0.0519,0.000000,0.579845,-0.562971,0.564505,-0.590583,0.575243,-0.564505
4.5107,0.016749,0.000000,-0.112886,0.112886,0.0000,0.0000,0.0000,-0.002327,-0.121184,0.118117,0.2973,0.5177,-0.0613,0.000000,0.578311,-0.562971,0.564505,-0.592117,0.575243,-0.564505
4.5274,0.016744,0.000000,-0.112009,0.112009,0.0000,0.0000,0.0000,-0.002327,-0.121184,0.118117,0.3409,0.4441,0.0581,0.000000,0.579845,-0.562971,0.564505,-0.590583,0.575243,-0.564505
4.5442,0.016752,0.000000,-0.111132,0.111132,0.0000,0.0000,0.0000,-0.002315,-0.121184,0.118117,0.3472,0.5026,-0.0081,0.000000,0.579845,-0.562971,0.564505,-0.592117,0.575243,-0.564505
4.5609,0.016740,0.000000,-0.110256,0.110256,0.0000,0.0000,0.0000,-0.002317,-0.121184,0.118117,0.3465,0.4964,-0.0012,0.000000,0.579845,-0.562971,0.564505,-0.592117,0.575243,-0.564505
4.5777,0.016764,0.000000,-0.109378,0.109378,0.0000,0.0000,0.0000,-0.002317,-0.121184,0.118117,0.3465,0.4964,-0.0012,0.000000,0.579845,-0.562971,0.564505,-0.592117,0.575243,-0.564505
4.5944,0.016741,0.000000,-0.108501,0.108501,0.0000,0.0000,0.0000,-0.002328,-0.121184,0.116583,0.2968,0.5128,-0.0557,0.000000,0.578311,-0.562971,0.564505,-0.592117,0.575243,-0.564505
4.6112,0.016751,0.000000,-0.107624,0.107624,0.0000,0.0000,0.0000,-0.002327,-0.121184,0.116583,0.3020,0.5111,-0.0501,0.000000,0.578311,-0.562971,0.564505,-0.592117,0.575243,-0.564505
4.6279,0.016740,0.000000,-0.106748,0.106748,0.0000,0.0000,0.0000,-0.002339,-0.119651,0.116583,0.2906,0.4605,0.0031,0.000000,0.578311,-0.562971,0.564505,-0.590583,0.575243,-0.564505
4.6447,0.016751,0.000000,-0.105871,0.105871,0.0000,0.0000,0.0000,-0.002337,-0.118117,0.116583,0.2918,0.4658,-0.0024,0.000000,0.578311,-0.562971,0.564505,-0.590583,0.575243,-0.564505
4.6614,0.016743,0.000000,-0.104994,0.104994,0.0000,0.0000,0.0000,-0.002337,-0.111981,0.115049,0.2918,0.4658,-0.0024,0.000000,0.578311,-0.562971,0.564505,-0.590583,0.575243,-0.564505
4.6782,0.016757,0.000000,-0.104117,0.104117,0.0000,0.0000,0.0000,-0.002337,-0.111981,0.115049,0.2918,0.4658,-0.0024,0.000000,0.578311,-0.562971,0.564505,-0.590583,0.575243,-0.564505
4.6949,0.016740,0.000000,-0.103240,0.103240,0.0000,0.0000,0.0000,-0.002326,-0.105845,0.113515,0.3025,0.5160,-0.0556,0.000000,0.578311,-0.562971,0.564505,-0.592117,0.575243,-0.564505
4.7117,0.016744,0.000000,-0.102363,0.102363,0.0000,0.0000,0.0000,-0.002339,-0.108913,0.110447,0.2905,0.4600,0.0037,0.000000,0.578311,-0.562971,0.564505,-0.590583,0.575243,-0.564505
4.7284,0.016741,0.000000,-0.101487,0.101487,0.0000,0.0000,0.0000,-0.002326,-0.108913,0.105845,0.3026,0.5166,-0.0563,0.000000,0.578311,-0.562971,0.564505,-0.592117,0.575243,-0.564505
4.7452,0.016751,0.000000,-0.100610,0.100610,0.0000,0.0000,0.0000,-0.002339,-0.105845,0.102777,0.2905,0.4600,0.0038,0.000000,0.578311,-0.562971,0.564505,-0.590583,0.575243,-0.564505
4.7619,0.016744,0.000000,-0.099733,0.099733,0.0000,0.0000,0.0000,-0.002326,-0.104311,0.101243,0.3416,0.4501,0.0513,0.000000,0.579845,-0.562971,0.564505,-0.590583,0.575243,-0.564505
4.7787,0.016768,0.000000,-0.098855,0.098855,0.0000,0.0000,0.0000,-0.002326,-0.104311,0.101243,0.3416,0.4501,0.0513,0.000000,0.579845,-0.562971,0.564505,-0.590583,0.575243,-0.564505
4.7954,0.016743,0.000000,-0.097979,0.097979,0.0000,0.0000,0.0000,-0.002339,-0.104311,0.101243,0.2865,0.4669,-0.0074,0.000000,0.578311,-0.562971,0.564505,-0.590583,0.575243,-0.564505
4.8122,0.016749,0.000000,-0.097102,0.097102,0.0000,0.0000,0.0000,-0.002326,-0.102777,0.099709,0.3420,0.4494,0.0525,0.000000,0.579845,-0.562971,0.564505,-0.590583,0.575243,-0.564505
4.8289,0.016744,0.000000,-0.096225,0.096225,0.0000,0.0000,0.0000,-0.002339,-0.102777,0.099709,0.2864,0.4669,-0.0076,0.000000,0.578311,-0.562971,0.564505,-0.590583,0.575243,-0.564505
4.8457,0.016748,0.000000,-0.095348,0.095348,0.0000,0.0000,0.0000,-0.002337,-0.102777,0.098175,0.2922,0.4651,-0.0013,0.000000,0.578311,-0.562971,0.564505,-0.590583,0.575243,-0.564505
4.8624,0.016744,0.000000,-0.094471,0.094471,0.0000,0.0000,0.0000,-0.002326,-0.099709,0.096641,0.3414,0.4496,0.0519,0.000000,0.579845,-0.562971,0.564505,-0.590583,0.575243,-0.564505
4.8792,0.016764,0.000000,-0.093593,0.093593,0.0000,0.0000,0.0000,-0.002326,-0.099709,0.096641,0.3414,0.4496,0.0519,0.000000,0.579845,-0.562971,0.564505,-0.590583,0.575243,-0.564505
4.8959,0.016746,0.000000,-0.092717,0.092717,0.0000,0.0000,0.0000,-0.002327,-0.096641,0.096641,0.2973,0.5177,-0.0613,0.000000,0.578311,-0.562971,0.564505,-0.592117,0.575243,-0.564505
4.9127,0.016761,0.000000,-0.091839,0.091839,0.0000,0.0000,0.0000,-0.002327,-0.099709,0.095107,0.3019,0.5106,-0.0495,0.000000,0.578311,-0.562971,0.564505,-0.592117,0.575243,-0.564505
4.9294,0.016749,0.000000,-0.090962,0.090962,0.0000,0.0000,0.0000,-0.002339,-0.096641,0.095107,0.2906,0.4606,0.0031,0.000000,0.578311,-0.562971,0.564505,-0.590583,0.575243,-0.564505
4.9462,0.016752,0.000000,-0.090085,0.090085,0.0000,0.0000,0.0000,-0.002326,-0.095107,0.093573,0.3026,0.5166,-0.0562,0.000000,0.578311,-0.562971,0.564505,-0.592117,0.575243,-0.564505
4.9629,0.016748,0.000000,-0.089208,0.089208,0.0000,0.0000,0.0000,-0.002327,-0.093573,0.090505,0.3403,0.4442,0.0576,0.000000,0.579845,-0.562971,0.564505,-0.590583,0.575243,-0.564505
4.9797,0.016759,0.000000,-0.088330,0.088330,0.0000,0.0000,0.0000,-0.002327,-0.093573,0.090505,0.3403,0.4442,0.0576,0.000000,0.579845,-0.562971,0.564505,-0.590583,0.575243,-0.564505
4.9964,0.016746,0.000000,-0.087454,0.087454,0.0000,0.0000,0.0000,-0.002327,-0.093573,0.090505,0.2974,0.5182,-0.0619,0.000000,0.578311,-0.562971,0.564505,-0.592117,0.575243,-0.564505
5.0132,0.016748,0.000000,-0.086577,0.086577,0.0000,0.0000,0.0000,-0.002351,-0.092039,0.090505,0.2519,0.4952,0.0575,0.000000,0.578311,-0.561437,0.564505,-0.590583,0.575243,-0.564505
5.0299,0.016739,0.000000,-0.085700,0.085700,0.0000,0.0000,0.0000,-0.002324,-0.092039,0.090505,0.3456,0.4464,0.0457,0.000000,0.579845,-0.562971,0.564505,-0.590583,0.575243,-0.564505
5.0467,0.016751,0.000000,-0.084823,0.084823,0.0000,0.0000,0.0000,-0.002327,-0.092039,0.090505,0.3358,0.4515,0.0470,0.000000,0.579845,-0.562971,0.564505,-0.590583,0.575243,-0.564505
5.0635,0.016802,0.000000,-0.083943,0.083943,0.0000,0.0000,0.0000,-0.002327,-0.090505,0.090505,0.3358,0.4515,0.0470,0.000000,0.578311,-0.562971,0.564505,-0.592117,0.575243,-0.564505
5.0802,0.016753,0.000000,-0.083066,0.083066,0.0000,0.0000,0.0000,-0.002327,-0.090505,0.090505,0.2979,0.5175,-0.0608,0.000000,0.578311,-0.562971,0.564505,-0.592117,0.575243,-0.564505
5.0970,0.016746,0.000000,-0.082189,0.082189,0.0000,0.0000,0.0000,-0.002339,-0.084369,0.088971,0.2910,0.4599,0.0042,0.000000,0.578311,-0.562971,0.564505,-0.590583,0.575243,-0.564505
5.1137,0.016750,0.000000,-0.081312,0.081312,0.0000,0.0000,0.0000,-0.002337,-0.082835,0.088971,0.2917,0.4659,-0.0025,0.000000,0.578311,-0.562971,0.564505,-0.590583,0.575243,-0.564505
5.1305,0.016744,0.000000,-0.080436,0.080436,0.0000,0.0000,0.0000,-0.002326,-0.082835,0.085903,0.3025,0.5160,-0.0556,0.000000,0.578311,-0.562971,0.564505,-0.592117,0.575243,-0.564505
5.1472,0.016752,0.000000,-0.079558,0.079558,0.0000,0.0000,0.0000,-0.002339,-0.079767,0.082835,0.2905,0.4600,0.0037,0.000000,0.578311,-0.562971,0.564505,-0.590583,0.575243,-0.564505
5.1640,0.016756,0.000000,-0.078681,0.078681,0.0000,0.0000,0.0000,-0.002337,-0.081301,0.079767,0.2918,0.4658,-0.0025,0.000000,0.578311,-0.562971,0.564505,-0.590583,0.575243,-0.564505
5.1807,0.016754,0.000000,-0.077804,0.077804,0.0000,0.0000,0.0000,-0.002337,-0.081301,0.079767,0.2918,0.4658,-0.0025,0.000000,0.578311,-0.562971,0.564505,-0.590583,0.575243,-0.564505
5.1975,0.016749,0.000000,-0.076927,0.076927,0.0000,0.0000,0.0000,-0.002326,-0.081301,0.078233,0.3025,0.5160,-0.0556,0.000000,0.578311,-0.562971,0.564505,-0.592117,0.575243,-0.564505
5.2142,0.016749,0.000000,-0.076050,0.076050,0.0000,0.0000,0.0000,-0.002327,-0.078233,0.079767,0.3403,0.4443,0.0575,0.000000,0.579845,-0.562971,0.564505,-0.590583,0.575243,-0.564505
5.2310,0.016749,0.000000,-0.075173,0.075173,0.0000,0.0000,0.0000,-0.002327,-0.078233,0.078233,0.2974,0.5182,-0.0619,0.000000,0.578311,-0.562971,0.564505,-0.592117,0.575243,-0.564505
5.2477,0.016750,0.000000,-0.074296,0.074296,0.0000,0.0000,0.0000,-0.002339,-0.078233,0.076699,0.2911,0.4598,0.0044,0.000000,0.578311,-0.562971,0.564505,-0.590583,0.575243,-0.564505
5.2645,0.016747,0.000000,-0.073419,0.073419,0.0000,0.0000,0.0000,-0.002326,-0.078233,0.076699,0.3415,0.4501,0.0513,0.000000,0.579845,-0.562971,0.564505,-0.590583,0.575243,-0.564505
5.2812,0.016753,0.000000,-0.072542,0.072542,0.0000,0.0000,0.0000,-0.002326,-0.078233,0.076699,0.3415,0.4501,0.0513,0.000000,0.579845,-0.562971,0.564505,-0.590583,0.575243,-0.564505
5.2980,0.016750,0.000000,-0.071665,0.071665,0.0000,0.0000,0.0000,-0.002339,-0.075165,0.076699,0.2865,0.4669,-0.0074,0.000000,0.578311,-0.562971,0.564505,-0.590583,0.575243,-0.564505
5.3148,0.016824,0.000000,-0.070784,0.070784,0.0000,0.0000,0.0000,-0.002337,-0.075165,0.076699,0.2922,0.4651,-0.0013,0.000000,0.578311,-0.562971,0.564505,-0.590583,0.575243,-0.564505
5.3315,0.016749,0.000000,-0.069907,0.069907,0.0000,0.0000,0.0000,-0.002337,-0.072097,0.070563,0.2922,0.4651,-0.0013,0.000000,0.578311,-0.562971,0.564505,-0.590583,0.575243,-0.564505
5.3483,0.016744,0.000000,-0.069030,0.069030,0.0000,0.0000,0.0000,-0.002326,-0.070563,0.070563,0.3024,0.5161,-0.0557,0.000000,0.578311,-0.562971,0.564505,-0.592117,0.575243,-0.564505
5.3652,0.016873,0.000000,-0.068147,0.068147,0.0000,0.0000,0.0000,-0.002316,-0.072097,0.070563,0.3512,0.4950,0.0038,0.000000,0.579845,-0.562971,0.564505,-0.592117,0.575243,-0.564505
5.3819,0.016746,0.000000,-0.067270,0.067270,0.0000,0.0000,0.0000,-0.002316,-0.072097,0.070563,0.3512,0.4950,0.0038,0.000000,0.579845,-0.562971,0.564505,-0.592117,0.575243,-0.564505
5.3987,0.016754,0.000000,-0.066393,0.066393,0.0000,0.0000,0.0000,-0.002328,-0.072097,0.069029,0.2963,0.5129,-0.0563,0.000000,0.578311,-0.562971,0.564505,-0.592117,0.575243,-0.564505
5.4154,0.016742,0.000000,-0.065516,0.065516,0.0000,0.0000,0.0000,-0.002340,-0.070563,0.069029,0.3018,0.4800,0.1108,0.000000,0.579845,-0.561437,0.564505,-0.590583,0.575243,-0.564505
5.4321,0.016740,0.000000,-0.064640,0.064640,0.0000,0.0000,0.0000,-0.002337,-0.069029,0.069029,0.2907,0.4637,-0.0136,0.000000,0.578311,-0.562971,0.564505,-0.590583,0.575243,-0.564505
5.4489,0.016745,0.000000,-0.063763,0.063763,0.0000,0.0000,0.0000,-0.002326,-0.069029,0.065961,0.3026,0.5162,-0.0545,0.000000,0.578311,-0.562971,0.564505,-0.592117,0.575243,-0.564505
5.4656,0.016751,0.000000,-0.062886,0.062886,0.0000,0.0000,0.0000,-0.002327,-0.067495,0.065961,0.3403,0.4443,0.0574,0.000000,0.579845,-0.562971,0.564505,-0.590583,0.575243,-0.564505
