t,loop_dt,cmd_z,cmd_ant_l,cmd_ant_r,cmd_roll,cmd_pitch,cmd_yaw,pres_z,pres_ant_l,pres_ant_r,pres_roll,pres_pitch,pres_yaw,pres_j0,pres_j1,pres_j2,pres_j3,pres_j4,pres_j5,pres_j6
0.0000,0.000001,0.000000,-0.349065,0.349065,0.0000,0.0000,0.0000,-0.002498,-0.176408,0.173340,0.3995,0.7143,0.2862,0.000000,0.572175,-0.559903,0.564505,-0.590583,0.575243,-0.552233
0.0168,0.016768,0.000000,-0.334432,0.334432,0.0000,0.0000,0.0000,-0.002498,-0.176408,0.173340,0.3995,0.7143,0.2862,0.000000,0.572175,-0.561437,0.564505,-0.590583,0.575243,-0.553767
0.0336,0.016826,0.000000,-0.319748,0.319748,0.0000,0.0000,0.0000,-0.002472,-0.176408,0.173340,0.3888,0.6604,0.1804,0.000000,0.572175,-0.561437,0.564505,-0.590583,0.575243,-0.553767
0.0503,0.016753,0.000000,-0.305128,0.305128,0.0000,0.0000,0.0000,-0.002488,-0.176408,0.173340,0.4397,0.6837,0.2448,0.000000,0.572175,-0.561437,0.564505,-0.590583,0.575243,-0.552233
0.0671,0.016736,0.000000,-0.290523,0.290523,0.0000,0.0000,0.0000,-0.002460,-0.205553,0.200951,0.4238,0.6280,0.1316,0.000000,0.572175,-0.562971,0.564505,-0.590583,0.575243,-0.553767
0.0839,0.016772,0.000000,-0.275888,0.275888,0.0000,0.0000,0.0000,-0.002463,-0.271515,0.269981,0.4254,0.6338,0.1434,0.000000,0.572175,-0.562971,0.564505,-0.590583,0.575243,-0.553767
0.1011,0.017274,0.000000,-0.260813,0.260813,0.0000,0.0000,0.0000,-0.002451,-0.334408,0.329806,0.4358,0.6840,0.0884,0.000000,0.572175,-0.562971,0.564505,-0.592117,0.575243,-0.553767
0.1179,0.016773,0.000000,-0.246175,0.246175,0.0000,0.0000,0.0000,-0.002451,-0.334408,0.329806,0.4358,0.6840,0.0884,0.000000,0.572175,-0.562971,0.564505,-0.592117,0.575243,-0.553767
0.1347,0.016767,0.000000,-0.231544,0.231544,0.0000,0.0000,0.0000,-0.002466,-0.340544,0.335942,0.4844,0.6964,0.1475,0.000000,0.572175,-0.562971,0.564505,-0.592117,0.575243,-0.552233
0.1514,0.016762,0.000000,-0.216916,0.216916,0.0000,0.0000,0.0000,-0.002451,-0.320602,0.319068,0.4296,0.6775,0.0880,0.000000,0.572175,-0.562971,0.564505,-0.592117,0.575243,-0.553767
0.1682,0.016763,0.000000,-0.202288,0.202288,0.0000,0.0000,0.0000,-0.002453,-0.288388,0.291456,0.4353,0.6795,0.0942,0.000000,0.572175,-0.562971,0.564505,-0.592117,0.575243,-0.553767
0.1850,0.016756,0.000000,-0.187665,0.187665,0.0000,0.0000,0.0000,-0.002453,-0.262311,0.265379,0.4353,0.6795,0.0942,0.000000,0.572175,-0.562971,0.564505,-0.592117,0.575243,-0.553767
0.2017,0.016777,0.000000,-0.173025,0.173025,0.0000,0.0000,0.0000,-0.002451,-0.234699,0.240835,0.3745,0.6109,0.0939,0.000000,0.572175,-0.562971,0.564505,-0.590583,0.575243,-0.555301
0.2185,0.016762,0.000000,-0.158398,0.158398,0.0000,0.0000,0.0000,-0.002451,-0.234699,0.240835,0.3745,0.6109,0.0939,0.000000,0.572175,-0.562971,0.564505,-0.590583,0.575243,-0.555301
0.2352,0.016756,0.000000,-0.143775,0.143775,0.0000,0.0000,0.0000,-0.002401,-0.211689,0.214757,0.3421,0.6180,-0.0130,0.000000,0.573709,-0.562971,0.564505,-0.592117,0.575243,-0.558369
0.2520,0.016757,0.000000,-0.129152,0.129152,0.0000,0.0000,0.0000,-0.002382,-0.191748,0.196350,0.3459,0.5841,-0.0015,0.000000,0.575243,-0.562971,0.564505,-0.592117,0.575243,-0.559903
0.2688,0.016763,0.000000,-0.114523,0.114523,0.0000,0.0000,0.0000,-0.002371,-0.176408,0.181010,0.3352,0.5037,0.0513,0.000000,0.576777,-0.562971,0.564505,-0.590583,0.575243,-0.561437
0.2855,0.016754,0.000000,-0.099903,0.099903,0.0000,0.0000,0.0000,-0.002372,-0.162602,0.165670,0.3363,0.5120,0.0458,0.000000,0.576777,-0.562971,0.564505,-0.590583,0.575243,-0.561437
0.3027,0.017192,0.000000,-0.084900,0.084900,0.0000,0.0000,0.0000,-0.002372,-0.147262,0.148796,0.3361,0.5109,0.0466,0.000000,0.576777,-0.562971,0.564505,-0.590583,0.575243,-0.561437
0.3195,0.016764,0.000000,-0.070271,0.070271,0.0000,0.0000,0.0000,-0.002372,-0.147262,0.148796,0.3361,0.5109,0.0466,0.000000,0.576777,-0.562971,0.564505,-0.590583,0.575243,-0.561437
0.3362,0.016765,0.000000,-0.055640,0.055640,0.0000,0.0000,0.0000,-0.002372,-0.128854,0.130388,0.3361,0.5109,0.0466,0.000000,0.576777,-0.562971,0.564505,-0.590583,0.575243,-0.561437
0.3530,0.016751,0.000000,-0.041022,0.041022,0.0000,0.0000,0.0000,-0.002360,-0.110447,0.108913,0.3860,0.4956,0.1001,0.000000,0.578311,-0.562971,0.564505,-0.590583,0.575243,-0.561437
0.3698,0.016773,0.000000,-0.026385,0.026385,0.0000,0.0000,0.0000,-0.002361,-0.093573,0.093573,0.3808,0.4972,0.0945,0.000000,0.578311,-0.562971,0.564505,-0.590583,0.575243,-0.561437
0.3872,0.017415,0.000000,-0.011187,0.011187,0.0000,0.0000,0.0000,-0.002350,-0.078233,0.076699,0.3921,0.5478,0.0413,0.000000,0.578311,-0.562971,0.564505,-0.592117,0.575243,-0.561437
0.4042,0.017058,0.000000,-0.003699,0.003699,0.0000,0.0000,0.0000,-0.002362,-0.061359,0.058291,0.3802,0.4918,0.1006,0.000000,0.578311,-0.562971,0.564505,-0.590583,0.575243,-0.561437
0.4210,0.016761,0.000000,-0.018326,0.018326,0.0000,0.0000,0.0000,-0.002362,-0.061359,0.058291,0.3802,0.4918,0.1006,0.000000,0.578311,-0.562971,0.564505,-0.590583,0.575243,-0.561437
0.4378,0.016757,0.000000,-0.032949,0.032949,0.0000,0.0000,0.0000,-0.002361,-0.039884,0.039884,0.3814,0.4976,0.0944,0.000000,0.578311,-0.562971,0.564505,-0.590583,0.575243,-0.561437
0.4545,0.016751,0.000000,-0.047567,0.047567,0.0000,0.0000,0.0000,-0.002361,-0.016874,0.021476,0.3814,0.4976,0.0944,0.000000,0.578311,-0.562971,0.564505,-0.590583,0.575243,-0.561437
0.4713,0.016762,0.000000,-0.062195,0.062195,0.0000,0.0000,0.0000,-0.002361,0.001534,0.003068,0.3814,0.4976,0.0944,0.000000,0.578311,-0.562971,0.564505,-0.590583,0.575243,-0.561437
0.4880,0.016751,0.000000,-0.076812,0.076812,0.0000,0.0000,0.0000,-0.002361,0.004602,0.000000,0.3814,0.4976,0.0944,0.000000,0.578311,-0.562971,0.564505,-0.590583,0.575243,-0.561437
0.5049,0.016840,0.000000,-0.091508,0.091508,0.0000,0.0000,0.0000,-0.002361,-0.010738,0.013806,0.3814,0.4976,0.0944,0.000000,0.578311,-0.562971,0.564505,-0.590583,0.575243,-0.561437
0.5216,0.016760,0.000000,-0.106134,0.106134,0.0000,0.0000,0.0000,-0.002361,-0.010738,0.013806,0.3814,0.4976,0.0944,0.000000,0.578311,-0.562971,0.564505,-0.590583,0.575243,-0.561437
0.5384,0.016752,0.000000,-0.120753,0.120753,0.0000,0.0000,0.0000,-0.002361,-0.036816,0.039884,0.3814,0.4976,0.0944,0.000000,0.578311,-0.562971,0.564505,-0.590583,0.575243,-0.561437
0.5554,0.017041,0.000000,-0.135624,0.135624,0.0000,0.0000,0.0000,-0.002361,-0.065961,0.070563,0.3814,0.4976,0.0944,0.000000,0.578311,-0.562971,0.564505,-0.590583,0.575243,-0.561437
0.5722,0.016768,0.000000,-0.150257,0.150257,0.0000,0.0000,0.0000,-0.002361,-0.095107,0.096641,0.3814,0.4976,0.0944,0.000000,0.578311,-0.562971,0.564505,-0.590583,0.575243,-0.561437
0.5894,0.017247,0.000000,-0.165308,0.165308,0.0000,0.0000,0.0000,-0.002350,-0.111981,0.104311,0.3920,0.5478,0.0413,0.000000,0.578311,-0.562971,0.564505,-0.592117,0.575243,-0.561437
0.6062,0.016802,0.000000,-0.179971,0.179971,0.0000,0.0000,0.0000,-0.002375,-0.127320,0.115049,0.4297,0.5094,0.1541,0.000000,0.578311,-0.562971,0.564505,-0.590583,0.575243,-0.559903
0.6230,0.016765,0.000000,-0.194601,0.194601,0.0000,0.0000,0.0000,-0.002375,-0.127320,0.115049,0.4297,0.5094,0.1541,0.000000,0.578311,-0.562971,0.564505,-0.590583,0.575243,-0.559903
0.6398,0.016835,0.000000,-0.209292,0.209292,0.0000,0.0000,0.0000,-0.002348,-0.145728,0.136524,0.3870,0.5465,0.0351,0.000000,0.578311,-0.562971,0.564505,-0.592117,0.575243,-0.561437
0.6566,0.016764,0.000000,-0.223921,0.223921,0.0000,0.0000,0.0000,-0.002351,-0.164136,0.158000,0.4305,0.4763,0.1551,0.000000,0.579845,-0.562971,0.564505,-0.590583,0.575243,-0.561437
0.6734,0.016762,0.000000,-0.238549,0.238549,0.0000,0.0000,0.0000,-0.002364,-0.193282,0.191748,0.4364,0.5676,0.0885,0.000000,0.578311,-0.562971,0.564505,-0.592117,0.575243,-0.559903
0.6902,0.016811,0.000000,-0.253219,0.253219,0.0000,0.0000,0.0000,-0.002361,-0.210155,0.207087,0.3755,0.4897,0.0957,0.000000,0.578311,-0.562971,0.564505,-0.590583,0.575243,-0.561437
0.7069,0.016772,0.000000,-0.267855,0.267855,0.0000,0.0000,0.0000,-0.002361,-0.210155,0.207087,0.3755,0.4897,0.0957,0.000000,0.578311,-0.562971,0.564505,-0.590583,0.575243,-0.561437
0.7237,0.016758,0.000000,-0.282479,0.282479,0.0000,0.0000,0.0000,-0.002361,-0.210155,0.207087,0.3819,0.4978,0.0950,0.000000,0.578311,-0.562971,0.564505,-0.590583,0.575243,-0.561437
0.7405,0.016763,0.000000,-0.297108,0.297108,0.0000,0.0000,0.0000,-0.002350,-0.251573,0.251573,0.3920,0.5477,0.0413,0.000000,0.578311,-0.562971,0.564505,-0.592117,0.575243,-0.561437
0.7572,0.016757,0.000000,-0.311731,0.311731,0.0000,0.0000,0.0000,-0.002362,-0.266913,0.265379,0.3802,0.4918,0.1006,0.000000,0.578311,-0.562971,0.564505,-0.590583,0.575243,-0.561437
0.7740,0.016756,0.000000,-0.326354,0.326354,0.0000,0.0000,0.0000,-0.002349,-0.274583,0.274583,0.3922,0.5484,0.0407,0.000000,0.578311,-0.562971,0.564505,-0.592117,0.575243,-0.561437
0.7908,0.016840,0.000000,-0.341049,0.341049,0.0000,0.0000,0.0000,-0.002375,-0.283786,0.285320,0.4297,0.5093,0.1541,0.000000,0.578311,-0.562971,0.564505,-0.590583,0.575243,-0.559903
0.8076,0.016760,0.000000,-0.342457,0.342457,0.0000,0.0000,0.0000,-0.002375,-0.283786,0.285320,0.4297,0.5093,0.1541,0.000000,0.578311,-0.562971,0.564505,-0.590583,0.575243,-0.559903
0.8243,0.016745,0.000000,-0.327844,0.327844,0.0000,0.0000,0.0000,-0.002360,-0.303728,0.308330,0.3762,0.4957,0.0889,0.000000,0.578311,-0.562971,0.564505,-0.590583,0.575243,-0.561437
0.8411,0.016753,0.000000,-0.313224,0.313224,0.0000,0.0000,0.0000,-0.002361,-0.331340,0.332874,0.3818,0.4972,0.0957,0.000000,0.578311,-0.562971,0.564505,-0.590583,0.575243,-0.561437
0.8579,0.016784,0.000000,-0.298577,0.298577,0.0000,0.0000,0.0000,-0.002361,-0.352816,0.348214,0.3818,0.4972,0.0957,0.000000,0.578311,-0.562971,0.564505,-0.590583,0.575243,-0.561437
0.8746,0.016749,0.000000,-0.283961,0.283961,0.0000,0.0000,0.0000,-0.002350,-0.351282,0.346680,0.3920,0.5478,0.0412,0.000000,0.578311,-0.562971,0.564505,-0.592117,0.575243,-0.561437
0.8913,0.016738,0.000000,-0.269354,0.269354,0.0000,0.0000,0.0000,-0.002351,-0.337476,0.329806,0.3909,0.5425,0.0469,0.000000,0.578311,-0.562971,0.564505,-0.592117,0.575243,-0.561437
0.9081,0.016753,0.000000,-0.254735,0.254735,0.0000,0.0000,0.0000,-0.002351,-0.337476,0.329806,0.3909,0.5425,0.0469,0.000000,0.578311,-0.562971,0.564505,-0.592117,0.575243,-0.561437
0.9249,0.016760,0.000000,-0.240109,0.240109,0.0000,0.0000,0.0000,-0.002362,-0.317534,0.311398,0.3803,0.4923,0.1000,0.000000,0.578311,-0.562971,0.564505,-0.590583,0.575243,-0.561437
0.9416,0.016760,0.000000,-0.225483,0.225483,0.0000,0.0000,0.0000,-0.002361,-0.292990,0.294524,0.3814,0.4975,0.0945,0.000000,0.578311,-0.562971,0.564505,-0.590583,0.575243,-0.561437
0.9584,0.016758,0.000000,-0.210858,0.210858,0.0000,0.0000,0.0000,-0.002361,-0.273049,0.276117,0.3814,0.4975,0.0945,0.000000,0.578311,-0.562971,0.564505,-0.590583,0.575243,-0.561437
0.9751,0.016754,0.000000,-0.196238,0.196238,0.0000,0.0000,0.0000,-0.002350,-0.251573,0.256175,0.3920,0.5478,0.0413,0.000000,0.578311,-0.562971,0.564505,-0.592117,0.575243,-0.561437
0.9919,0.016759,0.000000,-0.181613,0.181613,0.0000,0.0000,0.0000,-0.002362,-0.231631,0.239301,0.3802,0.4918,0.1006,0.000000,0.578311,-0.562971,0.564505,-0.590583,0.575243,-0.561437
1.0086,0.016754,0.000000,-0.166993,0.166993,0.0000,0.0000,0.0000,-0.002362,-0.231631,0.239301,0.3802,0.4918,0.1006,0.000000,0.578311,-0.562971,0.564505,-0.590583,0.575243,-0.561437
1.0254,0.016752,0.000000,-0.152374,0.152374,0.0000,0.0000,0.0000,-0.002338,-0.213223,0.220893,0.4420,0.5328,0.0945,0.000000,0.579845,-0.562971,0.564505,-0.592117,0.575243,-0.561437
1.0421,0.016743,0.000000,-0.137762,0.137762,0.0000,0.0000,0.0000,-0.002352,-0.197884,0.202485,0.3857,0.5441,0.0413,0.000000,0.578311,-0.562971,0.564505,-0.592117,0.575243,-0.561437
1.0589,0.016746,0.000000,-0.123149,0.123149,0.0000,0.0000,0.0000,-0.002350,-0.184078,0.187146,0.4306,0.4765,0.1544,0.000000,0.579845,-0.562971,0.564505,-0.590583,0.575243,-0.561437
1.0756,0.016745,0.000000,-0.108536,0.108536,0.0000,0.0000,0.0000,-0.002362,-0.165670,0.168738,0.3762,0.4992,0.0888,0.000000,0.578311,-0.562971,0.564505,-0.590583,0.575243,-0.561437
1.0925,0.016858,0.000000,-0.093825,0.093825,0.0000,0.0000,0.0000,-0.002349,-0.145728,0.147262,0.3926,0.5476,0.0419,0.000000,0.578311,-0.562971,0.564505,-0.592117,0.575243,-0.561437
1.1092,0.016742,0.000000,-0.079214,0.079214,0.0000,0.0000,0.0000,-0.002349,-0.145728,0.147262,0.3926,0.5476,0.0419,0.000000,0.578311,-0.562971,0.564505,-0.592117,0.575243,-0.561437
1.1260,0.016750,0.000000,-0.064597,0.064597,0.0000,0.0000,0.0000,-0.002362,-0.128854,0.127320,0.3801,0.4918,0.1006,0.000000,0.578311,-0.562971,0.564505,-0.590583,0.575243,-0.561437
1.1427,0.016745,0.000000,-0.049984,0.049984,0.0000,0.0000,0.0000,-0.002362,-0.110447,0.110447,0.4417,0.5660,0.0942,0.000000,0.578311,-0.562971,0.564505,-0.592117,0.575243,-0.559903
1.1595,0.016742,0.000000,-0.035375,0.035375,0.0000,0.0000,0.0000,-0.002361,-0.093573,0.093573,0.3750,0.4899,0.0951,0.000000,0.578311,-0.562971,0.564505,-0.590583,0.575243,-0.561437
1.1762,0.016744,0.000000,-0.020763,0.020763,0.0000,0.0000,0.0000,-0.002361,-0.076699,0.075165,0.3820,0.4978,0.0950,0.000000,0.578311,-0.562971,0.564505,-0.590583,0.575243,-0.561437
1.1930,0.016842,0.000000,-0.006066,0.006066,0.0000,0.0000,0.0000,-0.002361,-0.058291,0.056757,0.3810,0.4967,0.0950,0.000000,0.578311,-0.562971,0.564505,-0.590583,0.575243,-0.561437
1.2098,0.016743,0.000000,-0.008545,0.008545,0.0000,0.0000,0.0000,-0.002361,-0.058291,0.056757,0.3810,0.4967,0.0950,0.000000,0.578311,-0.562971,0.564505,-0.590583,0.575243,-0.561437
1.2265,0.016744,0.000000,-0.023157,0.023157,0.0000,0.0000,0.0000,-0.002361,-0.036816,0.036816,0.3810,0.4967,0.0950,0.000000,0.578311,-0.562971,0.564505,-0.590583,0.575243,-0.561437
1.2433,0.016741,0.000000,-0.037767,0.037767,0.0000,0.0000,0.0000,-0.002361,-0.018408,0.021476,0.3810,0.4967,0.0950,0.000000,0.578311,-0.562971,0.564505,-0.590583,0.575243,-0.561437
1.2600,0.016743,0.000000,-0.052378,0.052378,0.0000,0.0000,0.0000,-0.002350,-0.001534,0.006136,0.3921,0.5479,0.0413,0.000000,0.578311,-0.562971,0.564505,-0.592117,0.575243,-0.561437
1.2768,0.016744,0.000000,-0.066990,0.066990,0.0000,0.0000,0.0000,-0.002362,-0.003068,0.006136,0.3802,0.4918,0.1006,0.000000,0.578311,-0.562971,0.564505,-0.590583,0.575243,-0.561437
1.2935,0.016753,0.000000,-0.081610,0.081610,0.0000,0.0000,0.0000,-0.002362,-0.019942,0.023010,0.3802,0.4918,0.1006,0.000000,0.578311,-0.562971,0.564505,-0.590583,0.575243,-0.561437
1.3103,0.016743,0.000000,-0.096221,0.096221,0.0000,0.0000,0.0000,-0.002361,-0.019942,0.023010,0.3814,0.4976,0.0944,0.000000,0.578311,-0.562971,0.564505,-0.590583,0.575243,-0.561437
1.3270,0.016752,0.000000,-0.110840,0.110840,0.0000,0.0000,0.0000,-0.002361,-0.042951,0.046019,0.3814,0.4976,0.0944,0.000000,0.578311,-0.562971,0.564505,-0.590583,0.575243,-0.561437
1.3438,0.016742,0.000000,-0.125450,0.125450,0.0000,0.0000,0.0000,-0.002349,-0.069029,0.072097,0.4311,0.4813,0.1489,0.000000,0.579845,-0.562971,0.564505,-0.590583,0.575243,-0.561437
1.3605,0.016761,0.000000,-0.140077,0.140077,0.0000,0.0000,0.0000,-0.002351,-0.088971,0.088971,0.3869,0.5494,0.0357,0.000000,0.578311,-0.562971,0.564505,-0.592117,0.575243,-0.561437
1.3773,0.016745,0.000000,-0.154690,0.154690,0.0000,0.0000,0.0000,-0.002362,-0.111981,0.104311,0.3807,0.4916,0.1012,0.000000,0.578311,-0.562971,0.564505,-0.590583,0.575243,-0.561437
1.3940,0.016765,0.000000,-0.169320,0.169320,0.0000,0.0000,0.0000,-0.002361,-0.130388,0.122718,0.3814,0.4976,0.0944,0.000000,0.578311,-0.562971,0.564505,-0.590583,0.575243,-0.561437
1.4107,0.016709,0.000000,-0.183901,0.183901,0.0000,0.0000,0.0000,-0.002361,-0.130388,0.122718,0.3814,0.4976,0.0944,0.000000,0.578311,-0.562971,0.564505,-0.590583,0.575243,-0.561437
1.4275,0.016743,0.000000,-0.198512,0.198512,0.0000,0.0000,0.0000,-0.002361,-0.148796,0.142660,0.3814,0.4976,0.0944,0.000000,0.578311,-0.562971,0.564505,-0.590583,0.575243,-0.561437
1.4442,0.016743,0.000000,-0.213123,0.213123,0.0000,0.0000,0.0000,-0.002361,-0.162602,0.159534,0.3814,0.4976,0.0944,0.000000,0.578311,-0.562971,0.564505,-0.590583,0.575243,-0.561437
1.4610,0.016744,0.000000,-0.227735,0.227735,0.0000,0.0000,0.0000,-0.002361,-0.174874,0.174874,0.3814,0.4976,0.0944,0.000000,0.578311,-0.562971,0.564505,-0.590583,0.575243,-0.561437
1.4777,0.016747,0.000000,-0.242349,0.242349,0.0000,0.0000,0.0000,-0.002361,-0.193282,0.196350,0.3814,0.4976,0.0944,0.000000,0.578311,-0.562971,0.564505,-0.590583,0.575243,-0.561437
1.4945,0.016754,0.000000,-0.256970,0.256970,0.0000,0.0000,0.0000,-0.002361,-0.193282,0.196350,0.3814,0.4976,0.0944,0.000000,0.578311,-0.562971,0.564505,-0.590583,0.575243,-0.561437
1.5112,0.016742,0.000000,-0.271580,0.271580,0.0000,0.0000,0.0000,-0.002361,-0.216291,0.216291,0.3814,0.4976,0.0944,0.000000,0.578311,-0.562971,0.564505,-0.590583,0.575243,-0.561437
1.5280,0.016745,0.000000,-0.286193,0.286193,0.0000,0.0000,0.0000,-0.002361,-0.234699,0.233165,0.3814,0.4976,0.0944,0.000000,0.578311,-0.562971,0.564505,-0.590583,0.575243,-0.561437
1.5447,0.016744,0.000000,-0.300805,0.300805,0.0000,0.0000,0.0000,-0.002350,-0.246971,0.243903,0.3920,0.5478,0.0413,0.000000,0.578311,-0.562971,0.564505,-0.592117,0.575243,-0.561437
1.5614,0.016743,0.000000,-0.315416,0.315416,0.0000,0.0000,0.0000,-0.002375,-0.259243,0.257709,0.4297,0.5094,0.1541,0.000000,0.578311,-0.562971,0.564505,-0.590583,0.575243,-0.559903
1.5782,0.016789,0.000000,-0.330067,0.330067,0.0000,0.0000,0.0000,-0.002348,-0.277651,0.282252,0.4260,0.4801,0.1427,0.000000,0.579845,-0.562971,0.564505,-0.590583,0.575243,-0.561437
1.5950,0.016748,0.000000,-0.344682,0.344682,0.0000,0.0000,0.0000,-0.002348,-0.277651,0.282252,0.4260,0.4801,0.1427,0.000000,0.579845,-0.562971,0.564505,-0.590583,0.575243,-0.561437
1.6117,0.016745,0.000000,-0.338837,0.338837,0.0000,0.0000,0.0000,-0.002351,-0.303728,0.306796,0.3874,0.5496,0.0363,0.000000,0.578311,-0.562971,0.564505,-0.592117,0.575243,-0.561437
1.6285,0.016743,0.000000,-0.324226,0.324226,0.0000,0.0000,0.0000,-0.002362,-0.325204,0.322136,0.3807,0.4916,0.1011,0.000000,0.578311,-0.562971,0.564505,-0.590583,0.575243,-0.561437
1.6452,0.016774,0.000000,-0.309588,0.309588,0.0000,0.0000,0.0000,-0.002374,-0.337476,0.331340,0.4309,0.5152,0.1479,0.000000,0.578311,-0.562971,0.564505,-0.590583,0.575243,-0.559903
1.6620,0.016745,0.000000,-0.294975,0.294975,0.0000,0.0000,0.0000,-0.002360,-0.342078,0.340544,0.3761,0.4951,0.0895,0.000000,0.578311,-0.562971,0.564505,-0.590583,0.575243,-0.561437
1.6787,0.016743,0.000000,-0.280364,0.280364,0.0000,0.0000,0.0000,-0.002350,-0.339010,0.337476,0.3926,0.5480,0.0418,0.000000,0.578311,-0.562971,0.564505,-0.592117,0.575243,-0.561437
1.6955,0.016743,0.000000,-0.265753,0.265753,0.0000,0.0000,0.0000,-0.002350,-0.339010,0.337476,0.3926,0.5480,0.0418,0.000000,0.578311,-0.562971,0.564505,-0.592117,0.575243,-0.561437
1.7122,0.016742,0.000000,-0.251143,0.251143,0.0000,0.0000,0.0000,-0.002351,-0.331340,0.329806,0.3909,0.5425,0.0468,0.000000,0.578311,-0.562971,0.564505,-0.592117,0.575243,-0.561437
1.7290,0.016745,0.000000,-0.236530,0.236530,0.0000,0.0000,0.0000,-0.002351,-0.317534,0.314466,0.3909,0.5425,0.0468,0.000000,0.578311,-0.562971,0.564505,-0.592117,0.575243,-0.561437
1.7457,0.016742,0.000000,-0.221921,0.221921,0.0000,0.0000,0.0000,-0.002351,-0.299126,0.299126,0.3909,0.5425,0.0468,0.000000,0.578311,-0.562971,0.564505,-0.592117,0.575243,-0.561437
1.7624,0.016747,0.000000,-0.207306,0.207306,0.0000,0.0000,0.0000,-0.002362,-0.274583,0.277651,0.3803,0.4923,0.1000,0.000000,0.578311,-0.562971,0.564505,-0.590583,0.575243,-0.561437
1.7792,0.016799,0.000000,-0.192647,0.192647,0.0000,0.0000,0.0000,-0.002361,-0.251573,0.254641,0.3814,0.4975,0.0945,0.000000,0.578311,-0.562971,0.564505,-0.590583,0.575243,-0.561437
1.7960,0.016755,0.000000,-0.178025,0.178025,0.0000,0.0000,0.0000,-0.002361,-0.251573,0.254641,0.3814,0.4975,0.0945,0.000000,0.578311,-0.562971,0.564505,-0.590583,0.575243,-0.561437
1.8127,0.016745,0.000000,-0.163413,0.163413,0.0000,0.0000,0.0000,-0.002361,-0.231631,0.236233,0.3814,0.4975,0.0945,0.000000,0.578311,-0.562971,0.564505,-0.590583,0.575243,-0.561437
1.8295,0.016748,0.000000,-0.148797,0.148797,0.0000,0.0000,0.0000,-0.002350,-0.213223,0.219359,0.3920,0.5478,0.0413,0.000000,0.578311,-0.562971,0.564505,-0.592117,0.575243,-0.561437
1.8464,0.016946,0.000000,-0.134009,0.134009,0.0000,0.0000,0.0000,-0.002362,-0.196350,0.200951,0.3802,0.4918,0.1006,0.000000,0.578311,-0.562971,0.564505,-0.590583,0.575243,-0.561437
1.8632,0.016753,0.000000,-0.119389,0.119389,0.0000,0.0000,0.0000,-0.002374,-0.181010,0.187146,0.4310,0.5152,0.1479,0.000000,0.578311,-0.562971,0.564505,-0.590583,0.575243,-0.559903
1.8800,0.016785,0.000000,-0.104742,0.104742,0.0000,0.0000,0.0000,-0.002373,-0.162602,0.165670,0.4257,0.5128,0.1430,0.000000,0.578311,-0.562971,0.564505,-0.590583,0.575243,-0.559903
1.8967,0.016756,0.000000,-0.090120,0.090120,0.0000,0.0000,0.0000,-0.002373,-0.162602,0.165670,0.4257,0.5128,0.1430,0.000000,0.578311,-0.562971,0.564505,-0.590583,0.575243,-0.559903
1.9135,0.016746,0.000000,-0.075506,0.075506,0.0000,0.0000,0.0000,-0.002348,-0.144194,0.145728,0.3874,0.5462,0.0363,0.000000,0.578311,-0.562971,0.564505,-0.592117,0.575243,-0.561437
1.9303,0.016774,0.000000,-0.060868,0.060868,0.0000,0.0000,0.0000,-0.002351,-0.125786,0.127320,0.3914,0.5427,0.0474,0.000000,0.578311,-0.562971,0.564505,-0.592117,0.575243,-0.561437
1.9470,0.016754,0.000000,-0.046247,0.046247,0.0000,0.0000,0.0000,-0.002362,-0.110447,0.110447,0.3802,0.4923,0.1000,0.000000,0.578311,-0.562971,0.564505,-0.590583,0.575243,-0.561437
1.9638,0.016757,0.000000,-0.031624,0.031624,0.0000,0.0000,0.0000,-0.002361,-0.092039,0.090505,0.3814,0.4975,0.0945,0.000000,0.578311,-0.562971,0.564505,-0.590583,0.575243,-0.561437
1.9806,0.016803,0.000000,-0.016960,0.016960,0.0000,0.0000,0.0000,-0.002361,-0.073631,0.072097,0.3814,0.4975,0.0945,0.000000,0.578311,-0.562971,0.564505,-0.590583,0.575243,-0.561437
1.9973,0.016757,0.000000,-0.002337,0.002337,0.0000,0.0000,0.0000,-0.002361,-0.073631,0.072097,0.3814,0.4975,0.0945,0.000000,0.578311,-0.562971,0.564505,-0.590583,0.575243,-0.561437
2.0141,0.016740,0.000000,-0.012271,0.012271,0.0000,0.0000,0.0000,-0.002361,-0.055223,0.052155,0.3814,0.4975,0.0945,0.000000,0.578311,-0.562971,0.564505,-0.590583,0.575243,-0.561437
2.0308,0.016760,0.000000,-0.026897,0.026897,0.0000,0.0000,0.0000,-0.002361,-0.035282,0.035282,0.3814,0.4975,0.0945,0.000000,0.578311,-0.562971,0.564505,-0.590583,0.575243,-0.561437
2.0476,0.016776,0.000000,-0.041538,0.041538,0.0000,0.0000,0.0000,-0.002361,-0.018408,0.023010,0.3814,0.4975,0.0945,0.000000,0.578311,-0.562971,0.564505,-0.590583,0.575243,-0.561437
2.0644,0.016752,0.000000,-0.056156,0.056156,0.0000,0.0000,0.0000,-0.002350,-0.007670,0.007670,0.3920,0.5478,0.0413,0.000000,0.578311,-0.562971,0.564505,-0.592117,0.575243,-0.561437
2.0811,0.016751,0.000000,-0.070774,0.070774,0.0000,0.0000,0.0000,-0.002362,-0.012272,0.007670,0.3802,0.4918,0.1006,0.000000,0.578311,-0.562971,0.564505,-0.590583,0.575243,-0.561437
2.0978,0.016747,0.000000,-0.085389,0.085389,0.0000,0.0000,0.0000,-0.002362,-0.012272,0.007670,0.3802,0.4918,0.1006,0.000000,0.578311,-0.562971,0.564505,-0.590583,0.575243,-0.561437
2.1146,0.016741,0.000000,-0.099998,0.099998,0.0000,0.0000,0.0000,-0.002361,-0.026078,0.021476,0.3814,0.4976,0.0944,0.000000,0.578311,-0.562971,0.564505,-0.590583,0.575243,-0.561437
2.1314,0.016762,0.000000,-0.114625,0.114625,0.0000,0.0000,0.0000,-0.002361,-0.047553,0.046019,0.3814,0.4976,0.0944,0.000000,0.578311,-0.562971,0.564505,-0.590583,0.575243,-0.561437
2.1481,0.016745,0.000000,-0.129238,0.129238,0.0000,0.0000,0.0000,-0.002350,-0.069029,0.069029,0.3920,0.5478,0.0413,0.000000,0.578311,-0.562971,0.564505,-0.592117,0.575243,-0.561437
2.1648,0.016749,0.000000,-0.143854,0.143854,0.0000,0.0000,0.0000,-0.002362,-0.088971,0.092039,0.3802,0.4918,0.1006,0.000000,0.578311,-0.562971,0.564505,-0.590583,0.575243,-0.561437
2.1816,0.016751,0.000000,-0.158472,0.158472,0.0000,0.0000,0.0000,-0.002361,-0.108913,0.113515,0.3814,0.4976,0.0944,0.000000,0.578311,-0.562971,0.564505,-0.590583,0.575243,-0.561437
2.1983,0.016748,0.000000,-0.173088,0.173088,0.0000,0.0000,0.0000,-0.002361,-0.108913,0.113515,0.3814,0.4976,0.0944,0.000000,0.578311,-0.562971,0.564505,-0.590583,0.575243,-0.561437
2.2151,0.016748,0.000000,-0.187703,0.187703,0.0000,0.0000,0.0000,-0.002349,-0.130388,0.130388,0.4311,0.4813,0.1489,0.000000,0.579845,-0.562971,0.564505,-0.590583,0.575243,-0.561437
2.2319,0.016761,0.000000,-0.202330,0.202330,0.0000,0.0000,0.0000,-0.002351,-0.147262,0.142660,0.3869,0.5494,0.0357,0.000000,0.578311,-0.562971,0.564505,-0.592117,0.575243,-0.561437
2.2486,0.016755,0.000000,-0.216952,0.216952,0.0000,0.0000,0.0000,-0.002352,-0.161068,0.154932,0.4908,0.5443,0.1548,0.000000,0.579845,-0.562971,0.564505,-0.592117,0.575243,-0.559903
2.2654,0.016752,0.000000,-0.231571,0.231571,0.0000,0.0000,0.0000,-0.002350,-0.174874,0.171806,0.3806,0.5428,0.0351,0.000000,0.578311,-0.562971,0.564505,-0.592117,0.575243,-0.561437
2.2821,0.016759,0.000000,-0.246196,0.246196,0.0000,0.0000,0.0000,-0.002352,-0.193282,0.193282,0.4915,0.5450,0.1548,0.000000,0.579845,-0.562971,0.564505,-0.592117,0.575243,-0.559903
2.2989,0.016747,0.000000,-0.260810,0.260810,0.0000,0.0000,0.0000,-0.002352,-0.193282,0.193282,0.4915,0.5450,0.1548,0.000000,0.579845,-0.562971,0.564505,-0.592117,0.575243,-0.559903
2.3156,0.016743,0.000000,-0.275421,0.275421,0.0000,0.0000,0.0000,-0.002362,-0.216291,0.216291,0.3698,0.4920,0.0888,0.000000,0.578311,-0.562971,0.564505,-0.590583,0.575243,-0.561437
2.3324,0.016752,0.000000,-0.290040,0.290040,0.0000,0.0000,0.0000,-0.002361,-0.234699,0.234699,0.3825,0.4976,0.0957,0.000000,0.578311,-0.562971,0.564505,-0.590583,0.575243,-0.561437
2.3491,0.016743,0.000000,-0.304651,0.304651,0.0000,0.0000,0.0000,-0.002350,-0.245437,0.240835,0.3919,0.5478,0.0412,0.000000,0.578311,-0.562971,0.564505,-0.592117,0.575243,-0.561437
2.3660,0.016895,0.000000,-0.319394,0.319394,0.0000,0.0000,0.0000,-0.002351,-0.256175,0.251573,0.3909,0.5425,0.0469,0.000000,0.578311,-0.562971,0.564505,-0.592117,0.575243,-0.561437
2.3828,0.016758,0.000000,-0.334018,0.334018,0.0000,0.0000,0.0000,-0.002351,-0.256175,0.251573,0.3909,0.5425,0.0469,0.000000,0.578311,-0.562971,0.564505,-0.592117,0.575243,-0.561437
2.3995,0.016751,0.000000,-0.348636,0.348636,0.0000,0.0000,0.0000,-0.002362,-0.277651,0.276117,0.3803,0.4923,0.1000,0.000000,0.578311,-0.562971,0.564505,-0.590583,0.575243,-0.561437
2.4163,0.016745,0.000000,-0.334883,0.334883,0.0000,0.0000,0.0000,-0.002349,-0.305262,0.303728,0.4312,0.4819,0.1483,0.000000,0.579845,-0.562971,0.564505,-0.590583,0.575243,-0.561437
2.4330,0.016762,0.000000,-0.320256,0.320256,0.0000,0.0000,0.0000,-0.002351,-0.326738,0.325204,0.3869,0.5494,0.0357,0.000000,0.578311,-0.562971,0.564505,-0.592117,0.575243,-0.561437
2.4498,0.016743,0.000000,-0.305645,0.305645,0.0000,0.0000,0.0000,-0.002351,-0.337476,0.334408,0.3915,0.5424,0.0475,0.000000,0.578311,-0.562971,0.564505,-0.592117,0.575243,-0.561437
2.4666,0.016811,0.000000,-0.290975,0.290975,0.0000,0.0000,0.0000,-0.002375,-0.339010,0.335942,0.4298,0.5099,0.1534,0.000000,0.578311,-0.562971,0.564505,-0.590583,0.575243,-0.559903
2.4833,0.016754,0.000000,-0.276355,0.276355,0.0000,0.0000,0.0000,-0.002375,-0.337476,0.334408,0.4298,0.5099,0.1534,0.000000,0.578311,-0.562971,0.564505,-0.590583,0.575243,-0.561437
2.5001,0.016757,0.000000,-0.261731,0.261731,0.0000,0.0000,0.0000,-0.002360,-0.337476,0.334408,0.3762,0.4957,0.0889,0.000000,0.578311,-0.562971,0.564505,-0.590583,0.575243,-0.561437
2.5168,0.016749,0.000000,-0.247115,0.247115,0.0000,0.0000,0.0000,-0.002350,-0.331340,0.329806,0.4316,0.4815,0.1495,0.000000,0.579845,-0.562971,0.564505,-0.590583,0.575243,-0.561437
2.5336,0.016750,0.000000,-0.232498,0.232498,0.0000,0.0000,0.0000,-0.002351,-0.319068,0.319068,0.4258,0.4830,0.1432,0.000000,0.579845,-0.562971,0.564505,-0.590583,0.575243,-0.561437
2.5504,0.016862,0.000000,-0.217783,0.217783,0.0000,0.0000,0.0000,-0.002339,-0.297592,0.300660,0.4372,0.5337,0.0901,0.000000,0.579845,-0.562971,0.564505,-0.592117,0.575243,-0.561437
2.5677,0.017226,0.000000,-0.202750,0.202750,0.0000,0.0000,0.0000,-0.002363,-0.280718,0.285320,0.3755,0.4932,0.0955,0.000000,0.578311,-0.562971,0.564505,-0.590583,0.575243,-0.561437
2.5845,0.016838,0.000000,-0.188056,0.188056,0.0000,0.0000,0.0000,-0.002363,-0.280718,0.285320,0.3755,0.4932,0.0955,0.000000,0.578311,-0.562971,0.564505,-0.590583,0.575243,-0.561437
2.6013,0.016754,0.000000,-0.173435,0.173435,0.0000,0.0000,0.0000,-0.002361,-0.259243,0.263845,0.3819,0.4974,0.0950,0.000000,0.578311,-0.562971,0.564505,-0.590583,0.575243,-0.561437
2.6180,0.016743,0.000000,-0.158825,0.158825,0.0000,0.0000,0.0000,-0.002350,-0.217825,0.220893,0.3920,0.5478,0.0413,0.000000,0.578311,-0.562971,0.564505,-0.592117,0.575243,-0.561437
2.6348,0.016752,0.000000,-0.144206,0.144206,0.0000,0.0000,0.0000,-0.002351,-0.217825,0.220893,0.3909,0.5425,0.0469,0.000000,0.578311,-0.562971,0.564505,-0.592117,0.575243,-0.561437
2.6515,0.016751,0.000000,-0.129588,0.129588,0.0000,0.0000,0.0000,-0.002339,-0.182544,0.188680,0.4409,0.5274,0.1001,0.000000,0.579845,-0.562971,0.564505,-0.592117,0.575243,-0.561437
2.6682,0.016745,0.000000,-0.114975,0.114975,0.0000,0.0000,0.0000,-0.002352,-0.165670,0.168738,0.4249,0.4783,0.1483,0.000000,0.579845,-0.562971,0.564505,-0.590583,0.575243,-0.561437
2.6850,0.016747,0.000000,-0.100361,0.100361,0.0000,0.0000,0.0000,-0.002352,-0.165670,0.168738,0.4249,0.4783,0.1483,0.000000,0.579845,-0.562971,0.564505,-0.590583,0.575243,-0.561437
2.7017,0.016752,0.000000,-0.085742,0.085742,0.0000,0.0000,0.0000,-0.002351,-0.145728,0.148796,0.3875,0.5498,0.0357,0.000000,0.578311,-0.562971,0.564505,-0.592117,0.575243,-0.561437
2.7185,0.016748,0.000000,-0.071127,0.071127,0.0000,0.0000,0.0000,-0.002362,-0.128854,0.128854,0.3806,0.4916,0.1012,0.000000,0.578311,-0.562971,0.564505,-0.590583,0.575243,-0.561437
2.7352,0.016744,0.000000,-0.056514,0.056514,0.0000,0.0000,0.0000,-0.002338,-0.111981,0.110447,0.4419,0.5328,0.0945,0.000000,0.579845,-0.562971,0.564505,-0.592117,0.575243,-0.561437
2.7520,0.016740,0.000000,-0.041906,0.041906,0.0000,0.0000,0.0000,-0.002363,-0.093573,0.093573,0.3750,0.4933,0.0951,0.000000,0.578311,-0.562971,0.564505,-0.590583,0.575243,-0.561437
2.7688,0.016870,0.000000,-0.027184,0.027184,0.0000,0.0000,0.0000,-0.002363,-0.075165,0.076699,0.3750,0.4933,0.0951,0.000000,0.578311,-0.562971,0.564505,-0.592117,0.575243,-0.561437
2.7856,0.016744,0.000000,-0.012572,0.012572,0.0000,0.0000,0.0000,-0.002349,-0.075165,0.076699,0.3927,0.5482,0.0413,0.000000,0.578311,-0.562971,0.564505,-0.592117,0.575243,-0.561437
2.8023,0.016754,0.000000,-0.002049,0.002049,0.0000,0.0000,0.0000,-0.002362,-0.056757,0.055223,0.3801,0.4917,0.1006,0.000000,0.578311,-0.562971,0.564505,-0.590583,0.575243,-0.561437
2.8191,0.016741,0.000000,-0.016658,0.016658,0.0000,0.0000,0.0000,-0.002351,-0.036816,0.036816,0.4915,0.5504,0.1480,0.000000,0.579845,-0.562971,0.564505,-0.592117,0.575243,-0.559903
2.8358,0.016743,0.000000,-0.031269,0.031269,0.0000,0.0000,0.0000,-0.002351,-0.019942,0.023010,0.3806,0.5422,0.0358,0.000000,0.578311,-0.562971,0.564505,-0.592117,0.575243,-0.561437
2.8526,0.016742,0.000000,-0.045880,0.045880,0.0000,0.0000,0.0000,-0.002339,-0.004602,0.007670,0.4420,0.5275,0.1013,0.000000,0.579845,-0.562971,0.564505,-0.592117,0.575243,-0.561437
2.8693,0.016765,0.000000,-0.060510,0.060510,0.0000,0.0000,0.0000,-0.002339,-0.004602,0.007670,0.4420,0.5275,0.1013,0.000000,0.579845,-0.562971,0.564505,-0.592117,0.575243,-0.561437
2.8861,0.016743,0.000000,-0.075121,0.075121,0.0000,0.0000,0.0000,-0.002363,-0.004602,0.006136,0.3750,0.4939,0.0944,0.000000,0.578311,-0.562971,0.564505,-0.590583,0.575243,-0.561437
2.9028,0.016754,0.000000,-0.089741,0.089741,0.0000,0.0000,0.0000,-0.002349,-0.019942,0.019942,0.4318,0.4817,0.1489,0.000000,0.579845,-0.562971,0.564505,-0.590583,0.575243,-0.561437
2.9196,0.016742,0.000000,-0.104351,0.104351,0.0000,0.0000,0.0000,-0.002362,-0.041417,0.042951,0.3761,0.4986,0.0894,0.000000,0.578311,-0.562971,0.564505,-0.590583,0.575243,-0.561437
2.9363,0.016762,0.000000,-0.118980,0.118980,0.0000,0.0000,0.0000,-0.002361,-0.065961,0.067495,0.3818,0.4969,0.0956,0.000000,0.578311,-0.562971,0.564505,-0.590583,0.575243,-0.561437
2.9531,0.016738,0.000000,-0.133586,0.133586,0.0000,0.0000,0.0000,-0.002361,-0.088971,0.092039,0.3818,0.4969,0.0956,0.000000,0.578311,-0.562971,0.564505,-0.590583,0.575243,-0.561437
2.9698,0.016768,0.000000,-0.148219,0.148219,0.0000,0.0000,0.0000,-0.002361,-0.115049,0.113515,0.3818,0.4969,0.0956,0.000000,0.578311,-0.562971,0.564505,-0.590583,0.575243,-0.561437
2.9866,0.016739,0.000000,-0.162826,0.162826,0.0000,0.0000,0.0000,-0.002361,-0.115049,0.113515,0.3818,0.4969,0.0956,0.000000,0.578311,-0.562971,0.564505,-0.590583,0.575243,-0.561437
3.0033,0.016750,0.000000,-0.177443,0.177443,0.0000,0.0000,0.0000,-0.002361,-0.131922,0.127320,0.3818,0.4969,0.0956,0.000000,0.578311,-0.562971,0.564505,-0.590583,0.575243,-0.561437
3.0201,0.016742,0.000000,-0.192054,0.192054,0.0000,0.0000,0.0000,-0.002350,-0.142660,0.136524,0.3920,0.5478,0.0412,0.000000,0.578311,-0.562971,0.564505,-0.592117,0.575243,-0.561437
3.0368,0.016757,0.000000,-0.206677,0.206677,0.0000,0.0000,0.0000,-0.002351,-0.151864,0.150330,0.4300,0.4761,0.1544,0.000000,0.579845,-0.562971,0.564505,-0.590583,0.575243,-0.561437
3.0536,0.016748,0.000000,-0.221292,0.221292,0.0000,0.0000,0.0000,-0.002362,-0.170272,0.173340,0.3762,0.4992,0.0888,0.000000,0.578311,-0.562971,0.564505,-0.590583,0.575243,-0.561437
3.0703,0.016765,0.000000,-0.235922,0.235922,0.0000,0.0000,0.0000,-0.002362,-0.197884,0.197884,0.3762,0.4992,0.0888,0.000000,0.578311,-0.562971,0.564505,-0.592117,0.575243,-0.561437
3.0871,0.016742,0.000000,-0.250532,0.250532,0.0000,0.0000,0.0000,-0.002349,-0.197884,0.197884,0.3926,0.5476,0.0419,0.000000,0.578311,-0.562971,0.564505,-0.592117,0.575243,-0.561437
3.1038,0.016754,0.000000,-0.265152,0.265152,0.0000,0.0000,0.0000,-0.002362,-0.216291,0.214757,0.3801,0.4918,0.1006,0.000000,0.578311,-0.562971,0.564505,-0.590583,0.575243,-0.561437
3.1206,0.016741,0.000000,-0.279762,0.279762,0.0000,0.0000,0.0000,-0.002361,-0.230097,0.228563,0.3814,0.4976,0.0944,0.000000,0.578311,-0.562971,0.564505,-0.590583,0.575243,-0.561437
3.1373,0.016758,0.000000,-0.294386,0.294386,0.0000,0.0000,0.0000,-0.002349,-0.245437,0.242369,0.4311,0.4813,0.1489,0.000000,0.579845,-0.562971,0.564505,-0.590583,0.575243,-0.561437
3.1541,0.016743,0.000000,-0.308997,0.308997,0.0000,0.0000,0.0000,-0.002339,-0.265379,0.265379,0.4367,0.5339,0.0895,0.000000,0.579845,-0.562971,0.564505,-0.592117,0.575243,-0.561437
3.1708,0.016764,0.000000,-0.323626,0.323626,0.0000,0.0000,0.0000,-0.002339,-0.265379,0.265379,0.4367,0.5339,0.0895,0.000000,0.579845,-0.562971,0.564505,-0.592117,0.575243,-0.561437
3.1876,0.016743,0.000000,-0.338237,0.338237,0.0000,0.0000,0.0000,-0.002340,-0.286854,0.285320,0.4361,0.5284,0.0957,0.000000,0.579845,-0.562971,0.564505,-0.592117,0.575243,-0.561437
3.2043,0.016751,0.000000,-0.345277,0.345277,0.0000,0.0000,0.0000,-0.002352,-0.303728,0.300660,0.3864,0.5445,0.0412,0.000000,0.578311,-0.562971,0.564505,-0.592117,0.575243,-0.561437
3.2212,0.016837,0.000000,-0.330583,0.330583,0.0000,0.0000,0.0000,-0.002362,-0.317534,0.314466,0.3808,0.4921,0.1006,0.000000,0.578311,-0.562971,0.564505,-0.590583,0.575243,-0.561437
3.2379,0.016761,0.000000,-0.315957,0.315957,0.0000,0.0000,0.0000,-0.002361,-0.335942,0.331340,0.3814,0.4976,0.0944,0.000000,0.578311,-0.562971,0.564505,-0.590583,0.575243,-0.561437
3.2549,0.016913,0.000000,-0.301197,0.301197,0.0000,0.0000,0.0000,-0.002361,-0.354350,0.349748,0.3814,0.4976,0.0944,0.000000,0.578311,-0.562971,0.564505,-0.590583,0.575243,-0.561437
3.2716,0.016770,0.000000,-0.286562,0.286562,0.0000,0.0000,0.0000,-0.002361,-0.354350,0.349748,0.3814,0.4976,0.0944,0.000000,0.578311,-0.562971,0.564505,-0.590583,0.575243,-0.561437
3.2884,0.016746,0.000000,-0.271949,0.271949,0.0000,0.0000,0.0000,-0.002361,-0.354350,0.349748,0.3814,0.4976,0.0944,0.000000,0.578311,-0.562971,0.564505,-0.590583,0.575243,-0.561437
3.3051,0.016751,0.000000,-0.257330,0.257330,0.0000,0.0000,0.0000,-0.002349,-0.342078,0.337476,0.4311,0.4814,0.1489,0.000000,0.579845,-0.562971,0.564505,-0.590583,0.575243,-0.561437
3.3219,0.016740,0.000000,-0.242722,0.242722,0.0000,0.0000,0.0000,-0.002362,-0.322136,0.319068,0.3761,0.4987,0.0894,0.000000,0.578311,-0.562971,0.564505,-0.590583,0.575243,-0.561437
3.3386,0.016759,0.000000,-0.228098,0.228098,0.0000,0.0000,0.0000,-0.002361,-0.296058,0.294524,0.3818,0.4969,0.0956,0.000000,0.578311,-0.562971,0.564505,-0.590583,0.575243,-0.561437
3.3554,0.016739,0.000000,-0.213490,0.213490,0.0000,0.0000,0.0000,-0.002361,-0.268447,0.271515,0.3818,0.4969,0.0956,0.000000,0.578311,-0.562971,0.564505,-0.590583,0.575243,-0.561437
3.3721,0.016769,0.000000,-0.198856,0.198856,0.0000,0.0000,0.0000,-0.002361,-0.268447,0.271515,0.3818,0.4969,0.0956,0.000000,0.578311,-0.562971,0.564505,-0.590583,0.575243,-0.561437
3.3889,0.016745,0.000000,-0.184243,0.184243,0.0000,0.0000,0.0000,-0.002361,-0.245437,0.250039,0.3818,0.4969,0.0956,0.000000,0.578311,-0.562971,0.564505,-0.590583,0.575243,-0.561437
3.4056,0.016738,0.000000,-0.169637,0.169637,0.0000,0.0000,0.0000,-0.002338,-0.228563,0.233165,0.4418,0.5322,0.0950,0.000000,0.579845,-0.562971,0.564505,-0.592117,0.575243,-0.561437
3.4224,0.016743,0.000000,-0.155026,0.155026,0.0000,0.0000,0.0000,-0.002363,-0.213223,0.219359,0.3750,0.4934,0.0950,0.000000,0.578311,-0.562971,0.564505,-0.590583,0.575243,-0.561437
3.4391,0.016761,0.000000,-0.140399,0.140399,0.0000,0.0000,0.0000,-0.002349,-0.199418,0.202485,0.3927,0.5482,0.0413,0.000000,0.578311,-0.562971,0.564505,-0.592117,0.575243,-0.561437
3.4559,0.016742,0.000000,-0.125789,0.125789,0.0000,0.0000,0.0000,-0.002351,-0.177942,0.182544,0.3909,0.5425,0.0469,0.000000,0.578311,-0.562971,0.564505,-0.592117,0.575243,-0.561437
3.4726,0.016761,0.000000,-0.111162,0.111162,0.0000,0.0000,0.0000,-0.002351,-0.177942,0.182544,0.3909,0.5425,0.0469,0.000000,0.578311,-0.562971,0.564505,-0.592117,0.575243,-0.561437
3.4894,0.016745,0.000000,-0.096549,0.096549,0.0000,0.0000,0.0000,-0.002362,-0.161068,0.162602,0.3803,0.4923,0.1000,0.000000,0.578311,-0.562971,0.564505,-0.590583,0.575243,-0.561437
3.5061,0.016749,0.000000,-0.081933,0.081933,0.0000,0.0000,0.0000,-0.002361,-0.145728,0.147262,0.3814,0.4975,0.0945,0.000000,0.578311,-0.562971,0.564505,-0.590583,0.575243,-0.561437
3.5229,0.016744,0.000000,-0.067322,0.067322,0.0000,0.0000,0.0000,-0.002361,-0.127320,0.127320,0.3814,0.4975,0.0945,0.000000,0.578311,-0.562971,0.564505,-0.590583,0.575243,-0.561437
3.5396,0.016753,0.000000,-0.052702,0.052702,0.0000,0.0000,0.0000,-0.002361,-0.110447,0.108913,0.3814,0.4975,0.0945,0.000000,0.578311,-0.562971,0.564505,-0.590583,0.575243,-0.561437
3.5564,0.016743,0.000000,-0.038091,0.038091,0.0000,0.0000,0.0000,-0.002350,-0.090505,0.092039,0.3920,0.5478,0.0413,0.000000,0.578311,-0.562971,0.564505,-0.592117,0.575243,-0.561437
3.5731,0.016760,0.000000,-0.023465,0.023465,0.0000,0.0000,0.0000,-0.002350,-0.090505,0.092039,0.3920,0.5478,0.0413,0.000000,0.578311,-0.562971,0.564505,-0.592117,0.575243,-0.561437
3.5899,0.016745,0.000000,-0.008852,0.008852,0.0000,0.0000,0.0000,-0.002362,-0.072097,0.072097,0.3802,0.4918,0.1006,0.000000,0.578311,-0.562971,0.564505,-0.590583,0.575243,-0.561437
3.6066,0.016752,0.000000,-0.005767,0.005767,0.0000,0.0000,0.0000,-0.002349,-0.055223,0.055223,0.3922,0.5484,0.0407,0.000000,0.578311,-0.562971,0.564505,-0.592117,0.575243,-0.561437
3.6233,0.016738,0.000000,-0.020373,0.020373,0.0000,0.0000,0.0000,-0.002375,-0.038350,0.038350,0.4297,0.5093,0.1541,0.000000,0.578311,-0.562971,0.564505,-0.590583,0.575243,-0.559903
3.6401,0.016755,0.000000,-0.034995,0.034995,0.0000,0.0000,0.0000,-0.002360,-0.018408,0.021476,0.3762,0.4957,0.0889,0.000000,0.578311,-0.562971,0.564505,-0.590583,0.575243,-0.561437
3.6570,0.016883,0.000000,-0.049728,0.049728,0.0000,0.0000,0.0000,-0.002350,0.001534,0.004602,0.4316,0.4815,0.1495,0.000000,0.579845,-0.562971,0.564505,-0.590583,0.575243,-0.561437
3.6737,0.016754,0.000000,-0.064348,0.064348,0.0000,0.0000,0.0000,-0.002350,0.001534,0.004602,0.4316,0.4815,0.1495,0.000000,0.579845,-0.562971,0.564505,-0.590583,0.575243,-0.561437
3.6905,0.016745,0.000000,-0.078961,0.078961,0.0000,0.0000,0.0000,-0.002362,0.003068,0.004602,0.3761,0.4986,0.0894,0.000000,0.578311,-0.562971,0.564505,-0.590583,0.575243,-0.561437
3.7072,0.016744,0.000000,-0.093573,0.093573,0.0000,0.0000,0.0000,-0.002361,-0.010738,0.018408,0.3818,0.4969,0.0956,0.000000,0.578311,-0.562971,0.564505,-0.590583,0.575243,-0.561437
3.7240,0.016740,0.000000,-0.108181,0.108181,0.0000,0.0000,0.0000,-0.002349,-0.035282,0.041417,0.4310,0.4814,0.1488,0.000000,0.579845,-0.562971,0.564505,-0.590583,0.575243,-0.561437
3.7407,0.016742,0.000000,-0.122791,0.122791,0.0000,0.0000,0.0000,-0.002362,-0.062893,0.067495,0.3761,0.4986,0.0894,0.000000,0.578311,-0.562971,0.564505,-0.590583,0.575243,-0.561437
3.7574,0.016741,0.000000,-0.137401,0.137401,0.0000,0.0000,0.0000,-0.002361,-0.092039,0.095107,0.3818,0.4969,0.0956,0.000000,0.578311,-0.562971,0.564505,-0.590583,0.575243,-0.561437
3.7742,0.016763,0.000000,-0.152029,0.152029,0.0000,0.0000,0.0000,-0.002361,-0.092039,0.095107,0.3818,0.4969,0.0956,0.000000,0.578311,-0.562971,0.564505,-0.590583,0.575243,-0.561437
3.7910,0.016747,0.000000,-0.166643,0.166643,0.0000,0.0000,0.0000,-0.002361,-0.118117,0.116583,0.3818,0.4969,0.0956,0.000000,0.578311,-0.562971,0.564505,-0.590583,0.575243,-0.561437
3.8077,0.016756,0.000000,-0.181265,0.181265,0.0000,0.0000,0.0000,-0.002350,-0.131922,0.125786,0.3920,0.5478,0.0412,0.000000,0.578311,-0.562971,0.564505,-0.592117,0.575243,-0.561437
3.8245,0.016740,0.000000,-0.195874,0.195874,0.0000,0.0000,0.0000,-0.002362,-0.136524,0.131922,0.3802,0.4918,0.1006,0.000000,0.578311,-0.562971,0.564505,-0.590583,0.575243,-0.561437
3.8412,0.016741,0.000000,-0.210483,0.210483,0.0000,0.0000,0.0000,-0.002361,-0.150330,0.145728,0.3814,0.4976,0.0944,0.000000,0.578311,-0.562971,0.564505,-0.590583,0.575243,-0.561437
3.8579,0.016742,0.000000,-0.225093,0.225093,0.0000,0.0000,0.0000,-0.002349,-0.173340,0.171806,0.4311,0.4813,0.1489,0.000000,0.579845,-0.562971,0.564505,-0.590583,0.575243,-0.561437
3.8747,0.016740,0.000000,-0.239701,0.239701,0.0000,0.0000,0.0000,-0.002349,-0.173340,0.171806,0.4311,0.4813,0.1489,0.000000,0.579845,-0.562971,0.564505,-0.590583,0.575243,-0.561437
3.8914,0.016747,0.000000,-0.254316,0.254316,0.0000,0.0000,0.0000,-0.002362,-0.199418,0.197884,0.3761,0.4987,0.0894,0.000000,0.578311,-0.562971,0.564505,-0.590583,0.575243,-0.561437
3.9082,0.016742,0.000000,-0.268926,0.268926,0.0000,0.0000,0.0000,-0.002361,-0.217825,0.216291,0.3818,0.4969,0.0956,0.000000,0.578311,-0.562971,0.564505,-0.590583,0.575243,-0.561437
3.9249,0.016739,0.000000,-0.283533,0.283533,0.0000,0.0000,0.0000,-0.002361,-0.230097,0.230097,0.3818,0.4969,0.0956,0.000000,0.578311,-0.562971,0.564505,-0.590583,0.575243,-0.561437
3.9417,0.016745,0.000000,-0.298147,0.298147,0.0000,0.0000,0.0000,-0.002338,-0.239301,0.237767,0.4418,0.5322,0.0950,0.000000,0.579845,-0.562971,0.564505,-0.592117,0.575243,-0.561437
3.9586,0.016901,0.000000,-0.312896,0.312896,0.0000,0.0000,0.0000,-0.002363,-0.256175,0.257709,0.3750,0.4934,0.0950,0.000000,0.578311,-0.562971,0.564505,-0.590583,0.575243,-0.561437
3.9753,0.016747,0.000000,-0.327510,0.327510,0.0000,0.0000,0.0000,-0.002363,-0.256175,0.257709,0.3750,0.4934,0.0950,0.000000,0.578311,-0.562971,0.564505,-0.590583,0.575243,-0.561437
3.9920,0.016748,0.000000,-0.342126,0.342126,0.0000,0.0000,0.0000,-0.002361,-0.283786,0.283786,0.3820,0.4974,0.0950,0.000000,0.578311,-0.562971,0.564505,-0.590583,0.575243,-0.561437
4.0088,0.016742,0.000000,-0.341396,0.341396,0.0000,0.0000,0.0000,-0.002350,-0.306796,0.305262,0.3920,0.5478,0.0413,0.000000,0.578311,-0.562971,0.564505,-0.592117,0.575243,-0.561437
4.0255,0.016751,0.000000,-0.326778,0.326778,0.0000,0.0000,0.0000,-0.002351,-0.322136,0.319068,0.4300,0.4761,0.1544,0.000000,0.579845,-0.562971,0.564505,-0.590583,0.575243,-0.561437
4.0424,0.016817,0.000000,-0.312102,0.312102,0.0000,0.0000,0.0000,-0.002351,-0.342078,0.335942,0.3870,0.5500,0.0351,0.000000,0.578311,-0.562971,0.564505,-0.592117,0.575243,-0.561437
4.0591,0.016748,0.000000,-0.297487,0.297487,0.0000,0.0000,0.0000,-0.002351,-0.342078,0.335942,0.3870,0.5500,0.0351,0.000000,0.578311,-0.562971,0.564505,-0.592117,0.575243,-0.561437
4.0758,0.016742,0.000000,-0.282877,0.282877,0.0000,0.0000,0.0000,-0.002351,-0.352816,0.348214,0.3915,0.5423,0.0475,0.000000,0.578311,-0.562971,0.564505,-0.592117,0.575243,-0.561437
4.0926,0.016747,0.000000,-0.268263,0.268263,0.0000,0.0000,0.0000,-0.002362,-0.349748,0.342078,0.3802,0.4923,0.1000,0.000000,0.578311,-0.562971,0.564505,-0.590583,0.575243,-0.561437
4.1093,0.016743,0.000000,-0.253652,0.253652,0.0000,0.0000,0.0000,-0.002349,-0.334408,0.329806,0.3922,0.5483,0.0408,0.000000,0.578311,-0.562971,0.564505,-0.592117,0.575243,-0.561437
4.1261,0.016746,0.000000,-0.239038,0.239038,0.0000,0.0000,0.0000,-0.002351,-0.316000,0.312932,0.4300,0.4761,0.1545,0.000000,0.579845,-0.562971,0.564505,-0.590583,0.575243,-0.561437
4.1430,0.016895,0.000000,-0.224295,0.224295,0.0000,0.0000,0.0000,-0.002362,-0.291456,0.294524,0.3762,0.4992,0.0888,0.000000,0.578311,-0.562971,0.564505,-0.590583,0.575243,-0.561437
4.1597,0.016759,0.000000,-0.209670,0.209670,0.0000,0.0000,0.0000,-0.002362,-0.291456,0.294524,0.3762,0.4992,0.0888,0.000000,0.578311,-0.562971,0.564505,-0.590583,0.575243,-0.561437
4.1765,0.016743,0.000000,-0.195059,0.195059,0.0000,0.0000,0.0000,-0.002349,-0.269981,0.273049,0.3926,0.5476,0.0419,0.000000,0.578311,-0.562971,0.564505,-0.592117,0.575243,-0.561437
4.1932,0.016749,0.000000,-0.180443,0.180443,0.0000,0.0000,0.0000,-0.002351,-0.250039,0.254641,0.4299,0.4762,0.1544,0.000000,0.579845,-0.562971,0.564505,-0.590583,0.575243,-0.561437
4.2100,0.016747,0.000000,-0.165828,0.165828,0.0000,0.0000,0.0000,-0.002362,-0.233165,0.237767,0.3762,0.4992,0.0888,0.000000,0.578311,-0.562971,0.564505,-0.590583,0.575243,-0.561437
4.2267,0.016755,0.000000,-0.151207,0.151207,0.0000,0.0000,0.0000,-0.002349,-0.216291,0.220893,0.3926,0.5476,0.0419,0.000000,0.578311,-0.562971,0.564505,-0.592117,0.575243,-0.561437
4.2435,0.016746,0.000000,-0.136593,0.136593,0.0000,0.0000,0.0000,-0.002362,-0.197884,0.200951,0.3801,0.4918,0.1006,0.000000,0.578311,-0.562971,0.564505,-0.590583,0.575243,-0.561437
4.2602,0.016757,0.000000,-0.121971,0.121971,0.0000,0.0000,0.0000,-0.002362,-0.197884,0.200951,0.3801,0.4918,0.1006,0.000000,0.578311,-0.562971,0.564505,-0.590583,0.575243,-0.561437
4.2770,0.016744,0.000000,-0.107358,0.107358,0.0000,0.0000,0.0000,-0.002361,-0.177942,0.181010,0.3814,0.4976,0.0944,0.000000,0.578311,-0.562971,0.564505,-0.590583,0.575243,-0.561437
4.2937,0.016748,0.000000,-0.092743,0.092743,0.0000,0.0000,0.0000,-0.002361,-0.159534,0.162602,0.3814,0.4976,0.0944,0.000000,0.578311,-0.562971,0.564505,-0.590583,0.575243,-0.561437
4.3105,0.016745,0.000000,-0.078130,0.078130,0.0000,0.0000,0.0000,-0.002350,-0.145728,0.145728,0.3920,0.5478,0.0413,0.000000,0.578311,-0.562971,0.564505,-0.592117,0.575243,-0.561437
4.3272,0.016745,0.000000,-0.063516,0.063516,0.0000,0.0000,0.0000,-0.002339,-0.128854,0.128854,0.4408,0.5269,0.1007,0.000000,0.579845,-0.562971,0.564505,-0.592117,0.575243,-0.561437
4.3440,0.016740,0.000000,-0.048908,0.048908,0.0000,0.0000,0.0000,-0.002352,-0.110447,0.108913,0.3859,0.5447,0.0407,0.000000,0.578311,-0.562971,0.564505,-0.592117,0.575243,-0.561437
4.3607,0.016754,0.000000,-0.034287,0.034287,0.0000,0.0000,0.0000,-0.002352,-0.110447,0.108913,0.3859,0.5447,0.0407,0.000000,0.578311,-0.562971,0.564505,-0.592117,0.575243,-0.561437
4.3775,0.016744,0.000000,-0.019675,0.019675,0.0000,0.0000,0.0000,-0.002351,-0.088971,0.088971,0.3916,0.5428,0.0469,0.000000,0.578311,-0.562971,0.564505,-0.592117,0.575243,-0.561437
4.3942,0.016750,0.000000,-0.005058,0.005058,0.0000,0.0000,0.0000,-0.002351,-0.070563,0.070563,0.3916,0.5428,0.0469,0.000000,0.578311,-0.562971,0.564505,-0.592117,0.575243,-0.561437
4.4109,0.016741,0.000000,-0.009551,0.009551,0.0000,0.0000,0.0000,-0.002362,-0.053689,0.053689,0.3802,0.4923,0.1000,0.000000,0.578311,-0.562971,0.564505,-0.590583,0.575243,-0.561437
4.4277,0.016747,0.000000,-0.024166,0.024166,0.0000,0.0000,0.0000,-0.002349,-0.036816,0.036816,0.4312,0.4819,0.1483,0.000000,0.579845,-0.562971,0.564505,-0.590583,0.575243,-0.561437
4.4446,0.016928,0.000000,-0.038938,0.038938,0.0000,0.0000,0.0000,-0.002362,-0.015340,0.018408,0.3761,0.4986,0.0895,0.000000,0.578311,-0.562971,0.564505,-0.590583,0.575243,-0.561437
4.4622,0.017617,0.000000,-0.054312,0.054312,0.0000,0.0000,0.0000,-0.002362,-0.015340,0.018408,0.3761,0.4986,0.0895,0.000000,0.578311,-0.562971,0.564505,-0.590583,0.575243,-0.561437
4.4790,0.016745,0.000000,-0.068924,0.068924,0.0000,0.0000,0.0000,-0.002361,0.000000,0.003068,0.3818,0.4969,0.0956,0.000000,0.578311,-0.562971,0.564505,-0.590583,0.575243,-0.561437
4.4957,0.016754,0.000000,-0.083545,0.083545,0.0000,0.0000,0.0000,-0.002361,-0.003068,0.004602,0.3818,0.4969,0.0956,0.000000,0.578311,-0.562971,0.564505,-0.590583,0.575243,-0.561437
4.5125,0.016745,0.000000,-0.098158,0.098158,0.0000,0.0000,0.0000,-0.002361,-0.019942,0.021476,0.3818,0.4969,0.0956,0.000000,0.578311,-0.562971,0.564505,-0.590583,0.575243,-0.561437
4.5292,0.016754,0.000000,-0.112778,0.112778,0.0000,0.0000,0.0000,-0.002361,-0.042951,0.044485,0.3818,0.4969,0.0956,0.000000,0.578311,-0.562971,0.564505,-0.590583,0.575243,-0.561437
4.5460,0.016745,0.000000,-0.127391,0.127391,0.0000,0.0000,0.0000,-0.002361,-0.069029,0.070563,0.3818,0.4969,0.0956,0.000000,0.578311,-0.562971,0.564505,-0.590583,0.575243,-0.561437
4.5627,0.016760,0.000000,-0.142016,0.142016,0.0000,0.0000,0.0000,-0.002361,-0.069029,0.070563,0.3818,0.4969,0.0956,0.000000,0.578311,-0.562971,0.564505,-0.590583,0.575243,-0.561437
4.5795,0.016743,0.000000,-0.156627,0.156627,0.0000,0.0000,0.0000,-0.002350,-0.092039,0.095107,0.3920,0.5478,0.0412,0.000000,0.578311,-0.562971,0.564505,-0.592117,0.575243,-0.561437
4.5962,0.016759,0.000000,-0.171252,0.171252,0.0000,0.0000,0.0000,-0.002351,-0.115049,0.111981,0.3909,0.5425,0.0469,0.000000,0.578311,-0.562971,0.564505,-0.592117,0.575243,-0.561437
4.6130,0.016747,0.000000,-0.185866,0.185866,0.0000,0.0000,0.0000,-0.002362,-0.127320,0.121184,0.3803,0.4923,0.1000,0.000000,0.578311,-0.562971,0.564505,-0.590583,0.575243,-0.561437
4.6298,0.016773,0.000000,-0.200504,0.200504,0.0000,0.0000,0.0000,-0.002349,-0.136524,0.131922,0.3921,0.5483,0.0408,0.000000,0.578311,-0.562971,0.564505,-0.592117,0.575243,-0.561437
4.6465,0.016743,0.000000,-0.215115,0.215115,0.0000,0.0000,0.0000,-0.002351,-0.154932,0.151864,0.4300,0.4761,0.1545,0.000000,0.579845,-0.562971,0.564505,-0.590583,0.575243,-0.561437
4.6634,0.016920,0.000000,-0.229881,0.229881,0.0000,0.0000,0.0000,-0.002351,-0.154932,0.151864,0.4300,0.4761,0.1545,0.000000,0.579845,-0.562971,0.564505,-0.590583,0.575243,-0.561437
4.6802,0.016747,0.000000,-0.244496,0.244496,0.0000,0.0000,0.0000,-0.002362,-0.177942,0.177942,0.3762,0.4992,0.0888,0.000000,0.578311,-0.562971,0.564505,-0.590583,0.575243,-0.561437
4.6969,0.016754,0.000000,-0.259116,0.259116,0.0000,0.0000,0.0000,-0.002349,-0.200951,0.199418,0.4316,0.4812,0.1495,0.000000,0.579845,-0.562971,0.564505,-0.590583,0.575243,-0.561437
4.7137,0.016745,0.000000,-0.273728,0.273728,0.0000,0.0000,0.0000,-0.002362,-0.214757,0.211689,0.3761,0.4987,0.0894,0.000000,0.578311,-0.562971,0.564505,-0.590583,0.575243,-0.561437
4.7304,0.016758,0.000000,-0.288352,0.288352,0.0000,0.0000,0.0000,-0.002362,-0.223961,0.220893,0.4421,0.5653,0.0954,0.000000,0.578311,-0.562971,0.564505,-0.592117,0.575243,-0.559903
4.7472,0.016745,0.000000,-0.302965,0.302965,0.0000,0.0000,0.0000,-0.002361,-0.240835,0.239301,0.3750,0.4899,0.0950,0.000000,0.578311,-0.562971,0.564505,-0.590583,0.575243,-0.561437
4.7639,0.016763,0.000000,-0.317594,0.317594,0.0000,0.0000,0.0000,-0.002361,-0.240835,0.239301,0.3750,0.4899,0.0950,0.000000,0.578311,-0.562971,0.564505,-0.590583,0.575243,-0.561437
4.7807,0.016742,0.000000,-0.332203,0.332203,0.0000,0.0000,0.0000,-0.002361,-0.265379,0.266913,0.3820,0.4978,0.0950,0.000000,0.578311,-0.562971,0.564505,-0.590583,0.575243,-0.561437
4.7974,0.016756,0.000000,-0.346826,0.346826,0.0000,0.0000,0.0000,-0.002349,-0.286854,0.288388,0.4310,0.4813,0.1488,0.000000,0.579845,-0.562971,0.564505,-0.590583,0.575243,-0.561437
4.8142,0.016747,0.000000,-0.336692,0.336692,0.0000,0.0000,0.0000,-0.002351,-0.302194,0.297592,0.3869,0.5494,0.0357,0.000000,0.578311,-0.562971,0.564505,-0.592117,0.575243,-0.561437
4.8309,0.016757,0.000000,-0.322069,0.322069,0.0000,0.0000,0.0000,-0.002362,-0.314466,0.305262,0.3807,0.4916,0.1012,0.000000,0.578311,-0.562971,0.564505,-0.590583,0.575243,-0.561437
4.8477,0.016743,0.000000,-0.307458,0.307458,0.0000,0.0000,0.0000,-0.002349,-0.334408,0.329806,0.3921,0.5484,0.0406,0.000000,0.578311,-0.562971,0.564505,-0.592117,0.575243,-0.561437
4.8644,0.016755,0.000000,-0.292836,0.292836,0.0000,0.0000,0.0000,-0.002349,-0.334408,0.329806,0.3921,0.5484,0.0406,0.000000,0.578311,-0.562971,0.564505,-0.592117,0.575243,-0.561437
4.8812,0.016741,0.000000,-0.278227,0.278227,0.0000,0.0000,0.0000,-0.002351,-0.346680,0.346680,0.3909,0.5425,0.0469,0.000000,0.578311,-0.562971,0.564505,-0.592117,0.575243,-0.561437
4.8979,0.016758,0.000000,-0.263603,0.263603,0.0000,0.0000,0.0000,-0.002362,-0.332874,0.331340,0.3803,0.4923,0.1000,0.000000,0.578311,-0.562971,0.564505,-0.590583,0.575243,-0.561437
4.9147,0.016745,0.000000,-0.248990,0.248990,0.0000,0.0000,0.0000,-0.002361,-0.317534,0.317534,0.3814,0.4975,0.0945,0.000000,0.578311,-0.562971,0.564505,-0.590583,0.575243,-0.561437
4.9314,0.016760,0.000000,-0.234364,0.234364,0.0000,0.0000,0.0000,-0.002374,-0.291456,0.294524,0.4308,0.5146,0.1485,0.000000,0.578311,-0.562971,0.564505,-0.590583,0.575243,-0.559903
4.9482,0.016743,0.000000,-0.219753,0.219753,0.0000,0.0000,0.0000,-0.002360,-0.269981,0.273049,0.3761,0.4952,0.0894,0.000000,0.578311,-0.562971,0.564505,-0.590583,0.575243,-0.561437
4.9649,0.016757,0.000000,-0.205130,0.205130,0.0000,0.0000,0.0000,-0.002360,-0.269981,0.273049,0.3761,0.4952,0.0894,0.000000,0.578311,-0.562971,0.564505,-0.590583,0.575243,-0.561437
4.9817,0.016747,0.000000,-0.190515,0.190515,0.0000,0.0000,0.0000,-0.002350,-0.250039,0.251573,0.4316,0.4816,0.1494,0.000000,0.579845,-0.562971,0.564505,-0.590583,0.575243,-0.561437
4.9984,0.016752,0.000000,-0.175897,0.175897,0.0000,0.0000,0.0000,-0.002362,-0.231631,0.236233,0.3761,0.4986,0.0894,0.000000,0.578311,-0.562971,0.564505,-0.590583,0.575243,-0.561437
5.0152,0.016745,0.000000,-0.161284,0.161284,0.0000,0.0000,0.0000,-0.002374,-0.216291,0.220893,0.4314,0.5145,0.1491,0.000000,0.578311,-0.562971,0.564505,-0.590583,0.575243,-0.559903
5.0325,0.017355,0.000000,-0.146139,0.146139,0.0000,0.0000,0.0000,-0.002337,-0.197884,0.202485,0.4366,0.5304,0.0895,0.000000,0.579845,-0.562971,0.564505,-0.592117,0.575243,-0.561437
5.0493,0.016747,0.000000,-0.131524,0.131524,0.0000,0.0000,0.0000,-0.002364,-0.177942,0.184078,0.3755,0.4936,0.0956,0.000000,0.578311,-0.562971,0.564505,-0.590583,0.575243,-0.561437
5.0660,0.016749,0.000000,-0.116908,0.116908,0.0000,0.0000,0.0000,-0.002364,-0.177942,0.184078,0.3755,0.4936,0.0956,0.000000,0.578311,-0.562971,0.564505,-0.590583,0.575243,-0.561437
5.0828,0.016747,0.000000,-0.102293,0.102293,0.0000,0.0000,0.0000,-0.002361,-0.159534,0.164136,0.3819,0.4974,0.0950,0.000000,0.578311,-0.562971,0.564505,-0.590583,0.575243,-0.561437
5.0995,0.016747,0.000000,-0.087678,0.087678,0.0000,0.0000,0.0000,-0.002361,-0.144194,0.145728,0.3810,0.4969,0.0951,0.000000,0.578311,-0.562971,0.564505,-0.590583,0.575243,-0.561437
5.1163,0.016747,0.000000,-0.073064,0.073064,0.0000,0.0000,0.0000,-0.002350,-0.127320,0.127320,0.3921,0.5478,0.0413,0.000000,0.578311,-0.562971,0.564505,-0.592117,0.575243,-0.561437
5.1330,0.016751,0.000000,-0.058446,0.058446,0.0000,0.0000,0.0000,-0.002362,-0.113515,0.110447,0.3802,0.4918,0.1006,0.000000,0.578311,-0.562971,0.564505,-0.590583,0.575243,-0.561437
5.1498,0.016747,0.000000,-0.043831,0.043831,0.0000,0.0000,0.0000,-0.002349,-0.090505,0.090505,0.3922,0.5484,0.0407,0.000000,0.578311,-0.562971,0.564505,-0.592117,0.575243,-0.561437
5.1665,0.016748,0.000000,-0.029216,0.029216,0.0000,0.0000,0.0000,-0.002349,-0.090505,0.090505,0.3922,0.5484,0.0407,0.000000,0.578311,-0.562971,0.564505,-0.592117,0.575243,-0.561437
5.1833,0.016745,0.000000,-0.014603,0.014603,0.0000,0.0000,0.0000,-0.002351,-0.073631,0.072097,0.3909,0.5425,0.0469,0.000000,0.578311,-0.562971,0.564505,-0.592117,0.575243,-0.561437
5.2000,0.016748,0.000000,-0.000013,0.000013,0.0000,0.0000,0.0000,-0.002375,-0.056757,0.055223,0.4298,0.5099,0.1535,0.000000,0.578311,-0.562971,0.564505,-0.590583,0.575243,-0.559903
5.2168,0.016747,0.000000,-0.014627,0.014627,0.0000,0.0000,0.0000,-0.002336,-0.038350,0.038350,0.4368,0.5309,0.0890,0.000000,0.579845,-0.562971,0.564505,-0.592117,0.575243,-0.561437
5.2335,0.016750,0.000000,-0.029245,0.029245,0.0000,0.0000,0.0000,-0.002352,-0.018408,0.021476,0.4253,0.4779,0.1495,0.000000,0.579845,-0.562971,0.564505,-0.590583,0.575243,-0.561437
5.2503,0.016743,0.000000,-0.043856,0.043856,0.0000,0.0000,0.0000,-0.002350,0.000000,0.004602,0.4265,0.4834,0.1432,0.000000,0.579845,-0.562971,0.564505,-0.590583,0.575243,-0.561437
5.2670,0.016750,0.000000,-0.058473,0.058473,0.0000,0.0000,0.0000,-0.002350,0.000000,0.004602,0.4265,0.4834,0.1432,0.000000,0.579845,-0.562971,0.564505,-0.590583,0.575243,-0.561437
5.2837,0.016745,0.000000,-0.073086,0.073086,0.0000,0.0000,0.0000,-0.002362,0.000000,0.004602,0.3766,0.4984,0.0900,0.000000,0.578311,-0.562971,0.564505,-0.590583,0.575243,-0.561437
5.3005,0.016747,0.000000,-0.087700,0.087700,0.0000,0.0000,0.0000,-0.002338,-0.016874,0.019942,0.4424,0.5321,0.0956,0.000000,0.579845,-0.562971,0.564505,-0.592117,0.575243,-0.561437
5.3172,0.016747,0.000000,-0.102315,0.102315,0.0000,0.0000,0.0000,-0.002352,-0.042951,0.044485,0.3857,0.5441,0.0412,0.000000,0.578311,-0.562971,0.564505,-0.592117,0.575243,-0.561437
5.3340,0.016756,0.000000,-0.116937,0.116937,0.0000,0.0000,0.0000,-0.002362,-0.065961,0.067495,0.3808,0.4921,0.1006,0.000000,0.578311,-0.562971,0.564505,-0.590583,0.575243,-0.561437
5.3507,0.016749,0.000000,-0.131554,0.131554,0.0000,0.0000,0.0000,-0.002349,-0.093573,0.095107,0.4311,0.4819,0.1483,0.000000,0.579845,-0.562971,0.564505,-0.590583,0.575243,-0.561437
5.3675,0.016751,0.000000,-0.146172,0.146172,0.0000,0.0000,0.0000,-0.002349,-0.093573,0.095107,0.4311,0.4819,0.1483,0.000000,0.579845,-0.562971,0.564505,-0.590583,0.575243,-0.561437
5.3843,0.016752,0.000000,-0.160791,0.160791,0.0000,0.0000,0.0000,-0.002362,-0.118117,0.113515,0.3761,0.4986,0.0895,0.000000,0.578311,-0.562971,0.564505,-0.590583,0.575243,-0.561437
5.4010,0.016744,0.000000,-0.175403,0.175403,0.0000,0.0000,0.0000,-0.002361,-0.128854,0.122718,0.3818,0.4969,0.0956,0.000000,0.578311,-0.562971,0.564505,-0.590583,0.575243,-0.561437
5.4177,0.016738,0.000000,-0.190010,0.190010,0.0000,0.0000,0.0000,-0.002350,-0.136524,0.133456,0.3920,0.5478,0.0412,0.000000,0.578311,-0.562971,0.564505,-0.592117,0.575243,-0.561437
5.4345,0.016750,0.000000,-0.204627,0.204627,0.0000,0.0000,0.0000,-0.002362,-0.150330,0.147262,0.3802,0.4918,0.1006,0.000000,0.578311,-0.562971,0.564505,-0.590583,0.575243,-0.561437
5.4512,0.016751,0.000000,-0.219245,0.219245,0.0000,0.0000,0.0000,-0.002361,-0.176408,0.176408,0.3814,0.4976,0.0944,0.000000,0.578311,-0.562971,0.564505,-0.590583,0.575243,-0.561437
5.4680,0.016762,0.000000,-0.233872,0.233872,0.0000,0.0000,0.0000,-0.002361,-0.176408,0.176408,0.3814,0.4976,0.0944,0.000000,0.578311,-0.562971,0.564505,-0.590583,0.575243,-0.561437
5.4847,0.016745,0.000000,-0.248485,0.248485,0.0000,0.0000,0.0000,-0.002361,-0.199418,0.199418,0.3814,0.4976,0.0944,0.000000,0.578311,-0.562971,0.564505,-0.590583,0.575243,-0.561437
