t,loop_dt,cmd_z,cmd_ant_l,cmd_ant_r,cmd_roll,cmd_pitch,cmd_yaw,pres_z,pres_ant_l,pres_ant_r,pres_roll,pres_pitch,pres_yaw,pres_j0,pres_j1,pres_j2,pres_j3,pres_j4,pres_j5,pres_j6
0.0000,0.000001,0.000000,-0.349066,0.349066,0.0000,0.0000,0.0000,-0.002487,-0.164136,0.164136,0.4343,0.6817,0.2381,0.000000,0.572175,-0.561437,0.564505,-0.590583,0.575243,-0.552233
0.0168,0.016773,0.000000,-0.348773,0.348773,0.0000,0.0000,0.0000,-0.002474,-0.171806,0.170272,0.4741,0.6459,0.1856,0.000000,0.572175,-0.562971,0.564505,-0.590583,0.575243,-0.552233
0.0335,0.016762,0.000000,-0.348481,0.348481,0.0000,0.0000,0.0000,-0.002474,-0.171806,0.170272,0.4741,0.6459,0.1856,0.000000,0.572175,-0.562971,0.564505,-0.590583,0.575243,-0.552233
0.0503,0.016760,0.000000,-0.348188,0.348188,0.0000,0.0000,0.0000,-0.002488,-0.184078,0.182544,0.4308,0.6852,0.2442,0.000000,0.572175,-0.561437,0.564505,-0.590583,0.575243,-0.552233
0.0671,0.016755,0.000000,-0.347896,0.347896,0.0000,0.0000,0.0000,-0.002460,-0.239301,0.237767,0.4247,0.6278,0.1316,0.000000,0.572175,-0.562971,0.564505,-0.590583,0.575243,-0.553767
0.0838,0.016759,0.000000,-0.347603,0.347603,0.0000,0.0000,0.0000,-0.002452,-0.312932,0.312932,0.4358,0.6846,0.0896,0.000000,0.572175,-0.562971,0.564505,-0.592117,0.575243,-0.553767
0.1006,0.016754,0.000000,-0.347311,0.347311,0.0000,0.0000,0.0000,-0.002464,-0.371223,0.369689,0.4242,0.6279,0.1477,0.000000,0.572175,-0.562971,0.564505,-0.590583,0.575243,-0.553767
0.1173,0.016765,0.000000,-0.347018,0.347018,0.0000,0.0000,0.0000,-0.002464,-0.383495,0.377359,0.4242,0.6279,0.1477,0.000000,0.572175,-0.562971,0.564505,-0.592117,0.575243,-0.552233
0.1341,0.016759,0.000000,-0.346726,0.346726,0.0000,0.0000,0.0000,-0.002465,-0.383495,0.377359,0.4856,0.7023,0.1413,0.000000,0.572175,-0.562971,0.564505,-0.592117,0.575243,-0.552233
0.1508,0.016758,0.000000,-0.346433,0.346433,0.0000,0.0000,0.0000,-0.002464,-0.374291,0.371223,0.3904,0.7125,0.1417,0.000000,0.572175,-0.561437,0.564505,-0.592117,0.575243,-0.553767
0.1676,0.016759,0.000000,-0.346141,0.346141,0.0000,0.0000,0.0000,-0.002451,-0.358952,0.358952,0.4394,0.6758,0.0886,0.000000,0.572175,-0.562971,0.564505,-0.592117,0.575243,-0.553767
0.1844,0.016762,0.000000,-0.345848,0.345848,0.0000,0.0000,0.0000,-0.002464,-0.348214,0.352816,0.4238,0.6289,0.1478,0.000000,0.572175,-0.562971,0.564505,-0.590583,0.575243,-0.553767
0.2011,0.016762,0.000000,-0.345555,0.345555,0.0000,0.0000,0.0000,-0.002464,-0.348214,0.346680,0.4238,0.6289,0.1478,0.000000,0.573709,-0.562971,0.564505,-0.590583,0.575243,-0.553767
0.2178,0.016718,0.000000,-0.345264,0.345264,0.0000,0.0000,0.0000,-0.002451,-0.348214,0.346680,0.4754,0.6182,0.1954,0.000000,0.573709,-0.562971,0.564505,-0.590583,0.575243,-0.553767
0.2346,0.016751,0.000000,-0.344971,0.344971,0.0000,0.0000,0.0000,-0.002403,-0.351282,0.345146,0.4704,0.5529,0.1911,0.000000,0.576777,-0.562971,0.564505,-0.590583,0.575243,-0.556835
0.2513,0.016752,0.000000,-0.344679,0.344679,0.0000,0.0000,0.0000,-0.002383,-0.349748,0.345146,0.4320,0.5928,0.0844,0.000000,0.576777,-0.562971,0.564505,-0.592117,0.575243,-0.558369
0.2681,0.016754,0.000000,-0.344387,0.344387,0.0000,0.0000,0.0000,-0.002372,-0.348214,0.345146,0.4256,0.5047,0.1496,0.000000,0.578311,-0.562971,0.564505,-0.590583,0.575243,-0.559903
0.2849,0.016753,0.000000,-0.344094,0.344094,0.0000,0.0000,0.0000,-0.002361,-0.348214,0.343612,0.4369,0.5646,0.0891,0.000000,0.578311,-0.562971,0.564505,-0.592117,0.575243,-0.559903
0.3016,0.016764,0.000000,-0.343802,0.343802,0.0000,0.0000,0.0000,-0.002361,-0.348214,0.343612,0.4369,0.5646,0.0891,0.000000,0.578311,-0.562971,0.564505,-0.592117,0.575243,-0.559903
0.3184,0.016749,0.000000,-0.343509,0.343509,0.0000,0.0000,0.0000,-0.002349,-0.346680,0.343612,0.4253,0.4744,0.1494,0.000000,0.579845,-0.562971,0.564505,-0.590583,0.575243,-0.561437
0.3351,0.016749,0.000000,-0.343217,0.343217,0.0000,0.0000,0.0000,-0.002352,-0.346680,0.343612,0.3981,0.5701,0.1426,0.000000,0.579845,-0.561437,0.564505,-0.592117,0.575243,-0.561437
0.3519,0.016740,0.000000,-0.342925,0.342925,0.0000,0.0000,0.0000,-0.002339,-0.346680,0.343612,0.4401,0.5246,0.0901,0.000000,0.579845,-0.562971,0.564505,-0.592117,0.575243,-0.561437
0.3686,0.016750,0.000000,-0.342632,0.342632,0.0000,0.0000,0.0000,-0.002340,-0.348214,0.343612,0.4357,0.5293,0.0956,0.000000,0.579845,-0.562971,0.564505,-0.592117,0.575243,-0.561437
0.3854,0.016757,0.000000,-0.342340,0.342340,0.0000,0.0000,0.0000,-0.002340,-0.346680,0.343612,0.4357,0.5293,0.0956,0.000000,0.579845,-0.562971,0.564505,-0.592117,0.575243,-0.561437
0.4021,0.016758,0.000000,-0.342047,0.342047,0.0000,0.0000,0.0000,-0.002340,-0.346680,0.343612,0.4357,0.5293,0.0956,0.000000,0.579845,-0.562971,0.564505,-0.592117,0.575243,-0.561437
0.4189,0.016747,0.000000,-0.341755,0.341755,0.0000,0.0000,0.0000,-0.002340,-0.346680,0.343612,0.4357,0.5293,0.0956,0.000000,0.579845,-0.562971,0.564505,-0.592117,0.575243,-0.561437
0.4356,0.016749,0.000000,-0.341463,0.341463,0.0000,0.0000,0.0000,-0.002352,-0.346680,0.343612,0.4254,0.4781,0.1488,0.000000,0.579845,-0.562971,0.564505,-0.590583,0.575243,-0.561437
0.4524,0.016748,0.000000,-0.341171,0.341171,0.0000,0.0000,0.0000,-0.002350,-0.346680,0.343612,0.4265,0.4834,0.1432,0.000000,0.579845,-0.562971,0.564505,-0.590583,0.575243,-0.561437
0.4691,0.016762,0.000000,-0.340878,0.340878,0.0000,0.0000,0.0000,-0.002339,-0.346680,0.343612,0.4371,0.5336,0.0901,0.000000,0.579845,-0.562971,0.564505,-0.592117,0.575243,-0.561437
0.4861,0.016924,0.000000,-0.340583,0.340583,0.0000,0.0000,0.0000,-0.002340,-0.346680,0.343612,0.4360,0.5284,0.0956,0.000000,0.579845,-0.562971,0.564505,-0.592117,0.575243,-0.561437
0.5028,0.016755,0.000000,-0.340290,0.340290,0.0000,0.0000,0.0000,-0.002340,-0.346680,0.343612,0.4360,0.5284,0.0956,0.000000,0.579845,-0.562971,0.564505,-0.592117,0.575243,-0.561437
0.5196,0.016764,0.000000,-0.339998,0.339998,0.0000,0.0000,0.0000,-0.002340,-0.346680,0.343612,0.4360,0.5284,0.0956,0.000000,0.579845,-0.562971,0.564505,-0.592117,0.575243,-0.561437
0.5363,0.016759,0.000000,-0.339705,0.339705,0.0000,0.0000,0.0000,-0.002352,-0.346680,0.343612,0.4254,0.4782,0.1488,0.000000,0.579845,-0.562971,0.564505,-0.590583,0.575243,-0.561437
0.5531,0.016767,0.000000,-0.339412,0.339412,0.0000,0.0000,0.0000,-0.002339,-0.345146,0.343612,0.4373,0.5342,0.0895,0.000000,0.579845,-0.562971,0.564505,-0.592117,0.575243,-0.561437
0.5699,0.016836,0.000000,-0.339119,0.339119,0.0000,0.0000,0.0000,-0.002352,-0.345146,0.343612,0.4252,0.4776,0.1494,0.000000,0.579845,-0.562971,0.564505,-0.590583,0.575243,-0.561437
0.5871,0.017164,0.000000,-0.338819,0.338819,0.0000,0.0000,0.0000,-0.002350,-0.345146,0.343612,0.4265,0.4835,0.1432,0.000000,0.579845,-0.562971,0.564505,-0.590583,0.575243,-0.561437
0.6039,0.016784,0.000000,-0.338526,0.338526,0.0000,0.0000,0.0000,-0.002350,-0.345146,0.343612,0.4265,0.4835,0.1432,0.000000,0.579845,-0.562971,0.564505,-0.590583,0.575243,-0.561437
0.6206,0.016755,0.000000,-0.338234,0.338234,0.0000,0.0000,0.0000,-0.002350,-0.345146,0.343612,0.4265,0.4835,0.1432,0.000000,0.579845,-0.562971,0.564505,-0.590583,0.575243,-0.561437
0.6374,0.016763,0.000000,-0.337941,0.337941,0.0000,0.0000,0.0000,-0.002350,-0.345146,0.343612,0.4265,0.4835,0.1432,0.000000,0.579845,-0.562971,0.564505,-0.590583,0.575243,-0.561437
0.6543,0.016938,0.000000,-0.337645,0.337645,0.0000,0.0000,0.0000,-0.002363,-0.345146,0.343612,0.3872,0.5183,0.1970,0.000000,0.579845,-0.561437,0.564505,-0.590583,0.575243,-0.561437
0.6719,0.017581,0.000000,-0.337339,0.337339,0.0000,0.0000,0.0000,-0.002338,-0.345146,0.343612,0.4413,0.5300,0.0845,0.000000,0.579845,-0.562971,0.564505,-0.592117,0.575243,-0.561437
0.6887,0.016754,0.000000,-0.337046,0.337046,0.0000,0.0000,0.0000,-0.002340,-0.345146,0.342078,0.4356,0.5288,0.0962,0.000000,0.579845,-0.562971,0.564505,-0.592117,0.575243,-0.561437
0.7054,0.016769,0.000000,-0.336754,0.336754,0.0000,0.0000,0.0000,-0.002340,-0.345146,0.342078,0.4356,0.5288,0.0962,0.000000,0.579845,-0.562971,0.564505,-0.592117,0.575243,-0.561437
0.7222,0.016748,0.000000,-0.336461,0.336461,0.0000,0.0000,0.0000,-0.002340,-0.345146,0.343612,0.4356,0.5288,0.0962,0.000000,0.579845,-0.562971,0.564505,-0.592117,0.575243,-0.561437
0.7390,0.016770,0.000000,-0.336169,0.336169,0.0000,0.0000,0.0000,-0.002340,-0.345146,0.343612,0.4356,0.5288,0.0962,0.000000,0.579845,-0.562971,0.564505,-0.592117,0.575243,-0.561437
0.7557,0.016758,0.000000,-0.335876,0.335876,0.0000,0.0000,0.0000,-0.002352,-0.345146,0.343612,0.4254,0.4781,0.1487,0.000000,0.579845,-0.562971,0.564505,-0.590583,0.575243,-0.561437
0.7730,0.017239,0.000000,-0.335575,0.335575,0.0000,0.0000,0.0000,-0.002350,-0.345146,0.343612,0.4265,0.4834,0.1432,0.000000,0.579845,-0.562971,0.564505,-0.590583,0.575243,-0.561437
0.7897,0.016757,0.000000,-0.335283,0.335283,0.0000,0.0000,0.0000,-0.002363,-0.345146,0.342078,0.3872,0.5183,0.1970,0.000000,0.579845,-0.561437,0.564505,-0.590583,0.575243,-0.561437
0.8065,0.016777,0.000000,-0.334990,0.334990,0.0000,0.0000,0.0000,-0.002363,-0.345146,0.342078,0.3872,0.5183,0.1970,0.000000,0.579845,-0.562971,0.564505,-0.590583,0.575243,-0.561437
0.8232,0.016755,0.000000,-0.334697,0.334697,0.0000,0.0000,0.0000,-0.002349,-0.345146,0.342078,0.4305,0.4792,0.1382,0.000000,0.579845,-0.562971,0.564505,-0.590583,0.575243,-0.561437
0.8400,0.016768,0.000000,-0.334405,0.334405,0.0000,0.0000,0.0000,-0.002351,-0.345146,0.342078,0.4260,0.4833,0.1443,0.000000,0.579845,-0.562971,0.564505,-0.590583,0.575243,-0.561437
0.8568,0.016750,0.000000,-0.334112,0.334112,0.0000,0.0000,0.0000,-0.002351,-0.345146,0.342078,0.4260,0.4833,0.1443,0.000000,0.579845,-0.562971,0.564505,-0.590583,0.575243,-0.561437
0.8735,0.016765,0.000000,-0.333820,0.333820,0.0000,0.0000,0.0000,-0.002339,-0.345146,0.342078,0.4372,0.5337,0.0900,0.000000,0.579845,-0.562971,0.564505,-0.592117,0.575243,-0.561437
0.8903,0.016785,0.000000,-0.333527,0.333527,0.0000,0.0000,0.0000,-0.002352,-0.345146,0.342078,0.4253,0.4776,0.1494,0.000000,0.579845,-0.562971,0.564505,-0.590583,0.575243,-0.561437
0.9071,0.016765,0.000000,-0.333234,0.333234,0.0000,0.0000,0.0000,-0.002352,-0.345146,0.342078,0.4253,0.4776,0.1494,0.000000,0.579845,-0.562971,0.564505,-0.590583,0.575243,-0.561437
0.9238,0.016763,0.000000,-0.332942,0.332942,0.0000,0.0000,0.0000,-0.002339,-0.343612,0.342078,0.4373,0.5342,0.0894,0.000000,0.579845,-0.562971,0.564505,-0.592117,0.575243,-0.561437
0.9406,0.016762,0.000000,-0.332649,0.332649,0.0000,0.0000,0.0000,-0.002352,-0.343612,0.342078,0.4252,0.4776,0.1494,0.000000,0.579845,-0.562971,0.564505,-0.590583,0.575243,-0.561437
0.9574,0.016754,0.000000,-0.332357,0.332357,0.0000,0.0000,0.0000,-0.002350,-0.343612,0.342078,0.4265,0.4835,0.1432,0.000000,0.579845,-0.562971,0.564505,-0.590583,0.575243,-0.561437
0.9741,0.016759,0.000000,-0.332064,0.332064,0.0000,0.0000,0.0000,-0.002350,-0.343612,0.342078,0.4265,0.4835,0.1432,0.000000,0.579845,-0.562971,0.564505,-0.590583,0.575243,-0.561437
0.9909,0.016779,0.000000,-0.331771,0.331771,0.0000,0.0000,0.0000,-0.002350,-0.343612,0.342078,0.4265,0.4835,0.1432,0.000000,0.579845,-0.562971,0.564505,-0.590583,0.575243,-0.561437
1.0077,0.016771,0.000000,-0.331479,0.331479,0.0000,0.0000,0.0000,-0.002350,-0.343612,0.342078,0.4265,0.4835,0.1432,0.000000,0.579845,-0.562971,0.564505,-0.590583,0.575243,-0.561437
1.0244,0.016754,0.000000,-0.331186,0.331186,0.0000,0.0000,0.0000,-0.002339,-0.343612,0.340544,0.4371,0.5336,0.0901,0.000000,0.579845,-0.562971,0.564505,-0.592117,0.575243,-0.561437
1.0412,0.016763,0.000000,-0.330894,0.330894,0.0000,0.0000,0.0000,-0.002365,-0.343612,0.340544,0.4748,0.4953,0.2028,0.000000,0.579845,-0.562971,0.564505,-0.590583,0.575243,-0.559903
1.0579,0.016755,0.000000,-0.330601,0.330601,0.0000,0.0000,0.0000,-0.002338,-0.343612,0.337476,0.4321,0.5324,0.0839,0.000000,0.579845,-0.562971,0.564505,-0.592117,0.575243,-0.561437
1.0747,0.016755,0.000000,-0.330309,0.330309,0.0000,0.0000,0.0000,-0.002352,-0.343612,0.337476,0.4258,0.4778,0.1500,0.000000,0.579845,-0.562971,0.564505,-0.590583,0.575243,-0.561437
1.0915,0.016759,0.000000,-0.330016,0.330016,0.0000,0.0000,0.0000,-0.002350,-0.342078,0.337476,0.4265,0.4834,0.1431,0.000000,0.579845,-0.562971,0.564505,-0.590583,0.575243,-0.561437
1.1082,0.016756,0.000000,-0.329724,0.329724,0.0000,0.0000,0.0000,-0.002350,-0.342078,0.337476,0.4265,0.4834,0.1431,0.000000,0.579845,-0.562971,0.564505,-0.590583,0.575243,-0.561437
1.1250,0.016746,0.000000,-0.329432,0.329432,0.0000,0.0000,0.0000,-0.002350,-0.340544,0.335942,0.4265,0.4834,0.1431,0.000000,0.579845,-0.562971,0.564505,-0.590583,0.575243,-0.561437
1.1417,0.016750,0.000000,-0.329139,0.329139,0.0000,0.0000,0.0000,-0.002350,-0.340544,0.335942,0.4265,0.4834,0.1431,0.000000,0.579845,-0.562971,0.564505,-0.590583,0.575243,-0.561437
1.1585,0.016748,0.000000,-0.328847,0.328847,0.0000,0.0000,0.0000,-0.002339,-0.340544,0.335942,0.4372,0.5336,0.0901,0.000000,0.579845,-0.562971,0.564505,-0.592117,0.575243,-0.561437
1.1752,0.016757,0.000000,-0.328555,0.328555,0.0000,0.0000,0.0000,-0.002352,-0.340544,0.335942,0.4253,0.4776,0.1493,0.000000,0.579845,-0.562971,0.564505,-0.590583,0.575243,-0.561437
1.1920,0.016754,0.000000,-0.328262,0.328262,0.0000,0.0000,0.0000,-0.002339,-0.340544,0.335942,0.4373,0.5342,0.0894,0.000000,0.579845,-0.562971,0.564505,-0.592117,0.575243,-0.561437
1.2087,0.016764,0.000000,-0.327970,0.327970,0.0000,0.0000,0.0000,-0.002339,-0.340544,0.335942,0.4373,0.5342,0.0894,0.000000,0.579845,-0.562971,0.564505,-0.592117,0.575243,-0.561437
1.2255,0.016755,0.000000,-0.327677,0.327677,0.0000,0.0000,0.0000,-0.002340,-0.340544,0.335942,0.4360,0.5283,0.0957,0.000000,0.579845,-0.562971,0.564505,-0.592117,0.575243,-0.561437
1.2423,0.016811,0.000000,-0.327384,0.327384,0.0000,0.0000,0.0000,-0.002340,-0.340544,0.335942,0.4360,0.5283,0.0957,0.000000,0.579845,-0.562971,0.564505,-0.592117,0.575243,-0.561437
1.2590,0.016747,0.000000,-0.327091,0.327091,0.0000,0.0000,0.0000,-0.002352,-0.340544,0.337476,0.4254,0.4782,0.1488,0.000000,0.579845,-0.562971,0.564505,-0.590583,0.575243,-0.561437
1.2758,0.016766,0.000000,-0.326799,0.326799,0.0000,0.0000,0.0000,-0.002352,-0.340544,0.337476,0.4254,0.4782,0.1488,0.000000,0.579845,-0.562971,0.564505,-0.590583,0.575243,-0.561437
1.2926,0.016745,0.000000,-0.326507,0.326507,0.0000,0.0000,0.0000,-0.002363,-0.340544,0.335942,0.3873,0.5189,0.1964,0.000000,0.579845,-0.561437,0.564505,-0.590583,0.575243,-0.561437
1.3093,0.016759,0.000000,-0.326214,0.326214,0.0000,0.0000,0.0000,-0.002349,-0.340544,0.335942,0.4305,0.4791,0.1383,0.000000,0.579845,-0.562971,0.564505,-0.590583,0.575243,-0.561437
1.3261,0.016748,0.000000,-0.325922,0.325922,0.0000,0.0000,0.0000,-0.002351,-0.340544,0.335942,0.4260,0.4833,0.1443,0.000000,0.579845,-0.562971,0.564505,-0.590583,0.575243,-0.561437
1.3428,0.016763,0.000000,-0.325629,0.325629,0.0000,0.0000,0.0000,-0.002339,-0.340544,0.335942,0.4372,0.5337,0.0900,0.000000,0.579845,-0.562971,0.564505,-0.592117,0.575243,-0.561437
1.3596,0.016750,0.000000,-0.325337,0.325337,0.0000,0.0000,0.0000,-0.002340,-0.340544,0.335942,0.4360,0.5284,0.0956,0.000000,0.579845,-0.562971,0.564505,-0.592117,0.575243,-0.561437
1.3763,0.016764,0.000000,-0.325044,0.325044,0.0000,0.0000,0.0000,-0.002353,-0.340544,0.335942,0.3970,0.5645,0.1482,0.000000,0.579845,-0.561437,0.564505,-0.592117,0.575243,-0.561437
1.3931,0.016749,0.000000,-0.324752,0.324752,0.0000,0.0000,0.0000,-0.002353,-0.340544,0.335942,0.3970,0.5645,0.1482,0.000000,0.579845,-0.561437,0.564505,-0.592117,0.575243,-0.561437
1.4098,0.016757,0.000000,-0.324459,0.324459,0.0000,0.0000,0.0000,-0.002339,-0.340544,0.337476,0.4403,0.5252,0.0896,0.000000,0.579845,-0.562971,0.564505,-0.592117,0.575243,-0.561437
1.4266,0.016746,0.000000,-0.324167,0.324167,0.0000,0.0000,0.0000,-0.002352,-0.340544,0.335942,0.4249,0.4785,0.1494,0.000000,0.579845,-0.562971,0.564505,-0.590583,0.575243,-0.561437
1.4433,0.016757,0.000000,-0.323875,0.323875,0.0000,0.0000,0.0000,-0.002350,-0.340544,0.337476,0.4265,0.4834,0.1432,0.000000,0.579845,-0.562971,0.564505,-0.590583,0.575243,-0.561437
1.4601,0.016746,0.000000,-0.323582,0.323582,0.0000,0.0000,0.0000,-0.002350,-0.340544,0.335942,0.4265,0.4834,0.1432,0.000000,0.579845,-0.562971,0.564505,-0.590583,0.575243,-0.561437
1.4769,0.016766,0.000000,-0.323290,0.323290,0.0000,0.0000,0.0000,-0.002350,-0.340544,0.335942,0.4265,0.4834,0.1432,0.000000,0.579845,-0.562971,0.564505,-0.590583,0.575243,-0.561437
1.4936,0.016747,0.000000,-0.322998,0.322998,0.0000,0.0000,0.0000,-0.002350,-0.340544,0.335942,0.4265,0.4834,0.1432,0.000000,0.579845,-0.562971,0.564505,-0.590583,0.575243,-0.561437
1.5104,0.016756,0.000000,-0.322705,0.322705,0.0000,0.0000,0.0000,-0.002339,-0.340544,0.335942,0.4371,0.5336,0.0901,0.000000,0.579845,-0.562971,0.564505,-0.592117,0.575243,-0.561437
1.5271,0.016759,0.000000,-0.322413,0.322413,0.0000,0.0000,0.0000,-0.002340,-0.340544,0.337476,0.4360,0.5284,0.0956,0.000000,0.579845,-0.562971,0.564505,-0.592117,0.575243,-0.561437
1.5441,0.016971,0.000000,-0.322116,0.322116,0.0000,0.0000,0.0000,-0.002365,-0.340544,0.337476,0.4749,0.4958,0.2022,0.000000,0.579845,-0.562971,0.564505,-0.590583,0.575243,-0.559903
1.5609,0.016783,0.000000,-0.321823,0.321823,0.0000,0.0000,0.0000,-0.002338,-0.340544,0.335942,0.4321,0.5323,0.0839,0.000000,0.579845,-0.562971,0.564505,-0.592117,0.575243,-0.561437
1.5776,0.016759,0.000000,-0.321531,0.321531,0.0000,0.0000,0.0000,-0.002352,-0.340544,0.337476,0.4258,0.4778,0.1500,0.000000,0.579845,-0.562971,0.564505,-0.590583,0.575243,-0.561437
1.5945,0.016846,0.000000,-0.321237,0.321237,0.0000,0.0000,0.0000,-0.002352,-0.340544,0.337476,0.4258,0.4778,0.1500,0.000000,0.579845,-0.562971,0.564505,-0.590583,0.575243,-0.561437
1.6112,0.016750,0.000000,-0.320945,0.320945,0.0000,0.0000,0.0000,-0.002350,-0.340544,0.337476,0.4265,0.4834,0.1431,0.000000,0.579845,-0.562971,0.564505,-0.590583,0.575243,-0.561437
1.6280,0.016752,0.000000,-0.320652,0.320652,0.0000,0.0000,0.0000,-0.002363,-0.340544,0.335942,0.3872,0.5183,0.1970,0.000000,0.579845,-0.561437,0.564505,-0.590583,0.575243,-0.561437
1.6447,0.016756,0.000000,-0.320360,0.320360,0.0000,0.0000,0.0000,-0.002338,-0.340544,0.335942,0.4413,0.5300,0.0845,0.000000,0.579845,-0.562971,0.564505,-0.592117,0.575243,-0.561437
1.6615,0.016751,0.000000,-0.320067,0.320067,0.0000,0.0000,0.0000,-0.002340,-0.340544,0.335942,0.4356,0.5288,0.0962,0.000000,0.579845,-0.562971,0.564505,-0.592117,0.575243,-0.561437
1.6782,0.016754,0.000000,-0.319775,0.319775,0.0000,0.0000,0.0000,-0.002352,-0.339010,0.337476,0.4254,0.4781,0.1487,0.000000,0.579845,-0.562971,0.564505,-0.590583,0.575243,-0.561437
1.6950,0.016751,0.000000,-0.319483,0.319483,0.0000,0.0000,0.0000,-0.002352,-0.339010,0.337476,0.4254,0.4781,0.1487,0.000000,0.579845,-0.562971,0.564505,-0.590583,0.575243,-0.561437
1.7117,0.016752,0.000000,-0.319190,0.319190,0.0000,0.0000,0.0000,-0.002339,-0.339010,0.335942,0.4373,0.5342,0.0895,0.000000,0.579845,-0.562971,0.564505,-0.592117,0.575243,-0.561437
1.7285,0.016757,0.000000,-0.318898,0.318898,0.0000,0.0000,0.0000,-0.002352,-0.334408,0.335942,0.4252,0.4776,0.1494,0.000000,0.579845,-0.562971,0.564505,-0.590583,0.575243,-0.561437
1.7453,0.016757,0.000000,-0.318605,0.318605,0.0000,0.0000,0.0000,-0.002339,-0.326738,0.335942,0.4373,0.5343,0.0894,0.000000,0.579845,-0.562971,0.564505,-0.592117,0.575243,-0.561437
1.7620,0.016755,0.000000,-0.318313,0.318313,0.0000,0.0000,0.0000,-0.002365,-0.322136,0.335942,0.4748,0.4952,0.2029,0.000000,0.579845,-0.562971,0.564505,-0.590583,0.575243,-0.559903
1.7788,0.016769,0.000000,-0.318020,0.318020,0.0000,0.0000,0.0000,-0.002365,-0.320602,0.334408,0.4748,0.4952,0.2029,0.000000,0.579845,-0.562971,0.564505,-0.592117,0.575243,-0.561437
1.7955,0.016752,0.000000,-0.317728,0.317728,0.0000,0.0000,0.0000,-0.002338,-0.320602,0.334408,0.4321,0.5324,0.0839,0.000000,0.579845,-0.562971,0.564505,-0.592117,0.575243,-0.561437
1.8123,0.016722,0.000000,-0.317436,0.317436,0.0000,0.0000,0.0000,-0.002340,-0.320602,0.332874,0.4366,0.5285,0.0963,0.000000,0.579845,-0.562971,0.564505,-0.592117,0.575243,-0.561437
1.8290,0.016755,0.000000,-0.317144,0.317144,0.0000,0.0000,0.0000,-0.002340,-0.320602,0.332874,0.4360,0.5291,0.0945,0.000000,0.579845,-0.562971,0.564505,-0.592117,0.575243,-0.561437
1.8458,0.016762,0.000000,-0.316851,0.316851,0.0000,0.0000,0.0000,-0.002352,-0.320602,0.329806,0.4254,0.4781,0.1489,0.000000,0.579845,-0.562971,0.564505,-0.590583,0.575243,-0.561437
1.8627,0.016917,0.000000,-0.316556,0.316556,0.0000,0.0000,0.0000,-0.002339,-0.320602,0.326738,0.4373,0.5342,0.0895,0.000000,0.579845,-0.562971,0.564505,-0.592117,0.575243,-0.561437
1.8795,0.016770,0.000000,-0.316263,0.316263,0.0000,0.0000,0.0000,-0.002339,-0.320602,0.326738,0.4373,0.5342,0.0895,0.000000,0.579845,-0.562971,0.564505,-0.592117,0.575243,-0.561437
1.8962,0.016754,0.000000,-0.315971,0.315971,0.0000,0.0000,0.0000,-0.002352,-0.319068,0.322136,0.4252,0.4776,0.1494,0.000000,0.579845,-0.562971,0.564505,-0.590583,0.575243,-0.561437
1.9130,0.016756,0.000000,-0.315678,0.315678,0.0000,0.0000,0.0000,-0.002339,-0.320602,0.319068,0.4373,0.5343,0.0894,0.000000,0.579845,-0.562971,0.564505,-0.592117,0.575243,-0.561437
1.9297,0.016751,0.000000,-0.315386,0.315386,0.0000,0.0000,0.0000,-0.002352,-0.319068,0.317534,0.4252,0.4776,0.1494,0.000000,0.579845,-0.562971,0.564505,-0.590583,0.575243,-0.561437
1.9466,0.016834,0.000000,-0.315092,0.315092,0.0000,0.0000,0.0000,-0.002350,-0.319068,0.316000,0.4265,0.4835,0.1432,0.000000,0.579845,-0.562971,0.564505,-0.590583,0.575243,-0.561437
1.9633,0.016763,0.000000,-0.314799,0.314799,0.0000,0.0000,0.0000,-0.002364,-0.319068,0.316000,0.4759,0.5005,0.1973,0.000000,0.579845,-0.562971,0.564505,-0.590583,0.575243,-0.559903
1.9801,0.016779,0.000000,-0.314507,0.314507,0.0000,0.0000,0.0000,-0.002364,-0.319068,0.316000,0.4759,0.5005,0.1973,0.000000,0.579845,-0.562971,0.564505,-0.590583,0.575243,-0.559903
1.9969,0.016773,0.000000,-0.314214,0.314214,0.0000,0.0000,0.0000,-0.002349,-0.319068,0.316000,0.4212,0.4810,0.1382,0.000000,0.579845,-0.562971,0.564505,-0.590583,0.575243,-0.561437
2.0136,0.016752,0.000000,-0.313922,0.313922,0.0000,0.0000,0.0000,-0.002351,-0.317534,0.316000,0.4269,0.4831,0.1443,0.000000,0.579845,-0.562971,0.564505,-0.590583,0.575243,-0.561437
2.0304,0.016749,0.000000,-0.313629,0.313629,0.0000,0.0000,0.0000,-0.002351,-0.317534,0.316000,0.4269,0.4831,0.1443,0.000000,0.579845,-0.562971,0.564505,-0.590583,0.575243,-0.561437
2.0471,0.016760,0.000000,-0.313337,0.313337,0.0000,0.0000,0.0000,-0.002339,-0.317534,0.316000,0.4371,0.5337,0.0900,0.000000,0.579845,-0.562971,0.564505,-0.592117,0.575243,-0.561437
2.0643,0.017198,0.000000,-0.313037,0.313037,0.0000,0.0000,0.0000,-0.002352,-0.317534,0.316000,0.4253,0.4776,0.1494,0.000000,0.579845,-0.562971,0.564505,-0.590583,0.575243,-0.561437
2.0811,0.016775,0.000000,-0.312744,0.312744,0.0000,0.0000,0.0000,-0.002352,-0.317534,0.316000,0.4253,0.4776,0.1494,0.000000,0.579845,-0.562971,0.564505,-0.590583,0.575243,-0.561437
2.0979,0.016754,0.000000,-0.312451,0.312451,0.0000,0.0000,0.0000,-0.002363,-0.317534,0.316000,0.3873,0.5189,0.1964,0.000000,0.579845,-0.561437,0.564505,-0.590583,0.575243,-0.561437
2.1146,0.016760,0.000000,-0.312159,0.312159,0.0000,0.0000,0.0000,-0.002351,-0.317534,0.316000,0.4020,0.5655,0.1377,0.000000,0.579845,-0.561437,0.564505,-0.592117,0.575243,-0.561437
2.1314,0.016762,0.000000,-0.311866,0.311866,0.0000,0.0000,0.0000,-0.002350,-0.317534,0.316000,0.4289,0.4743,0.1444,0.000000,0.579845,-0.562971,0.564505,-0.590583,0.575243,-0.561437
2.1481,0.016759,0.000000,-0.311574,0.311574,0.0000,0.0000,0.0000,-0.002339,-0.317534,0.316000,0.4369,0.5346,0.0900,0.000000,0.579845,-0.562971,0.564505,-0.592117,0.575243,-0.561437
2.1649,0.016751,0.000000,-0.311281,0.311281,0.0000,0.0000,0.0000,-0.002352,-0.317534,0.316000,0.4253,0.4775,0.1494,0.000000,0.579845,-0.562971,0.564505,-0.590583,0.575243,-0.561437
2.1817,0.016765,0.000000,-0.310989,0.310989,0.0000,0.0000,0.0000,-0.002352,-0.317534,0.316000,0.4253,0.4775,0.1494,0.000000,0.579845,-0.562971,0.564505,-0.590583,0.575243,-0.561437
2.1984,0.016759,0.000000,-0.310696,0.310696,0.0000,0.0000,0.0000,-0.002352,-0.317534,0.316000,0.3981,0.5698,0.1426,0.000000,0.579845,-0.561437,0.564505,-0.592117,0.575243,-0.561437
2.2152,0.016760,0.000000,-0.310404,0.310404,0.0000,0.0000,0.0000,-0.002363,-0.317534,0.316000,0.3901,0.5094,0.1971,0.000000,0.579845,-0.561437,0.564505,-0.590583,0.575243,-0.561437
2.2319,0.016752,0.000000,-0.310111,0.310111,0.0000,0.0000,0.0000,-0.002338,-0.317534,0.316000,0.4410,0.5310,0.0845,0.000000,0.579845,-0.562971,0.564505,-0.592117,0.575243,-0.561437
2.2487,0.016759,0.000000,-0.309819,0.309819,0.0000,0.0000,0.0000,-0.002340,-0.317534,0.316000,0.4356,0.5287,0.0962,0.000000,0.579845,-0.562971,0.564505,-0.592117,0.575243,-0.561437
2.2654,0.016750,0.000000,-0.309527,0.309527,0.0000,0.0000,0.0000,-0.002352,-0.317534,0.314466,0.4254,0.4781,0.1487,0.000000,0.579845,-0.562971,0.564505,-0.590583,0.575243,-0.561437
2.2822,0.016754,0.000000,-0.309234,0.309234,0.0000,0.0000,0.0000,-0.002352,-0.317534,0.314466,0.4254,0.4781,0.1487,0.000000,0.579845,-0.562971,0.564505,-0.590583,0.575243,-0.561437
2.2989,0.016752,0.000000,-0.308942,0.308942,0.0000,0.0000,0.0000,-0.002350,-0.317534,0.314466,0.4265,0.4834,0.1432,0.000000,0.579845,-0.562971,0.564505,-0.590583,0.575243,-0.561437
2.3157,0.016755,0.000000,-0.308649,0.308649,0.0000,0.0000,0.0000,-0.002339,-0.317534,0.314466,0.4371,0.5336,0.0901,0.000000,0.579845,-0.562971,0.564505,-0.592117,0.575243,-0.561437
2.3325,0.016756,0.000000,-0.308357,0.308357,0.0000,0.0000,0.0000,-0.002353,-0.317534,0.314466,0.4856,0.5460,0.1491,0.000000,0.579845,-0.562971,0.564505,-0.592117,0.575243,-0.559903
2.3492,0.016754,0.000000,-0.308064,0.308064,0.0000,0.0000,0.0000,-0.002350,-0.317534,0.314466,0.4202,0.4763,0.1432,0.000000,0.579845,-0.562971,0.564505,-0.590583,0.575243,-0.561437
2.3660,0.016765,0.000000,-0.307772,0.307772,0.0000,0.0000,0.0000,-0.002351,-0.317534,0.314466,0.4270,0.4836,0.1438,0.000000,0.579845,-0.562971,0.564505,-0.590583,0.575243,-0.561437
2.3827,0.016752,0.000000,-0.307479,0.307479,0.0000,0.0000,0.0000,-0.002351,-0.317534,0.314466,0.4270,0.4836,0.1438,0.000000,0.579845,-0.562971,0.564505,-0.590583,0.575243,-0.561437
2.3995,0.016753,0.000000,-0.307187,0.307187,0.0000,0.0000,0.0000,-0.002351,-0.317534,0.314466,0.4270,0.4836,0.1438,0.000000,0.579845,-0.562971,0.564505,-0.590583,0.575243,-0.561437
2.4162,0.016756,0.000000,-0.306895,0.306895,0.0000,0.0000,0.0000,-0.002351,-0.317534,0.314466,0.4270,0.4836,0.1438,0.000000,0.579845,-0.562971,0.564505,-0.590583,0.575243,-0.561437
2.4330,0.016758,0.000000,-0.306602,0.306602,0.0000,0.0000,0.0000,-0.002339,-0.317534,0.314466,0.4371,0.5336,0.0900,0.000000,0.579845,-0.562971,0.564505,-0.592117,0.575243,-0.561437
2.4498,0.016769,0.000000,-0.306310,0.306310,0.0000,0.0000,0.0000,-0.002340,-0.317534,0.314466,0.4361,0.5284,0.0956,0.000000,0.579845,-0.562971,0.564505,-0.592117,0.575243,-0.561437
2.4665,0.016789,0.000000,-0.306016,0.306016,0.0000,0.0000,0.0000,-0.002340,-0.317534,0.314466,0.4361,0.5284,0.0956,0.000000,0.579845,-0.562971,0.564505,-0.592117,0.575243,-0.561437
2.4833,0.016755,0.000000,-0.305724,0.305724,0.0000,0.0000,0.0000,-0.002353,-0.317534,0.314466,0.3970,0.5645,0.1482,0.000000,0.579845,-0.561437,0.564505,-0.592117,0.575243,-0.561437
2.5001,0.016753,0.000000,-0.305432,0.305432,0.0000,0.0000,0.0000,-0.002350,-0.317534,0.314466,0.4295,0.4744,0.1433,0.000000,0.579845,-0.562971,0.564505,-0.590583,0.575243,-0.561437
2.5168,0.016768,0.000000,-0.305139,0.305139,0.0000,0.0000,0.0000,-0.002339,-0.316000,0.314466,0.4368,0.5346,0.0901,0.000000,0.579845,-0.562971,0.564505,-0.592117,0.575243,-0.561437
2.5336,0.016769,0.000000,-0.304846,0.304846,0.0000,0.0000,0.0000,-0.002352,-0.314466,0.312932,0.4253,0.4775,0.1493,0.000000,0.579845,-0.562971,0.564505,-0.590583,0.575243,-0.561437
2.5506,0.017035,0.000000,-0.304549,0.304549,0.0000,0.0000,0.0000,-0.002339,-0.314466,0.312932,0.4373,0.5343,0.0894,0.000000,0.579845,-0.562971,0.564505,-0.592117,0.575243,-0.561437
2.5674,0.016759,0.000000,-0.304257,0.304257,0.0000,0.0000,0.0000,-0.002339,-0.314466,0.312932,0.4373,0.5343,0.0894,0.000000,0.579845,-0.562971,0.564505,-0.592117,0.575243,-0.561437
2.5841,0.016761,0.000000,-0.303964,0.303964,0.0000,0.0000,0.0000,-0.002352,-0.314466,0.312932,0.4252,0.4776,0.1494,0.000000,0.579845,-0.562971,0.564505,-0.590583,0.575243,-0.561437
2.6009,0.016754,0.000000,-0.303672,0.303672,0.0000,0.0000,0.0000,-0.002350,-0.314466,0.312932,0.4265,0.4835,0.1432,0.000000,0.579845,-0.562971,0.564505,-0.590583,0.575243,-0.561437
2.6177,0.016766,0.000000,-0.303379,0.303379,0.0000,0.0000,0.0000,-0.002339,-0.312932,0.312932,0.4371,0.5336,0.0901,0.000000,0.579845,-0.562971,0.564505,-0.592117,0.575243,-0.561437
2.6344,0.016755,0.000000,-0.303087,0.303087,0.0000,0.0000,0.0000,-0.002352,-0.312932,0.312932,0.4253,0.4776,0.1493,0.000000,0.579845,-0.562971,0.564505,-0.590583,0.575243,-0.561437
2.6512,0.016784,0.000000,-0.302794,0.302794,0.0000,0.0000,0.0000,-0.002339,-0.312932,0.312932,0.4373,0.5342,0.0894,0.000000,0.579845,-0.562971,0.564505,-0.592117,0.575243,-0.561437
2.6680,0.016825,0.000000,-0.302500,0.302500,0.0000,0.0000,0.0000,-0.002339,-0.312932,0.312932,0.4373,0.5342,0.0894,0.000000,0.579845,-0.562971,0.564505,-0.592117,0.575243,-0.561437
2.6848,0.016767,0.000000,-0.302207,0.302207,0.0000,0.0000,0.0000,-0.002352,-0.312932,0.312932,0.4252,0.4776,0.1494,0.000000,0.579845,-0.562971,0.564505,-0.590583,0.575243,-0.561437
2.7015,0.016751,0.000000,-0.301915,0.301915,0.0000,0.0000,0.0000,-0.002339,-0.312932,0.311398,0.4373,0.5343,0.0894,0.000000,0.579845,-0.562971,0.564505,-0.592117,0.575243,-0.561437
2.7183,0.016769,0.000000,-0.301622,0.301622,0.0000,0.0000,0.0000,-0.002340,-0.312932,0.311398,0.4360,0.5283,0.0957,0.000000,0.579845,-0.562971,0.564505,-0.592117,0.575243,-0.561437
2.7351,0.016753,0.000000,-0.301330,0.301330,0.0000,0.0000,0.0000,-0.002340,-0.312932,0.311398,0.4360,0.5283,0.0957,0.000000,0.579845,-0.562971,0.564505,-0.592117,0.575243,-0.561437
2.7519,0.016806,0.000000,-0.301037,0.301037,0.0000,0.0000,0.0000,-0.002352,-0.312932,0.311398,0.4254,0.4782,0.1488,0.000000,0.579845,-0.562971,0.564505,-0.590583,0.575243,-0.561437
2.7686,0.016758,0.000000,-0.300744,0.300744,0.0000,0.0000,0.0000,-0.002352,-0.312932,0.311398,0.4254,0.4782,0.1488,0.000000,0.579845,-0.562971,0.564505,-0.590583,0.575243,-0.561437
2.7854,0.016758,0.000000,-0.300452,0.300452,0.0000,0.0000,0.0000,-0.002350,-0.312932,0.311398,0.4265,0.4834,0.1432,0.000000,0.579845,-0.562971,0.564505,-0.590583,0.575243,-0.561437
2.8022,0.016759,0.000000,-0.300159,0.300159,0.0000,0.0000,0.0000,-0.002350,-0.312932,0.311398,0.4265,0.4834,0.1432,0.000000,0.579845,-0.562971,0.564505,-0.590583,0.575243,-0.561437
2.8189,0.016768,0.000000,-0.299866,0.299866,0.0000,0.0000,0.0000,-0.002350,-0.312932,0.311398,0.4265,0.4834,0.1432,0.000000,0.579845,-0.562971,0.564505,-0.590583,0.575243,-0.561437
2.8357,0.016758,0.000000,-0.299574,0.299574,0.0000,0.0000,0.0000,-0.002339,-0.312932,0.309864,0.4371,0.5336,0.0901,0.000000,0.579845,-0.562971,0.564505,-0.592117,0.575243,-0.561437
2.8525,0.016787,0.000000,-0.299281,0.299281,0.0000,0.0000,0.0000,-0.002339,-0.312932,0.309864,0.4371,0.5336,0.0901,0.000000,0.579845,-0.562971,0.564505,-0.592117,0.575243,-0.561437
2.8692,0.016761,0.000000,-0.298988,0.298988,0.0000,0.0000,0.0000,-0.002340,-0.312932,0.309864,0.4360,0.5284,0.0956,0.000000,0.579845,-0.562971,0.564505,-0.592117,0.575243,-0.561437
2.8860,0.016760,0.000000,-0.298696,0.298696,0.0000,0.0000,0.0000,-0.002364,-0.312932,0.309864,0.3862,0.5137,0.2020,0.000000,0.579845,-0.561437,0.564505,-0.590583,0.575243,-0.561437
2.9028,0.016799,0.000000,-0.298403,0.298403,0.0000,0.0000,0.0000,-0.002349,-0.312932,0.309864,0.4306,0.4797,0.1377,0.000000,0.579845,-0.562971,0.564505,-0.590583,0.575243,-0.561437
2.9195,0.016755,0.000000,-0.298110,0.298110,0.0000,0.0000,0.0000,-0.002339,-0.312932,0.309864,0.4367,0.5340,0.0907,0.000000,0.579845,-0.562971,0.564505,-0.592117,0.575243,-0.561437
2.9363,0.016755,0.000000,-0.297818,0.297818,0.0000,0.0000,0.0000,-0.002339,-0.312932,0.309864,0.4367,0.5340,0.0907,0.000000,0.579845,-0.562971,0.564505,-0.592117,0.575243,-0.561437
2.9531,0.016761,0.000000,-0.297525,0.297525,0.0000,0.0000,0.0000,-0.002340,-0.312932,0.309864,0.4361,0.5284,0.0956,0.000000,0.579845,-0.562971,0.564505,-0.592117,0.575243,-0.561437
2.9698,0.016763,0.000000,-0.297233,0.297233,0.0000,0.0000,0.0000,-0.002340,-0.312932,0.309864,0.4361,0.5284,0.0956,0.000000,0.579845,-0.562971,0.564505,-0.592117,0.575243,-0.561437
2.9866,0.016738,0.000000,-0.296941,0.296941,0.0000,0.0000,0.0000,-0.002340,-0.312932,0.309864,0.4361,0.5284,0.0956,0.000000,0.579845,-0.562971,0.564505,-0.592117,0.575243,-0.561437
3.0034,0.016803,0.000000,-0.296647,0.296647,0.0000,0.0000,0.0000,-0.002340,-0.312932,0.309864,0.4361,0.5284,0.0956,0.000000,0.579845,-0.562971,0.564505,-0.592117,0.575243,-0.561437
3.0201,0.016747,0.000000,-0.296355,0.296355,0.0000,0.0000,0.0000,-0.002353,-0.312932,0.309864,0.3970,0.5645,0.1482,0.000000,0.579845,-0.561437,0.564505,-0.592117,0.575243,-0.561437
3.0369,0.016771,0.000000,-0.296062,0.296062,0.0000,0.0000,0.0000,-0.002353,-0.312932,0.309864,0.3970,0.5645,0.1482,0.000000,0.579845,-0.562971,0.564505,-0.590583,0.575243,-0.561437
3.0536,0.016753,0.000000,-0.295770,0.295770,0.0000,0.0000,0.0000,-0.002350,-0.312932,0.309864,0.4295,0.4744,0.1433,0.000000,0.579845,-0.562971,0.564505,-0.590583,0.575243,-0.561437
3.0704,0.016775,0.000000,-0.295477,0.295477,0.0000,0.0000,0.0000,-0.002351,-0.312932,0.309864,0.4261,0.4838,0.1438,0.000000,0.579845,-0.562971,0.564505,-0.590583,0.575243,-0.561437
3.0872,0.016762,0.000000,-0.295185,0.295185,0.0000,0.0000,0.0000,-0.002339,-0.312932,0.309864,0.4372,0.5336,0.0900,0.000000,0.579845,-0.562971,0.564505,-0.592117,0.575243,-0.561437
3.1040,0.016809,0.000000,-0.294891,0.294891,0.0000,0.0000,0.0000,-0.002353,-0.312932,0.309864,0.3968,0.5639,0.1488,0.000000,0.579845,-0.561437,0.564505,-0.592117,0.575243,-0.561437
3.1207,0.016767,0.000000,-0.294599,0.294599,0.0000,0.0000,0.0000,-0.002350,-0.312932,0.309864,0.4295,0.4745,0.1432,0.000000,0.579845,-0.562971,0.564505,-0.590583,0.575243,-0.561437
3.1375,0.016763,0.000000,-0.294306,0.294306,0.0000,0.0000,0.0000,-0.002350,-0.312932,0.309864,0.4295,0.4745,0.1432,0.000000,0.579845,-0.562971,0.564505,-0.590583,0.575243,-0.561437
3.1543,0.016751,0.000000,-0.294014,0.294014,0.0000,0.0000,0.0000,-0.002351,-0.312932,0.309864,0.4261,0.4838,0.1438,0.000000,0.579845,-0.562971,0.564505,-0.590583,0.575243,-0.561437
3.1710,0.016766,0.000000,-0.293721,0.293721,0.0000,0.0000,0.0000,-0.002364,-0.312932,0.309864,0.4760,0.5004,0.1972,0.000000,0.579845,-0.562971,0.564505,-0.590583,0.575243,-0.559903
3.1878,0.016757,0.000000,-0.293429,0.293429,0.0000,0.0000,0.0000,-0.002349,-0.312932,0.309864,0.4212,0.4810,0.1382,0.000000,0.579845,-0.562971,0.564505,-0.590583,0.575243,-0.561437
3.2045,0.016764,0.000000,-0.293136,0.293136,0.0000,0.0000,0.0000,-0.002351,-0.312932,0.308330,0.4269,0.4831,0.1443,0.000000,0.579845,-0.562971,0.564505,-0.590583,0.575243,-0.561437
3.2213,0.016758,0.000000,-0.292844,0.292844,0.0000,0.0000,0.0000,-0.002351,-0.311398,0.308330,0.4269,0.4831,0.1443,0.000000,0.579845,-0.562971,0.564505,-0.590583,0.575243,-0.561437
3.2381,0.016768,0.000000,-0.292551,0.292551,0.0000,0.0000,0.0000,-0.002351,-0.311398,0.308330,0.4269,0.4831,0.1443,0.000000,0.579845,-0.562971,0.564505,-0.590583,0.575243,-0.561437
3.2548,0.016751,0.000000,-0.292259,0.292259,0.0000,0.0000,0.0000,-0.002339,-0.311398,0.308330,0.4371,0.5337,0.0900,0.000000,0.579845,-0.562971,0.564505,-0.592117,0.575243,-0.561437
3.2716,0.016760,0.000000,-0.291966,0.291966,0.0000,0.0000,0.0000,-0.002352,-0.311398,0.309864,0.4253,0.4776,0.1494,0.000000,0.579845,-0.562971,0.564505,-0.590583,0.575243,-0.561437
3.2883,0.016757,0.000000,-0.291674,0.291674,0.0000,0.0000,0.0000,-0.002339,-0.311398,0.308330,0.4373,0.5342,0.0894,0.000000,0.579845,-0.562971,0.564505,-0.592117,0.575243,-0.561437
3.3051,0.016759,0.000000,-0.291381,0.291381,0.0000,0.0000,0.0000,-0.002353,-0.311398,0.308330,0.3968,0.5639,0.1489,0.000000,0.579845,-0.561437,0.564505,-0.592117,0.575243,-0.561437
3.3219,0.016761,0.000000,-0.291088,0.291088,0.0000,0.0000,0.0000,-0.002363,-0.309864,0.308330,0.3902,0.5100,0.1964,0.000000,0.579845,-0.561437,0.564505,-0.590583,0.575243,-0.561437
3.3386,0.016771,0.000000,-0.290796,0.290796,0.0000,0.0000,0.0000,-0.002363,-0.309864,0.308330,0.3902,0.5100,0.1964,0.000000,0.579845,-0.561437,0.564505,-0.590583,0.575243,-0.561437
3.3554,0.016759,0.000000,-0.290503,0.290503,0.0000,0.0000,0.0000,-0.002362,-0.303728,0.308330,0.4797,0.4977,0.1917,0.000000,0.579845,-0.562971,0.564505,-0.590583,0.575243,-0.559903
3.3721,0.016759,0.000000,-0.290211,0.290211,0.0000,0.0000,0.0000,-0.002349,-0.297592,0.306796,0.4208,0.4813,0.1387,0.000000,0.579845,-0.562971,0.564505,-0.590583,0.575243,-0.561437
3.3889,0.016751,0.000000,-0.289918,0.289918,0.0000,0.0000,0.0000,-0.002351,-0.291456,0.305262,0.4270,0.4831,0.1443,0.000000,0.579845,-0.562971,0.564505,-0.590583,0.575243,-0.561437
3.4057,0.016754,0.000000,-0.289626,0.289626,0.0000,0.0000,0.0000,-0.002351,-0.291456,0.303728,0.4270,0.4831,0.1443,0.000000,0.579845,-0.562971,0.564505,-0.590583,0.575243,-0.561437
3.4224,0.016755,0.000000,-0.289334,0.289334,0.0000,0.0000,0.0000,-0.002351,-0.291456,0.300660,0.4270,0.4831,0.1443,0.000000,0.579845,-0.562971,0.564505,-0.590583,0.575243,-0.561437
3.4392,0.016766,0.000000,-0.289041,0.289041,0.0000,0.0000,0.0000,-0.002351,-0.291456,0.300660,0.4270,0.4831,0.1443,0.000000,0.579845,-0.562971,0.564505,-0.590583,0.575243,-0.561437
3.4559,0.016751,0.000000,-0.288749,0.288749,0.0000,0.0000,0.0000,-0.002351,-0.289922,0.296058,0.4270,0.4831,0.1443,0.000000,0.579845,-0.562971,0.564505,-0.590583,0.575243,-0.561437
3.4727,0.016770,0.000000,-0.288456,0.288456,0.0000,0.0000,0.0000,-0.002339,-0.289922,0.294524,0.4371,0.5337,0.0900,0.000000,0.579845,-0.562971,0.564505,-0.592117,0.575243,-0.561437
3.4895,0.016758,0.000000,-0.288163,0.288163,0.0000,0.0000,0.0000,-0.002340,-0.289922,0.292990,0.4361,0.5284,0.0956,0.000000,0.579845,-0.562971,0.564505,-0.592117,0.575243,-0.561437
3.5068,0.017389,0.000000,-0.287860,0.287860,0.0000,0.0000,0.0000,-0.002340,-0.289922,0.292990,0.4361,0.5284,0.0956,0.000000,0.579845,-0.562971,0.564505,-0.592117,0.575243,-0.561437
3.5236,0.016758,0.000000,-0.287567,0.287567,0.0000,0.0000,0.0000,-0.002340,-0.289922,0.292990,0.4361,0.5284,0.0956,0.000000,0.579845,-0.562971,0.564505,-0.592117,0.575243,-0.561437
3.5404,0.016774,0.000000,-0.287275,0.287275,0.0000,0.0000,0.0000,-0.002352,-0.289922,0.292990,0.4254,0.4782,0.1488,0.000000,0.579845,-0.562971,0.564505,-0.590583,0.575243,-0.561437
3.5571,0.016749,0.000000,-0.286982,0.286982,0.0000,0.0000,0.0000,-0.002350,-0.289922,0.289922,0.4265,0.4834,0.1432,0.000000,0.579845,-0.562971,0.564505,-0.590583,0.575243,-0.561437
3.5739,0.016768,0.000000,-0.286690,0.286690,0.0000,0.0000,0.0000,-0.002363,-0.288388,0.288388,0.3872,0.5183,0.1970,0.000000,0.579845,-0.561437,0.564505,-0.590583,0.575243,-0.561437
3.5906,0.016753,0.000000,-0.286397,0.286397,0.0000,0.0000,0.0000,-0.002338,-0.289922,0.288388,0.4413,0.5300,0.0845,0.000000,0.579845,-0.562971,0.564505,-0.592117,0.575243,-0.561437
3.6074,0.016758,0.000000,-0.286105,0.286105,0.0000,0.0000,0.0000,-0.002352,-0.288388,0.288388,0.4248,0.4780,0.1499,0.000000,0.579845,-0.562971,0.564505,-0.590583,0.575243,-0.561437
3.6242,0.016757,0.000000,-0.285812,0.285812,0.0000,0.0000,0.0000,-0.002352,-0.288388,0.288388,0.4248,0.4780,0.1499,0.000000,0.579845,-0.562971,0.564505,-0.590583,0.575243,-0.561437
3.6409,0.016759,0.000000,-0.285520,0.285520,0.0000,0.0000,0.0000,-0.002363,-0.288388,0.288388,0.3873,0.5189,0.1963,0.000000,0.579845,-0.561437,0.564505,-0.590583,0.575243,-0.561437
3.6577,0.016756,0.000000,-0.285227,0.285227,0.0000,0.0000,0.0000,-0.002349,-0.288388,0.288388,0.4305,0.4791,0.1383,0.000000,0.579845,-0.562971,0.564505,-0.590583,0.575243,-0.561437
3.6744,0.016749,0.000000,-0.284935,0.284935,0.0000,0.0000,0.0000,-0.002339,-0.288388,0.288388,0.4367,0.5341,0.0906,0.000000,0.579845,-0.562971,0.564505,-0.592117,0.575243,-0.561437
3.6912,0.016748,0.000000,-0.284643,0.284643,0.0000,0.0000,0.0000,-0.002352,-0.288388,0.288388,0.4253,0.4776,0.1493,0.000000,0.579845,-0.562971,0.564505,-0.590583,0.575243,-0.561437
3.7080,0.016811,0.000000,-0.284349,0.284349,0.0000,0.0000,0.0000,-0.002350,-0.288388,0.288388,0.4265,0.4834,0.1432,0.000000,0.579845,-0.562971,0.564505,-0.590583,0.575243,-0.561437
3.7247,0.016759,0.000000,-0.284057,0.284057,0.0000,0.0000,0.0000,-0.002339,-0.288388,0.288388,0.4371,0.5336,0.0901,0.000000,0.579845,-0.562971,0.564505,-0.592117,0.575243,-0.561437
3.7415,0.016754,0.000000,-0.283764,0.283764,0.0000,0.0000,0.0000,-0.002339,-0.288388,0.288388,0.4371,0.5336,0.0901,0.000000,0.579845,-0.562971,0.564505,-0.592117,0.575243,-0.561437
3.7582,0.016749,0.000000,-0.283472,0.283472,0.0000,0.0000,0.0000,-0.002352,-0.288388,0.288388,0.4253,0.4776,0.1493,0.000000,0.579845,-0.562971,0.564505,-0.590583,0.575243,-0.561437
3.7750,0.016774,0.000000,-0.283179,0.283179,0.0000,0.0000,0.0000,-0.002350,-0.288388,0.288388,0.4265,0.4834,0.1432,0.000000,0.579845,-0.562971,0.564505,-0.590583,0.575243,-0.561437
3.7918,0.016761,0.000000,-0.282887,0.282887,0.0000,0.0000,0.0000,-0.002350,-0.288388,0.288388,0.4265,0.4834,0.1432,0.000000,0.579845,-0.562971,0.564505,-0.590583,0.575243,-0.561437
3.8085,0.016756,0.000000,-0.282594,0.282594,0.0000,0.0000,0.0000,-0.002350,-0.288388,0.288388,0.4265,0.4834,0.1432,0.000000,0.579845,-0.562971,0.564505,-0.590583,0.575243,-0.561437
3.8253,0.016758,0.000000,-0.282302,0.282302,0.0000,0.0000,0.0000,-0.002350,-0.288388,0.288388,0.4265,0.4834,0.1432,0.000000,0.579845,-0.562971,0.564505,-0.590583,0.575243,-0.561437
3.8421,0.016759,0.000000,-0.282009,0.282009,0.0000,0.0000,0.0000,-0.002350,-0.288388,0.286854,0.4265,0.4834,0.1432,0.000000,0.579845,-0.562971,0.564505,-0.590583,0.575243,-0.561437
3.8588,0.016749,0.000000,-0.281717,0.281717,0.0000,0.0000,0.0000,-0.002339,-0.288388,0.286854,0.4371,0.5336,0.0901,0.000000,0.579845,-0.562971,0.564505,-0.592117,0.575243,-0.561437
3.8756,0.016768,0.000000,-0.281424,0.281424,0.0000,0.0000,0.0000,-0.002353,-0.286854,0.286854,0.4856,0.5460,0.1491,0.000000,0.579845,-0.562971,0.564505,-0.592117,0.575243,-0.559903
3.8923,0.016755,0.000000,-0.281132,0.281132,0.0000,0.0000,0.0000,-0.002350,-0.286854,0.286854,0.4202,0.4763,0.1432,0.000000,0.579845,-0.562971,0.564505,-0.590583,0.575243,-0.561437
3.9098,0.017476,0.000000,-0.280827,0.280827,0.0000,0.0000,0.0000,-0.002363,-0.286854,0.286854,0.3878,0.5191,0.1970,0.000000,0.579845,-0.561437,0.564505,-0.590583,0.575243,-0.561437
3.9266,0.016753,0.000000,-0.280535,0.280535,0.0000,0.0000,0.0000,-0.002363,-0.286854,0.286854,0.3878,0.5191,0.1970,0.000000,0.579845,-0.561437,0.564505,-0.590583,0.575243,-0.561437
3.9433,0.016761,0.000000,-0.280242,0.280242,0.0000,0.0000,0.0000,-0.002338,-0.286854,0.286854,0.4412,0.5299,0.0845,0.000000,0.579845,-0.562971,0.564505,-0.592117,0.575243,-0.561437
3.9601,0.016823,0.000000,-0.279948,0.279948,0.0000,0.0000,0.0000,-0.002340,-0.286854,0.285320,0.4356,0.5288,0.0962,0.000000,0.579845,-0.562971,0.564505,-0.592117,0.575243,-0.561437
3.9769,0.016756,0.000000,-0.279656,0.279656,0.0000,0.0000,0.0000,-0.002364,-0.286854,0.285320,0.3862,0.5136,0.2019,0.000000,0.579845,-0.561437,0.564505,-0.590583,0.575243,-0.561437
3.9937,0.016760,0.000000,-0.279363,0.279363,0.0000,0.0000,0.0000,-0.002338,-0.286854,0.285320,0.4414,0.5305,0.0840,0.000000,0.579845,-0.562971,0.564505,-0.592117,0.575243,-0.561437
4.0104,0.016763,0.000000,-0.279071,0.279071,0.0000,0.0000,0.0000,-0.002340,-0.286854,0.285320,0.4356,0.5287,0.0963,0.000000,0.579845,-0.562971,0.564505,-0.592117,0.575243,-0.561437
4.0272,0.016760,0.000000,-0.278778,0.278778,0.0000,0.0000,0.0000,-0.002340,-0.286854,0.285320,0.4356,0.5287,0.0963,0.000000,0.579845,-0.562971,0.564505,-0.592117,0.575243,-0.561437
4.0439,0.016755,0.000000,-0.278486,0.278486,0.0000,0.0000,0.0000,-0.002352,-0.286854,0.285320,0.4254,0.4781,0.1487,0.000000,0.579845,-0.562971,0.564505,-0.590583,0.575243,-0.561437
4.0607,0.016754,0.000000,-0.278194,0.278194,0.0000,0.0000,0.0000,-0.002350,-0.286854,0.283786,0.4265,0.4834,0.1432,0.000000,0.579845,-0.562971,0.564505,-0.590583,0.575243,-0.561437
4.0774,0.016758,0.000000,-0.277901,0.277901,0.0000,0.0000,0.0000,-0.002350,-0.286854,0.283786,0.4265,0.4834,0.1432,0.000000,0.579845,-0.562971,0.564505,-0.590583,0.575243,-0.561437
4.0942,0.016755,0.000000,-0.277609,0.277609,0.0000,0.0000,0.0000,-0.002339,-0.285320,0.283786,0.4371,0.5336,0.0901,0.000000,0.579845,-0.562971,0.564505,-0.592117,0.575243,-0.561437
4.1110,0.016758,0.000000,-0.277316,0.277316,0.0000,0.0000,0.0000,-0.002340,-0.285320,0.283786,0.4360,0.5284,0.0956,0.000000,0.579845,-0.562971,0.564505,-0.592117,0.575243,-0.561437
4.1277,0.016752,0.000000,-0.277024,0.277024,0.0000,0.0000,0.0000,-0.002340,-0.285320,0.283786,0.4360,0.5284,0.0956,0.000000,0.579845,-0.562971,0.564505,-0.592117,0.575243,-0.561437
4.1445,0.016752,0.000000,-0.276731,0.276731,0.0000,0.0000,0.0000,-0.002352,-0.283786,0.283786,0.4254,0.4782,0.1488,0.000000,0.579845,-0.562971,0.564505,-0.590583,0.575243,-0.561437
4.1612,0.016735,0.000000,-0.276439,0.276439,0.0000,0.0000,0.0000,-0.002339,-0.285320,0.283786,0.4373,0.5342,0.0895,0.000000,0.579845,-0.562971,0.564505,-0.592117,0.575243,-0.561437
4.1781,0.016907,0.000000,-0.276144,0.276144,0.0000,0.0000,0.0000,-0.002352,-0.283786,0.283786,0.4252,0.4776,0.1494,0.000000,0.579845,-0.562971,0.564505,-0.590583,0.575243,-0.561437
4.1949,0.016752,0.000000,-0.275852,0.275852,0.0000,0.0000,0.0000,-0.002350,-0.283786,0.283786,0.4265,0.4835,0.1432,0.000000,0.579845,-0.562971,0.564505,-0.590583,0.575243,-0.561437
4.2116,0.016779,0.000000,-0.275559,0.275559,0.0000,0.0000,0.0000,-0.002350,-0.283786,0.283786,0.4265,0.4835,0.1432,0.000000,0.579845,-0.562971,0.564505,-0.590583,0.575243,-0.561437
4.2284,0.016764,0.000000,-0.275266,0.275266,0.0000,0.0000,0.0000,-0.002352,-0.283786,0.283786,0.4867,0.5513,0.1436,0.000000,0.579845,-0.562971,0.564505,-0.592117,0.575243,-0.559903
4.2452,0.016759,0.000000,-0.274974,0.274974,0.0000,0.0000,0.0000,-0.002352,-0.283786,0.283786,0.4804,0.5442,0.1435,0.000000,0.579845,-0.562971,0.564505,-0.592117,0.575243,-0.559903
4.2619,0.016753,0.000000,-0.274681,0.274681,0.0000,0.0000,0.0000,-0.002352,-0.283786,0.283786,0.3923,0.5628,0.1432,0.000000,0.579845,-0.561437,0.564505,-0.592117,0.575243,-0.561437
4.2787,0.016762,0.000000,-0.274389,0.274389,0.0000,0.0000,0.0000,-0.002350,-0.283786,0.283786,0.4299,0.4746,0.1438,0.000000,0.579845,-0.562971,0.564505,-0.590583,0.575243,-0.561437
4.2954,0.016769,0.000000,-0.274096,0.274096,0.0000,0.0000,0.0000,-0.002352,-0.283786,0.283786,0.4863,0.5522,0.1435,0.000000,0.579845,-0.562971,0.564505,-0.592117,0.575243,-0.559903
4.3122,0.016756,0.000000,-0.273804,0.273804,0.0000,0.0000,0.0000,-0.002352,-0.283786,0.283786,0.4863,0.5522,0.1435,0.000000,0.579845,-0.562971,0.564505,-0.592117,0.575243,-0.559903
4.3290,0.016760,0.000000,-0.273511,0.273511,0.0000,0.0000,0.0000,-0.002350,-0.283786,0.283786,0.4201,0.4757,0.1438,0.000000,0.579845,-0.562971,0.564505,-0.590583,0.575243,-0.561437
4.3457,0.016748,0.000000,-0.273219,0.273219,0.0000,0.0000,0.0000,-0.002339,-0.283786,0.283786,0.4378,0.5345,0.0900,0.000000,0.579845,-0.562971,0.564505,-0.592117,0.575243,-0.561437
4.3625,0.016753,0.000000,-0.272927,0.272927,0.0000,0.0000,0.0000,-0.002352,-0.283786,0.282252,0.4252,0.4775,0.1493,0.000000,0.579845,-0.562971,0.564505,-0.590583,0.575243,-0.561437
4.3793,0.016836,0.000000,-0.272633,0.272633,0.0000,0.0000,0.0000,-0.002339,-0.283786,0.282252,0.4373,0.5343,0.0894,0.000000,0.579845,-0.562971,0.564505,-0.592117,0.575243,-0.561437
4.3961,0.016771,0.000000,-0.272340,0.272340,0.0000,0.0000,0.0000,-0.002339,-0.283786,0.282252,0.4373,0.5343,0.0894,0.000000,0.579845,-0.562971,0.564505,-0.592117,0.575243,-0.561437
4.4128,0.016757,0.000000,-0.272048,0.272048,0.0000,0.0000,0.0000,-0.002352,-0.283786,0.282252,0.4252,0.4776,0.1494,0.000000,0.579845,-0.562971,0.564505,-0.590583,0.575243,-0.561437
4.4296,0.016759,0.000000,-0.271755,0.271755,0.0000,0.0000,0.0000,-0.002350,-0.283786,0.282252,0.4265,0.4835,0.1432,0.000000,0.579845,-0.562971,0.564505,-0.590583,0.575243,-0.561437
4.4463,0.016758,0.000000,-0.271463,0.271463,0.0000,0.0000,0.0000,-0.002352,-0.283786,0.282252,0.3979,0.5692,0.1433,0.000000,0.579845,-0.561437,0.564505,-0.592117,0.575243,-0.561437
4.4631,0.016760,0.000000,-0.271170,0.271170,0.0000,0.0000,0.0000,-0.002350,-0.283786,0.282252,0.4294,0.4739,0.1438,0.000000,0.579845,-0.562971,0.564505,-0.590583,0.575243,-0.561437
4.4799,0.016754,0.000000,-0.270878,0.270878,0.0000,0.0000,0.0000,-0.002363,-0.283786,0.282252,0.3869,0.5193,0.1969,0.000000,0.579845,-0.561437,0.564505,-0.590583,0.575243,-0.561437
4.4966,0.016762,0.000000,-0.270585,0.270585,0.0000,0.0000,0.0000,-0.002363,-0.283786,0.282252,0.3869,0.5193,0.1969,0.000000,0.579845,-0.561437,0.564505,-0.590583,0.575243,-0.561437
4.5134,0.016752,0.000000,-0.270293,0.270293,0.0000,0.0000,0.0000,-0.002349,-0.282252,0.282252,0.4305,0.4791,0.1382,0.000000,0.579845,-0.562971,0.564505,-0.590583,0.575243,-0.561437
4.5301,0.016756,0.000000,-0.270000,0.270000,0.0000,0.0000,0.0000,-0.002351,-0.283786,0.282252,0.4260,0.4833,0.1443,0.000000,0.579845,-0.562971,0.564505,-0.590583,0.575243,-0.561437
4.5469,0.016772,0.000000,-0.269708,0.269708,0.0000,0.0000,0.0000,-0.002363,-0.283786,0.282252,0.3872,0.5184,0.1969,0.000000,0.579845,-0.561437,0.564505,-0.590583,0.575243,-0.561437
4.5637,0.016753,0.000000,-0.269415,0.269415,0.0000,0.0000,0.0000,-0.002349,-0.283786,0.282252,0.4305,0.4792,0.1382,0.000000,0.579845,-0.562971,0.564505,-0.590583,0.575243,-0.561437
4.5804,0.016771,0.000000,-0.269122,0.269122,0.0000,0.0000,0.0000,-0.002351,-0.283786,0.282252,0.4260,0.4833,0.1443,0.000000,0.579845,-0.562971,0.564505,-0.590583,0.575243,-0.561437
4.5972,0.016754,0.000000,-0.268830,0.268830,0.0000,0.0000,0.0000,-0.002351,-0.283786,0.282252,0.4260,0.4833,0.1443,0.000000,0.579845,-0.562971,0.564505,-0.590583,0.575243,-0.561437
4.6139,0.016755,0.000000,-0.268538,0.268538,0.0000,0.0000,0.0000,-0.002339,-0.283786,0.282252,0.4372,0.5337,0.0900,0.000000,0.579845,-0.562971,0.564505,-0.592117,0.575243,-0.561437
4.6307,0.016749,0.000000,-0.268245,0.268245,0.0000,0.0000,0.0000,-0.002352,-0.282252,0.282252,0.4253,0.4776,0.1494,0.000000,0.579845,-0.562971,0.564505,-0.590583,0.575243,-0.561437
4.6474,0.016763,0.000000,-0.267953,0.267953,0.0000,0.0000,0.0000,-0.002350,-0.283786,0.282252,0.4265,0.4834,0.1432,0.000000,0.579845,-0.562971,0.564505,-0.590583,0.575243,-0.561437
4.6642,0.016755,0.000000,-0.267660,0.267660,0.0000,0.0000,0.0000,-0.002350,-0.283786,0.282252,0.4265,0.4834,0.1432,0.000000,0.579845,-0.562971,0.564505,-0.590583,0.575243,-0.561437
4.6810,0.016776,0.000000,-0.267367,0.267367,0.0000,0.0000,0.0000,-0.002350,-0.283786,0.282252,0.4265,0.4834,0.1432,0.000000,0.579845,-0.562971,0.564505,-0.590583,0.575243,-0.561437
4.6977,0.016749,0.000000,-0.267075,0.267075,0.0000,0.0000,0.0000,-0.002350,-0.283786,0.282252,0.4265,0.4834,0.1432,0.000000,0.579845,-0.562971,0.564505,-0.590583,0.575243,-0.561437
4.7145,0.016754,0.000000,-0.266783,0.266783,0.0000,0.0000,0.0000,-0.002339,-0.283786,0.282252,0.4371,0.5336,0.0901,0.000000,0.579845,-0.562971,0.564505,-0.592117,0.575243,-0.561437
4.7312,0.016750,0.000000,-0.266490,0.266490,0.0000,0.0000,0.0000,-0.002340,-0.283786,0.282252,0.4360,0.5284,0.0956,0.000000,0.579845,-0.562971,0.564505,-0.592117,0.575243,-0.561437
4.7480,0.016764,0.000000,-0.266198,0.266198,0.0000,0.0000,0.0000,-0.002365,-0.283786,0.282252,0.4749,0.4958,0.2022,0.000000,0.579845,-0.562971,0.564505,-0.590583,0.575243,-0.559903
4.7647,0.016756,0.000000,-0.265905,0.265905,0.0000,0.0000,0.0000,-0.002338,-0.283786,0.282252,0.4321,0.5323,0.0839,0.000000,0.579845,-0.562971,0.564505,-0.592117,0.575243,-0.561437
4.7815,0.016772,0.000000,-0.265613,0.265613,0.0000,0.0000,0.0000,-0.002338,-0.283786,0.282252,0.4321,0.5323,0.0839,0.000000,0.579845,-0.562971,0.564505,-0.592117,0.575243,-0.561437
4.7983,0.016757,0.000000,-0.265320,0.265320,0.0000,0.0000,0.0000,-0.002352,-0.282252,0.282252,0.4258,0.4778,0.1500,0.000000,0.579845,-0.562971,0.564505,-0.590583,0.575243,-0.561437
4.8150,0.016754,0.000000,-0.265028,0.265028,0.0000,0.0000,0.0000,-0.002350,-0.282252,0.282252,0.4265,0.4834,0.1431,0.000000,0.579845,-0.562971,0.564505,-0.590583,0.575243,-0.561437
4.8318,0.016750,0.000000,-0.264735,0.264735,0.0000,0.0000,0.0000,-0.002350,-0.282252,0.282252,0.4265,0.4834,0.1431,0.000000,0.579845,-0.562971,0.564505,-0.590583,0.575243,-0.561437
4.8485,0.016761,0.000000,-0.264443,0.264443,0.0000,0.0000,0.0000,-0.002363,-0.282252,0.282252,0.3872,0.5183,0.1970,0.000000,0.579845,-0.561437,0.564505,-0.590583,0.575243,-0.561437
4.8653,0.016756,0.000000,-0.264150,0.264150,0.0000,0.0000,0.0000,-0.002349,-0.282252,0.282252,0.4305,0.4792,0.1382,0.000000,0.579845,-0.562971,0.564505,-0.590583,0.575243,-0.561437
4.8820,0.016738,0.000000,-0.263858,0.263858,0.0000,0.0000,0.0000,-0.002349,-0.282252,0.282252,0.4305,0.4792,0.1382,0.000000,0.579845,-0.562971,0.564505,-0.590583,0.575243,-0.561437
4.8988,0.016750,0.000000,-0.263566,0.263566,0.0000,0.0000,0.0000,-0.002339,-0.282252,0.282252,0.4367,0.5341,0.0906,0.000000,0.579845,-0.562971,0.564505,-0.592117,0.575243,-0.561437
4.9155,0.016754,0.000000,-0.263274,0.263274,0.0000,0.0000,0.0000,-0.002352,-0.282252,0.282252,0.4253,0.4776,0.1493,0.000000,0.579845,-0.562971,0.564505,-0.590583,0.575243,-0.561437
4.9324,0.016851,0.000000,-0.262979,0.262979,0.0000,0.0000,0.0000,-0.002350,-0.282252,0.280718,0.4265,0.4834,0.1432,0.000000,0.579845,-0.562971,0.564505,-0.590583,0.575243,-0.561437
4.9491,0.016757,0.000000,-0.262687,0.262687,0.0000,0.0000,0.0000,-0.002363,-0.282252,0.279185,0.3872,0.5183,0.1970,0.000000,0.579845,-0.561437,0.564505,-0.590583,0.575243,-0.561437
4.9663,0.017160,0.000000,-0.262387,0.262387,0.0000,0.0000,0.0000,-0.002338,-0.280718,0.277651,0.4413,0.5300,0.0845,0.000000,0.579845,-0.562971,0.564505,-0.592117,0.575243,-0.561437
4.9831,0.016761,0.000000,-0.262095,0.262095,0.0000,0.0000,0.0000,-0.002338,-0.280718,0.277651,0.4413,0.5300,0.0845,0.000000,0.579845,-0.562971,0.564505,-0.592117,0.575243,-0.561437
4.9998,0.016752,0.000000,-0.261803,0.261803,0.0000,0.0000,0.0000,-0.002352,-0.277651,0.276117,0.4248,0.4780,0.1499,0.000000,0.579845,-0.562971,0.564505,-0.590583,0.575243,-0.561437
5.0166,0.016752,0.000000,-0.261510,0.261510,0.0000,0.0000,0.0000,-0.002339,-0.269981,0.271515,0.4373,0.5342,0.0894,0.000000,0.579845,-0.562971,0.564505,-0.592117,0.575243,-0.561437
5.0336,0.017065,0.000000,-0.261212,0.261212,0.0000,0.0000,0.0000,-0.002340,-0.263845,0.266913,0.4360,0.5283,0.0957,0.000000,0.579845,-0.562971,0.564505,-0.592117,0.575243,-0.561437
5.0504,0.016763,0.000000,-0.260920,0.260920,0.0000,0.0000,0.0000,-0.002377,-0.262311,0.263845,0.4357,0.5314,0.2554,0.000000,0.579845,-0.561437,0.564505,-0.590583,0.575243,-0.559903
5.0677,0.017325,0.000000,-0.260617,0.260617,0.0000,0.0000,0.0000,-0.002348,-0.262311,0.260777,0.4254,0.4778,0.1321,0.000000,0.579845,-0.562971,0.564505,-0.590583,0.575243,-0.561437
5.0845,0.016758,0.000000,-0.260325,0.260325,0.0000,0.0000,0.0000,-0.002348,-0.262311,0.260777,0.4254,0.4778,0.1321,0.000000,0.579845,-0.562971,0.564505,-0.590583,0.575243,-0.561437
5.1012,0.016766,0.000000,-0.260032,0.260032,0.0000,0.0000,0.0000,-0.002351,-0.262311,0.260777,0.4265,0.4834,0.1450,0.000000,0.579845,-0.562971,0.564505,-0.590583,0.575243,-0.561437
5.1180,0.016759,0.000000,-0.259740,0.259740,0.0000,0.0000,0.0000,-0.002339,-0.262311,0.260777,0.4371,0.5336,0.0899,0.000000,0.579845,-0.562971,0.564505,-0.592117,0.575243,-0.561437
5.1348,0.016762,0.000000,-0.259447,0.259447,0.0000,0.0000,0.0000,-0.002352,-0.262311,0.260777,0.4253,0.4776,0.1494,0.000000,0.579845,-0.562971,0.564505,-0.590583,0.575243,-0.561437
5.1515,0.016764,0.000000,-0.259155,0.259155,0.0000,0.0000,0.0000,-0.002339,-0.262311,0.260777,0.4373,0.5342,0.0894,0.000000,0.579845,-0.562971,0.564505,-0.592117,0.575243,-0.561437
5.1683,0.016775,0.000000,-0.258862,0.258862,0.0000,0.0000,0.0000,-0.002340,-0.262311,0.260777,0.4360,0.5283,0.0957,0.000000,0.579845,-0.562971,0.564505,-0.592117,0.575243,-0.561437
5.1851,0.016749,0.000000,-0.258570,0.258570,0.0000,0.0000,0.0000,-0.002340,-0.262311,0.260777,0.4360,0.5283,0.0957,0.000000,0.579845,-0.562971,0.564505,-0.592117,0.575243,-0.561437
5.2018,0.016755,0.000000,-0.258277,0.258277,0.0000,0.0000,0.0000,-0.002352,-0.262311,0.260777,0.4254,0.4782,0.1488,0.000000,0.579845,-0.562971,0.564505,-0.590583,0.575243,-0.561437
5.2186,0.016751,0.000000,-0.257985,0.257985,0.0000,0.0000,0.0000,-0.002339,-0.262311,0.260777,0.4373,0.5342,0.0895,0.000000,0.579845,-0.562971,0.564505,-0.592117,0.575243,-0.561437
5.2355,0.016969,0.000000,-0.257689,0.257689,0.0000,0.0000,0.0000,-0.002340,-0.262311,0.260777,0.4360,0.5283,0.0957,0.000000,0.579845,-0.562971,0.564505,-0.592117,0.575243,-0.561437
5.2523,0.016755,0.000000,-0.257396,0.257396,0.0000,0.0000,0.0000,-0.002352,-0.262311,0.260777,0.4254,0.4782,0.1488,0.000000,0.579845,-0.562971,0.564505,-0.590583,0.575243,-0.561437
5.2691,0.016765,0.000000,-0.257104,0.257104,0.0000,0.0000,0.0000,-0.002352,-0.262311,0.260777,0.4254,0.4782,0.1488,0.000000,0.579845,-0.562971,0.564505,-0.590583,0.575243,-0.561437
5.2858,0.016757,0.000000,-0.256811,0.256811,0.0000,0.0000,0.0000,-0.002350,-0.260777,0.260777,0.4265,0.4834,0.1432,0.000000,0.579845,-0.562971,0.564505,-0.590583,0.575243,-0.561437
5.3026,0.016753,0.000000,-0.256519,0.256519,0.0000,0.0000,0.0000,-0.002339,-0.262311,0.259243,0.4371,0.5336,0.0901,0.000000,0.579845,-0.562971,0.564505,-0.592117,0.575243,-0.561437
5.3195,0.016973,0.000000,-0.256222,0.256222,0.0000,0.0000,0.0000,-0.002352,-0.260777,0.259243,0.4253,0.4776,0.1493,0.000000,0.579845,-0.562971,0.564505,-0.590583,0.575243,-0.561437
5.3363,0.016760,0.000000,-0.255930,0.255930,0.0000,0.0000,0.0000,-0.002339,-0.260777,0.259243,0.4373,0.5342,0.0894,0.000000,0.579845,-0.562971,0.564505,-0.592117,0.575243,-0.561437
5.3531,0.016763,0.000000,-0.255637,0.255637,0.0000,0.0000,0.0000,-0.002352,-0.260777,0.259243,0.4252,0.4776,0.1494,0.000000,0.579845,-0.562971,0.564505,-0.590583,0.575243,-0.561437
5.3698,0.016776,0.000000,-0.255345,0.255345,0.0000,0.0000,0.0000,-0.002352,-0.260777,0.259243,0.4252,0.4776,0.1494,0.000000,0.579845,-0.562971,0.564505,-0.590583,0.575243,-0.561437
5.3866,0.016758,0.000000,-0.255052,0.255052,0.0000,0.0000,0.0000,-0.002350,-0.260777,0.259243,0.4265,0.4835,0.1432,0.000000,0.579845,-0.562971,0.564505,-0.590583,0.575243,-0.561437
5.4034,0.016769,0.000000,-0.254759,0.254759,0.0000,0.0000,0.0000,-0.002352,-0.260777,0.259243,0.4867,0.5513,0.1436,0.000000,0.579845,-0.562971,0.564505,-0.592117,0.575243,-0.559903
5.4203,0.016942,0.000000,-0.254464,0.254464,0.0000,0.0000,0.0000,-0.002339,-0.260777,0.257709,0.4309,0.5265,0.0900,0.000000,0.579845,-0.562971,0.564505,-0.592117,0.575243,-0.561437
5.4371,0.016770,0.000000,-0.254171,0.254171,0.0000,0.0000,0.0000,-0.002352,-0.260777,0.257709,0.4259,0.4784,0.1493,0.000000,0.579845,-0.562971,0.564505,-0.590583,0.575243,-0.561437
5.4538,0.016757,0.000000,-0.253879,0.253879,0.0000,0.0000,0.0000,-0.002350,-0.260777,0.257709,0.4264,0.4834,0.1432,0.000000,0.579845,-0.562971,0.564505,-0.590583,0.575243,-0.561437
5.4706,0.016774,0.000000,-0.253586,0.253586,0.0000,0.0000,0.0000,-0.002350,-0.260777,0.257709,0.4264,0.4834,0.1432,0.000000,0.579845,-0.562971,0.564505,-0.590583,0.575243,-0.561437
5.4874,0.016753,0.000000,-0.253293,0.253293,0.0000,0.0000,0.0000,-0.002339,-0.260777,0.257709,0.4372,0.5336,0.0901,0.000000,0.579845,-0.562971,0.564505,-0.592117,0.575243,-0.561437
