t,loop_dt,cmd_z,cmd_ant_l,cmd_ant_r,cmd_roll,cmd_pitch,cmd_yaw,pres_z,pres_ant_l,pres_ant_r,pres_roll,pres_pitch,pres_yaw,pres_j0,pres_j1,pres_j2,pres_j3,pres_j4,pres_j5,pres_j6
0.0000,0.000002,0.000000,-1.745328,1.745328,0.0000,0.0000,0.0000,-0.002501,-1.593806,1.599942,0.5549,0.8020,0.4746,0.000000,0.575243,-0.558369,0.564505,-0.592117,0.575243,-0.549165
0.0168,0.016764,0.000000,-1.730699,1.730699,0.0000,0.0000,0.0000,-0.002501,-1.593806,1.599942,0.5549,0.8020,0.4746,0.000000,0.575243,-0.558369,0.564505,-0.592117,0.575243,-0.549165
0.0335,0.016753,0.000000,-1.716079,1.716079,0.0000,0.0000,0.0000,-0.002490,-1.592272,1.599942,0.5930,0.7603,0.4277,0.000000,0.575243,-0.559903,0.564505,-0.592117,0.575243,-0.549165
0.0503,0.016758,0.000000,-1.701455,1.701455,0.0000,0.0000,0.0000,-0.002515,-1.593806,1.599942,0.5392,0.7495,0.5393,0.000000,0.575243,-0.558369,0.564505,-0.590583,0.575243,-0.549165
0.0670,0.016733,0.000000,-1.686852,1.686852,0.0000,0.0000,0.0000,-0.002488,-1.630622,1.639825,0.5947,0.7658,0.4210,0.000000,0.575243,-0.559903,0.564505,-0.592117,0.575243,-0.549165
0.0838,0.016791,0.000000,-1.672199,1.672199,0.0000,0.0000,0.0000,-0.002515,-1.707321,1.704253,0.5391,0.7490,0.5400,0.000000,0.575243,-0.558369,0.564505,-0.590583,0.575243,-0.549165
0.1006,0.016771,0.000000,-1.657564,1.657564,0.0000,0.0000,0.0000,-0.002475,-1.748738,1.741068,0.5449,0.7480,0.3676,0.000000,0.575243,-0.559903,0.564505,-0.592117,0.575243,-0.550699
0.1173,0.016768,0.000000,-1.642932,1.642932,0.0000,0.0000,0.0000,-0.002475,-1.748738,1.741068,0.5449,0.7480,0.3676,0.000000,0.575243,-0.559903,0.564505,-0.592117,0.575243,-0.550699
0.1341,0.016759,0.000000,-1.628307,1.628307,0.0000,0.0000,0.0000,-0.002479,-1.742602,1.738000,0.5443,0.7481,0.3855,0.000000,0.575243,-0.559903,0.564505,-0.592117,0.575243,-0.550699
0.1509,0.016755,0.000000,-1.613686,1.613686,0.0000,0.0000,0.0000,-0.002467,-1.719592,1.721126,0.5942,0.7327,0.4375,0.000000,0.576777,-0.559903,0.564505,-0.592117,0.575243,-0.550699
0.1676,0.016749,0.000000,-1.599070,1.599070,0.0000,0.0000,0.0000,-0.002468,-1.699651,1.705787,0.5890,0.7343,0.4321,0.000000,0.576777,-0.559903,0.564505,-0.592117,0.575243,-0.550699
0.1844,0.016762,0.000000,-1.584442,1.584442,0.0000,0.0000,0.0000,-0.002441,-1.675107,1.679709,0.4901,0.6983,0.3259,0.000000,0.576777,-0.559903,0.564505,-0.592117,0.575243,-0.553767
0.2011,0.016778,0.000000,-1.569800,1.569800,0.0000,0.0000,0.0000,-0.002456,-1.652097,1.658233,0.4898,0.6513,0.3906,0.000000,0.576777,-0.559903,0.564505,-0.590583,0.575243,-0.553767
0.2179,0.016767,0.000000,-1.555168,1.555168,0.0000,0.0000,0.0000,-0.002456,-1.652097,1.658233,0.4898,0.6513,0.3906,0.000000,0.576777,-0.559903,0.564505,-0.590583,0.575243,-0.553767
0.2347,0.016765,0.000000,-1.540537,1.540537,0.0000,0.0000,0.0000,-0.002429,-1.632156,1.636758,0.4507,0.6892,0.2768,0.000000,0.576777,-0.559903,0.564505,-0.592117,0.575243,-0.555301
0.2514,0.016758,0.000000,-1.525913,1.525913,0.0000,0.0000,0.0000,-0.002407,-1.615282,1.618350,0.4550,0.6520,0.2890,0.000000,0.578311,-0.559903,0.564505,-0.592117,0.575243,-0.556835
0.2682,0.016769,0.000000,-1.511279,1.511279,0.0000,0.0000,0.0000,-0.002397,-1.599942,1.601476,0.4050,0.6381,0.2343,0.000000,0.578311,-0.559903,0.564505,-0.592117,0.575243,-0.558369
0.2850,0.016761,0.000000,-1.496652,1.496652,0.0000,0.0000,0.0000,-0.002386,-1.586136,1.587670,0.4600,0.6241,0.2939,0.000000,0.579845,-0.559903,0.564505,-0.592117,0.575243,-0.558369
0.3017,0.016761,0.000000,-1.482026,1.482026,0.0000,0.0000,0.0000,-0.002374,-1.567728,1.570796,0.4935,0.5899,0.2345,0.000000,0.579845,-0.561437,0.564505,-0.592117,0.575243,-0.558369
0.3185,0.016743,0.000000,-1.467415,1.467415,0.0000,0.0000,0.0000,-0.002374,-1.567728,1.570796,0.4935,0.5899,0.2345,0.000000,0.579845,-0.561437,0.564505,-0.592117,0.575243,-0.558369
0.3352,0.016761,0.000000,-1.452789,1.452789,0.0000,0.0000,0.0000,-0.002362,-1.549321,1.555457,0.4405,0.5757,0.1872,0.000000,0.579845,-0.561437,0.564505,-0.592117,0.575243,-0.559903
0.3520,0.016758,0.000000,-1.438165,1.438165,0.0000,0.0000,0.0000,-0.002362,-1.530913,1.537049,0.4354,0.5572,0.0852,0.000000,0.578311,-0.562971,0.564505,-0.592117,0.575243,-0.559903
0.3688,0.016770,0.000000,-1.423530,1.423530,0.0000,0.0000,0.0000,-0.002362,-1.514039,1.520175,0.4359,0.5592,0.0958,0.000000,0.578311,-0.562971,0.564505,-0.592117,0.575243,-0.559903
0.3855,0.016773,0.000000,-1.408893,1.408893,0.0000,0.0000,0.0000,-0.002364,-1.495631,1.500233,0.4465,0.5789,0.2017,0.000000,0.579845,-0.561437,0.564505,-0.592117,0.575243,-0.559903
0.4025,0.016990,0.000000,-1.398461,1.398461,0.0000,0.0000,0.0000,-0.002364,-1.495631,1.500233,0.4465,0.5789,0.2017,0.000000,0.579845,-0.561437,0.564505,-0.592117,0.575243,-0.559903
0.4193,0.016761,0.000000,-1.413088,1.413088,0.0000,0.0000,0.0000,-0.002362,-1.477223,1.483359,0.4739,0.4905,0.1912,0.000000,0.579845,-0.562971,0.564505,-0.590583,0.575243,-0.559903
0.4360,0.016763,0.000000,-1.427716,1.427716,0.0000,0.0000,0.0000,-0.002375,-1.455748,1.457282,0.3927,0.6016,0.1379,0.000000,0.578311,-0.561437,0.564505,-0.592117,0.575243,-0.559903
0.4528,0.016751,0.000000,-1.442334,1.442334,0.0000,0.0000,0.0000,-0.002362,-1.440408,1.440408,0.4510,0.5745,0.1973,0.000000,0.579845,-0.561437,0.564505,-0.592117,0.575243,-0.559903
0.4696,0.016762,0.000000,-1.456962,1.456962,0.0000,0.0000,0.0000,-0.002362,-1.425068,1.423534,0.4343,0.5573,0.0841,0.000000,0.578311,-0.562971,0.564505,-0.592117,0.575243,-0.559903
0.4864,0.016812,0.000000,-1.471633,1.471633,0.0000,0.0000,0.0000,-0.002375,-1.425068,1.423534,0.3969,0.5947,0.1491,0.000000,0.578311,-0.561437,0.564505,-0.592117,0.575243,-0.559903
0.5031,0.016766,0.000000,-1.486264,1.486264,0.0000,0.0000,0.0000,-0.002362,-1.440408,1.435806,0.4506,0.5752,0.1962,0.000000,0.579845,-0.561437,0.564505,-0.592117,0.575243,-0.559903
0.5200,0.016845,0.000000,-1.500964,1.500964,0.0000,0.0000,0.0000,-0.002362,-1.440408,1.435806,0.4506,0.5752,0.1962,0.000000,0.579845,-0.561437,0.564505,-0.592117,0.575243,-0.559903
0.5367,0.016769,0.000000,-1.515597,1.515597,0.0000,0.0000,0.0000,-0.002362,-1.440408,1.435806,0.4506,0.5752,0.1962,0.000000,0.579845,-0.561437,0.564505,-0.592117,0.575243,-0.559903
0.5535,0.016756,0.000000,-1.530220,1.530220,0.0000,0.0000,0.0000,-0.002362,-1.477223,1.477223,0.4344,0.5572,0.0842,0.000000,0.578311,-0.562971,0.564505,-0.592117,0.575243,-0.559903
0.5703,0.016765,0.000000,-1.544850,1.544850,0.0000,0.0000,0.0000,-0.002375,-1.478757,1.478757,0.3969,0.5947,0.1491,0.000000,0.578311,-0.561437,0.564505,-0.592117,0.575243,-0.559903
0.5870,0.016777,0.000000,-1.559491,1.559491,0.0000,0.0000,0.0000,-0.002362,-1.486427,1.487961,0.4506,0.5752,0.1962,0.000000,0.579845,-0.561437,0.564505,-0.592117,0.575243,-0.559903
0.6038,0.016779,0.000000,-1.574133,1.574133,0.0000,0.0000,0.0000,-0.002375,-1.512505,1.507903,0.3952,0.5928,0.1374,0.000000,0.578311,-0.561437,0.564505,-0.592117,0.575243,-0.559903
0.6207,0.016829,0.000000,-1.588819,1.588819,0.0000,0.0000,0.0000,-0.002362,-1.547787,1.537049,0.4507,0.5754,0.1974,0.000000,0.579845,-0.561437,0.564505,-0.592117,0.575243,-0.559903
0.6374,0.016767,0.000000,-1.603451,1.603451,0.0000,0.0000,0.0000,-0.002362,-1.547787,1.537049,0.4507,0.5754,0.1974,0.000000,0.579845,-0.561437,0.564505,-0.592117,0.575243,-0.559903
0.6542,0.016749,0.000000,-1.618067,1.618067,0.0000,0.0000,0.0000,-0.002375,-1.572330,1.566194,0.3952,0.5928,0.1373,0.000000,0.578311,-0.561437,0.564505,-0.592117,0.575243,-0.559903
0.6709,0.016754,0.000000,-1.632688,1.632688,0.0000,0.0000,0.0000,-0.002374,-1.581534,1.587670,0.4009,0.5910,0.1435,0.000000,0.578311,-0.561437,0.564505,-0.592117,0.575243,-0.559903
0.6877,0.016779,0.000000,-1.647331,1.647331,0.0000,0.0000,0.0000,-0.002374,-1.587670,1.589204,0.4009,0.5910,0.1435,0.000000,0.578311,-0.561437,0.564505,-0.592117,0.575243,-0.559903
0.7045,0.016761,0.000000,-1.661958,1.661958,0.0000,0.0000,0.0000,-0.002386,-1.604544,1.595340,0.3896,0.5404,0.1966,0.000000,0.578311,-0.561437,0.564505,-0.590583,0.575243,-0.559903
0.7212,0.016762,0.000000,-1.676586,1.676586,0.0000,0.0000,0.0000,-0.002348,-1.629088,1.619884,0.4905,0.5454,0.1380,0.000000,0.579845,-0.562971,0.564505,-0.592117,0.575243,-0.559903
0.7380,0.016774,0.000000,-1.691224,1.691224,0.0000,0.0000,0.0000,-0.002348,-1.629088,1.619884,0.4905,0.5454,0.1380,0.000000,0.579845,-0.562971,0.564505,-0.592117,0.575243,-0.559903
0.7548,0.016753,0.000000,-1.705844,1.705844,0.0000,0.0000,0.0000,-0.002364,-1.656699,1.649029,0.4302,0.5604,0.0903,0.000000,0.578311,-0.562971,0.564505,-0.592117,0.575243,-0.559903
0.7715,0.016772,0.000000,-1.720480,1.720480,0.0000,0.0000,0.0000,-0.002351,-1.675107,1.675107,0.4863,0.5433,0.1491,0.000000,0.579845,-0.562971,0.564505,-0.592117,0.575243,-0.559903
0.7886,0.017055,0.000000,-1.735363,1.735363,0.0000,0.0000,0.0000,-0.002388,-1.682777,1.679709,0.3807,0.5454,0.1960,0.000000,0.578311,-0.561437,0.564505,-0.590583,0.575243,-0.559903
0.8053,0.016748,0.000000,-1.740680,1.740680,0.0000,0.0000,0.0000,-0.002361,-1.687379,1.685845,0.4522,0.5804,0.1913,0.000000,0.579845,-0.561437,0.564505,-0.592117,0.575243,-0.559903
0.8221,0.016760,0.000000,-1.726054,1.726054,0.0000,0.0000,0.0000,-0.002364,-1.708855,1.705787,0.4448,0.5767,0.1918,0.000000,0.579845,-0.561437,0.564505,-0.592117,0.575243,-0.559903
0.8389,0.016772,0.000000,-1.711418,1.711418,0.0000,0.0000,0.0000,-0.002364,-1.708855,1.705787,0.4448,0.5767,0.1918,0.000000,0.579845,-0.561437,0.564505,-0.592117,0.575243,-0.559903
0.8556,0.016758,0.000000,-1.696793,1.696793,0.0000,0.0000,0.0000,-0.002363,-1.739534,1.734932,0.4458,0.5773,0.1917,0.000000,0.579845,-0.561437,0.564505,-0.592117,0.575243,-0.559903
0.8724,0.016753,0.000000,-1.682174,1.682174,0.0000,0.0000,0.0000,-0.002351,-1.756408,1.751806,0.4847,0.5415,0.1385,0.000000,0.579845,-0.562971,0.564505,-0.592117,0.575243,-0.559903
0.8891,0.016757,0.000000,-1.667551,1.667551,0.0000,0.0000,0.0000,-0.002365,-1.753340,1.750272,0.4414,0.5808,0.1972,0.000000,0.579845,-0.561437,0.564505,-0.592117,0.575243,-0.559903
0.9059,0.016765,0.000000,-1.652920,1.652920,0.0000,0.0000,0.0000,-0.002362,-1.739534,1.738000,0.4353,0.5567,0.0841,0.000000,0.578311,-0.562971,0.564505,-0.592117,0.575243,-0.559903
0.9227,0.016764,0.000000,-1.638291,1.638291,0.0000,0.0000,0.0000,-0.002351,-1.725728,1.727262,0.4858,0.5436,0.1497,0.000000,0.579845,-0.562971,0.564505,-0.592117,0.575243,-0.559903
0.9394,0.016770,0.000000,-1.623656,1.623656,0.0000,0.0000,0.0000,-0.002351,-1.725728,1.727262,0.4858,0.5436,0.1497,0.000000,0.579845,-0.562971,0.564505,-0.592117,0.575243,-0.559903
0.9562,0.016760,0.000000,-1.609031,1.609031,0.0000,0.0000,0.0000,-0.002352,-1.707321,1.711923,0.4805,0.5450,0.1429,0.000000,0.579845,-0.562971,0.564505,-0.592117,0.575243,-0.559903
0.9729,0.016761,0.000000,-1.594404,1.594404,0.0000,0.0000,0.0000,-0.002376,-1.691981,1.696583,0.4311,0.5296,0.2505,0.000000,0.579845,-0.561437,0.564505,-0.590583,0.575243,-0.559903
0.9897,0.016757,0.000000,-1.579780,1.579780,0.0000,0.0000,0.0000,-0.002362,-1.672039,1.678175,0.4470,0.5821,0.1856,0.000000,0.579845,-0.561437,0.564505,-0.592117,0.575243,-0.559903
1.0065,0.016762,0.000000,-1.565153,1.565153,0.0000,0.0000,0.0000,-0.002364,-1.655165,1.658233,0.4453,0.5766,0.1923,0.000000,0.579845,-0.561437,0.564505,-0.592117,0.575243,-0.559903
1.0232,0.016755,0.000000,-1.550531,1.550531,0.0000,0.0000,0.0000,-0.002364,-1.635224,1.638291,0.4453,0.5766,0.1923,0.000000,0.578311,-0.562971,0.564505,-0.592117,0.575243,-0.559903
1.0400,0.016751,0.000000,-1.535913,1.535913,0.0000,0.0000,0.0000,-0.002362,-1.635224,1.638291,0.4349,0.5571,0.0846,0.000000,0.578311,-0.562971,0.564505,-0.592117,0.575243,-0.559903
1.0567,0.016749,0.000000,-1.521296,1.521296,0.0000,0.0000,0.0000,-0.002364,-1.615282,1.619884,0.4466,0.5791,0.2029,0.000000,0.579845,-0.561437,0.564505,-0.592117,0.575243,-0.559903
1.0735,0.016749,0.000000,-1.506680,1.506680,0.0000,0.0000,0.0000,-0.002351,-1.599942,1.603010,0.4846,0.5413,0.1374,0.000000,0.579845,-0.562971,0.564505,-0.592117,0.575243,-0.559903
1.0902,0.016756,0.000000,-1.492057,1.492057,0.0000,0.0000,0.0000,-0.002365,-1.586136,1.587670,0.4414,0.5808,0.1974,0.000000,0.579845,-0.561437,0.564505,-0.592117,0.575243,-0.559903
1.1070,0.016769,0.000000,-1.477423,1.477423,0.0000,0.0000,0.0000,-0.002351,-1.572330,1.575398,0.4851,0.5411,0.1379,0.000000,0.579845,-0.562971,0.564505,-0.592117,0.575243,-0.559903
1.1238,0.016762,0.000000,-1.462795,1.462795,0.0000,0.0000,0.0000,-0.002351,-1.552389,1.560058,0.4851,0.5411,0.1379,0.000000,0.579845,-0.562971,0.564505,-0.592117,0.575243,-0.559903
1.1405,0.016756,0.000000,-1.448173,1.448173,0.0000,0.0000,0.0000,-0.002352,-1.552389,1.560058,0.4806,0.5453,0.1441,0.000000,0.579845,-0.562971,0.564505,-0.592117,0.575243,-0.559903
1.1573,0.016763,0.000000,-1.433545,1.433545,0.0000,0.0000,0.0000,-0.002364,-1.532447,1.540117,0.4312,0.5604,0.0897,0.000000,0.578311,-0.562971,0.564505,-0.592117,0.575243,-0.559903
1.1740,0.016763,0.000000,-1.418916,1.418916,0.0000,0.0000,0.0000,-0.002364,-1.510971,1.518641,0.4470,0.5788,0.2023,0.000000,0.579845,-0.561437,0.564505,-0.592117,0.575243,-0.559903
1.1908,0.016749,0.000000,-1.404300,1.404300,0.0000,0.0000,0.0000,-0.002351,-1.494097,1.500233,0.4846,0.5413,0.1374,0.000000,0.579845,-0.562971,0.564505,-0.592117,0.575243,-0.559903
1.2076,0.016774,0.000000,-1.402865,1.402865,0.0000,0.0000,0.0000,-0.002364,-1.458816,1.460350,0.4308,0.5608,0.0904,0.000000,0.578311,-0.562971,0.564505,-0.592117,0.575243,-0.559903
1.2243,0.016748,0.000000,-1.417480,1.417480,0.0000,0.0000,0.0000,-0.002364,-1.458816,1.460350,0.4308,0.5608,0.0904,0.000000,0.578311,-0.562971,0.564505,-0.592117,0.575243,-0.559903
1.2411,0.016757,0.000000,-1.432103,1.432103,0.0000,0.0000,0.0000,-0.002364,-1.441942,1.440408,0.4470,0.5788,0.2023,0.000000,0.579845,-0.561437,0.564505,-0.592117,0.575243,-0.559903
1.2578,0.016747,0.000000,-1.446718,1.446718,0.0000,0.0000,0.0000,-0.002351,-1.425068,1.425068,0.4846,0.5414,0.1374,0.000000,0.579845,-0.562971,0.564505,-0.592117,0.575243,-0.559903
1.2746,0.016759,0.000000,-1.461342,1.461342,0.0000,0.0000,0.0000,-0.002365,-1.425068,1.422000,0.4414,0.5808,0.1974,0.000000,0.579845,-0.561437,0.564505,-0.592117,0.575243,-0.559903
1.2917,0.017136,0.000000,-1.476296,1.476296,0.0000,0.0000,0.0000,-0.002351,-1.440408,1.434272,0.4851,0.5411,0.1379,0.000000,0.579845,-0.562971,0.564505,-0.592117,0.575243,-0.559903
1.3085,0.016765,0.000000,-1.490927,1.490927,0.0000,0.0000,0.0000,-0.002351,-1.440408,1.434272,0.4851,0.5411,0.1379,0.000000,0.579845,-0.562971,0.564505,-0.592117,0.575243,-0.559903
1.3252,0.016758,0.000000,-1.505551,1.505551,0.0000,0.0000,0.0000,-0.002365,-1.463418,1.457282,0.4414,0.5808,0.1973,0.000000,0.579845,-0.561437,0.564505,-0.592117,0.575243,-0.559903
1.3420,0.016758,0.000000,-1.520175,1.520175,0.0000,0.0000,0.0000,-0.002351,-1.478757,1.475690,0.4851,0.5411,0.1379,0.000000,0.579845,-0.562971,0.564505,-0.592117,0.575243,-0.559903
1.3588,0.016764,0.000000,-1.534804,1.534804,0.0000,0.0000,0.0000,-0.002352,-1.487961,1.486427,0.4806,0.5453,0.1441,0.000000,0.579845,-0.562971,0.564505,-0.592117,0.575243,-0.559903
1.3755,0.016756,0.000000,-1.549426,1.549426,0.0000,0.0000,0.0000,-0.002352,-1.501767,1.495631,0.4806,0.5453,0.1441,0.000000,0.579845,-0.562971,0.564505,-0.592117,0.575243,-0.559903
1.3926,0.017063,0.000000,-1.564316,1.564316,0.0000,0.0000,0.0000,-0.002365,-1.524777,1.514039,0.4418,0.5804,0.1967,0.000000,0.579845,-0.561437,0.564505,-0.592117,0.575243,-0.559903
1.4093,0.016763,0.000000,-1.578945,1.578945,0.0000,0.0000,0.0000,-0.002365,-1.524777,1.514039,0.4418,0.5804,0.1967,0.000000,0.579845,-0.561437,0.564505,-0.592117,0.575243,-0.559903
1.4261,0.016751,0.000000,-1.593563,1.593563,0.0000,0.0000,0.0000,-0.002351,-1.549321,1.540117,0.4851,0.5412,0.1380,0.000000,0.579845,-0.562971,0.564505,-0.592117,0.575243,-0.559903
1.4428,0.016752,0.000000,-1.608182,1.608182,0.0000,0.0000,0.0000,-0.002352,-1.567728,1.564660,0.4806,0.5453,0.1441,0.000000,0.579845,-0.562971,0.564505,-0.592117,0.575243,-0.559903
1.4598,0.017005,0.000000,-1.623022,1.623022,0.0000,0.0000,0.0000,-0.002352,-1.575398,1.576932,0.4806,0.5453,0.1441,0.000000,0.579845,-0.562971,0.564505,-0.592117,0.575243,-0.559903
1.4766,0.016756,0.000000,-1.637644,1.637644,0.0000,0.0000,0.0000,-0.002364,-1.589204,1.592272,0.4312,0.5604,0.0897,0.000000,0.578311,-0.562971,0.564505,-0.592117,0.575243,-0.559903
1.4934,0.016750,0.000000,-1.652261,1.652261,0.0000,0.0000,0.0000,-0.002375,-1.612214,1.616816,0.4362,0.5280,0.2561,0.000000,0.579845,-0.561437,0.564505,-0.590583,0.575243,-0.559903
1.5101,0.016756,0.000000,-1.666884,1.666884,0.0000,0.0000,0.0000,-0.002375,-1.612214,1.616816,0.4362,0.5280,0.2561,0.000000,0.579845,-0.561437,0.564505,-0.590583,0.575243,-0.559903
1.5269,0.016749,0.000000,-1.681500,1.681500,0.0000,0.0000,0.0000,-0.002361,-1.636758,1.638291,0.4359,0.5622,0.0780,0.000000,0.578311,-0.562971,0.564505,-0.592117,0.575243,-0.559903
1.5437,0.016832,0.000000,-1.696189,1.696189,0.0000,0.0000,0.0000,-0.002363,-1.652097,1.644427,0.4359,0.5586,0.0965,0.000000,0.578311,-0.562971,0.564505,-0.592117,0.575243,-0.559903
1.5604,0.016756,0.000000,-1.710812,1.710812,0.0000,0.0000,0.0000,-0.002363,-1.652097,1.644427,0.4359,0.5586,0.0965,0.000000,0.578311,-0.562971,0.564505,-0.592117,0.575243,-0.559903
1.5772,0.016752,0.000000,-1.725431,1.725431,0.0000,0.0000,0.0000,-0.002351,-1.662835,1.656699,0.4857,0.5434,0.1484,0.000000,0.579845,-0.562971,0.564505,-0.592117,0.575243,-0.559903
1.5940,0.016759,0.000000,-1.740055,1.740055,0.0000,0.0000,0.0000,-0.002365,-1.681243,1.678175,0.4413,0.5806,0.1962,0.000000,0.579845,-0.561437,0.564505,-0.592117,0.575243,-0.559903
1.6107,0.016758,0.000000,-1.735979,1.735979,0.0000,0.0000,0.0000,-0.002375,-1.704253,1.704253,0.3961,0.5922,0.1374,0.000000,0.578311,-0.561437,0.564505,-0.592117,0.575243,-0.559903
1.6275,0.016756,0.000000,-1.721357,1.721357,0.0000,0.0000,0.0000,-0.002362,-1.722660,1.718058,0.4506,0.5755,0.1974,0.000000,0.579845,-0.561437,0.564505,-0.592117,0.575243,-0.559903
1.6442,0.016771,0.000000,-1.706721,1.706721,0.0000,0.0000,0.0000,-0.002362,-1.745670,1.736466,0.4506,0.5755,0.1974,0.000000,0.578311,-0.561437,0.564505,-0.592117,0.575243,-0.559903
1.6610,0.016749,0.000000,-1.692105,1.692105,0.0000,0.0000,0.0000,-0.002375,-1.745670,1.736466,0.3952,0.5928,0.1373,0.000000,0.578311,-0.561437,0.564505,-0.592117,0.575243,-0.559903
1.6777,0.016756,0.000000,-1.677482,1.677482,0.0000,0.0000,0.0000,-0.002374,-1.753340,1.747204,0.4009,0.5910,0.1435,0.000000,0.578311,-0.561437,0.564505,-0.592117,0.575243,-0.559903
1.6945,0.016751,0.000000,-1.662865,1.662865,0.0000,0.0000,0.0000,-0.002350,-1.750272,1.745670,0.4894,0.5401,0.1435,0.000000,0.579845,-0.562971,0.564505,-0.592117,0.575243,-0.559903
1.7113,0.016764,0.000000,-1.648235,1.648235,0.0000,0.0000,0.0000,-0.002352,-1.739534,1.739534,0.4801,0.5454,0.1435,0.000000,0.579845,-0.562971,0.564505,-0.592117,0.575243,-0.559903
1.7280,0.016749,0.000000,-1.633618,1.633618,0.0000,0.0000,0.0000,-0.002352,-1.730330,1.734932,0.4801,0.5454,0.1435,0.000000,0.579845,-0.562971,0.564505,-0.592117,0.575243,-0.559903
1.7448,0.016767,0.000000,-1.618987,1.618987,0.0000,0.0000,0.0000,-0.002352,-1.730330,1.734932,0.4801,0.5454,0.1435,0.000000,0.579845,-0.562971,0.564505,-0.592117,0.575243,-0.559903
1.7615,0.016762,0.000000,-1.604359,1.604359,0.0000,0.0000,0.0000,-0.002375,-1.710389,1.718058,0.4205,0.5096,0.1434,0.000000,0.578311,-0.562971,0.564505,-0.590583,0.575243,-0.559903
1.7783,0.016755,0.000000,-1.589738,1.589738,0.0000,0.0000,0.0000,-0.002374,-1.691981,1.699651,0.3983,0.5997,0.1429,0.000000,0.578311,-0.561437,0.564505,-0.592117,0.575243,-0.559903
1.7950,0.016753,0.000000,-1.575118,1.575118,0.0000,0.0000,0.0000,-0.002361,-1.667437,1.675107,0.4398,0.5547,0.0898,0.000000,0.578311,-0.562971,0.564505,-0.592117,0.575243,-0.559903
1.8118,0.016758,0.000000,-1.560493,1.560493,0.0000,0.0000,0.0000,-0.002351,-1.655165,1.656699,0.4853,0.5438,0.1491,0.000000,0.579845,-0.562971,0.564505,-0.592117,0.575243,-0.559903
1.8286,0.016754,0.000000,-1.545873,1.545873,0.0000,0.0000,0.0000,-0.002365,-1.636758,1.639825,0.4413,0.5806,0.1961,0.000000,0.579845,-0.561437,0.564505,-0.592117,0.575243,-0.559903
1.8453,0.016761,0.000000,-1.531246,1.531246,0.0000,0.0000,0.0000,-0.002365,-1.636758,1.639825,0.4413,0.5806,0.1961,0.000000,0.579845,-0.561437,0.564505,-0.592117,0.575243,-0.559903
1.8621,0.016751,0.000000,-1.516628,1.516628,0.0000,0.0000,0.0000,-0.002362,-1.619884,1.622952,0.4354,0.5567,0.0842,0.000000,0.578311,-0.562971,0.564505,-0.592117,0.575243,-0.559903
1.8788,0.016759,0.000000,-1.502003,1.502003,0.0000,0.0000,0.0000,-0.002351,-1.604544,1.604544,0.4858,0.5436,0.1497,0.000000,0.579845,-0.562971,0.564505,-0.592117,0.575243,-0.559903
1.8956,0.016772,0.000000,-1.487367,1.487367,0.0000,0.0000,0.0000,-0.002352,-1.587670,1.589204,0.4805,0.5450,0.1429,0.000000,0.579845,-0.562971,0.564505,-0.592117,0.575243,-0.559903
1.9124,0.016763,0.000000,-1.472738,1.472738,0.0000,0.0000,0.0000,-0.002352,-1.550855,1.556990,0.4805,0.5450,0.1429,0.000000,0.579845,-0.562971,0.564505,-0.592117,0.575243,-0.559903
1.9291,0.016766,0.000000,-1.458107,1.458107,0.0000,0.0000,0.0000,-0.002363,-1.529379,1.537049,0.4703,0.4941,0.1973,0.000000,0.579845,-0.562971,0.564505,-0.590583,0.575243,-0.559903
1.9459,0.016762,0.000000,-1.443480,1.443480,0.0000,0.0000,0.0000,-0.002363,-1.529379,1.537049,0.4703,0.4941,0.1973,0.000000,0.579845,-0.562971,0.564505,-0.590583,0.575243,-0.559903
1.9626,0.016748,0.000000,-1.428864,1.428864,0.0000,0.0000,0.0000,-0.002362,-1.510971,1.517107,0.4323,0.5657,0.0841,0.000000,0.578311,-0.562971,0.564505,-0.592117,0.575243,-0.559903
1.9794,0.016757,0.000000,-1.414241,1.414241,0.0000,0.0000,0.0000,-0.002364,-1.492563,1.497165,0.4469,0.5782,0.2029,0.000000,0.579845,-0.561437,0.564505,-0.592117,0.575243,-0.559903
1.9962,0.016760,0.000000,-1.399615,1.399615,0.0000,0.0000,0.0000,-0.002351,-1.475690,1.480291,0.4846,0.5414,0.1373,0.000000,0.579845,-0.562971,0.564505,-0.592117,0.575243,-0.559903
2.0129,0.016756,0.000000,-1.407533,1.407533,0.0000,0.0000,0.0000,-0.002377,-1.457282,1.460350,0.3916,0.5963,0.1435,0.000000,0.578311,-0.561437,0.564505,-0.592117,0.575243,-0.559903
2.0297,0.016757,0.000000,-1.422157,1.422157,0.0000,0.0000,0.0000,-0.002377,-1.457282,1.460350,0.3916,0.5963,0.1435,0.000000,0.578311,-0.561437,0.564505,-0.592117,0.575243,-0.559903
2.0464,0.016752,0.000000,-1.436775,1.436775,0.0000,0.0000,0.0000,-0.002374,-1.457282,1.460350,0.4013,0.5906,0.1429,0.000000,0.578311,-0.561437,0.564505,-0.592117,0.575243,-0.559903
2.0632,0.016751,0.000000,-1.451393,1.451393,0.0000,0.0000,0.0000,-0.002361,-1.425068,1.423534,0.4395,0.5557,0.0898,0.000000,0.578311,-0.562971,0.564505,-0.592117,0.575243,-0.559903
2.0799,0.016773,0.000000,-1.466030,1.466030,0.0000,0.0000,0.0000,-0.002362,-1.423534,1.420466,0.4746,0.4930,0.2028,0.000000,0.579845,-0.562971,0.564505,-0.590583,0.575243,-0.559903
2.0967,0.016747,0.000000,-1.480645,1.480645,0.0000,0.0000,0.0000,-0.002351,-1.432738,1.428136,0.4817,0.5503,0.1374,0.000000,0.579845,-0.562971,0.564505,-0.592117,0.575243,-0.559903
2.1135,0.016766,0.000000,-1.495276,1.495276,0.0000,0.0000,0.0000,-0.002352,-1.455748,1.448078,0.4809,0.5443,0.1442,0.000000,0.579845,-0.562971,0.564505,-0.592117,0.575243,-0.559903
2.1302,0.016752,0.000000,-1.509895,1.509895,0.0000,0.0000,0.0000,-0.002352,-1.455748,1.448078,0.4809,0.5443,0.1442,0.000000,0.579845,-0.562971,0.564505,-0.592117,0.575243,-0.559903
2.1470,0.016757,0.000000,-1.524518,1.524518,0.0000,0.0000,0.0000,-0.002365,-1.480291,1.474156,0.4418,0.5805,0.1967,0.000000,0.579845,-0.561437,0.564505,-0.592117,0.575243,-0.559903
2.1637,0.016752,0.000000,-1.539137,1.539137,0.0000,0.0000,0.0000,-0.002363,-1.500233,1.497165,0.4459,0.5767,0.1912,0.000000,0.579845,-0.561437,0.564505,-0.592117,0.575243,-0.559903
2.1805,0.016753,0.000000,-1.553757,1.553757,0.0000,0.0000,0.0000,-0.002375,-1.503301,1.503301,0.3957,0.5926,0.1379,0.000000,0.578311,-0.561437,0.564505,-0.592117,0.575243,-0.559903
2.1972,0.016756,0.000000,-1.568379,1.568379,0.0000,0.0000,0.0000,-0.002362,-1.517107,1.512505,0.4507,0.5754,0.1973,0.000000,0.579845,-0.561437,0.564505,-0.592117,0.575243,-0.559903
2.2144,0.017195,0.000000,-1.583384,1.583384,0.0000,0.0000,0.0000,-0.002362,-1.541651,1.533981,0.4344,0.5572,0.0841,0.000000,0.578311,-0.562971,0.564505,-0.592117,0.575243,-0.559903
2.2312,0.016759,0.000000,-1.598009,1.598009,0.0000,0.0000,0.0000,-0.002362,-1.541651,1.533981,0.4344,0.5572,0.0841,0.000000,0.578311,-0.562971,0.564505,-0.592117,0.575243,-0.559903
2.2479,0.016756,0.000000,-1.612631,1.612631,0.0000,0.0000,0.0000,-0.002364,-1.570796,1.561592,0.4467,0.5791,0.2029,0.000000,0.579845,-0.561437,0.564505,-0.592117,0.575243,-0.559903
2.2647,0.016753,0.000000,-1.627251,1.627251,0.0000,0.0000,0.0000,-0.002351,-1.583068,1.583068,0.4846,0.5413,0.1373,0.000000,0.579845,-0.562971,0.564505,-0.592117,0.575243,-0.559903
2.2816,0.016950,0.000000,-1.642043,1.642043,0.0000,0.0000,0.0000,-0.002364,-1.590738,1.593806,0.4308,0.5608,0.0904,0.000000,0.578311,-0.562971,0.564505,-0.592117,0.575243,-0.559903
2.2984,0.016800,0.000000,-1.656704,1.656704,0.0000,0.0000,0.0000,-0.002364,-1.604544,1.601476,0.4470,0.5788,0.2023,0.000000,0.579845,-0.561437,0.564505,-0.592117,0.575243,-0.559903
2.3160,0.017590,0.000000,-1.672053,1.672053,0.0000,0.0000,0.0000,-0.002351,-1.622952,1.618350,0.4846,0.5414,0.1374,0.000000,0.579845,-0.562971,0.564505,-0.592117,0.575243,-0.559903
2.3328,0.016771,0.000000,-1.686689,1.686689,0.0000,0.0000,0.0000,-0.002351,-1.622952,1.618350,0.4846,0.5414,0.1374,0.000000,0.579845,-0.562971,0.564505,-0.592117,0.575243,-0.559903
2.3496,0.016761,0.000000,-1.701315,1.701315,0.0000,0.0000,0.0000,-0.002388,-1.649029,1.645961,0.3809,0.5456,0.1973,0.000000,0.578311,-0.561437,0.564505,-0.590583,0.575243,-0.559903
2.3663,0.016758,0.000000,-1.715939,1.715939,0.0000,0.0000,0.0000,-0.002371,-1.673573,1.673573,0.4309,0.5096,0.1378,0.000000,0.578311,-0.562971,0.564505,-0.590583,0.575243,-0.559903
2.3831,0.016765,0.000000,-1.730569,1.730569,0.0000,0.0000,0.0000,-0.002362,-1.685845,1.681243,0.4364,0.5641,0.0903,0.000000,0.578311,-0.562971,0.564505,-0.592117,0.575243,-0.559903
2.3998,0.016751,0.000000,-1.745187,1.745187,0.0000,0.0000,0.0000,-0.002351,-1.690447,1.688913,0.4857,0.5429,0.1491,0.000000,0.579845,-0.562971,0.564505,-0.592117,0.575243,-0.559903
2.4166,0.016773,0.000000,-1.730834,1.730834,0.0000,0.0000,0.0000,-0.002376,-1.707321,1.705787,0.4305,0.5299,0.2499,0.000000,0.579845,-0.561437,0.564505,-0.590583,0.575243,-0.559903
2.4334,0.016757,0.000000,-1.716211,1.716211,0.0000,0.0000,0.0000,-0.002376,-1.707321,1.705787,0.4305,0.5299,0.2499,0.000000,0.579845,-0.561437,0.564505,-0.590583,0.575243,-0.559903
2.4501,0.016757,0.000000,-1.701587,1.701587,0.0000,0.0000,0.0000,-0.002349,-1.731864,1.730330,0.4863,0.5465,0.1324,0.000000,0.579845,-0.562971,0.564505,-0.592117,0.575243,-0.559903
2.4669,0.016757,0.000000,-1.686965,1.686965,0.0000,0.0000,0.0000,-0.002365,-1.757942,1.754874,0.4413,0.5803,0.1979,0.000000,0.579845,-0.561437,0.564505,-0.592117,0.575243,-0.559903
2.4837,0.016781,0.000000,-1.672320,1.672320,0.0000,0.0000,0.0000,-0.002362,-1.757942,1.754874,0.4354,0.5567,0.0841,0.000000,0.578311,-0.562971,0.564505,-0.592117,0.575243,-0.559903
2.5004,0.016768,0.000000,-1.657687,1.657687,0.0000,0.0000,0.0000,-0.002351,-1.742602,1.745670,0.4858,0.5436,0.1497,0.000000,0.579845,-0.562971,0.564505,-0.592117,0.575243,-0.559903
2.5172,0.016766,0.000000,-1.643056,1.643056,0.0000,0.0000,0.0000,-0.002364,-1.724194,1.731864,0.4307,0.5605,0.0891,0.000000,0.578311,-0.562971,0.564505,-0.592117,0.575243,-0.559903
2.5340,0.016763,0.000000,-1.628428,1.628428,0.0000,0.0000,0.0000,-0.002364,-1.724194,1.731864,0.4307,0.5605,0.0891,0.000000,0.578311,-0.562971,0.564505,-0.592117,0.575243,-0.559903
2.5507,0.016754,0.000000,-1.613807,1.613807,0.0000,0.0000,0.0000,-0.002362,-1.708855,1.716525,0.4364,0.5588,0.0954,0.000000,0.578311,-0.562971,0.564505,-0.592117,0.575243,-0.559903
2.5675,0.016823,0.000000,-1.599126,1.599126,0.0000,0.0000,0.0000,-0.002351,-1.688913,1.695049,0.4856,0.5434,0.1486,0.000000,0.579845,-0.562971,0.564505,-0.592117,0.575243,-0.559903
2.5843,0.016780,0.000000,-1.584482,1.584482,0.0000,0.0000,0.0000,-0.002351,-1.664369,1.670505,0.4856,0.5434,0.1486,0.000000,0.579845,-0.562971,0.564505,-0.592117,0.575243,-0.559903
2.6011,0.016754,0.000000,-1.569861,1.569861,0.0000,0.0000,0.0000,-0.002352,-1.664369,1.670505,0.4805,0.5450,0.1430,0.000000,0.579845,-0.562971,0.564505,-0.592117,0.575243,-0.559903
2.6178,0.016751,0.000000,-1.555243,1.555243,0.0000,0.0000,0.0000,-0.002352,-1.652097,1.655165,0.4805,0.5450,0.1430,0.000000,0.579845,-0.562971,0.564505,-0.592117,0.575243,-0.559903
2.6346,0.016755,0.000000,-1.540621,1.540621,0.0000,0.0000,0.0000,-0.002365,-1.635224,1.636758,0.4418,0.5804,0.1968,0.000000,0.579845,-0.561437,0.564505,-0.592117,0.575243,-0.559903
2.6513,0.016751,0.000000,-1.526004,1.526004,0.0000,0.0000,0.0000,-0.002363,-1.618350,1.621418,0.4459,0.5767,0.1912,0.000000,0.579845,-0.561437,0.564505,-0.592117,0.575243,-0.559903
2.6681,0.016758,0.000000,-1.511379,1.511379,0.0000,0.0000,0.0000,-0.002363,-1.604544,1.606078,0.4459,0.5767,0.1912,0.000000,0.579845,-0.561437,0.564505,-0.592117,0.575243,-0.559903
2.6848,0.016758,0.000000,-1.496755,1.496755,0.0000,0.0000,0.0000,-0.002363,-1.604544,1.606078,0.4459,0.5767,0.1912,0.000000,0.579845,-0.561437,0.564505,-0.592117,0.575243,-0.559903
2.7016,0.016756,0.000000,-1.482133,1.482133,0.0000,0.0000,0.0000,-0.002363,-1.586136,1.587670,0.4459,0.5767,0.1912,0.000000,0.579845,-0.561437,0.564505,-0.592117,0.575243,-0.559903
2.7184,0.016762,0.000000,-1.467505,1.467505,0.0000,0.0000,0.0000,-0.002351,-1.567728,1.570796,0.4847,0.5416,0.1386,0.000000,0.579845,-0.562971,0.564505,-0.592117,0.575243,-0.559903
2.7351,0.016763,0.000000,-1.452876,1.452876,0.0000,0.0000,0.0000,-0.002352,-1.547787,1.553923,0.4806,0.5452,0.1441,0.000000,0.579845,-0.562971,0.564505,-0.592117,0.575243,-0.559903
2.7519,0.016756,0.000000,-1.438254,1.438254,0.0000,0.0000,0.0000,-0.002365,-1.530913,1.538583,0.4418,0.5804,0.1967,0.000000,0.579845,-0.561437,0.564505,-0.592117,0.575243,-0.559903
2.7686,0.016760,0.000000,-1.423629,1.423629,0.0000,0.0000,0.0000,-0.002351,-1.510971,1.518641,0.4851,0.5412,0.1380,0.000000,0.579845,-0.562971,0.564505,-0.592117,0.575243,-0.559903
2.7855,0.016828,0.000000,-1.408944,1.408944,0.0000,0.0000,0.0000,-0.002351,-1.492563,1.498699,0.4851,0.5412,0.1380,0.000000,0.579845,-0.562971,0.564505,-0.592117,0.575243,-0.559903
2.8022,0.016757,0.000000,-1.398206,1.398206,0.0000,0.0000,0.0000,-0.002352,-1.492563,1.498699,0.4806,0.5453,0.1441,0.000000,0.579845,-0.562971,0.564505,-0.592117,0.575243,-0.559903
2.8190,0.016751,0.000000,-1.412825,1.412825,0.0000,0.0000,0.0000,-0.002352,-1.472622,1.475690,0.4806,0.5453,0.1441,0.000000,0.579845,-0.562971,0.564505,-0.592117,0.575243,-0.559903
2.8357,0.016758,0.000000,-1.427449,1.427449,0.0000,0.0000,0.0000,-0.002365,-1.458816,1.460350,0.4418,0.5804,0.1967,0.000000,0.579845,-0.561437,0.564505,-0.592117,0.575243,-0.559903
2.8525,0.016748,0.000000,-1.442064,1.442064,0.0000,0.0000,0.0000,-0.002351,-1.440408,1.440408,0.4851,0.5412,0.1380,0.000000,0.579845,-0.562971,0.564505,-0.592117,0.575243,-0.559903
2.8693,0.016783,0.000000,-1.456709,1.456709,0.0000,0.0000,0.0000,-0.002351,-1.432738,1.431204,0.4851,0.5412,0.1380,0.000000,0.579845,-0.562971,0.564505,-0.592117,0.575243,-0.559903
2.8860,0.016766,0.000000,-1.471341,1.471341,0.0000,0.0000,0.0000,-0.002352,-1.432738,1.431204,0.4806,0.5453,0.1441,0.000000,0.579845,-0.562971,0.564505,-0.592117,0.575243,-0.559903
2.9028,0.016760,0.000000,-1.485967,1.485967,0.0000,0.0000,0.0000,-0.002365,-1.429670,1.426602,0.4418,0.5804,0.1967,0.000000,0.579845,-0.561437,0.564505,-0.592117,0.575243,-0.559903
2.9195,0.016751,0.000000,-1.500585,1.500585,0.0000,0.0000,0.0000,-0.002375,-1.435806,1.431204,0.4351,0.5259,0.2449,0.000000,0.579845,-0.561437,0.564505,-0.590583,0.575243,-0.559903
2.9363,0.016749,0.000000,-1.515201,1.515201,0.0000,0.0000,0.0000,-0.002350,-1.454214,1.446544,0.4858,0.5469,0.1330,0.000000,0.579845,-0.562971,0.564505,-0.592117,0.575243,-0.559903
2.9536,0.017337,0.000000,-1.530330,1.530330,0.0000,0.0000,0.0000,-0.002365,-1.474156,1.468020,0.4413,0.5802,0.1978,0.000000,0.579845,-0.561437,0.564505,-0.592117,0.575243,-0.559903
2.9704,0.016751,0.000000,-1.544948,1.544948,0.0000,0.0000,0.0000,-0.002362,-1.489495,1.489495,0.4354,0.5567,0.0841,0.000000,0.578311,-0.562971,0.564505,-0.592117,0.575243,-0.559903
2.9871,0.016762,0.000000,-1.559575,1.559575,0.0000,0.0000,0.0000,-0.002362,-1.510971,1.509437,0.4354,0.5567,0.0841,0.000000,0.579845,-0.562971,0.564505,-0.592117,0.575243,-0.559903
3.0039,0.016798,0.000000,-1.574234,1.574234,0.0000,0.0000,0.0000,-0.002351,-1.510971,1.509437,0.4858,0.5436,0.1497,0.000000,0.579845,-0.562971,0.564505,-0.592117,0.575243,-0.559903
3.0207,0.016751,0.000000,-1.588852,1.588852,0.0000,0.0000,0.0000,-0.002365,-1.533981,1.529379,0.4413,0.5806,0.1961,0.000000,0.579845,-0.561437,0.564505,-0.592117,0.575243,-0.559903
3.0375,0.016769,0.000000,-1.603486,1.603486,0.0000,0.0000,0.0000,-0.002351,-1.552389,1.544719,0.4852,0.5412,0.1381,0.000000,0.579845,-0.562971,0.564505,-0.592117,0.575243,-0.559903
3.0542,0.016763,0.000000,-1.618114,1.618114,0.0000,0.0000,0.0000,-0.002364,-1.556990,1.556990,0.4308,0.5608,0.0903,0.000000,0.578311,-0.562971,0.564505,-0.592117,0.575243,-0.559903
3.0716,0.017356,0.000000,-1.633260,1.633260,0.0000,0.0000,0.0000,-0.002364,-1.556990,1.556990,0.4308,0.5608,0.0903,0.000000,0.578311,-0.562971,0.564505,-0.592117,0.575243,-0.559903
3.0883,0.016759,0.000000,-1.647885,1.647885,0.0000,0.0000,0.0000,-0.002364,-1.570796,1.570796,0.4471,0.5788,0.2023,0.000000,0.579845,-0.561437,0.564505,-0.592117,0.575243,-0.559903
3.1051,0.016766,0.000000,-1.662516,1.662516,0.0000,0.0000,0.0000,-0.002364,-1.593806,1.593806,0.4453,0.5769,0.1906,0.000000,0.579845,-0.561437,0.564505,-0.592117,0.575243,-0.559903
3.1219,0.016752,0.000000,-1.677134,1.677134,0.0000,0.0000,0.0000,-0.002364,-1.633690,1.635224,0.4453,0.5769,0.1906,0.000000,0.579845,-0.561437,0.564505,-0.592117,0.575243,-0.559903
3.1386,0.016759,0.000000,-1.691760,1.691760,0.0000,0.0000,0.0000,-0.002364,-1.633690,1.635224,0.4453,0.5769,0.1906,0.000000,0.579845,-0.561437,0.564505,-0.592117,0.575243,-0.559903
3.1554,0.016761,0.000000,-1.706387,1.706387,0.0000,0.0000,0.0000,-0.002374,-1.661301,1.653631,0.4242,0.5063,0.1385,0.000000,0.578311,-0.562971,0.564505,-0.590583,0.575243,-0.559903
3.1721,0.016757,0.000000,-1.721010,1.721010,0.0000,0.0000,0.0000,-0.002362,-1.688913,1.679709,0.4477,0.5844,0.1972,0.000000,0.579845,-0.561437,0.564505,-0.592117,0.575243,-0.559903
3.1889,0.016763,0.000000,-1.735639,1.735639,0.0000,0.0000,0.0000,-0.002375,-1.713457,1.707321,0.3955,0.5918,0.1373,0.000000,0.578311,-0.561437,0.564505,-0.592117,0.575243,-0.559903
3.2057,0.016767,0.000000,-1.740387,1.740387,0.0000,0.0000,0.0000,-0.002375,-1.713457,1.707321,0.3955,0.5918,0.1373,0.000000,0.578311,-0.561437,0.564505,-0.592117,0.575243,-0.559903
3.2224,0.016749,0.000000,-1.725771,1.725771,0.0000,0.0000,0.0000,-0.002374,-1.722660,1.724194,0.4009,0.5911,0.1435,0.000000,0.578311,-0.561437,0.564505,-0.592117,0.575243,-0.559903
3.2392,0.016757,0.000000,-1.711148,1.711148,0.0000,0.0000,0.0000,-0.002374,-1.730330,1.725728,0.4393,0.5248,0.2504,0.000000,0.579845,-0.561437,0.564505,-0.590583,0.575243,-0.559903
3.2559,0.016769,0.000000,-1.696515,1.696515,0.0000,0.0000,0.0000,-0.002363,-1.739534,1.730330,0.4461,0.5826,0.1856,0.000000,0.579845,-0.561437,0.564505,-0.592117,0.575243,-0.559903
3.2729,0.016928,0.000000,-1.681742,1.681742,0.0000,0.0000,0.0000,-0.002351,-1.738000,1.730330,0.4846,0.5410,0.1392,0.000000,0.579845,-0.562971,0.564505,-0.592117,0.575243,-0.559903
3.2896,0.016757,0.000000,-1.667119,1.667119,0.0000,0.0000,0.0000,-0.002376,-1.728796,1.724194,0.4306,0.5301,0.2509,0.000000,0.579845,-0.561437,0.564505,-0.590583,0.575243,-0.559903
3.3064,0.016751,0.000000,-1.652500,1.652500,0.0000,0.0000,0.0000,-0.002376,-1.728796,1.724194,0.4306,0.5301,0.2509,0.000000,0.579845,-0.561437,0.564505,-0.590583,0.575243,-0.559903
3.3231,0.016753,0.000000,-1.637881,1.637881,0.0000,0.0000,0.0000,-0.002362,-1.722660,1.719592,0.4470,0.5820,0.1855,0.000000,0.579845,-0.561437,0.564505,-0.592117,0.575243,-0.559903
3.3399,0.016756,0.000000,-1.623258,1.623258,0.0000,0.0000,0.0000,-0.002362,-1.713457,1.710389,0.4348,0.5565,0.0853,0.000000,0.578311,-0.562971,0.564505,-0.592117,0.575243,-0.559903
3.3566,0.016758,0.000000,-1.608634,1.608634,0.0000,0.0000,0.0000,-0.002364,-1.701185,1.699651,0.4466,0.5792,0.2028,0.000000,0.579845,-0.561437,0.564505,-0.592117,0.575243,-0.559903
3.3734,0.016757,0.000000,-1.594011,1.594011,0.0000,0.0000,0.0000,-0.002351,-1.682777,1.681243,0.4846,0.5413,0.1374,0.000000,0.579845,-0.562971,0.564505,-0.592117,0.575243,-0.559903
3.3902,0.016756,0.000000,-1.579389,1.579389,0.0000,0.0000,0.0000,-0.002351,-1.682777,1.681243,0.4846,0.5413,0.1374,0.000000,0.579845,-0.562971,0.564505,-0.592117,0.575243,-0.559903
3.4069,0.016752,0.000000,-1.564770,1.564770,0.0000,0.0000,0.0000,-0.002364,-1.656699,1.659767,0.4308,0.5608,0.0904,0.000000,0.578311,-0.562971,0.564505,-0.592117,0.575243,-0.559903
3.4237,0.016756,0.000000,-1.550148,1.550148,0.0000,0.0000,0.0000,-0.002375,-1.635224,1.641359,0.3972,0.5943,0.1484,0.000000,0.578311,-0.561437,0.564505,-0.592117,0.575243,-0.559903
3.4404,0.016748,0.000000,-1.535533,1.535533,0.0000,0.0000,0.0000,-0.002350,-1.616816,1.624486,0.4897,0.5397,0.1430,0.000000,0.579845,-0.562971,0.564505,-0.592117,0.575243,-0.559903
3.4572,0.016757,0.000000,-1.520909,1.520909,0.0000,0.0000,0.0000,-0.002352,-1.604544,1.607612,0.4801,0.5454,0.1436,0.000000,0.579845,-0.562971,0.564505,-0.592117,0.575243,-0.559903
3.4739,0.016760,0.000000,-1.506283,1.506283,0.0000,0.0000,0.0000,-0.002352,-1.586136,1.590738,0.4801,0.5454,0.1436,0.000000,0.579845,-0.562971,0.564505,-0.592117,0.575243,-0.559903
3.4907,0.016756,0.000000,-1.491661,1.491661,0.0000,0.0000,0.0000,-0.002352,-1.586136,1.590738,0.4801,0.5454,0.1436,0.000000,0.579845,-0.562971,0.564505,-0.592117,0.575243,-0.559903
3.5074,0.016759,0.000000,-1.477036,1.477036,0.0000,0.0000,0.0000,-0.002364,-1.569262,1.573864,0.4313,0.5604,0.0897,0.000000,0.578311,-0.562971,0.564505,-0.592117,0.575243,-0.559903
3.5242,0.016753,0.000000,-1.462417,1.462417,0.0000,0.0000,0.0000,-0.002362,-1.549321,1.556990,0.4364,0.5588,0.0953,0.000000,0.578311,-0.562971,0.564505,-0.592117,0.575243,-0.559903
3.5409,0.016753,0.000000,-1.447796,1.447796,0.0000,0.0000,0.0000,-0.002351,-1.535515,1.541651,0.4857,0.5434,0.1486,0.000000,0.579845,-0.562971,0.564505,-0.592117,0.575243,-0.559903
3.5577,0.016756,0.000000,-1.433174,1.433174,0.0000,0.0000,0.0000,-0.002365,-1.512505,1.518641,0.4413,0.5806,0.1962,0.000000,0.579845,-0.561437,0.564505,-0.592117,0.575243,-0.559903
3.5745,0.016766,0.000000,-1.418543,1.418543,0.0000,0.0000,0.0000,-0.002365,-1.492563,1.498699,0.4413,0.5806,0.1962,0.000000,0.579845,-0.562971,0.564505,-0.592117,0.575243,-0.559903
3.5912,0.016763,0.000000,-1.403914,1.403914,0.0000,0.0000,0.0000,-0.002351,-1.492563,1.498699,0.4852,0.5412,0.1380,0.000000,0.579845,-0.562971,0.564505,-0.592117,0.575243,-0.559903
3.6080,0.016789,0.000000,-1.403264,1.403264,0.0000,0.0000,0.0000,-0.002352,-1.468020,1.471088,0.4806,0.5453,0.1441,0.000000,0.579845,-0.562971,0.564505,-0.592117,0.575243,-0.559903
3.6248,0.016763,0.000000,-1.417893,1.417893,0.0000,0.0000,0.0000,-0.002352,-1.468020,1.471088,0.4806,0.5453,0.1441,0.000000,0.579845,-0.562971,0.564505,-0.592117,0.575243,-0.559903
3.6415,0.016754,0.000000,-1.432513,1.432513,0.0000,0.0000,0.0000,-0.002364,-1.455748,1.457282,0.4312,0.5604,0.0897,0.000000,0.578311,-0.562971,0.564505,-0.592117,0.575243,-0.559903
3.6583,0.016759,0.000000,-1.447138,1.447138,0.0000,0.0000,0.0000,-0.002362,-1.443476,1.441942,0.4364,0.5588,0.0953,0.000000,0.578311,-0.562971,0.564505,-0.592117,0.575243,-0.559903
3.6751,0.016758,0.000000,-1.461762,1.461762,0.0000,0.0000,0.0000,-0.002364,-1.431204,1.429670,0.4465,0.5790,0.2017,0.000000,0.579845,-0.561437,0.564505,-0.592117,0.575243,-0.559903
3.6918,0.016758,0.000000,-1.476387,1.476387,0.0000,0.0000,0.0000,-0.002362,-1.425068,1.422000,0.4739,0.4905,0.1912,0.000000,0.579845,-0.562971,0.564505,-0.590583,0.575243,-0.559903
3.7089,0.017065,0.000000,-1.491279,1.491279,0.0000,0.0000,0.0000,-0.002375,-1.431204,1.428136,0.4318,0.5353,0.2455,0.000000,0.579845,-0.561437,0.564505,-0.590583,0.575243,-0.559903
3.7256,0.016764,0.000000,-1.505908,1.505908,0.0000,0.0000,0.0000,-0.002375,-1.431204,1.428136,0.4318,0.5353,0.2455,0.000000,0.579845,-0.561437,0.564505,-0.590583,0.575243,-0.559903
3.7424,0.016757,0.000000,-1.520532,1.520532,0.0000,0.0000,0.0000,-0.002350,-1.451146,1.448078,0.4861,0.5459,0.1329,0.000000,0.579845,-0.562971,0.564505,-0.592117,0.575243,-0.559903
3.7592,0.016760,0.000000,-1.535158,1.535158,0.0000,0.0000,0.0000,-0.002365,-1.481825,1.478757,0.4413,0.5803,0.1978,0.000000,0.579845,-0.561437,0.564505,-0.592117,0.575243,-0.559903
3.7759,0.016789,0.000000,-1.549808,1.549808,0.0000,0.0000,0.0000,-0.002351,-1.497165,1.492563,0.4852,0.5412,0.1379,0.000000,0.579845,-0.562971,0.564505,-0.592117,0.575243,-0.559903
3.7927,0.016757,0.000000,-1.564432,1.564432,0.0000,0.0000,0.0000,-0.002377,-1.503301,1.501767,0.3916,0.5964,0.1435,0.000000,0.578311,-0.561437,0.564505,-0.592117,0.575243,-0.559903
3.8095,0.016751,0.000000,-1.579050,1.579050,0.0000,0.0000,0.0000,-0.002349,-1.518641,1.510971,0.4903,0.5395,0.1435,0.000000,0.579845,-0.562971,0.564505,-0.592117,0.575243,-0.559903
3.8262,0.016771,0.000000,-1.593686,1.593686,0.0000,0.0000,0.0000,-0.002349,-1.518641,1.510971,0.4903,0.5395,0.1435,0.000000,0.579845,-0.562971,0.564505,-0.592117,0.575243,-0.559903
3.8430,0.016757,0.000000,-1.608309,1.608309,0.0000,0.0000,0.0000,-0.002352,-1.543185,1.533981,0.4800,0.5454,0.1435,0.000000,0.579845,-0.562971,0.564505,-0.592117,0.575243,-0.559903
3.8597,0.016757,0.000000,-1.622932,1.622932,0.0000,0.0000,0.0000,-0.002363,-1.569262,1.560058,0.4703,0.4940,0.1972,0.000000,0.579845,-0.562971,0.564505,-0.590583,0.575243,-0.559903
3.8765,0.016760,0.000000,-1.637558,1.637558,0.0000,0.0000,0.0000,-0.002364,-1.581534,1.581534,0.4429,0.5857,0.1911,0.000000,0.579845,-0.561437,0.564505,-0.592117,0.575243,-0.559903
3.8933,0.016757,0.000000,-1.652181,1.652181,0.0000,0.0000,0.0000,-0.002351,-1.586136,1.592272,0.4850,0.5406,0.1386,0.000000,0.579845,-0.562971,0.564505,-0.592117,0.575243,-0.559903
3.9108,0.017510,0.000000,-1.667462,1.667462,0.0000,0.0000,0.0000,-0.002364,-1.598408,1.598408,0.4308,0.5609,0.0902,0.000000,0.578311,-0.562971,0.564505,-0.592117,0.575243,-0.559903
3.9275,0.016765,0.000000,-1.682091,1.682091,0.0000,0.0000,0.0000,-0.002364,-1.624486,1.621418,0.4308,0.5609,0.0902,0.000000,0.579845,-0.562971,0.564505,-0.592117,0.575243,-0.559903
3.9443,0.016758,0.000000,-1.696715,1.696715,0.0000,0.0000,0.0000,-0.002351,-1.624486,1.621418,0.4862,0.5432,0.1491,0.000000,0.579845,-0.562971,0.564505,-0.592117,0.575243,-0.559903
3.9611,0.016758,0.000000,-1.711339,1.711339,0.0000,0.0000,0.0000,-0.002364,-1.652097,1.647495,0.4306,0.5606,0.0891,0.000000,0.578311,-0.562971,0.564505,-0.592117,0.575243,-0.559903
3.9778,0.016754,0.000000,-1.725960,1.725960,0.0000,0.0000,0.0000,-0.002364,-1.675107,1.672039,0.4471,0.5788,0.2024,0.000000,0.579845,-0.561437,0.564505,-0.592117,0.575243,-0.559903
3.9946,0.016757,0.000000,-1.740583,1.740583,0.0000,0.0000,0.0000,-0.002351,-1.682777,1.681243,0.4846,0.5414,0.1374,0.000000,0.579845,-0.562971,0.564505,-0.592117,0.575243,-0.559903
4.0113,0.016767,0.000000,-1.735444,1.735444,0.0000,0.0000,0.0000,-0.002352,-1.714991,1.708855,0.4806,0.5453,0.1442,0.000000,0.579845,-0.562971,0.564505,-0.592117,0.575243,-0.559903
4.0281,0.016760,0.000000,-1.720817,1.720817,0.0000,0.0000,0.0000,-0.002352,-1.742602,1.736466,0.4806,0.5453,0.1442,0.000000,0.579845,-0.562971,0.564505,-0.592117,0.575243,-0.559903
4.0448,0.016754,0.000000,-1.706197,1.706197,0.0000,0.0000,0.0000,-0.002352,-1.742602,1.736466,0.4806,0.5453,0.1442,0.000000,0.579845,-0.562971,0.564505,-0.592117,0.575243,-0.559903
4.0616,0.016763,0.000000,-1.691568,1.691568,0.0000,0.0000,0.0000,-0.002365,-1.754874,1.751806,0.4418,0.5804,0.1967,0.000000,0.579845,-0.561437,0.564505,-0.592117,0.575243,-0.559903
4.0784,0.016756,0.000000,-1.676946,1.676946,0.0000,0.0000,0.0000,-0.002363,-1.754874,1.751806,0.4459,0.5767,0.1912,0.000000,0.579845,-0.561437,0.564505,-0.592117,0.575243,-0.559903
4.0951,0.016762,0.000000,-1.662318,1.662318,0.0000,0.0000,0.0000,-0.002363,-1.741068,1.739534,0.4459,0.5767,0.1912,0.000000,0.579845,-0.561437,0.564505,-0.592117,0.575243,-0.559903
4.1119,0.016753,0.000000,-1.647698,1.647698,0.0000,0.0000,0.0000,-0.002363,-1.728796,1.730330,0.4459,0.5767,0.1912,0.000000,0.579845,-0.561437,0.564505,-0.592117,0.575243,-0.559903
4.1286,0.016757,0.000000,-1.633075,1.633075,0.0000,0.0000,0.0000,-0.002363,-1.707321,1.711923,0.4459,0.5767,0.1912,0.000000,0.578311,-0.562971,0.564505,-0.592117,0.575243,-0.559903
4.1454,0.016752,0.000000,-1.618456,1.618456,0.0000,0.0000,0.0000,-0.002362,-1.707321,1.711923,0.4349,0.5571,0.0847,0.000000,0.578311,-0.562971,0.564505,-0.592117,0.575243,-0.559903
4.1621,0.016751,0.000000,-1.603838,1.603838,0.0000,0.0000,0.0000,-0.002375,-1.690447,1.695049,0.3968,0.5947,0.1490,0.000000,0.578311,-0.561437,0.564505,-0.592117,0.575243,-0.559903
4.1789,0.016753,0.000000,-1.589218,1.589218,0.0000,0.0000,0.0000,-0.002361,-1.672039,1.675107,0.4400,0.5552,0.0891,0.000000,0.578311,-0.562971,0.564505,-0.592117,0.575243,-0.559903
4.1956,0.016752,0.000000,-1.574599,1.574599,0.0000,0.0000,0.0000,-0.002363,-1.653631,1.656699,0.4355,0.5594,0.0954,0.000000,0.578311,-0.562971,0.564505,-0.592117,0.575243,-0.559903
4.2124,0.016766,0.000000,-1.559969,1.559969,0.0000,0.0000,0.0000,-0.002363,-1.633690,1.636758,0.4355,0.5594,0.0954,0.000000,0.579845,-0.562971,0.564505,-0.592117,0.575243,-0.559903
4.2292,0.016776,0.000000,-1.545329,1.545329,0.0000,0.0000,0.0000,-0.002351,-1.633690,1.636758,0.4858,0.5434,0.1486,0.000000,0.579845,-0.562971,0.564505,-0.592117,0.575243,-0.559903
4.2459,0.016756,0.000000,-1.530707,1.530707,0.0000,0.0000,0.0000,-0.002377,-1.618350,1.622952,0.3915,0.5961,0.1424,0.000000,0.578311,-0.561437,0.564505,-0.592117,0.575243,-0.559903
4.2627,0.016748,0.000000,-1.516091,1.516091,0.0000,0.0000,0.0000,-0.002362,-1.603010,1.604544,0.4511,0.5751,0.1969,0.000000,0.579845,-0.561437,0.564505,-0.592117,0.575243,-0.559903
4.2794,0.016745,0.000000,-1.501479,1.501479,0.0000,0.0000,0.0000,-0.002351,-1.587670,1.590738,0.4841,0.5417,0.1380,0.000000,0.579845,-0.562971,0.564505,-0.592117,0.575243,-0.559903
4.2962,0.016760,0.000000,-1.486853,1.486853,0.0000,0.0000,0.0000,-0.002364,-1.573864,1.578466,0.4309,0.5608,0.0903,0.000000,0.578311,-0.562971,0.564505,-0.592117,0.575243,-0.559903
4.3130,0.016768,0.000000,-1.472220,1.472220,0.0000,0.0000,0.0000,-0.002364,-1.555457,1.561592,0.4309,0.5608,0.0903,0.000000,0.579845,-0.562971,0.564505,-0.592117,0.575243,-0.559903
4.3297,0.016755,0.000000,-1.457599,1.457599,0.0000,0.0000,0.0000,-0.002351,-1.555457,1.561592,0.4862,0.5432,0.1491,0.000000,0.579845,-0.562971,0.564505,-0.592117,0.575243,-0.559903
4.3465,0.016757,0.000000,-1.442975,1.442975,0.0000,0.0000,0.0000,-0.002364,-1.535515,1.543185,0.4697,0.4943,0.1967,0.000000,0.579845,-0.562971,0.564505,-0.590583,0.575243,-0.559903
4.3632,0.016775,0.000000,-1.428336,1.428336,0.0000,0.0000,0.0000,-0.002375,-1.515573,1.520175,0.3932,0.6012,0.1373,0.000000,0.578311,-0.561437,0.564505,-0.592117,0.575243,-0.559903
4.3801,0.016822,0.000000,-1.413656,1.413656,0.0000,0.0000,0.0000,-0.002362,-1.494097,1.498699,0.4509,0.5746,0.1974,0.000000,0.579845,-0.561437,0.564505,-0.592117,0.575243,-0.559903
4.3968,0.016753,0.000000,-1.399036,1.399036,0.0000,0.0000,0.0000,-0.002351,-1.474156,1.475690,0.4841,0.5418,0.1379,0.000000,0.579845,-0.562971,0.564505,-0.592117,0.575243,-0.559903
4.4137,0.016883,0.000000,-1.408224,1.408224,0.0000,0.0000,0.0000,-0.002351,-1.454214,1.454214,0.4841,0.5418,0.1379,0.000000,0.579845,-0.562971,0.564505,-0.592117,0.575243,-0.559903
4.4305,0.016750,0.000000,-1.422841,1.422841,0.0000,0.0000,0.0000,-0.002352,-1.454214,1.454214,0.4807,0.5452,0.1441,0.000000,0.579845,-0.562971,0.564505,-0.592117,0.575243,-0.559903
4.4472,0.016751,0.000000,-1.437459,1.437459,0.0000,0.0000,0.0000,-0.002364,-1.435806,1.435806,0.4312,0.5604,0.0897,0.000000,0.578311,-0.562971,0.564505,-0.592117,0.575243,-0.559903
4.4640,0.016758,0.000000,-1.452083,1.452083,0.0000,0.0000,0.0000,-0.002375,-1.423534,1.422000,0.3972,0.5944,0.1485,0.000000,0.578311,-0.561437,0.564505,-0.592117,0.575243,-0.559903
4.4807,0.016766,0.000000,-1.466714,1.466714,0.0000,0.0000,0.0000,-0.002374,-1.420466,1.418932,0.4397,0.5245,0.2499,0.000000,0.579845,-0.561437,0.564505,-0.590583,0.575243,-0.559903
4.4975,0.016755,0.000000,-1.481335,1.481335,0.0000,0.0000,0.0000,-0.002374,-1.435806,1.431204,0.3963,0.5981,0.1318,0.000000,0.578311,-0.561437,0.564505,-0.592117,0.575243,-0.559903
4.5143,0.016785,0.000000,-1.495983,1.495983,0.0000,0.0000,0.0000,-0.002363,-1.460350,1.455748,0.4506,0.5749,0.1980,0.000000,0.579845,-0.561437,0.564505,-0.592117,0.575243,-0.559903
4.5310,0.016755,0.000000,-1.510604,1.510604,0.0000,0.0000,0.0000,-0.002363,-1.460350,1.455748,0.4506,0.5749,0.1980,0.000000,0.579845,-0.561437,0.564505,-0.592117,0.575243,-0.559903
4.5478,0.016755,0.000000,-1.525226,1.525226,0.0000,0.0000,0.0000,-0.002351,-1.481825,1.478757,0.4842,0.5418,0.1379,0.000000,0.579845,-0.562971,0.564505,-0.592117,0.575243,-0.559903
4.5645,0.016753,0.000000,-1.539845,1.539845,0.0000,0.0000,0.0000,-0.002352,-1.491029,1.489495,0.4807,0.5452,0.1441,0.000000,0.579845,-0.562971,0.564505,-0.592117,0.575243,-0.559903
4.5813,0.016754,0.000000,-1.554466,1.554466,0.0000,0.0000,0.0000,-0.002365,-1.501767,1.498699,0.4418,0.5804,0.1967,0.000000,0.579845,-0.561437,0.564505,-0.592117,0.575243,-0.559903
4.5980,0.016753,0.000000,-1.569086,1.569086,0.0000,0.0000,0.0000,-0.002362,-1.523243,1.517107,0.4353,0.5567,0.0842,0.000000,0.578311,-0.562971,0.564505,-0.592117,0.575243,-0.559903
4.6148,0.016772,0.000000,-1.583722,1.583722,0.0000,0.0000,0.0000,-0.002362,-1.523243,1.517107,0.4353,0.5567,0.0842,0.000000,0.578311,-0.562971,0.564505,-0.592117,0.575243,-0.559903
4.6316,0.016759,0.000000,-1.598347,1.598347,0.0000,0.0000,0.0000,-0.002351,-1.550855,1.541651,0.4858,0.5436,0.1497,0.000000,0.579845,-0.562971,0.564505,-0.592117,0.575243,-0.559903
4.6483,0.016773,0.000000,-1.612985,1.612985,0.0000,0.0000,0.0000,-0.002364,-1.567728,1.564660,0.4697,0.4942,0.1966,0.000000,0.579845,-0.562971,0.564505,-0.590583,0.575243,-0.559903
4.6651,0.016762,0.000000,-1.627612,1.627612,0.0000,0.0000,0.0000,-0.002364,-1.567728,1.564660,0.4697,0.4942,0.1966,0.000000,0.579845,-0.562971,0.564505,-0.590583,0.575243,-0.559903
4.6819,0.016758,0.000000,-1.642237,1.642237,0.0000,0.0000,0.0000,-0.002351,-1.573864,1.570796,0.4822,0.5502,0.1380,0.000000,0.579845,-0.562971,0.564505,-0.592117,0.575243,-0.559903
4.6986,0.016749,0.000000,-1.656853,1.656853,0.0000,0.0000,0.0000,-0.002365,-1.586136,1.583068,0.4417,0.5799,0.1973,0.000000,0.579845,-0.561437,0.564505,-0.592117,0.575243,-0.559903
4.7155,0.016869,0.000000,-1.671574,1.671574,0.0000,0.0000,0.0000,-0.002363,-1.609146,1.609146,0.4459,0.5768,0.1911,0.000000,0.579845,-0.561437,0.564505,-0.592117,0.575243,-0.559903
4.7323,0.016781,0.000000,-1.686218,1.686218,0.0000,0.0000,0.0000,-0.002362,-1.630622,1.630622,0.4349,0.5571,0.0848,0.000000,0.578311,-0.562971,0.564505,-0.592117,0.575243,-0.559903
4.7495,0.017272,0.000000,-1.701290,1.701290,0.0000,0.0000,0.0000,-0.002374,-1.641359,1.644427,0.4253,0.5084,0.1496,0.000000,0.578311,-0.562971,0.564505,-0.590583,0.575243,-0.559903
4.7663,0.016761,0.000000,-1.715917,1.715917,0.0000,0.0000,0.0000,-0.002374,-1.641359,1.644427,0.4253,0.5084,0.1496,0.000000,0.578311,-0.562971,0.564505,-0.590583,0.575243,-0.559903
4.7830,0.016748,0.000000,-1.730532,1.730532,0.0000,0.0000,0.0000,-0.002350,-1.661301,1.665903,0.4868,0.5487,0.1429,0.000000,0.579845,-0.562971,0.564505,-0.592117,0.575243,-0.559903
4.7998,0.016765,0.000000,-1.745162,1.745162,0.0000,0.0000,0.0000,-0.002376,-1.687379,1.685845,0.4304,0.5293,0.2505,0.000000,0.579845,-0.561437,0.564505,-0.590583,0.575243,-0.559903
4.8167,0.016903,0.000000,-1.730746,1.730746,0.0000,0.0000,0.0000,-0.002374,-1.711923,1.704253,0.3973,0.5976,0.1317,0.000000,0.578311,-0.561437,0.564505,-0.592117,0.575243,-0.559903
4.8335,0.016767,0.000000,-1.716115,1.716115,0.0000,0.0000,0.0000,-0.002350,-1.716525,1.708855,0.4897,0.5394,0.1448,0.000000,0.579845,-0.562971,0.564505,-0.592117,0.575243,-0.559903
4.8503,0.016779,0.000000,-1.701472,1.701472,0.0000,0.0000,0.0000,-0.002352,-1.725728,1.724194,0.4801,0.5455,0.1434,0.000000,0.579845,-0.562971,0.564505,-0.592117,0.575243,-0.559903
4.8671,0.016821,0.000000,-1.686793,1.686793,0.0000,0.0000,0.0000,-0.002352,-1.725728,1.724194,0.4801,0.5455,0.1434,0.000000,0.579845,-0.562971,0.564505,-0.592117,0.575243,-0.559903
4.8838,0.016758,0.000000,-1.672169,1.672169,0.0000,0.0000,0.0000,-0.002376,-1.741068,1.739534,0.3921,0.5959,0.1429,0.000000,0.578311,-0.561437,0.564505,-0.592117,0.575243,-0.559903
4.9006,0.016757,0.000000,-1.657546,1.657546,0.0000,0.0000,0.0000,-0.002361,-1.730330,1.733398,0.4405,0.5551,0.0898,0.000000,0.578311,-0.562971,0.564505,-0.592117,0.575243,-0.559903
4.9173,0.016753,0.000000,-1.642926,1.642926,0.0000,0.0000,0.0000,-0.002363,-1.722660,1.728796,0.4354,0.5594,0.0953,0.000000,0.578311,-0.562971,0.564505,-0.592117,0.575243,-0.559903
4.9341,0.016762,0.000000,-1.628298,1.628298,0.0000,0.0000,0.0000,-0.002362,-1.714991,1.718058,0.4750,0.4926,0.2023,0.000000,0.579845,-0.562971,0.564505,-0.590583,0.575243,-0.559903
4.9511,0.016964,0.000000,-1.613494,1.613494,0.0000,0.0000,0.0000,-0.002364,-1.699651,1.701185,0.4424,0.5859,0.1906,0.000000,0.579845,-0.561437,0.564505,-0.592117,0.575243,-0.559903
4.9679,0.016806,0.000000,-1.598828,1.598828,0.0000,0.0000,0.0000,-0.002364,-1.699651,1.701185,0.4424,0.5859,0.1906,0.000000,0.579845,-0.561437,0.564505,-0.592117,0.575243,-0.559903
4.9846,0.016757,0.000000,-1.584205,1.584205,0.0000,0.0000,0.0000,-0.002351,-1.678175,1.676641,0.4850,0.5406,0.1386,0.000000,0.579845,-0.562971,0.564505,-0.592117,0.575243,-0.559903
5.0014,0.016769,0.000000,-1.569571,1.569571,0.0000,0.0000,0.0000,-0.002365,-1.655165,1.656699,0.4414,0.5809,0.1972,0.000000,0.579845,-0.561437,0.564505,-0.592117,0.575243,-0.559903
5.0182,0.016758,0.000000,-1.554946,1.554946,0.0000,0.0000,0.0000,-0.002351,-1.636758,1.638291,0.4851,0.5411,0.1379,0.000000,0.579845,-0.562971,0.564505,-0.592117,0.575243,-0.559903
5.0349,0.016765,0.000000,-1.540316,1.540316,0.0000,0.0000,0.0000,-0.002377,-1.615282,1.619884,0.3916,0.5964,0.1435,0.000000,0.578311,-0.561437,0.564505,-0.592117,0.575243,-0.559903
5.0517,0.016817,0.000000,-1.525640,1.525640,0.0000,0.0000,0.0000,-0.002377,-1.599942,1.601476,0.3916,0.5964,0.1435,0.000000,0.579845,-0.561437,0.564505,-0.592117,0.575243,-0.559903
5.0692,0.017443,0.000000,-1.510418,1.510418,0.0000,0.0000,0.0000,-0.002362,-1.599942,1.601476,0.4511,0.5751,0.1967,0.000000,0.579845,-0.561437,0.564505,-0.592117,0.575243,-0.559903
5.0860,0.016834,0.000000,-1.495728,1.495728,0.0000,0.0000,0.0000,-0.002362,-1.583068,1.584602,0.4343,0.5573,0.0842,0.000000,0.578311,-0.562971,0.564505,-0.592117,0.575243,-0.559903
5.1028,0.016766,0.000000,-1.481096,1.481096,0.0000,0.0000,0.0000,-0.002362,-1.567728,1.573864,0.4360,0.5591,0.0959,0.000000,0.578311,-0.562971,0.564505,-0.592117,0.575243,-0.559903
5.1195,0.016751,0.000000,-1.466479,1.466479,0.0000,0.0000,0.0000,-0.002351,-1.552389,1.561592,0.4857,0.5434,0.1485,0.000000,0.579845,-0.562971,0.564505,-0.592117,0.575243,-0.559903
5.1363,0.016768,0.000000,-1.451846,1.451846,0.0000,0.0000,0.0000,-0.002351,-1.552389,1.561592,0.4857,0.5434,0.1485,0.000000,0.579845,-0.562971,0.564505,-0.592117,0.575243,-0.559903
5.1531,0.016757,0.000000,-1.437222,1.437222,0.0000,0.0000,0.0000,-0.002352,-1.535515,1.544719,0.4805,0.5450,0.1430,0.000000,0.579845,-0.562971,0.564505,-0.592117,0.575243,-0.559903
5.1698,0.016766,0.000000,-1.422591,1.422591,0.0000,0.0000,0.0000,-0.002352,-1.514039,1.521709,0.4805,0.5450,0.1430,0.000000,0.579845,-0.562971,0.564505,-0.592117,0.575243,-0.559903
5.1866,0.016754,0.000000,-1.407971,1.407971,0.0000,0.0000,0.0000,-0.002352,-1.495631,1.501767,0.4805,0.5450,0.1430,0.000000,0.579845,-0.562971,0.564505,-0.592117,0.575243,-0.559903
5.2034,0.016768,0.000000,-1.399189,1.399189,0.0000,0.0000,0.0000,-0.002365,-1.478757,1.483359,0.4418,0.5804,0.1968,0.000000,0.579845,-0.561437,0.564505,-0.592117,0.575243,-0.559903
5.2201,0.016759,0.000000,-1.413814,1.413814,0.0000,0.0000,0.0000,-0.002362,-1.458816,1.458816,0.4353,0.5567,0.0842,0.000000,0.578311,-0.562971,0.564505,-0.592117,0.575243,-0.559903
5.2373,0.017177,0.000000,-1.428804,1.428804,0.0000,0.0000,0.0000,-0.002351,-1.438874,1.437340,0.4858,0.5436,0.1497,0.000000,0.579845,-0.562971,0.564505,-0.592117,0.575243,-0.559903
5.2540,0.016752,0.000000,-1.443423,1.443423,0.0000,0.0000,0.0000,-0.002351,-1.438874,1.437340,0.4858,0.5436,0.1497,0.000000,0.579845,-0.562971,0.564505,-0.592117,0.575243,-0.559903
5.2708,0.016755,0.000000,-1.458044,1.458044,0.0000,0.0000,0.0000,-0.002365,-1.425068,1.423534,0.4413,0.5806,0.1961,0.000000,0.579845,-0.561437,0.564505,-0.592117,0.575243,-0.559903
5.2875,0.016752,0.000000,-1.472663,1.472663,0.0000,0.0000,0.0000,-0.002351,-1.418932,1.417398,0.4852,0.5412,0.1381,0.000000,0.579845,-0.562971,0.564505,-0.592117,0.575243,-0.559903
5.3043,0.016775,0.000000,-1.487302,1.487302,0.0000,0.0000,0.0000,-0.002365,-1.431204,1.428136,0.4414,0.5808,0.1973,0.000000,0.579845,-0.561437,0.564505,-0.592117,0.575243,-0.559903
5.3211,0.016754,0.000000,-1.501922,1.501922,0.0000,0.0000,0.0000,-0.002363,-1.454214,1.451146,0.4459,0.5767,0.1911,0.000000,0.579845,-0.561437,0.564505,-0.592117,0.575243,-0.559903
5.3379,0.016782,0.000000,-1.516567,1.516567,0.0000,0.0000,0.0000,-0.002363,-1.454214,1.451146,0.4459,0.5767,0.1911,0.000000,0.579845,-0.561437,0.564505,-0.592117,0.575243,-0.559903
5.3546,0.016752,0.000000,-1.531186,1.531186,0.0000,0.0000,0.0000,-0.002363,-1.483359,1.478757,0.4459,0.5767,0.1911,0.000000,0.579845,-0.561437,0.564505,-0.592117,0.575243,-0.559903
5.3714,0.016766,0.000000,-1.545818,1.545818,0.0000,0.0000,0.0000,-0.002362,-1.500233,1.497165,0.4349,0.5571,0.0848,0.000000,0.578311,-0.562971,0.564505,-0.592117,0.575243,-0.559903
5.3881,0.016750,0.000000,-1.560435,1.560435,0.0000,0.0000,0.0000,-0.002364,-1.507903,1.504835,0.4466,0.5791,0.2029,0.000000,0.579845,-0.561437,0.564505,-0.592117,0.575243,-0.559903
5.4049,0.016774,0.000000,-1.575073,1.575073,0.0000,0.0000,0.0000,-0.002362,-1.520175,1.512505,0.4348,0.5568,0.0835,0.000000,0.578311,-0.562971,0.564505,-0.592117,0.575243,-0.559903
5.4217,0.016760,0.000000,-1.589698,1.589698,0.0000,0.0000,0.0000,-0.002351,-1.543185,1.533981,0.4858,0.5436,0.1498,0.000000,0.579845,-0.562971,0.564505,-0.592117,0.575243,-0.559903
5.4384,0.016787,0.000000,-1.604347,1.604347,0.0000,0.0000,0.0000,-0.002351,-1.570796,1.561592,0.4858,0.5436,0.1498,0.000000,0.579845,-0.561437,0.564505,-0.592117,0.575243,-0.559903
5.4552,0.016756,0.000000,-1.618969,1.618969,0.0000,0.0000,0.0000,-0.002365,-1.570796,1.561592,0.4413,0.5806,0.1961,0.000000,0.579845,-0.561437,0.564505,-0.592117,0.575243,-0.559903
5.4720,0.016757,0.000000,-1.633593,1.633593,0.0000,0.0000,0.0000,-0.002375,-1.584602,1.586136,0.4351,0.5259,0.2450,0.000000,0.579845,-0.561437,0.564505,-0.590583,0.575243,-0.559903
5.4887,0.016758,0.000000,-1.648217,1.648217,0.0000,0.0000,0.0000,-0.002361,-1.590738,1.593806,0.4750,0.4961,0.1867,0.000000,0.579845,-0.562971,0.564505,-0.590583,0.575243,-0.559903
