t,loop_dt,cmd_z,cmd_ant_l,cmd_ant_r,cmd_roll,cmd_pitch,cmd_yaw,pres_z,pres_ant_l,pres_ant_r,pres_roll,pres_pitch,pres_yaw,pres_j0,pres_j1,pres_j2,pres_j3,pres_j4,pres_j5,pres_j6
0.0000,0.000001,0.000000,-0.174532,0.174532,0.0000,0.0000,0.0000,-0.002462,0.001534,-0.004602,0.4206,0.6316,0.1372,0.000000,0.572175,-0.562971,0.564505,-0.590583,0.575243,-0.553767
0.0168,0.016768,0.000000,-0.165753,0.165753,0.0000,0.0000,0.0000,-0.002463,0.000000,-0.004602,0.4258,0.6335,0.1428,0.000000,0.572175,-0.562971,0.564505,-0.590583,0.575243,-0.553767
0.0335,0.016760,0.000000,-0.156977,0.156977,0.0000,0.0000,0.0000,-0.002463,0.000000,-0.004602,0.4258,0.6335,0.1428,0.000000,0.572175,-0.562971,0.564505,-0.590583,0.575243,-0.553767
0.0503,0.016751,0.000000,-0.148206,0.148206,0.0000,0.0000,0.0000,-0.002463,-0.004602,0.006136,0.4258,0.6335,0.1428,0.000000,0.572175,-0.562971,0.564505,-0.590583,0.575243,-0.553767
0.0670,0.016766,0.000000,-0.139428,0.139428,0.0000,0.0000,0.0000,-0.002476,-0.059825,0.065961,0.3861,0.6688,0.1953,0.000000,0.572175,-0.561437,0.564505,-0.590583,0.575243,-0.553767
0.0838,0.016756,0.000000,-0.130655,0.130655,0.0000,0.0000,0.0000,-0.002462,-0.133456,0.142660,0.4294,0.6296,0.1367,0.000000,0.572175,-0.562971,0.564505,-0.590583,0.575243,-0.553767
0.1006,0.016766,0.000000,-0.121876,0.121876,0.0000,0.0000,0.0000,-0.002450,-0.173340,0.176408,0.3751,0.6161,0.0894,0.000000,0.572175,-0.562971,0.564505,-0.590583,0.575243,-0.555301
0.1173,0.016762,0.000000,-0.113099,0.113099,0.0000,0.0000,0.0000,-0.002450,-0.177942,0.173340,0.3751,0.6161,0.0894,0.000000,0.572175,-0.562971,0.564505,-0.592117,0.575243,-0.556835
0.1341,0.016766,0.000000,-0.104320,0.104320,0.0000,0.0000,0.0000,-0.002426,-0.177942,0.173340,0.3417,0.6507,-0.0128,0.000000,0.572175,-0.562971,0.564505,-0.592117,0.575243,-0.556835
0.1509,0.016755,0.000000,-0.095548,0.095548,0.0000,0.0000,0.0000,-0.002429,-0.158000,0.154932,0.3452,0.6471,-0.0021,0.000000,0.572175,-0.562971,0.564505,-0.592117,0.575243,-0.556835
0.1676,0.016765,0.000000,-0.086770,0.086770,0.0000,0.0000,0.0000,-0.002440,-0.134990,0.134990,0.3343,0.5967,0.0505,0.000000,0.572175,-0.562971,0.564505,-0.590583,0.575243,-0.556835
0.1844,0.016739,0.000000,-0.078005,0.078005,0.0000,0.0000,0.0000,-0.002414,-0.110447,0.111981,0.3357,0.5687,0.0453,0.000000,0.573709,-0.562971,0.564505,-0.590583,0.575243,-0.558369
0.2011,0.016761,0.000000,-0.069229,0.069229,0.0000,0.0000,0.0000,-0.002392,-0.092039,0.098175,0.3359,0.5385,0.0461,0.000000,0.575243,-0.562971,0.564505,-0.590583,0.575243,-0.559903
0.2179,0.016760,0.000000,-0.060454,0.060454,0.0000,0.0000,0.0000,-0.002369,-0.078233,0.082835,0.3362,0.5084,0.0463,0.000000,0.576777,-0.562971,0.564505,-0.590583,0.575243,-0.561437
0.2346,0.016768,0.000000,-0.051674,0.051674,0.0000,0.0000,0.0000,-0.002369,-0.078233,0.082835,0.3362,0.5084,0.0463,0.000000,0.576777,-0.562971,0.564505,-0.590583,0.575243,-0.561437
0.2514,0.016753,0.000000,-0.042902,0.042902,0.0000,0.0000,0.0000,-0.002360,-0.070563,0.070563,0.3469,0.5623,-0.0075,0.000000,0.576777,-0.562971,0.564505,-0.592117,0.575243,-0.561437
0.2682,0.016762,0.000000,-0.034125,0.034125,0.0000,0.0000,0.0000,-0.002361,-0.070563,0.064427,0.3849,0.4902,0.1057,0.000000,0.578311,-0.562971,0.564505,-0.590583,0.575243,-0.561437
0.2850,0.016837,0.000000,-0.025309,0.025309,0.0000,0.0000,0.0000,-0.002361,-0.067495,0.058291,0.3809,0.4977,0.0939,0.000000,0.578311,-0.562971,0.564505,-0.590583,0.575243,-0.561437
0.3019,0.016917,0.000000,-0.016452,0.016452,0.0000,0.0000,0.0000,-0.002349,-0.055223,0.049087,0.4311,0.4813,0.1490,0.000000,0.579845,-0.562971,0.564505,-0.590583,0.575243,-0.561437
0.3187,0.016761,0.000000,-0.007676,0.007676,0.0000,0.0000,0.0000,-0.002349,-0.055223,0.049087,0.4311,0.4813,0.1490,0.000000,0.579845,-0.562971,0.564505,-0.590583,0.575243,-0.561437
0.3354,0.016764,0.000000,0.001102,-0.001102,0.0000,0.0000,0.0000,-0.002364,-0.038350,0.036816,0.4754,0.5007,0.1967,0.000000,0.579845,-0.562971,0.564505,-0.590583,0.575243,-0.559903
0.3522,0.016753,0.000000,0.009874,-0.009874,0.0000,0.0000,0.0000,-0.002338,-0.021476,0.024544,0.4320,0.5318,0.0845,0.000000,0.579845,-0.562971,0.564505,-0.592117,0.575243,-0.561437
0.3689,0.016754,0.000000,0.018646,-0.018646,0.0000,0.0000,0.0000,-0.002363,-0.009204,0.015340,0.3760,0.4934,0.0961,0.000000,0.578311,-0.562971,0.564505,-0.590583,0.575243,-0.561437
0.3857,0.016756,0.000000,0.027419,-0.027419,0.0000,0.0000,0.0000,-0.002349,-0.003068,0.004602,0.4317,0.4818,0.1487,0.000000,0.579845,-0.562971,0.564505,-0.590583,0.575243,-0.561437
0.4025,0.016806,0.000000,0.036219,-0.036219,0.0000,0.0000,0.0000,-0.002351,0.001534,-0.006136,0.4258,0.4830,0.1432,0.000000,0.579845,-0.562971,0.564505,-0.590583,0.575243,-0.561437
0.4193,0.016757,0.000000,0.044993,-0.044993,0.0000,0.0000,0.0000,-0.002351,0.001534,-0.006136,0.4258,0.4830,0.1432,0.000000,0.579845,-0.562971,0.564505,-0.590583,0.575243,-0.561437
0.4360,0.016761,0.000000,0.053769,-0.053769,0.0000,0.0000,0.0000,-0.002351,0.013806,-0.018408,0.4258,0.4830,0.1432,0.000000,0.579845,-0.562971,0.564505,-0.590583,0.575243,-0.561437
0.4528,0.016752,0.000000,0.062540,-0.062540,0.0000,0.0000,0.0000,-0.002351,0.029146,-0.030680,0.4258,0.4830,0.1432,0.000000,0.579845,-0.562971,0.564505,-0.590583,0.575243,-0.561437
0.4696,0.016819,0.000000,0.071347,-0.071347,0.0000,0.0000,0.0000,-0.002364,0.039884,-0.038350,0.4760,0.5005,0.1973,0.000000,0.579845,-0.562971,0.564505,-0.590583,0.575243,-0.559903
0.4863,0.016751,0.000000,0.080118,-0.080118,0.0000,0.0000,0.0000,-0.002338,0.046019,-0.047553,0.4320,0.5318,0.0844,0.000000,0.579845,-0.562971,0.564505,-0.592117,0.575243,-0.561437
0.5031,0.016769,0.000000,0.088898,-0.088898,0.0000,0.0000,0.0000,-0.002352,0.050621,-0.056757,0.4258,0.4778,0.1499,0.000000,0.579845,-0.562971,0.564505,-0.590583,0.575243,-0.561437
0.5199,0.016752,0.000000,0.097670,-0.097670,0.0000,0.0000,0.0000,-0.002352,0.050621,-0.056757,0.4258,0.4778,0.1499,0.000000,0.579845,-0.562971,0.564505,-0.590583,0.575243,-0.561437
0.5366,0.016757,0.000000,0.106443,-0.106443,0.0000,0.0000,0.0000,-0.002339,0.064427,-0.069029,0.4372,0.5342,0.0894,0.000000,0.579845,-0.562971,0.564505,-0.592117,0.575243,-0.561437
0.5534,0.016747,0.000000,0.115212,-0.115212,0.0000,0.0000,0.0000,-0.002340,0.081301,-0.081301,0.4360,0.5283,0.0957,0.000000,0.579845,-0.562971,0.564505,-0.592117,0.575243,-0.561437
0.5701,0.016755,0.000000,0.123985,-0.123985,0.0000,0.0000,0.0000,-0.002352,0.092039,-0.088971,0.4254,0.4782,0.1488,0.000000,0.579845,-0.562971,0.564505,-0.590583,0.575243,-0.561437
0.5869,0.016758,0.000000,0.132760,-0.132760,0.0000,0.0000,0.0000,-0.002362,0.099709,-0.098175,0.3767,0.4990,0.0894,0.000000,0.578311,-0.562971,0.564505,-0.590583,0.575243,-0.561437
0.6037,0.016771,0.000000,0.141541,-0.141541,0.0000,0.0000,0.0000,-0.002362,0.108913,-0.110447,0.3767,0.4990,0.0894,0.000000,0.579845,-0.562971,0.564505,-0.590583,0.575243,-0.561437
0.6207,0.017013,0.000000,0.150449,-0.150449,0.0000,0.0000,0.0000,-0.002349,0.108913,-0.110447,0.4316,0.4812,0.1494,0.000000,0.579845,-0.562971,0.564505,-0.590583,0.575243,-0.561437
0.6374,0.016764,0.000000,0.159226,-0.159226,0.0000,0.0000,0.0000,-0.002351,0.127320,-0.122718,0.4259,0.4831,0.1432,0.000000,0.579845,-0.562971,0.564505,-0.590583,0.575243,-0.561437
0.6542,0.016750,0.000000,0.167997,-0.167997,0.0000,0.0000,0.0000,-0.002351,0.138058,-0.133456,0.4259,0.4831,0.1432,0.000000,0.579845,-0.562971,0.564505,-0.590583,0.575243,-0.561437
0.6709,0.016764,0.000000,0.172291,-0.172291,0.0000,0.0000,0.0000,-0.002351,0.141126,-0.144194,0.4259,0.4831,0.1432,0.000000,0.579845,-0.562971,0.564505,-0.590583,0.575243,-0.561437
0.6877,0.016765,0.000000,0.163513,-0.163513,0.0000,0.0000,0.0000,-0.002351,0.144194,-0.153398,0.4259,0.4831,0.1432,0.000000,0.579845,-0.562971,0.564505,-0.590583,0.575243,-0.561437
0.7045,0.016762,0.000000,0.154736,-0.154736,0.0000,0.0000,0.0000,-0.002351,0.154932,-0.165670,0.4259,0.4831,0.1432,0.000000,0.579845,-0.562971,0.564505,-0.590583,0.575243,-0.561437
0.7212,0.016760,0.000000,0.145961,-0.145961,0.0000,0.0000,0.0000,-0.002351,0.154932,-0.165670,0.4259,0.4831,0.1432,0.000000,0.579845,-0.562971,0.564505,-0.590583,0.575243,-0.561437
0.7380,0.016752,0.000000,0.137189,-0.137189,0.0000,0.0000,0.0000,-0.002362,0.171806,-0.174874,0.3767,0.4985,0.0900,0.000000,0.578311,-0.562971,0.564505,-0.590583,0.575243,-0.561437
0.7548,0.016843,0.000000,0.128370,-0.128370,0.0000,0.0000,0.0000,-0.002349,0.177942,-0.174874,0.4316,0.4813,0.1494,0.000000,0.579845,-0.562971,0.564505,-0.590583,0.575243,-0.561437
0.7716,0.016759,0.000000,0.119595,-0.119595,0.0000,0.0000,0.0000,-0.002351,0.165670,-0.165670,0.4258,0.4831,0.1432,0.000000,0.579845,-0.562971,0.564505,-0.590583,0.575243,-0.561437
0.7884,0.016764,0.000000,0.110817,-0.110817,0.0000,0.0000,0.0000,-0.002351,0.150330,-0.151864,0.4258,0.4831,0.1432,0.000000,0.579845,-0.562971,0.564505,-0.590583,0.575243,-0.561437
0.8052,0.016798,0.000000,0.102022,-0.102022,0.0000,0.0000,0.0000,-0.002351,0.134990,-0.138058,0.4258,0.4831,0.1432,0.000000,0.579845,-0.562971,0.564505,-0.590583,0.575243,-0.561437
0.8219,0.016748,0.000000,0.093253,-0.093253,0.0000,0.0000,0.0000,-0.002351,0.134990,-0.138058,0.4258,0.4831,0.1432,0.000000,0.579845,-0.562971,0.564505,-0.590583,0.575243,-0.561437
0.8387,0.016756,0.000000,0.084479,-0.084479,0.0000,0.0000,0.0000,-0.002351,0.116583,-0.122718,0.4258,0.4831,0.1432,0.000000,0.579845,-0.562971,0.564505,-0.590583,0.575243,-0.561437
0.8554,0.016757,0.000000,0.075705,-0.075705,0.0000,0.0000,0.0000,-0.002351,0.105845,-0.113515,0.4258,0.4831,0.1432,0.000000,0.579845,-0.562971,0.564505,-0.590583,0.575243,-0.561437
0.8722,0.016760,0.000000,0.066930,-0.066930,0.0000,0.0000,0.0000,-0.002339,0.101243,-0.102777,0.4372,0.5337,0.0901,0.000000,0.579845,-0.562971,0.564505,-0.592117,0.575243,-0.561437
0.8889,0.016751,0.000000,0.058159,-0.058159,0.0000,0.0000,0.0000,-0.002352,0.095107,-0.092039,0.4253,0.4776,0.1493,0.000000,0.579845,-0.562971,0.564505,-0.590583,0.575243,-0.561437
0.9057,0.016766,0.000000,0.049380,-0.049380,0.0000,0.0000,0.0000,-0.002352,0.084369,-0.079767,0.4253,0.4776,0.1493,0.000000,0.579845,-0.562971,0.564505,-0.590583,0.575243,-0.561437
0.9224,0.016759,0.000000,0.040605,-0.040605,0.0000,0.0000,0.0000,-0.002350,0.084369,-0.079767,0.4265,0.4834,0.1432,0.000000,0.579845,-0.562971,0.564505,-0.590583,0.575243,-0.561437
0.9392,0.016755,0.000000,0.031832,-0.031832,0.0000,0.0000,0.0000,-0.002339,0.070563,-0.065961,0.4371,0.5336,0.0901,0.000000,0.579845,-0.562971,0.564505,-0.592117,0.575243,-0.561437
0.9560,0.016757,0.000000,0.023058,-0.023058,0.0000,0.0000,0.0000,-0.002352,0.056757,-0.055223,0.4253,0.4776,0.1493,0.000000,0.579845,-0.562971,0.564505,-0.590583,0.575243,-0.561437
0.9728,0.016790,0.000000,0.014267,-0.014267,0.0000,0.0000,0.0000,-0.002339,0.044485,-0.047553,0.4373,0.5342,0.0894,0.000000,0.579845,-0.562971,0.564505,-0.592117,0.575243,-0.561437
0.9895,0.016757,0.000000,0.005493,-0.005493,0.0000,0.0000,0.0000,-0.002352,0.035282,-0.041417,0.4252,0.4776,0.1494,0.000000,0.579845,-0.562971,0.564505,-0.590583,0.575243,-0.561437
1.0066,0.017061,0.000000,-0.003440,0.003440,0.0000,0.0000,0.0000,-0.002352,0.024544,-0.029146,0.4252,0.4776,0.1494,0.000000,0.579845,-0.562971,0.564505,-0.592117,0.575243,-0.561437
1.0233,0.016755,0.000000,-0.012213,0.012213,0.0000,0.0000,0.0000,-0.002339,0.024544,-0.029146,0.4373,0.5343,0.0894,0.000000,0.579845,-0.562971,0.564505,-0.592117,0.575243,-0.561437
1.0401,0.016757,0.000000,-0.020987,0.020987,0.0000,0.0000,0.0000,-0.002352,0.013806,-0.013806,0.4252,0.4776,0.1494,0.000000,0.579845,-0.562971,0.564505,-0.590583,0.575243,-0.561437
1.0568,0.016752,0.000000,-0.029758,0.029758,0.0000,0.0000,0.0000,-0.002350,0.000000,-0.001534,0.4265,0.4835,0.1432,0.000000,0.579845,-0.562971,0.564505,-0.590583,0.575243,-0.561437
1.0736,0.016761,0.000000,-0.038534,0.038534,0.0000,0.0000,0.0000,-0.002350,-0.006136,0.004602,0.4265,0.4835,0.1432,0.000000,0.579845,-0.562971,0.564505,-0.590583,0.575243,-0.561437
1.0904,0.016755,0.000000,-0.047307,0.047307,0.0000,0.0000,0.0000,-0.002350,-0.007670,0.009204,0.4265,0.4835,0.1432,0.000000,0.579845,-0.562971,0.564505,-0.590583,0.575243,-0.561437
1.1071,0.016779,0.000000,-0.056093,0.056093,0.0000,0.0000,0.0000,-0.002350,-0.007670,0.009204,0.4265,0.4835,0.1432,0.000000,0.579845,-0.562971,0.564505,-0.590583,0.575243,-0.561437
1.1239,0.016762,0.000000,-0.064869,0.064869,0.0000,0.0000,0.0000,-0.002352,-0.019942,0.019942,0.4867,0.5513,0.1436,0.000000,0.579845,-0.562971,0.564505,-0.592117,0.575243,-0.559903
1.1406,0.016750,0.000000,-0.073640,0.073640,0.0000,0.0000,0.0000,-0.002350,-0.038350,0.036816,0.4201,0.4758,0.1438,0.000000,0.579845,-0.562971,0.564505,-0.590583,0.575243,-0.561437
1.1574,0.016749,0.000000,-0.082409,0.082409,0.0000,0.0000,0.0000,-0.002362,-0.053689,0.050621,0.3773,0.4992,0.0899,0.000000,0.578311,-0.562971,0.564505,-0.590583,0.575243,-0.561437
1.1741,0.016753,0.000000,-0.091181,0.091181,0.0000,0.0000,0.0000,-0.002349,-0.056757,0.056757,0.4315,0.4812,0.1494,0.000000,0.579845,-0.562971,0.564505,-0.590583,0.575243,-0.561437
1.1909,0.016763,0.000000,-0.099958,0.099958,0.0000,0.0000,0.0000,-0.002351,-0.056757,0.059825,0.4259,0.4831,0.1432,0.000000,0.579845,-0.562971,0.564505,-0.590583,0.575243,-0.561437
1.2077,0.016766,0.000000,-0.108737,0.108737,0.0000,0.0000,0.0000,-0.002351,-0.056757,0.059825,0.4259,0.4831,0.1432,0.000000,0.579845,-0.562971,0.564505,-0.590583,0.575243,-0.561437
1.2244,0.016740,0.000000,-0.117501,0.117501,0.0000,0.0000,0.0000,-0.002364,-0.067495,0.072097,0.4760,0.5005,0.1973,0.000000,0.579845,-0.562971,0.564505,-0.590583,0.575243,-0.559903
1.2412,0.016752,0.000000,-0.126272,0.126272,0.0000,0.0000,0.0000,-0.002362,-0.085903,0.090505,0.3820,0.5166,0.1914,0.000000,0.579845,-0.561437,0.564505,-0.590583,0.575243,-0.561437
1.2579,0.016770,0.000000,-0.135053,0.135053,0.0000,0.0000,0.0000,-0.002338,-0.107379,0.102777,0.4418,0.5302,0.0851,0.000000,0.579845,-0.562971,0.564505,-0.592117,0.575243,-0.561437
1.2747,0.016755,0.000000,-0.143826,0.143826,0.0000,0.0000,0.0000,-0.002365,-0.115049,0.107379,0.4743,0.4956,0.2033,0.000000,0.579845,-0.562971,0.564505,-0.590583,0.575243,-0.559903
1.2915,0.016766,0.000000,-0.152604,0.152604,0.0000,0.0000,0.0000,-0.002338,-0.124252,0.116583,0.4321,0.5324,0.0838,0.000000,0.579845,-0.562971,0.564505,-0.592117,0.575243,-0.561437
1.3082,0.016749,0.000000,-0.161374,0.161374,0.0000,0.0000,0.0000,-0.002338,-0.124252,0.116583,0.4321,0.5324,0.0838,0.000000,0.579845,-0.562971,0.564505,-0.592117,0.575243,-0.561437
1.3250,0.016758,0.000000,-0.170148,0.170148,0.0000,0.0000,0.0000,-0.002352,-0.138058,0.134990,0.4258,0.4778,0.1500,0.000000,0.579845,-0.562971,0.564505,-0.590583,0.575243,-0.561437
1.3417,0.016763,0.000000,-0.170140,0.170140,0.0000,0.0000,0.0000,-0.002339,-0.148796,0.147262,0.4372,0.5342,0.0894,0.000000,0.579845,-0.562971,0.564505,-0.592117,0.575243,-0.561437
1.3585,0.016773,0.000000,-0.161358,0.161358,0.0000,0.0000,0.0000,-0.002352,-0.151864,0.151864,0.4253,0.4776,0.1494,0.000000,0.579845,-0.562971,0.564505,-0.590583,0.575243,-0.561437
1.3753,0.016757,0.000000,-0.152584,0.152584,0.0000,0.0000,0.0000,-0.002339,-0.159534,0.156466,0.4373,0.5343,0.0894,0.000000,0.579845,-0.562971,0.564505,-0.592117,0.575243,-0.561437
1.3920,0.016767,0.000000,-0.143805,0.143805,0.0000,0.0000,0.0000,-0.002340,-0.174874,0.168738,0.4360,0.5283,0.0957,0.000000,0.579845,-0.562971,0.564505,-0.592117,0.575243,-0.561437
1.4088,0.016758,0.000000,-0.135030,0.135030,0.0000,0.0000,0.0000,-0.002340,-0.174874,0.168738,0.4360,0.5283,0.0957,0.000000,0.579845,-0.562971,0.564505,-0.592117,0.575243,-0.561437
1.4255,0.016759,0.000000,-0.126255,0.126255,0.0000,0.0000,0.0000,-0.002352,-0.176408,0.171806,0.4254,0.4782,0.1488,0.000000,0.579845,-0.562971,0.564505,-0.590583,0.575243,-0.561437
1.4423,0.016759,0.000000,-0.117480,0.117480,0.0000,0.0000,0.0000,-0.002362,-0.168738,0.167204,0.3767,0.4990,0.0894,0.000000,0.578311,-0.562971,0.564505,-0.590583,0.575243,-0.561437
1.4591,0.016761,0.000000,-0.108704,0.108704,0.0000,0.0000,0.0000,-0.002349,-0.158000,0.159534,0.3925,0.5476,0.0419,0.000000,0.578311,-0.562971,0.564505,-0.592117,0.575243,-0.561437
1.4758,0.016752,0.000000,-0.099932,0.099932,0.0000,0.0000,0.0000,-0.002351,-0.144194,0.148796,0.4299,0.4762,0.1544,0.000000,0.579845,-0.562971,0.564505,-0.590583,0.575243,-0.561437
1.4926,0.016770,0.000000,-0.091152,0.091152,0.0000,0.0000,0.0000,-0.002351,-0.144194,0.148796,0.4299,0.4762,0.1544,0.000000,0.579845,-0.562971,0.564505,-0.590583,0.575243,-0.561437
1.5093,0.016762,0.000000,-0.082375,0.082375,0.0000,0.0000,0.0000,-0.002339,-0.128854,0.133456,0.4368,0.5344,0.0889,0.000000,0.579845,-0.562971,0.564505,-0.592117,0.575243,-0.561437
1.5261,0.016750,0.000000,-0.073605,0.073605,0.0000,0.0000,0.0000,-0.002352,-0.115049,0.119651,0.4253,0.4775,0.1495,0.000000,0.579845,-0.562971,0.564505,-0.590583,0.575243,-0.561437
1.5429,0.016759,0.000000,-0.064830,0.064830,0.0000,0.0000,0.0000,-0.002364,-0.102777,0.105845,0.4370,0.5675,0.0891,0.000000,0.578311,-0.562971,0.564505,-0.592117,0.575243,-0.559903
1.5596,0.016752,0.000000,-0.056059,0.056059,0.0000,0.0000,0.0000,-0.002361,-0.096641,0.095107,0.3755,0.4897,0.0956,0.000000,0.578311,-0.562971,0.564505,-0.590583,0.575243,-0.561437
1.5764,0.016765,0.000000,-0.047281,0.047281,0.0000,0.0000,0.0000,-0.002361,-0.092039,0.085903,0.3819,0.4978,0.0950,0.000000,0.578311,-0.562971,0.564505,-0.590583,0.575243,-0.561437
1.5931,0.016759,0.000000,-0.038506,0.038506,0.0000,0.0000,0.0000,-0.002361,-0.081301,0.073631,0.3819,0.4978,0.0950,0.000000,0.579845,-0.562971,0.564505,-0.590583,0.575243,-0.561437
1.6099,0.016750,0.000000,-0.029736,0.029736,0.0000,0.0000,0.0000,-0.002349,-0.081301,0.073631,0.4310,0.4813,0.1488,0.000000,0.579845,-0.562971,0.564505,-0.590583,0.575243,-0.561437
1.6266,0.016750,0.000000,-0.020965,0.020965,0.0000,0.0000,0.0000,-0.002351,-0.052155,0.052155,0.4259,0.4831,0.1432,0.000000,0.579845,-0.562971,0.564505,-0.590583,0.575243,-0.561437
1.6434,0.016773,0.000000,-0.012183,0.012183,0.0000,0.0000,0.0000,-0.002339,-0.039884,0.042951,0.4372,0.5337,0.0901,0.000000,0.579845,-0.562971,0.564505,-0.592117,0.575243,-0.561437
1.6602,0.016761,0.000000,-0.003407,0.003407,0.0000,0.0000,0.0000,-0.002352,-0.029146,0.033748,0.4253,0.4776,0.1493,0.000000,0.579845,-0.562971,0.564505,-0.590583,0.575243,-0.561437
1.6770,0.016819,0.000000,0.005400,-0.005400,0.0000,0.0000,0.0000,-0.002352,-0.029146,0.033748,0.4253,0.4776,0.1493,0.000000,0.579845,-0.562971,0.564505,-0.590583,0.575243,-0.561437
1.6937,0.016758,0.000000,0.014174,-0.014174,0.0000,0.0000,0.0000,-0.002350,-0.021476,0.024544,0.4265,0.4834,0.1432,0.000000,0.579845,-0.562971,0.564505,-0.590583,0.575243,-0.561437
1.7105,0.016759,0.000000,0.022949,-0.022949,0.0000,0.0000,0.0000,-0.002339,-0.012272,0.013806,0.4371,0.5336,0.0901,0.000000,0.579845,-0.562971,0.564505,-0.592117,0.575243,-0.561437
1.7273,0.016760,0.000000,0.031724,-0.031724,0.0000,0.0000,0.0000,-0.002352,0.000000,0.003068,0.4253,0.4776,0.1493,0.000000,0.579845,-0.562971,0.564505,-0.590583,0.575243,-0.561437
1.7440,0.016756,0.000000,0.040497,-0.040497,0.0000,0.0000,0.0000,-0.002339,0.010738,-0.009204,0.4373,0.5342,0.0894,0.000000,0.579845,-0.562971,0.564505,-0.592117,0.575243,-0.561437
1.7608,0.016759,0.000000,0.049272,-0.049272,0.0000,0.0000,0.0000,-0.002339,0.023010,-0.021476,0.4373,0.5342,0.0894,0.000000,0.578311,-0.562971,0.564505,-0.592117,0.575243,-0.561437
1.7775,0.016752,0.000000,0.058043,-0.058043,0.0000,0.0000,0.0000,-0.002352,0.023010,-0.021476,0.3862,0.5439,0.0419,0.000000,0.578311,-0.562971,0.564505,-0.592117,0.575243,-0.561437
1.7943,0.016754,0.000000,0.066816,-0.066816,0.0000,0.0000,0.0000,-0.002350,0.035282,-0.035282,0.4306,0.4765,0.1544,0.000000,0.579845,-0.562971,0.564505,-0.590583,0.575243,-0.561437
1.8111,0.016782,0.000000,0.075603,-0.075603,0.0000,0.0000,0.0000,-0.002350,0.042951,-0.044485,0.4260,0.4836,0.1426,0.000000,0.579845,-0.562971,0.564505,-0.590583,0.575243,-0.561437
1.8278,0.016760,0.000000,0.084379,-0.084379,0.0000,0.0000,0.0000,-0.002339,0.047553,-0.052155,0.4372,0.5336,0.0901,0.000000,0.579845,-0.562971,0.564505,-0.592117,0.575243,-0.561437
1.8446,0.016774,0.000000,0.093161,-0.093161,0.0000,0.0000,0.0000,-0.002352,0.056757,-0.058291,0.4253,0.4776,0.1493,0.000000,0.579845,-0.562971,0.564505,-0.590583,0.575243,-0.561437
1.8614,0.016779,0.000000,0.101947,-0.101947,0.0000,0.0000,0.0000,-0.002352,0.073631,-0.070563,0.4253,0.4776,0.1493,0.000000,0.578311,-0.562971,0.564505,-0.590583,0.575243,-0.561437
1.8781,0.016752,0.000000,0.110718,-0.110718,0.0000,0.0000,0.0000,-0.002362,0.073631,-0.070563,0.3767,0.4990,0.0894,0.000000,0.578311,-0.562971,0.564505,-0.590583,0.575243,-0.561437
1.8949,0.016751,0.000000,0.119489,-0.119489,0.0000,0.0000,0.0000,-0.002362,0.088971,-0.082835,0.4811,0.4988,0.2029,0.000000,0.579845,-0.562971,0.564505,-0.590583,0.575243,-0.559903
1.9116,0.016757,0.000000,0.128263,-0.128263,0.0000,0.0000,0.0000,-0.002349,0.095107,-0.092039,0.4207,0.4812,0.1376,0.000000,0.579845,-0.562971,0.564505,-0.590583,0.575243,-0.561437
1.9284,0.016755,0.000000,0.137036,-0.137036,0.0000,0.0000,0.0000,-0.002351,0.096641,-0.101243,0.4270,0.4831,0.1444,0.000000,0.579845,-0.562971,0.564505,-0.590583,0.575243,-0.561437
1.9453,0.016935,0.000000,0.145903,-0.145903,0.0000,0.0000,0.0000,-0.002351,0.105845,-0.111981,0.4270,0.4831,0.1444,0.000000,0.579845,-0.562971,0.564505,-0.590583,0.575243,-0.561437
1.9621,0.016766,0.000000,0.154681,-0.154681,0.0000,0.0000,0.0000,-0.002351,0.105845,-0.111981,0.4270,0.4831,0.1444,0.000000,0.579845,-0.562971,0.564505,-0.590583,0.575243,-0.561437
1.9788,0.016764,0.000000,0.163459,-0.163459,0.0000,0.0000,0.0000,-0.002339,0.122718,-0.122718,0.4371,0.5337,0.0900,0.000000,0.579845,-0.562971,0.564505,-0.592117,0.575243,-0.561437
1.9956,0.016753,0.000000,0.172230,-0.172230,0.0000,0.0000,0.0000,-0.002352,0.142660,-0.134990,0.3862,0.5440,0.0418,0.000000,0.578311,-0.562971,0.564505,-0.592117,0.575243,-0.561437
2.0124,0.016752,0.000000,0.168064,-0.168064,0.0000,0.0000,0.0000,-0.002362,0.150330,-0.147262,0.3808,0.4922,0.1006,0.000000,0.578311,-0.562971,0.564505,-0.590583,0.575243,-0.561437
2.0291,0.016761,0.000000,0.159288,-0.159288,0.0000,0.0000,0.0000,-0.002338,0.148796,-0.158000,0.4419,0.5327,0.0945,0.000000,0.579845,-0.562971,0.564505,-0.592117,0.575243,-0.561437
2.0460,0.016928,0.000000,0.150425,-0.150425,0.0000,0.0000,0.0000,-0.002340,0.156466,-0.167204,0.4355,0.5285,0.0952,0.000000,0.579845,-0.562971,0.564505,-0.592117,0.575243,-0.561437
2.0628,0.016771,0.000000,0.141644,-0.141644,0.0000,0.0000,0.0000,-0.002340,0.156466,-0.167204,0.4355,0.5285,0.0952,0.000000,0.579845,-0.562971,0.564505,-0.592117,0.575243,-0.561437
2.0796,0.016747,0.000000,0.132875,-0.132875,0.0000,0.0000,0.0000,-0.002376,0.171806,-0.171806,0.4252,0.5114,0.1485,0.000000,0.578311,-0.562971,0.564505,-0.590583,0.575243,-0.559903
2.0963,0.016772,0.000000,0.124093,-0.124093,0.0000,0.0000,0.0000,-0.002348,0.173340,-0.168738,0.4265,0.4799,0.1433,0.000000,0.579845,-0.562971,0.564505,-0.590583,0.575243,-0.561437
2.1131,0.016764,0.000000,0.115316,-0.115316,0.0000,0.0000,0.0000,-0.002339,0.159534,-0.161068,0.4371,0.5340,0.0901,0.000000,0.579845,-0.562971,0.564505,-0.592117,0.575243,-0.561437
2.1299,0.016769,0.000000,0.106535,-0.106535,0.0000,0.0000,0.0000,-0.002352,0.147262,-0.150330,0.4253,0.4776,0.1493,0.000000,0.579845,-0.562971,0.564505,-0.590583,0.575243,-0.561437
2.1466,0.016759,0.000000,0.097760,-0.097760,0.0000,0.0000,0.0000,-0.002350,0.130388,-0.134990,0.4265,0.4834,0.1432,0.000000,0.579845,-0.562971,0.564505,-0.590583,0.575243,-0.561437
2.1634,0.016759,0.000000,0.088985,-0.088985,0.0000,0.0000,0.0000,-0.002350,0.130388,-0.134990,0.4265,0.4834,0.1432,0.000000,0.579845,-0.562971,0.564505,-0.590583,0.575243,-0.561437
2.1801,0.016755,0.000000,0.080212,-0.080212,0.0000,0.0000,0.0000,-0.002350,0.115049,-0.122718,0.4265,0.4834,0.1432,0.000000,0.579845,-0.562971,0.564505,-0.590583,0.575243,-0.561437
2.1969,0.016762,0.000000,0.071435,-0.071435,0.0000,0.0000,0.0000,-0.002339,0.102777,-0.111981,0.4371,0.5336,0.0901,0.000000,0.579845,-0.562971,0.564505,-0.592117,0.575243,-0.561437
2.2137,0.016760,0.000000,0.062660,-0.062660,0.0000,0.0000,0.0000,-0.002340,0.095107,-0.101243,0.4360,0.5284,0.0956,0.000000,0.579845,-0.562971,0.564505,-0.592117,0.575243,-0.561437
2.2304,0.016779,0.000000,0.053874,-0.053874,0.0000,0.0000,0.0000,-0.002352,0.088971,-0.087437,0.4254,0.4782,0.1488,0.000000,0.579845,-0.562971,0.564505,-0.590583,0.575243,-0.561437
2.2472,0.016769,0.000000,0.045094,-0.045094,0.0000,0.0000,0.0000,-0.002350,0.078233,-0.072097,0.4265,0.4834,0.1432,0.000000,0.579845,-0.562971,0.564505,-0.590583,0.575243,-0.561437
2.2641,0.016843,0.000000,0.036275,-0.036275,0.0000,0.0000,0.0000,-0.002350,0.078233,-0.072097,0.4265,0.4834,0.1432,0.000000,0.579845,-0.562971,0.564505,-0.590583,0.575243,-0.561437
2.2808,0.016753,0.000000,0.027503,-0.027503,0.0000,0.0000,0.0000,-0.002364,0.065961,-0.059825,0.4759,0.5005,0.1973,0.000000,0.579845,-0.562971,0.564505,-0.590583,0.575243,-0.559903
2.2976,0.016777,0.000000,0.018718,-0.018718,0.0000,0.0000,0.0000,-0.002349,0.052155,-0.050621,0.4212,0.4810,0.1382,0.000000,0.579845,-0.562971,0.564505,-0.590583,0.575243,-0.561437
2.3144,0.016774,0.000000,0.009935,-0.009935,0.0000,0.0000,0.0000,-0.002364,0.041417,-0.046019,0.4765,0.5007,0.1978,0.000000,0.579845,-0.562971,0.564505,-0.590583,0.575243,-0.559903
2.3311,0.016768,0.000000,0.001155,-0.001155,0.0000,0.0000,0.0000,-0.002338,0.032214,-0.038350,0.4319,0.5318,0.0844,0.000000,0.579845,-0.562971,0.564505,-0.592117,0.575243,-0.561437
2.3479,0.016760,0.000000,-0.007620,0.007620,0.0000,0.0000,0.0000,-0.002338,0.032214,-0.038350,0.4319,0.5318,0.0844,0.000000,0.579845,-0.562971,0.564505,-0.592117,0.575243,-0.561437
2.3647,0.016767,0.000000,-0.016399,0.016399,0.0000,0.0000,0.0000,-0.002352,0.019942,-0.024544,0.4258,0.4778,0.1499,0.000000,0.579845,-0.562971,0.564505,-0.590583,0.575243,-0.561437
2.3814,0.016753,0.000000,-0.025171,0.025171,0.0000,0.0000,0.0000,-0.002350,0.007670,-0.007670,0.4265,0.4834,0.1431,0.000000,0.579845,-0.562971,0.564505,-0.590583,0.575243,-0.561437
2.3982,0.016766,0.000000,-0.033950,0.033950,0.0000,0.0000,0.0000,-0.002350,-0.004602,0.003068,0.4265,0.4834,0.1431,0.000000,0.579845,-0.562971,0.564505,-0.590583,0.575243,-0.561437
2.4149,0.016760,0.000000,-0.042725,0.042725,0.0000,0.0000,0.0000,-0.002339,-0.007670,0.006136,0.4372,0.5336,0.0901,0.000000,0.579845,-0.562971,0.564505,-0.592117,0.575243,-0.561437
2.4317,0.016788,0.000000,-0.051516,0.051516,0.0000,0.0000,0.0000,-0.002340,-0.009204,0.010738,0.4360,0.5284,0.0956,0.000000,0.579845,-0.562971,0.564505,-0.592117,0.575243,-0.561437
2.4485,0.016777,0.000000,-0.060300,0.060300,0.0000,0.0000,0.0000,-0.002340,-0.021476,0.021476,0.4360,0.5284,0.0956,0.000000,0.579845,-0.562971,0.564505,-0.592117,0.575243,-0.561437
2.4656,0.017081,0.000000,-0.069243,0.069243,0.0000,0.0000,0.0000,-0.002340,-0.021476,0.021476,0.4360,0.5284,0.0956,0.000000,0.579845,-0.562971,0.564505,-0.592117,0.575243,-0.561437
2.4823,0.016757,0.000000,-0.078017,0.078017,0.0000,0.0000,0.0000,-0.002352,-0.042951,0.041417,0.4254,0.4782,0.1488,0.000000,0.579845,-0.562971,0.564505,-0.590583,0.575243,-0.561437
2.5015,0.019187,0.000000,-0.088064,0.088064,0.0000,0.0000,0.0000,-0.002350,-0.056757,0.055223,0.4265,0.4834,0.1432,0.000000,0.579845,-0.562971,0.564505,-0.590583,0.575243,-0.561437
2.5183,0.016759,0.000000,-0.096838,0.096838,0.0000,0.0000,0.0000,-0.002363,-0.061359,0.059825,0.3872,0.5183,0.1970,0.000000,0.579845,-0.561437,0.564505,-0.590583,0.575243,-0.561437
2.5350,0.016761,0.000000,-0.105614,0.105614,0.0000,0.0000,0.0000,-0.002349,-0.061359,0.065961,0.4305,0.4792,0.1382,0.000000,0.579845,-0.562971,0.564505,-0.590583,0.575243,-0.561437
2.5521,0.017010,0.000000,-0.114521,0.114521,0.0000,0.0000,0.0000,-0.002351,-0.073631,0.079767,0.4260,0.4833,0.1443,0.000000,0.579845,-0.562971,0.564505,-0.590583,0.575243,-0.561437
2.5688,0.016779,0.000000,-0.123306,0.123306,0.0000,0.0000,0.0000,-0.002351,-0.073631,0.079767,0.4260,0.4833,0.1443,0.000000,0.579845,-0.562971,0.564505,-0.590583,0.575243,-0.561437
2.5856,0.016749,0.000000,-0.132076,0.132076,0.0000,0.0000,0.0000,-0.002351,-0.093573,0.098175,0.4260,0.4833,0.1443,0.000000,0.579845,-0.562971,0.564505,-0.590583,0.575243,-0.561437
2.6023,0.016749,0.000000,-0.140846,0.140846,0.0000,0.0000,0.0000,-0.002351,-0.111981,0.107379,0.4260,0.4833,0.1443,0.000000,0.579845,-0.562971,0.564505,-0.590583,0.575243,-0.561437
2.6191,0.016740,0.000000,-0.149611,0.149611,0.0000,0.0000,0.0000,-0.002363,-0.116583,0.108913,0.3872,0.5184,0.1969,0.000000,0.579845,-0.561437,0.564505,-0.590583,0.575243,-0.561437
2.6358,0.016754,0.000000,-0.158384,0.158384,0.0000,0.0000,0.0000,-0.002351,-0.118117,0.119651,0.4908,0.5477,0.1380,0.000000,0.579845,-0.562971,0.564505,-0.592117,0.575243,-0.559903
2.6526,0.016757,0.000000,-0.167157,0.167157,0.0000,0.0000,0.0000,-0.002350,-0.131922,0.138058,0.4197,0.4762,0.1443,0.000000,0.579845,-0.562971,0.564505,-0.590583,0.575243,-0.561437
2.6693,0.016758,0.000000,-0.173134,0.173134,0.0000,0.0000,0.0000,-0.002350,-0.131922,0.138058,0.4197,0.4762,0.1443,0.000000,0.579845,-0.562971,0.564505,-0.590583,0.575243,-0.561437
2.6861,0.016743,0.000000,-0.164368,0.164368,0.0000,0.0000,0.0000,-0.002339,-0.150330,0.153398,0.4379,0.5344,0.0900,0.000000,0.579845,-0.562971,0.564505,-0.592117,0.575243,-0.561437
2.7028,0.016751,0.000000,-0.155597,0.155597,0.0000,0.0000,0.0000,-0.002340,-0.165670,0.156466,0.4360,0.5283,0.0956,0.000000,0.579845,-0.562971,0.564505,-0.592117,0.575243,-0.561437
2.7197,0.016822,0.000000,-0.146789,0.146789,0.0000,0.0000,0.0000,-0.002365,-0.168738,0.159534,0.4749,0.4958,0.2022,0.000000,0.579845,-0.562971,0.564505,-0.590583,0.575243,-0.559903
2.7364,0.016755,0.000000,-0.138016,0.138016,0.0000,0.0000,0.0000,-0.002338,-0.165670,0.167204,0.4321,0.5323,0.0839,0.000000,0.579845,-0.562971,0.564505,-0.592117,0.575243,-0.561437
2.7533,0.016870,0.000000,-0.129183,0.129183,0.0000,0.0000,0.0000,-0.002352,-0.162602,0.165670,0.4258,0.4778,0.1500,0.000000,0.579845,-0.562971,0.564505,-0.590583,0.575243,-0.561437
2.7700,0.016759,0.000000,-0.120408,0.120408,0.0000,0.0000,0.0000,-0.002352,-0.162602,0.165670,0.4258,0.4778,0.1500,0.000000,0.579845,-0.562971,0.564505,-0.590583,0.575243,-0.561437
2.7868,0.016751,0.000000,-0.111637,0.111637,0.0000,0.0000,0.0000,-0.002339,-0.156466,0.156466,0.4372,0.5342,0.0894,0.000000,0.579845,-0.562971,0.564505,-0.592117,0.575243,-0.561437
2.8035,0.016756,0.000000,-0.102864,0.102864,0.0000,0.0000,0.0000,-0.002340,-0.147262,0.147262,0.4360,0.5283,0.0957,0.000000,0.579845,-0.562971,0.564505,-0.592117,0.575243,-0.561437
2.8203,0.016749,0.000000,-0.094094,0.094094,0.0000,0.0000,0.0000,-0.002365,-0.134990,0.136524,0.4359,0.5622,0.0947,0.000000,0.578311,-0.562971,0.564505,-0.592117,0.575243,-0.559903
2.8371,0.016767,0.000000,-0.085315,0.085315,0.0000,0.0000,0.0000,-0.002349,-0.124252,0.125786,0.4254,0.4746,0.1489,0.000000,0.579845,-0.562971,0.564505,-0.590583,0.575243,-0.561437
2.8540,0.016916,0.000000,-0.076458,0.076458,0.0000,0.0000,0.0000,-0.002339,-0.113515,0.116583,0.4373,0.5346,0.0895,0.000000,0.579845,-0.562971,0.564505,-0.592117,0.575243,-0.561437
2.8707,0.016759,0.000000,-0.067683,0.067683,0.0000,0.0000,0.0000,-0.002339,-0.113515,0.116583,0.4373,0.5346,0.0895,0.000000,0.579845,-0.562971,0.564505,-0.592117,0.575243,-0.561437
2.8875,0.016753,0.000000,-0.058911,0.058911,0.0000,0.0000,0.0000,-0.002352,-0.099709,0.101243,0.3862,0.5439,0.0419,0.000000,0.578311,-0.562971,0.564505,-0.592117,0.575243,-0.561437
2.9042,0.016753,0.000000,-0.050139,0.050139,0.0000,0.0000,0.0000,-0.002350,-0.088971,0.092039,0.4306,0.4765,0.1544,0.000000,0.579845,-0.562971,0.564505,-0.590583,0.575243,-0.561437
2.9210,0.016742,0.000000,-0.041373,0.041373,0.0000,0.0000,0.0000,-0.002350,-0.079767,0.081301,0.4260,0.4836,0.1426,0.000000,0.579845,-0.562971,0.564505,-0.590583,0.575243,-0.561437
2.9377,0.016753,0.000000,-0.032601,0.032601,0.0000,0.0000,0.0000,-0.002350,-0.070563,0.070563,0.4260,0.4836,0.1426,0.000000,0.579845,-0.562971,0.564505,-0.590583,0.575243,-0.561437
2.9545,0.016745,0.000000,-0.023833,0.023833,0.0000,0.0000,0.0000,-0.002350,-0.058291,0.059825,0.4260,0.4836,0.1426,0.000000,0.579845,-0.562971,0.564505,-0.590583,0.575243,-0.561437
2.9712,0.016768,0.000000,-0.015054,0.015054,0.0000,0.0000,0.0000,-0.002350,-0.058291,0.059825,0.4260,0.4836,0.1426,0.000000,0.579845,-0.562971,0.564505,-0.590583,0.575243,-0.561437
2.9880,0.016743,0.000000,-0.006287,0.006287,0.0000,0.0000,0.0000,-0.002339,-0.046019,0.047553,0.4372,0.5336,0.0901,0.000000,0.579845,-0.562971,0.564505,-0.592117,0.575243,-0.561437
3.0047,0.016748,0.000000,0.002482,-0.002482,0.0000,0.0000,0.0000,-0.002352,-0.032214,0.036816,0.4253,0.4776,0.1493,0.000000,0.579845,-0.562971,0.564505,-0.590583,0.575243,-0.561437
3.0215,0.016747,0.000000,0.011250,-0.011250,0.0000,0.0000,0.0000,-0.002350,-0.026078,0.029146,0.4265,0.4834,0.1432,0.000000,0.579845,-0.562971,0.564505,-0.590583,0.575243,-0.561437
3.0382,0.016749,0.000000,0.020020,-0.020020,0.0000,0.0000,0.0000,-0.002339,-0.023010,0.021476,0.4371,0.5336,0.0901,0.000000,0.579845,-0.562971,0.564505,-0.592117,0.575243,-0.561437
3.0550,0.016744,0.000000,0.028787,-0.028787,0.0000,0.0000,0.0000,-0.002352,-0.012272,0.007670,0.4253,0.4776,0.1493,0.000000,0.579845,-0.562971,0.564505,-0.590583,0.575243,-0.561437
3.0717,0.016761,0.000000,0.037563,-0.037563,0.0000,0.0000,0.0000,-0.002352,-0.012272,0.007670,0.4253,0.4776,0.1493,0.000000,0.579845,-0.562971,0.564505,-0.590583,0.575243,-0.561437
3.0885,0.016750,0.000000,0.046333,-0.046333,0.0000,0.0000,0.0000,-0.002363,0.001534,-0.003068,0.4760,0.5011,0.1966,0.000000,0.579845,-0.562971,0.564505,-0.590583,0.575243,-0.559903
3.1052,0.016751,0.000000,0.055104,-0.055104,0.0000,0.0000,0.0000,-0.002349,0.015340,-0.015340,0.4212,0.4810,0.1382,0.000000,0.579845,-0.562971,0.564505,-0.590583,0.575243,-0.561437
3.1220,0.016742,0.000000,0.063871,-0.063871,0.0000,0.0000,0.0000,-0.002339,0.029146,-0.026078,0.4377,0.5339,0.0906,0.000000,0.579845,-0.562971,0.564505,-0.592117,0.575243,-0.561437
3.1387,0.016755,0.000000,0.072644,-0.072644,0.0000,0.0000,0.0000,-0.002352,0.041417,-0.047553,0.4252,0.4776,0.1493,0.000000,0.579845,-0.562971,0.564505,-0.590583,0.575243,-0.561437
3.1556,0.016852,0.000000,0.081467,-0.081467,0.0000,0.0000,0.0000,-0.002350,0.055223,-0.058291,0.4265,0.4834,0.1432,0.000000,0.579845,-0.562971,0.564505,-0.590583,0.575243,-0.561437
3.1723,0.016759,0.000000,0.090242,-0.090242,0.0000,0.0000,0.0000,-0.002350,0.055223,-0.058291,0.4265,0.4834,0.1432,0.000000,0.579845,-0.562971,0.564505,-0.590583,0.575243,-0.561437
3.1891,0.016745,0.000000,0.099010,-0.099010,0.0000,0.0000,0.0000,-0.002339,0.070563,-0.067495,0.4371,0.5336,0.0901,0.000000,0.579845,-0.562971,0.564505,-0.592117,0.575243,-0.561437
3.2058,0.016753,0.000000,0.107781,-0.107781,0.0000,0.0000,0.0000,-0.002363,0.081301,-0.078233,0.3755,0.4932,0.0955,0.000000,0.578311,-0.562971,0.564505,-0.590583,0.575243,-0.561437
3.2226,0.016742,0.000000,0.116548,-0.116548,0.0000,0.0000,0.0000,-0.002349,0.087437,-0.084369,0.4317,0.4818,0.1488,0.000000,0.579845,-0.562971,0.564505,-0.590583,0.575243,-0.561437
3.2393,0.016745,0.000000,0.125315,-0.125315,0.0000,0.0000,0.0000,-0.002351,0.095107,-0.095107,0.4258,0.4830,0.1432,0.000000,0.579845,-0.562971,0.564505,-0.590583,0.575243,-0.561437
3.2561,0.016743,0.000000,0.134082,-0.134082,0.0000,0.0000,0.0000,-0.002351,0.108913,-0.105845,0.4258,0.4830,0.1432,0.000000,0.579845,-0.562971,0.564505,-0.590583,0.575243,-0.561437
3.2728,0.016752,0.000000,0.142854,-0.142854,0.0000,0.0000,0.0000,-0.002351,0.108913,-0.105845,0.4258,0.4830,0.1432,0.000000,0.579845,-0.562971,0.564505,-0.590583,0.575243,-0.561437
3.2896,0.016747,0.000000,0.151622,-0.151622,0.0000,0.0000,0.0000,-0.002351,0.127320,-0.118117,0.4258,0.4830,0.1432,0.000000,0.579845,-0.562971,0.564505,-0.590583,0.575243,-0.561437
3.3063,0.016742,0.000000,0.160389,-0.160389,0.0000,0.0000,0.0000,-0.002339,0.133456,-0.130388,0.4372,0.5337,0.0901,0.000000,0.579845,-0.562971,0.564505,-0.592117,0.575243,-0.561437
3.3231,0.016742,0.000000,0.169154,-0.169154,0.0000,0.0000,0.0000,-0.002340,0.131922,-0.139592,0.4360,0.5284,0.0956,0.000000,0.579845,-0.562971,0.564505,-0.592117,0.575243,-0.561437
3.3398,0.016746,0.000000,0.171143,-0.171143,0.0000,0.0000,0.0000,-0.002340,0.142660,-0.151864,0.4360,0.5284,0.0956,0.000000,0.579845,-0.562971,0.564505,-0.592117,0.575243,-0.561437
3.3568,0.016992,0.000000,0.162246,-0.162246,0.0000,0.0000,0.0000,-0.002352,0.162602,-0.165670,0.4254,0.4782,0.1488,0.000000,0.579845,-0.562971,0.564505,-0.590583,0.575243,-0.561437
3.3735,0.016744,0.000000,0.153479,-0.153479,0.0000,0.0000,0.0000,-0.002352,0.162602,-0.165670,0.4254,0.4782,0.1488,0.000000,0.579845,-0.562971,0.564505,-0.590583,0.575243,-0.561437
3.3903,0.016746,0.000000,0.144710,-0.144710,0.0000,0.0000,0.0000,-0.002350,0.177942,-0.176408,0.4265,0.4834,0.1432,0.000000,0.579845,-0.562971,0.564505,-0.590583,0.575243,-0.561437
3.4070,0.016747,0.000000,0.135942,-0.135942,0.0000,0.0000,0.0000,-0.002339,0.174874,-0.173340,0.4371,0.5336,0.0901,0.000000,0.579845,-0.562971,0.564505,-0.592117,0.575243,-0.561437
3.4238,0.016749,0.000000,0.127172,-0.127172,0.0000,0.0000,0.0000,-0.002352,0.161068,-0.165670,0.4253,0.4776,0.1493,0.000000,0.579845,-0.562971,0.564505,-0.590583,0.575243,-0.561437
3.4405,0.016756,0.000000,0.118399,-0.118399,0.0000,0.0000,0.0000,-0.002363,0.147262,-0.153398,0.4760,0.5011,0.1966,0.000000,0.579845,-0.562971,0.564505,-0.590583,0.575243,-0.559903
3.4573,0.016790,0.000000,0.109608,-0.109608,0.0000,0.0000,0.0000,-0.002349,0.136524,-0.142660,0.4212,0.4810,0.1382,0.000000,0.579845,-0.562971,0.564505,-0.590583,0.575243,-0.561437
3.4741,0.016749,0.000000,0.100838,-0.100838,0.0000,0.0000,0.0000,-0.002349,0.136524,-0.142660,0.4212,0.4810,0.1382,0.000000,0.579845,-0.562971,0.564505,-0.590583,0.575243,-0.561437
3.4909,0.016802,0.000000,0.092041,-0.092041,0.0000,0.0000,0.0000,-0.002364,0.122718,-0.128854,0.4765,0.5007,0.1978,0.000000,0.579845,-0.562971,0.564505,-0.590583,0.575243,-0.559903
3.5076,0.016750,0.000000,0.083271,-0.083271,0.0000,0.0000,0.0000,-0.002349,0.111981,-0.118117,0.4212,0.4810,0.1381,0.000000,0.579845,-0.562971,0.564505,-0.590583,0.575243,-0.561437
3.5249,0.017297,0.000000,0.074214,-0.074214,0.0000,0.0000,0.0000,-0.002364,0.104311,-0.108913,0.4374,0.5671,0.0903,0.000000,0.578311,-0.562971,0.564505,-0.592117,0.575243,-0.559903
3.5417,0.016744,0.000000,0.065447,-0.065447,0.0000,0.0000,0.0000,-0.002349,0.095107,-0.096641,0.4252,0.4741,0.1493,0.000000,0.579845,-0.562971,0.564505,-0.590583,0.575243,-0.561437
3.5584,0.016746,0.000000,0.056679,-0.056679,0.0000,0.0000,0.0000,-0.002351,0.081301,-0.082835,0.4265,0.4838,0.1432,0.000000,0.579845,-0.562971,0.564505,-0.590583,0.575243,-0.561437
3.5752,0.016741,0.000000,0.047914,-0.047914,0.0000,0.0000,0.0000,-0.002351,0.081301,-0.082835,0.4265,0.4838,0.1432,0.000000,0.579845,-0.562971,0.564505,-0.590583,0.575243,-0.561437
3.5919,0.016753,0.000000,0.039142,-0.039142,0.0000,0.0000,0.0000,-0.002350,0.069029,-0.069029,0.4263,0.4825,0.1440,0.000000,0.579845,-0.562971,0.564505,-0.590583,0.575243,-0.561437
3.6086,0.016739,0.000000,0.030378,-0.030378,0.0000,0.0000,0.0000,-0.002350,0.058291,-0.056757,0.4263,0.4825,0.1440,0.000000,0.579845,-0.562971,0.564505,-0.590583,0.575243,-0.561437
3.6254,0.016742,0.000000,0.021612,-0.021612,0.0000,0.0000,0.0000,-0.002339,0.049087,-0.050621,0.4372,0.5337,0.0900,0.000000,0.579845,-0.562971,0.564505,-0.592117,0.575243,-0.561437
3.6421,0.016741,0.000000,0.012846,-0.012846,0.0000,0.0000,0.0000,-0.002340,0.038350,-0.041417,0.4360,0.5284,0.0956,0.000000,0.579845,-0.562971,0.564505,-0.592117,0.575243,-0.561437
3.6589,0.016750,0.000000,0.004076,-0.004076,0.0000,0.0000,0.0000,-0.002340,0.024544,-0.027612,0.4360,0.5284,0.0956,0.000000,0.579845,-0.562971,0.564505,-0.590583,0.575243,-0.561437
3.6756,0.016743,0.000000,-0.004691,0.004691,0.0000,0.0000,0.0000,-0.002352,0.024544,-0.027612,0.4254,0.4782,0.1488,0.000000,0.579845,-0.562971,0.564505,-0.590583,0.575243,-0.561437
3.6924,0.016748,0.000000,-0.013460,0.013460,0.0000,0.0000,0.0000,-0.002350,0.013806,-0.015340,0.4265,0.4834,0.1432,0.000000,0.579845,-0.562971,0.564505,-0.590583,0.575243,-0.561437
3.7091,0.016744,0.000000,-0.022227,0.022227,0.0000,0.0000,0.0000,-0.002339,0.006136,-0.006136,0.4371,0.5336,0.0901,0.000000,0.579845,-0.562971,0.564505,-0.592117,0.575243,-0.561437
3.7259,0.016750,0.000000,-0.030997,0.030997,0.0000,0.0000,0.0000,-0.002340,0.003068,-0.003068,0.4360,0.5284,0.0956,0.000000,0.579845,-0.562971,0.564505,-0.592117,0.575243,-0.561437
3.7426,0.016747,0.000000,-0.039766,0.039766,0.0000,0.0000,0.0000,-0.002363,-0.007670,0.004602,0.3756,0.4938,0.0950,0.000000,0.578311,-0.562971,0.564505,-0.590583,0.575243,-0.561437
3.7595,0.016861,0.000000,-0.048594,0.048594,0.0000,0.0000,0.0000,-0.002338,-0.023010,0.023010,0.4425,0.5325,0.0951,0.000000,0.579845,-0.562971,0.564505,-0.592117,0.575243,-0.561437
3.7762,0.016740,0.000000,-0.057359,0.057359,0.0000,0.0000,0.0000,-0.002338,-0.023010,0.023010,0.4425,0.5325,0.0951,0.000000,0.579845,-0.562971,0.564505,-0.592117,0.575243,-0.561437
3.7930,0.016747,0.000000,-0.066128,0.066128,0.0000,0.0000,0.0000,-0.002365,-0.039884,0.038350,0.4742,0.4954,0.2023,0.000000,0.579845,-0.562971,0.564505,-0.590583,0.575243,-0.559903
3.8097,0.016738,0.000000,-0.074892,0.074892,0.0000,0.0000,0.0000,-0.002338,-0.046019,0.042951,0.4321,0.5324,0.0839,0.000000,0.579845,-0.562971,0.564505,-0.592117,0.575243,-0.561437
3.8264,0.016741,0.000000,-0.083657,0.083657,0.0000,0.0000,0.0000,-0.002352,-0.049087,0.046019,0.4258,0.4778,0.1500,0.000000,0.579845,-0.562971,0.564505,-0.590583,0.575243,-0.561437
3.8432,0.016748,0.000000,-0.092426,0.092426,0.0000,0.0000,0.0000,-0.002350,-0.053689,0.052155,0.4265,0.4834,0.1431,0.000000,0.579845,-0.562971,0.564505,-0.590583,0.575243,-0.561437
3.8603,0.017144,0.000000,-0.101403,0.101403,0.0000,0.0000,0.0000,-0.002350,-0.069029,0.069029,0.4265,0.4834,0.1431,0.000000,0.579845,-0.562971,0.564505,-0.590583,0.575243,-0.561437
3.8771,0.016749,0.000000,-0.110173,0.110173,0.0000,0.0000,0.0000,-0.002350,-0.069029,0.069029,0.4265,0.4834,0.1431,0.000000,0.579845,-0.562971,0.564505,-0.590583,0.575243,-0.561437
3.8938,0.016749,0.000000,-0.118942,0.118942,0.0000,0.0000,0.0000,-0.002350,-0.088971,0.088971,0.4265,0.4834,0.1431,0.000000,0.579845,-0.562971,0.564505,-0.590583,0.575243,-0.561437
3.9106,0.016744,0.000000,-0.127709,0.127709,0.0000,0.0000,0.0000,-0.002350,-0.102777,0.098175,0.4265,0.4834,0.1431,0.000000,0.579845,-0.562971,0.564505,-0.590583,0.575243,-0.561437
3.9273,0.016772,0.000000,-0.136491,0.136491,0.0000,0.0000,0.0000,-0.002350,-0.105845,0.099709,0.4265,0.4834,0.1431,0.000000,0.579845,-0.562971,0.564505,-0.590583,0.575243,-0.561437
3.9446,0.017265,0.000000,-0.145531,0.145531,0.0000,0.0000,0.0000,-0.002375,-0.110447,0.105845,0.4261,0.5161,0.1435,0.000000,0.578311,-0.562971,0.564505,-0.590583,0.575243,-0.559903
3.9615,0.016861,0.000000,-0.154360,0.154360,0.0000,0.0000,0.0000,-0.002361,-0.124252,0.122718,0.4760,0.4971,0.1973,0.000000,0.579845,-0.562971,0.564505,-0.590583,0.575243,-0.559903
3.9782,0.016749,0.000000,-0.163130,0.163130,0.0000,0.0000,0.0000,-0.002361,-0.124252,0.122718,0.4760,0.4971,0.1973,0.000000,0.579845,-0.562971,0.564505,-0.590583,0.575243,-0.559903
3.9950,0.016743,0.000000,-0.171896,0.171896,0.0000,0.0000,0.0000,-0.002349,-0.142660,0.141126,0.4212,0.4814,0.1382,0.000000,0.579845,-0.562971,0.564505,-0.590583,0.575243,-0.561437
4.0117,0.016742,0.000000,-0.168403,0.168403,0.0000,0.0000,0.0000,-0.002351,-0.153398,0.150330,0.4269,0.4831,0.1443,0.000000,0.579845,-0.562971,0.564505,-0.590583,0.575243,-0.561437
4.0285,0.016757,0.000000,-0.159629,0.159629,0.0000,0.0000,0.0000,-0.002351,-0.158000,0.153398,0.4269,0.4831,0.1443,0.000000,0.579845,-0.562971,0.564505,-0.590583,0.575243,-0.561437
4.0452,0.016767,0.000000,-0.150850,0.150850,0.0000,0.0000,0.0000,-0.002339,-0.164136,0.161068,0.4371,0.5337,0.0900,0.000000,0.579845,-0.562971,0.564505,-0.592117,0.575243,-0.561437
4.0620,0.016748,0.000000,-0.142081,0.142081,0.0000,0.0000,0.0000,-0.002340,-0.174874,0.170272,0.4361,0.5284,0.0956,0.000000,0.579845,-0.562971,0.564505,-0.592117,0.575243,-0.561437
4.0787,0.016756,0.000000,-0.133308,0.133308,0.0000,0.0000,0.0000,-0.002340,-0.174874,0.170272,0.4361,0.5284,0.0956,0.000000,0.579845,-0.562971,0.564505,-0.592117,0.575243,-0.561437
4.0955,0.016758,0.000000,-0.124533,0.124533,0.0000,0.0000,0.0000,-0.002340,-0.173340,0.170272,0.4361,0.5284,0.0956,0.000000,0.579845,-0.562971,0.564505,-0.592117,0.575243,-0.561437
4.1122,0.016748,0.000000,-0.115764,0.115764,0.0000,0.0000,0.0000,-0.002340,-0.162602,0.162602,0.4361,0.5284,0.0956,0.000000,0.579845,-0.562971,0.564505,-0.592117,0.575243,-0.561437
4.1290,0.016749,0.000000,-0.106994,0.106994,0.0000,0.0000,0.0000,-0.002352,-0.148796,0.151864,0.4254,0.4782,0.1488,0.000000,0.579845,-0.562971,0.564505,-0.590583,0.575243,-0.561437
4.1459,0.016873,0.000000,-0.098159,0.098159,0.0000,0.0000,0.0000,-0.002350,-0.133456,0.134990,0.4265,0.4834,0.1432,0.000000,0.579845,-0.562971,0.564505,-0.590583,0.575243,-0.561437
4.1626,0.016750,0.000000,-0.089389,0.089389,0.0000,0.0000,0.0000,-0.002350,-0.118117,0.119651,0.4265,0.4834,0.1432,0.000000,0.579845,-0.562971,0.564505,-0.590583,0.575243,-0.561437
4.1794,0.016745,0.000000,-0.080621,0.080621,0.0000,0.0000,0.0000,-0.002350,-0.118117,0.119651,0.4265,0.4834,0.1432,0.000000,0.579845,-0.562971,0.564505,-0.590583,0.575243,-0.561437
4.1961,0.016749,0.000000,-0.071851,0.071851,0.0000,0.0000,0.0000,-0.002350,-0.104311,0.107379,0.4265,0.4834,0.1432,0.000000,0.579845,-0.562971,0.564505,-0.590583,0.575243,-0.561437
4.2128,0.016742,0.000000,-0.063085,0.063085,0.0000,0.0000,0.0000,-0.002339,-0.093573,0.095107,0.4371,0.5336,0.0901,0.000000,0.579845,-0.562971,0.564505,-0.592117,0.575243,-0.561437
4.2296,0.016745,0.000000,-0.054318,0.054318,0.0000,0.0000,0.0000,-0.002340,-0.088971,0.085903,0.4360,0.5284,0.0956,0.000000,0.579845,-0.562971,0.564505,-0.592117,0.575243,-0.561437
4.2464,0.016756,0.000000,-0.045544,0.045544,0.0000,0.0000,0.0000,-0.002340,-0.078233,0.075165,0.4360,0.5284,0.0956,0.000000,0.579845,-0.562971,0.564505,-0.592117,0.575243,-0.561437
4.2634,0.017028,0.000000,-0.036628,0.036628,0.0000,0.0000,0.0000,-0.002365,-0.065961,0.064427,0.4749,0.4958,0.2022,0.000000,0.579845,-0.562971,0.564505,-0.590583,0.575243,-0.559903
4.2801,0.016743,0.000000,-0.027861,0.027861,0.0000,0.0000,0.0000,-0.002365,-0.065961,0.064427,0.4749,0.4958,0.2022,0.000000,0.579845,-0.562971,0.564505,-0.590583,0.575243,-0.559903
4.2969,0.016754,0.000000,-0.019089,0.019089,0.0000,0.0000,0.0000,-0.002338,-0.056757,0.055223,0.4321,0.5323,0.0839,0.000000,0.579845,-0.562971,0.564505,-0.592117,0.575243,-0.561437
4.3136,0.016743,0.000000,-0.010322,0.010322,0.0000,0.0000,0.0000,-0.002352,-0.044485,0.046019,0.4258,0.4778,0.1500,0.000000,0.579845,-0.562971,0.564505,-0.590583,0.575243,-0.561437
4.3306,0.017028,0.000000,-0.001407,0.001407,0.0000,0.0000,0.0000,-0.002339,-0.032214,0.036816,0.4372,0.5342,0.0894,0.000000,0.579845,-0.562971,0.564505,-0.592117,0.575243,-0.561437
4.3474,0.016746,0.000000,0.007362,-0.007362,0.0000,0.0000,0.0000,-0.002340,-0.023010,0.026078,0.4360,0.5283,0.0957,0.000000,0.579845,-0.562971,0.564505,-0.592117,0.575243,-0.561437
4.3642,0.016768,0.000000,0.016142,-0.016142,0.0000,0.0000,0.0000,-0.002340,-0.012272,0.015340,0.4360,0.5283,0.0957,0.000000,0.579845,-0.562971,0.564505,-0.590583,0.575243,-0.561437
4.3809,0.016744,0.000000,0.024909,-0.024909,0.0000,0.0000,0.0000,-0.002352,-0.012272,0.015340,0.4254,0.4782,0.1488,0.000000,0.579845,-0.562971,0.564505,-0.590583,0.575243,-0.561437
4.3977,0.016756,0.000000,0.033682,-0.033682,0.0000,0.0000,0.0000,-0.002350,0.001534,0.003068,0.4265,0.4834,0.1432,0.000000,0.579845,-0.562971,0.564505,-0.590583,0.575243,-0.561437
4.4144,0.016745,0.000000,0.042450,-0.042450,0.0000,0.0000,0.0000,-0.002339,0.010738,-0.007670,0.4371,0.5336,0.0901,0.000000,0.579845,-0.562971,0.564505,-0.592117,0.575243,-0.561437
4.4312,0.016843,0.000000,0.051269,-0.051269,0.0000,0.0000,0.0000,-0.002352,0.013806,-0.018408,0.4253,0.4776,0.1493,0.000000,0.579845,-0.562971,0.564505,-0.590583,0.575243,-0.561437
4.4480,0.016746,0.000000,0.060037,-0.060037,0.0000,0.0000,0.0000,-0.002351,0.018408,-0.027612,0.3875,0.5498,0.0356,0.000000,0.578311,-0.562971,0.564505,-0.592117,0.575243,-0.561437
4.4650,0.017039,0.000000,0.068959,-0.068959,0.0000,0.0000,0.0000,-0.002350,0.033748,-0.039884,0.4304,0.4759,0.1550,0.000000,0.579845,-0.562971,0.564505,-0.590583,0.575243,-0.561437
4.4818,0.016742,0.000000,0.077725,-0.077725,0.0000,0.0000,0.0000,-0.002350,0.033748,-0.039884,0.4304,0.4759,0.1550,0.000000,0.579845,-0.562971,0.564505,-0.590583,0.575243,-0.561437
4.4985,0.016753,0.000000,0.086497,-0.086497,0.0000,0.0000,0.0000,-0.002350,0.052155,-0.052155,0.4260,0.4836,0.1426,0.000000,0.579845,-0.562971,0.564505,-0.590583,0.575243,-0.561437
4.5153,0.016745,0.000000,0.095265,-0.095265,0.0000,0.0000,0.0000,-0.002364,0.064427,-0.062893,0.4760,0.5005,0.1973,0.000000,0.579845,-0.562971,0.564505,-0.590583,0.575243,-0.559903
4.5322,0.016916,0.000000,0.104122,-0.104122,0.0000,0.0000,0.0000,-0.002349,0.067495,-0.070563,0.4212,0.4810,0.1382,0.000000,0.579845,-0.562971,0.564505,-0.590583,0.575243,-0.561437
4.5489,0.016743,0.000000,0.112889,-0.112889,0.0000,0.0000,0.0000,-0.002364,0.070563,-0.076699,0.4765,0.5007,0.1978,0.000000,0.579845,-0.562971,0.564505,-0.590583,0.575243,-0.559903
4.5657,0.016772,0.000000,0.121671,-0.121671,0.0000,0.0000,0.0000,-0.002349,0.082835,-0.085903,0.4212,0.4810,0.1381,0.000000,0.579845,-0.562971,0.564505,-0.590583,0.575243,-0.561437
4.5825,0.016743,0.000000,0.130437,-0.130437,0.0000,0.0000,0.0000,-0.002349,0.082835,-0.085903,0.4212,0.4810,0.1381,0.000000,0.579845,-0.562971,0.564505,-0.590583,0.575243,-0.561437
4.5992,0.016759,0.000000,0.139212,-0.139212,0.0000,0.0000,0.0000,-0.002364,0.102777,-0.096641,0.4765,0.5007,0.1978,0.000000,0.579845,-0.562971,0.564505,-0.590583,0.575243,-0.559903
4.6160,0.016747,0.000000,0.147981,-0.147981,0.0000,0.0000,0.0000,-0.002361,0.118117,-0.107379,0.3714,0.4966,0.0843,0.000000,0.578311,-0.562971,0.564505,-0.590583,0.575243,-0.561437
4.6327,0.016754,0.000000,0.156753,-0.156753,0.0000,0.0000,0.0000,-0.002361,0.122718,-0.119651,0.3823,0.4971,0.0961,0.000000,0.578311,-0.562971,0.564505,-0.590583,0.575243,-0.561437
4.6495,0.016744,0.000000,0.165521,-0.165521,0.0000,0.0000,0.0000,-0.002349,0.122718,-0.131922,0.4310,0.4814,0.1487,0.000000,0.579845,-0.562971,0.564505,-0.590583,0.575243,-0.561437
4.6662,0.016755,0.000000,0.174294,-0.174294,0.0000,0.0000,0.0000,-0.002349,0.122718,-0.131922,0.4310,0.4814,0.1487,0.000000,0.579845,-0.562971,0.564505,-0.590583,0.575243,-0.561437
4.6830,0.016745,0.000000,0.166005,-0.166005,0.0000,0.0000,0.0000,-0.002351,0.134990,-0.144194,0.4259,0.4831,0.1432,0.000000,0.579845,-0.562971,0.564505,-0.590583,0.575243,-0.561437
4.6997,0.016758,0.000000,0.157230,-0.157230,0.0000,0.0000,0.0000,-0.002351,0.154932,-0.158000,0.4259,0.4831,0.1432,0.000000,0.579845,-0.562971,0.564505,-0.590583,0.575243,-0.561437
4.7165,0.016749,0.000000,0.148461,-0.148461,0.0000,0.0000,0.0000,-0.002351,0.171806,-0.168738,0.4259,0.4831,0.1432,0.000000,0.579845,-0.562971,0.564505,-0.590583,0.575243,-0.561437
4.7333,0.016804,0.000000,0.139662,-0.139662,0.0000,0.0000,0.0000,-0.002351,0.171806,-0.168738,0.4259,0.4831,0.1432,0.000000,0.579845,-0.562971,0.564505,-0.590583,0.575243,-0.561437
4.7500,0.016728,0.000000,0.130904,-0.130904,0.0000,0.0000,0.0000,-0.002351,0.162602,-0.167204,0.4259,0.4831,0.1432,0.000000,0.579845,-0.562971,0.564505,-0.590583,0.575243,-0.561437
4.7667,0.016749,0.000000,0.122134,-0.122134,0.0000,0.0000,0.0000,-0.002351,0.162602,-0.167204,0.4259,0.4831,0.1432,0.000000,0.579845,-0.562971,0.564505,-0.590583,0.575243,-0.561437
4.7835,0.016741,0.000000,0.113368,-0.113368,0.0000,0.0000,0.0000,-0.002351,0.154932,-0.159534,0.4259,0.4831,0.1432,0.000000,0.579845,-0.562971,0.564505,-0.590583,0.575243,-0.561437
4.8002,0.016747,0.000000,0.104600,-0.104600,0.0000,0.0000,0.0000,-0.002351,0.144194,-0.151864,0.4259,0.4831,0.1432,0.000000,0.579845,-0.562971,0.564505,-0.590583,0.575243,-0.561437
4.8170,0.016744,0.000000,0.095832,-0.095832,0.0000,0.0000,0.0000,-0.002351,0.133456,-0.141126,0.4259,0.4831,0.1432,0.000000,0.579845,-0.562971,0.564505,-0.590583,0.575243,-0.561437
4.8337,0.016745,0.000000,0.087065,-0.087065,0.0000,0.0000,0.0000,-0.002351,0.121184,-0.130388,0.4259,0.4831,0.1432,0.000000,0.579845,-0.562971,0.564505,-0.590583,0.575243,-0.561437
4.8505,0.016757,0.000000,0.078291,-0.078291,0.0000,0.0000,0.0000,-0.002351,0.121184,-0.130388,0.4259,0.4831,0.1432,0.000000,0.579845,-0.562971,0.564505,-0.590583,0.575243,-0.561437
4.8672,0.016746,0.000000,0.069522,-0.069522,0.0000,0.0000,0.0000,-0.002339,0.107379,-0.116583,0.4372,0.5337,0.0901,0.000000,0.579845,-0.562971,0.564505,-0.592117,0.575243,-0.561437
4.8840,0.016743,0.000000,0.060756,-0.060756,0.0000,0.0000,0.0000,-0.002340,0.095107,-0.101243,0.4360,0.5284,0.0956,0.000000,0.579845,-0.562971,0.564505,-0.592117,0.575243,-0.561437
4.9007,0.016750,0.000000,0.051986,-0.051986,0.0000,0.0000,0.0000,-0.002352,0.085903,-0.092039,0.4254,0.4782,0.1488,0.000000,0.579845,-0.562971,0.564505,-0.590583,0.575243,-0.561437
4.9175,0.016741,0.000000,0.043220,-0.043220,0.0000,0.0000,0.0000,-0.002350,0.079767,-0.079767,0.4265,0.4834,0.1432,0.000000,0.579845,-0.562971,0.564505,-0.590583,0.575243,-0.561437
4.9342,0.016748,0.000000,0.034451,-0.034451,0.0000,0.0000,0.0000,-0.002350,0.078233,-0.070563,0.4265,0.4834,0.1432,0.000000,0.579845,-0.562971,0.564505,-0.590583,0.575243,-0.561437
4.9510,0.016751,0.000000,0.025680,-0.025680,0.0000,0.0000,0.0000,-0.002350,0.078233,-0.070563,0.4265,0.4834,0.1432,0.000000,0.579845,-0.562971,0.564505,-0.590583,0.575243,-0.561437
4.9677,0.016747,0.000000,0.016911,-0.016911,0.0000,0.0000,0.0000,-0.002350,0.065961,-0.059825,0.4265,0.4834,0.1432,0.000000,0.579845,-0.562971,0.564505,-0.590583,0.575243,-0.561437
4.9844,0.016743,0.000000,0.008144,-0.008144,0.0000,0.0000,0.0000,-0.002350,0.049087,-0.046019,0.4265,0.4834,0.1432,0.000000,0.579845,-0.562971,0.564505,-0.590583,0.575243,-0.561437
5.0012,0.016755,0.000000,-0.000628,0.000628,0.0000,0.0000,0.0000,-0.002350,0.035282,-0.035282,0.4265,0.4834,0.1432,0.000000,0.579845,-0.562971,0.564505,-0.590583,0.575243,-0.561437
5.0179,0.016746,0.000000,-0.009397,0.009397,0.0000,0.0000,0.0000,-0.002350,0.013806,-0.024544,0.4265,0.4834,0.1432,0.000000,0.579845,-0.562971,0.564505,-0.590583,0.575243,-0.561437
5.0347,0.016775,0.000000,-0.018180,0.018180,0.0000,0.0000,0.0000,-0.002350,0.013806,-0.024544,0.4265,0.4834,0.1432,0.000000,0.579845,-0.562971,0.564505,-0.590583,0.575243,-0.561437
5.0515,0.016747,0.000000,-0.026949,0.026949,0.0000,0.0000,0.0000,-0.002350,0.013806,-0.024544,0.4265,0.4834,0.1432,0.000000,0.579845,-0.562971,0.564505,-0.590583,0.575243,-0.561437
5.0682,0.016756,0.000000,-0.035723,0.035723,0.0000,0.0000,0.0000,-0.002350,-0.012272,0.007670,0.4265,0.4834,0.1432,0.000000,0.579845,-0.562971,0.564505,-0.590583,0.575243,-0.561437
5.0850,0.016753,0.000000,-0.044494,0.044494,0.0000,0.0000,0.0000,-0.002339,-0.016874,0.016874,0.4371,0.5336,0.0901,0.000000,0.579845,-0.562971,0.564505,-0.592117,0.575243,-0.561437
5.1017,0.016770,0.000000,-0.053275,0.053275,0.0000,0.0000,0.0000,-0.002352,-0.016874,0.018408,0.4253,0.4776,0.1493,0.000000,0.579845,-0.562971,0.564505,-0.590583,0.575243,-0.561437
5.1185,0.016740,0.000000,-0.062040,0.062040,0.0000,0.0000,0.0000,-0.002350,-0.027612,0.026078,0.4265,0.4834,0.1432,0.000000,0.579845,-0.562971,0.564505,-0.590583,0.575243,-0.561437
5.1353,0.016768,0.000000,-0.070819,0.070819,0.0000,0.0000,0.0000,-0.002350,-0.046019,0.044485,0.4265,0.4834,0.1432,0.000000,0.579845,-0.562971,0.564505,-0.590583,0.575243,-0.561437
5.1520,0.016742,0.000000,-0.079586,0.079586,0.0000,0.0000,0.0000,-0.002350,-0.046019,0.044485,0.4265,0.4834,0.1432,0.000000,0.579845,-0.562971,0.564505,-0.590583,0.575243,-0.561437
5.1687,0.016747,0.000000,-0.088354,0.088354,0.0000,0.0000,0.0000,-0.002339,-0.062893,0.062893,0.4371,0.5336,0.0901,0.000000,0.579845,-0.562971,0.564505,-0.592117,0.575243,-0.561437
5.1855,0.016744,0.000000,-0.097121,0.097121,0.0000,0.0000,0.0000,-0.002365,-0.072097,0.070563,0.4748,0.4953,0.2028,0.000000,0.579845,-0.562971,0.564505,-0.590583,0.575243,-0.559903
5.2023,0.016763,0.000000,-0.105898,0.105898,0.0000,0.0000,0.0000,-0.002362,-0.075165,0.070563,0.4709,0.4993,0.1911,0.000000,0.579845,-0.562971,0.564505,-0.590583,0.575243,-0.559903
5.2190,0.016746,0.000000,-0.114666,0.114666,0.0000,0.0000,0.0000,-0.002349,-0.081301,0.078233,0.4217,0.4812,0.1388,0.000000,0.579845,-0.562971,0.564505,-0.590583,0.575243,-0.561437
5.2358,0.016781,0.000000,-0.123453,0.123453,0.0000,0.0000,0.0000,-0.002351,-0.096641,0.098175,0.4269,0.4831,0.1443,0.000000,0.579845,-0.562971,0.564505,-0.590583,0.575243,-0.561437
5.2525,0.016742,0.000000,-0.132219,0.132219,0.0000,0.0000,0.0000,-0.002351,-0.096641,0.098175,0.4269,0.4831,0.1443,0.000000,0.579845,-0.562971,0.564505,-0.590583,0.575243,-0.561437
5.2693,0.016752,0.000000,-0.140990,0.140990,0.0000,0.0000,0.0000,-0.002339,-0.116583,0.116583,0.4371,0.5337,0.0900,0.000000,0.579845,-0.562971,0.564505,-0.592117,0.575243,-0.561437
5.2860,0.016744,0.000000,-0.149757,0.149757,0.0000,0.0000,0.0000,-0.002340,-0.116583,0.116583,0.4361,0.5284,0.0956,0.000000,0.579845,-0.562971,0.564505,-0.592117,0.575243,-0.561437
5.3028,0.016776,0.000000,-0.158541,0.158541,0.0000,0.0000,0.0000,-0.002353,-0.128854,0.122718,0.4857,0.5466,0.1485,0.000000,0.579845,-0.562971,0.564505,-0.592117,0.575243,-0.559903
5.3195,0.016744,0.000000,-0.167308,0.167308,0.0000,0.0000,0.0000,-0.002350,-0.136524,0.133456,0.4202,0.4763,0.1432,0.000000,0.579845,-0.562971,0.564505,-0.590583,0.575243,-0.561437
5.3363,0.016802,0.000000,-0.172960,0.172960,0.0000,0.0000,0.0000,-0.002351,-0.150330,0.148796,0.4270,0.4836,0.1438,0.000000,0.579845,-0.562971,0.564505,-0.590583,0.575243,-0.561437
5.3531,0.016742,0.000000,-0.164194,0.164194,0.0000,0.0000,0.0000,-0.002351,-0.150330,0.148796,0.4270,0.4836,0.1438,0.000000,0.579845,-0.562971,0.564505,-0.590583,0.575243,-0.561437
5.3699,0.016774,0.000000,-0.155412,0.155412,0.0000,0.0000,0.0000,-0.002339,-0.167204,0.164136,0.4371,0.5336,0.0900,0.000000,0.579845,-0.562971,0.564505,-0.592117,0.575243,-0.561437
5.3866,0.016777,0.000000,-0.146627,0.146627,0.0000,0.0000,0.0000,-0.002363,-0.176408,0.173340,0.3755,0.4932,0.0955,0.000000,0.578311,-0.562971,0.564505,-0.590583,0.575243,-0.561437
5.4035,0.016867,0.000000,-0.137796,0.137796,0.0000,0.0000,0.0000,-0.002362,-0.173340,0.171806,0.4812,0.4994,0.2023,0.000000,0.579845,-0.562971,0.564505,-0.590583,0.575243,-0.559903
5.4203,0.016769,0.000000,-0.129015,0.129015,0.0000,0.0000,0.0000,-0.002349,-0.164136,0.165670,0.4207,0.4812,0.1377,0.000000,0.579845,-0.562971,0.564505,-0.590583,0.575243,-0.561437
5.4370,0.016781,0.000000,-0.120229,0.120229,0.0000,0.0000,0.0000,-0.002349,-0.151864,0.156466,0.4207,0.4812,0.1377,0.000000,0.579845,-0.562971,0.564505,-0.590583,0.575243,-0.561437
5.4538,0.016753,0.000000,-0.111457,0.111457,0.0000,0.0000,0.0000,-0.002351,-0.151864,0.156466,0.4270,0.4831,0.1444,0.000000,0.579845,-0.562971,0.564505,-0.590583,0.575243,-0.561437
5.4705,0.016749,0.000000,-0.102687,0.102687,0.0000,0.0000,0.0000,-0.002351,-0.138058,0.144194,0.4270,0.4831,0.0565,-0.001534,0.579845,-0.562971,0.564505,-0.590583,0.575243,-0.561437
5.4873,0.016750,0.000000,-0.093917,0.093917,0.0000,0.0000,0.0000,-0.002339,-0.125786,0.131922,0.4371,0.5337,0.0900,0.000000,0.579845,-0.562971,0.564505,-0.592117,0.575243,-0.561437
