t,loop_dt,cmd_z,cmd_ant_l,cmd_ant_r,cmd_roll,cmd_pitch,cmd_yaw,pres_z,pres_ant_l,pres_ant_r,pres_roll,pres_pitch,pres_yaw,pres_j0,pres_j1,pres_j2,pres_j3,pres_j4,pres_j5,pres_j6
0.0000,0.000001,0.000000,-1.745329,1.745329,0.0000,0.0000,0.0000,-0.002499,-1.563126,1.561592,0.5397,0.7575,0.2929,0.000000,0.572175,-0.561437,0.564505,-0.592117,0.575243,-0.549165
0.0168,0.016760,0.000000,-1.736553,1.736553,0.0000,0.0000,0.0000,-0.002499,-1.563126,1.561592,0.5397,0.7575,0.2929,0.000000,0.572175,-0.561437,0.564505,-0.592117,0.575243,-0.549165
0.0335,0.016752,0.000000,-1.727782,1.727782,0.0000,0.0000,0.0000,-0.002500,-1.566194,1.563126,0.5340,0.7599,0.2860,0.000000,0.572175,-0.561437,0.564505,-0.592117,0.575243,-0.549165
0.0503,0.016752,0.000000,-1.719011,1.719011,0.0000,0.0000,0.0000,-0.002512,-1.572330,1.563126,0.5241,0.7088,0.3404,0.000000,0.572175,-0.561437,0.564505,-0.590583,0.575243,-0.549165
0.0670,0.016765,0.000000,-1.710233,1.710233,0.0000,0.0000,0.0000,-0.002497,-1.649029,1.656699,0.4753,0.6964,0.2814,0.000000,0.572175,-0.561437,0.564505,-0.590583,0.575243,-0.550699
0.0838,0.016754,0.000000,-1.701460,1.701460,0.0000,0.0000,0.0000,-0.002501,-1.725728,1.725728,0.5407,0.7663,0.2872,0.000000,0.572175,-0.561437,0.564505,-0.592117,0.575243,-0.549165
0.1009,0.017165,0.000000,-1.692473,1.692473,0.0000,0.0000,0.0000,-0.002498,-1.765612,1.762544,0.4736,0.6904,0.2870,0.000000,0.572175,-0.561437,0.564505,-0.590583,0.575243,-0.550699
0.1177,0.016757,0.000000,-1.683699,1.683699,0.0000,0.0000,0.0000,-0.002498,-1.765612,1.762544,0.4736,0.6904,0.2870,0.000000,0.572175,-0.561437,0.564505,-0.590583,0.575243,-0.550699
0.1345,0.016753,0.000000,-1.674927,1.674927,0.0000,0.0000,0.0000,-0.002499,-1.759476,1.754874,0.4806,0.6983,0.2870,0.000000,0.572175,-0.561437,0.564505,-0.590583,0.575243,-0.550699
0.1512,0.016755,0.000000,-1.666154,1.666154,0.0000,0.0000,0.0000,-0.002487,-1.741068,1.741068,0.4904,0.7483,0.2333,0.000000,0.572175,-0.561437,0.564505,-0.592117,0.575243,-0.550699
0.1680,0.016766,0.000000,-1.657375,1.657375,0.0000,0.0000,0.0000,-0.002488,-1.721126,1.725728,0.4893,0.7431,0.2389,0.000000,0.572175,-0.561437,0.564505,-0.592117,0.575243,-0.550699
0.1848,0.016788,0.000000,-1.648585,1.648585,0.0000,0.0000,0.0000,-0.002488,-1.721126,1.725728,0.4893,0.7431,0.2389,0.000000,0.572175,-0.561437,0.564505,-0.592117,0.575243,-0.550699
0.2016,0.016838,0.000000,-1.639769,1.639769,0.0000,0.0000,0.0000,-0.002475,-1.704253,1.710389,0.4397,0.7259,0.1850,0.000000,0.572175,-0.561437,0.564505,-0.592117,0.575243,-0.552233
0.2184,0.016754,0.000000,-1.630996,1.630996,0.0000,0.0000,0.0000,-0.002476,-1.690447,1.693515,0.4449,0.7277,0.1906,0.000000,0.572175,-0.561437,0.564505,-0.592117,0.575243,-0.552233
0.2354,0.016999,0.000000,-1.622096,1.622096,0.0000,0.0000,0.0000,-0.002463,-1.678175,1.682777,0.3946,0.7098,0.1366,0.000000,0.572175,-0.561437,0.564505,-0.592117,0.575243,-0.553767
0.2521,0.016754,0.000000,-1.613323,1.613323,0.0000,0.0000,0.0000,-0.002464,-1.667437,1.672039,0.3999,0.7117,0.1422,0.000000,0.572175,-0.561437,0.564505,-0.592117,0.575243,-0.553767
0.2689,0.016803,0.000000,-1.604525,1.604525,0.0000,0.0000,0.0000,-0.002464,-1.667437,1.672039,0.3999,0.7117,0.1422,0.000000,0.572175,-0.561437,0.564505,-0.592117,0.575243,-0.553767
0.2863,0.017395,0.000000,-1.595417,1.595417,0.0000,0.0000,0.0000,-0.002464,-1.659767,1.661301,0.3999,0.7117,0.1422,0.000000,0.572175,-0.561437,0.564505,-0.592117,0.575243,-0.553767
0.3031,0.016741,0.000000,-1.586652,1.586652,0.0000,0.0000,0.0000,-0.002465,-1.650563,1.653631,0.4881,0.6935,0.1419,0.000000,0.572175,-0.562971,0.564505,-0.592117,0.575243,-0.552233
0.3198,0.016772,0.000000,-1.577870,1.577870,0.0000,0.0000,0.0000,-0.002463,-1.641359,1.645961,0.4187,0.6270,0.1423,0.000000,0.572175,-0.562971,0.564505,-0.590583,0.575243,-0.553767
0.3366,0.016743,0.000000,-1.569103,1.569103,0.0000,0.0000,0.0000,-0.002476,-1.633690,1.636758,0.3868,0.6695,0.1954,0.000000,0.572175,-0.561437,0.564505,-0.590583,0.575243,-0.553767
0.3540,0.017460,0.000000,-1.559961,1.559961,0.0000,0.0000,0.0000,-0.002450,-1.622952,1.627554,0.3510,0.6983,0.0827,0.000000,0.572175,-0.561437,0.564505,-0.592117,0.575243,-0.555301
0.3708,0.016754,0.000000,-1.551188,1.551188,0.0000,0.0000,0.0000,-0.002450,-1.622952,1.627554,0.3510,0.6983,0.0827,0.000000,0.572175,-0.561437,0.564505,-0.592117,0.575243,-0.555301
0.3875,0.016758,0.000000,-1.542414,1.542414,0.0000,0.0000,0.0000,-0.002439,-1.612214,1.615282,0.3051,0.6777,0.0410,0.000000,0.572175,-0.561437,0.564505,-0.592117,0.575243,-0.556835
0.4043,0.016751,0.000000,-1.533643,1.533643,0.0000,0.0000,0.0000,-0.002428,-1.601476,1.604544,0.3490,0.6443,-0.0077,0.000000,0.572175,-0.562971,0.564505,-0.592117,0.575243,-0.556835
0.4212,0.016907,0.000000,-1.524790,1.524790,0.0000,0.0000,0.0000,-0.002442,-1.592272,1.595340,0.3054,0.6833,0.0504,0.000000,0.572175,-0.561437,0.564505,-0.592117,0.575243,-0.556835
0.4379,0.016750,0.000000,-1.516020,1.516020,0.0000,0.0000,0.0000,-0.002427,-1.581534,1.584602,0.3490,0.6437,-0.0087,0.000000,0.572175,-0.562971,0.564505,-0.592117,0.575243,-0.556835
0.4547,0.016762,0.000000,-1.507244,1.507244,0.0000,0.0000,0.0000,-0.002453,-1.569262,1.575398,0.2948,0.6326,0.1043,0.000000,0.572175,-0.561437,0.564505,-0.590583,0.575243,-0.556835
0.4715,0.016743,0.000000,-1.498477,1.498477,0.0000,0.0000,0.0000,-0.002453,-1.569262,1.575398,0.2948,0.6326,0.1043,0.000000,0.572175,-0.561437,0.564505,-0.590583,0.575243,-0.556835
0.4882,0.016756,0.000000,-1.489703,1.489703,0.0000,0.0000,0.0000,-0.002426,-1.556990,1.566194,0.3501,0.6490,-0.0143,0.000000,0.572175,-0.562971,0.564505,-0.592117,0.575243,-0.556835
0.5050,0.016746,0.000000,-1.480935,1.480935,0.0000,0.0000,0.0000,-0.002442,-1.546253,1.553923,0.3053,0.6828,0.0511,0.000000,0.572175,-0.561437,0.564505,-0.592117,0.575243,-0.556835
0.5218,0.016813,0.000000,-1.472132,1.472132,0.0000,0.0000,0.0000,-0.002440,-1.537049,1.543185,0.3099,0.6793,0.0443,0.000000,0.572175,-0.561437,0.564505,-0.592117,0.575243,-0.556835
0.5385,0.016752,0.000000,-1.463360,1.463360,0.0000,0.0000,0.0000,-0.002440,-1.526311,1.530913,0.3099,0.6793,0.0443,0.000000,0.572175,-0.561437,0.564505,-0.592117,0.575243,-0.556835
0.5553,0.016754,0.000000,-1.454588,1.454588,0.0000,0.0000,0.0000,-0.002440,-1.515573,1.518641,0.3099,0.6793,0.0443,0.000000,0.572175,-0.561437,0.564505,-0.592117,0.575243,-0.556835
0.5720,0.016743,0.000000,-1.445821,1.445821,0.0000,0.0000,0.0000,-0.002440,-1.515573,1.518641,0.3099,0.6793,0.0443,0.000000,0.572175,-0.561437,0.564505,-0.592117,0.575243,-0.556835
0.5888,0.016757,0.000000,-1.437047,1.437047,0.0000,0.0000,0.0000,-0.002439,-1.503301,1.506369,0.3379,0.5934,0.0457,0.000000,0.572175,-0.562971,0.564505,-0.590583,0.575243,-0.556835
0.6055,0.016742,0.000000,-1.428281,1.428281,0.0000,0.0000,0.0000,-0.002428,-1.491029,1.495631,0.3456,0.6531,-0.0082,0.000000,0.572175,-0.562971,0.564505,-0.592117,0.575243,-0.556835
0.6223,0.016778,0.000000,-1.419496,1.419496,0.0000,0.0000,0.0000,-0.002442,-1.481825,1.484893,0.3057,0.6824,0.0505,0.000000,0.572175,-0.561437,0.564505,-0.592117,0.575243,-0.556835
0.6390,0.016746,0.000000,-1.410728,1.410728,0.0000,0.0000,0.0000,-0.002427,-1.472622,1.474156,0.3490,0.6438,-0.0087,0.000000,0.572175,-0.562971,0.564505,-0.592117,0.575243,-0.556835
0.6558,0.016757,0.000000,-1.401954,1.401954,0.0000,0.0000,0.0000,-0.002442,-1.461884,1.461884,0.3054,0.6834,0.0506,0.000000,0.572175,-0.561437,0.564505,-0.592117,0.575243,-0.556835
0.6725,0.016744,0.000000,-1.399340,1.399340,0.0000,0.0000,0.0000,-0.002442,-1.461884,1.461884,0.3054,0.6834,0.0506,0.000000,0.572175,-0.561437,0.564505,-0.592117,0.575243,-0.556835
0.6893,0.016761,0.000000,-1.408116,1.408116,0.0000,0.0000,0.0000,-0.002427,-1.451146,1.449612,0.3490,0.6437,-0.0087,0.000000,0.572175,-0.562971,0.564505,-0.592117,0.575243,-0.556835
0.7060,0.016744,0.000000,-1.416883,1.416883,0.0000,0.0000,0.0000,-0.002442,-1.440408,1.440408,0.3054,0.6834,0.0506,0.000000,0.572175,-0.561437,0.564505,-0.592117,0.575243,-0.556835
0.7228,0.016763,0.000000,-1.425661,1.425661,0.0000,0.0000,0.0000,-0.002440,-1.431204,1.431204,0.3099,0.6792,0.0444,0.000000,0.572175,-0.561437,0.564505,-0.592117,0.575243,-0.556835
0.7396,0.016750,0.000000,-1.434431,1.434431,0.0000,0.0000,0.0000,-0.002428,-1.425068,1.426602,0.3485,0.6441,-0.0081,0.000000,0.572175,-0.562971,0.564505,-0.592117,0.575243,-0.556835
0.7563,0.016757,0.000000,-1.443205,1.443205,0.0000,0.0000,0.0000,-0.002453,-1.425068,1.425068,0.2948,0.6326,0.1043,0.000000,0.572175,-0.561437,0.564505,-0.590583,0.575243,-0.556835
0.7731,0.016745,0.000000,-1.451972,1.451972,0.0000,0.0000,0.0000,-0.002453,-1.425068,1.425068,0.2948,0.6326,0.1043,0.000000,0.572175,-0.561437,0.564505,-0.590583,0.575243,-0.556835
0.7898,0.016750,0.000000,-1.460743,1.460743,0.0000,0.0000,0.0000,-0.002439,-1.429670,1.425068,0.3110,0.6845,0.0388,0.000000,0.572175,-0.561437,0.564505,-0.592117,0.575243,-0.556835
0.8066,0.016743,0.000000,-1.469509,1.469509,0.0000,0.0000,0.0000,-0.002440,-1.437340,1.431204,0.3093,0.6791,0.0456,0.000000,0.572175,-0.561437,0.564505,-0.592117,0.575243,-0.556835
0.8233,0.016762,0.000000,-1.478286,1.478286,0.0000,0.0000,0.0000,-0.002440,-1.446544,1.443476,0.3093,0.6791,0.0456,0.000000,0.572175,-0.561437,0.564505,-0.592117,0.575243,-0.556835
0.8400,0.016718,0.000000,-1.487039,1.487039,0.0000,0.0000,0.0000,-0.002439,-1.452680,1.457282,0.3380,0.5934,0.0455,0.000000,0.572175,-0.562971,0.564505,-0.590583,0.575243,-0.556835
0.8568,0.016767,0.000000,-1.495818,1.495818,0.0000,0.0000,0.0000,-0.002440,-1.469554,1.472622,0.3065,0.6886,0.0449,0.000000,0.572175,-0.561437,0.564505,-0.592117,0.575243,-0.556835
0.8735,0.016744,0.000000,-1.504585,1.504585,0.0000,0.0000,0.0000,-0.002440,-1.469554,1.472622,0.3065,0.6886,0.0449,0.000000,0.572175,-0.561437,0.564505,-0.592117,0.575243,-0.556835
0.8903,0.016753,0.000000,-1.513357,1.513357,0.0000,0.0000,0.0000,-0.002428,-1.481825,1.477223,0.3489,0.6431,-0.0081,0.000000,0.572175,-0.562971,0.564505,-0.592117,0.575243,-0.556835
0.9070,0.016743,0.000000,-1.522124,1.522124,0.0000,0.0000,0.0000,-0.002442,-1.489495,1.480291,0.3054,0.6834,0.0505,0.000000,0.572175,-0.561437,0.564505,-0.592117,0.575243,-0.556835
0.9238,0.016758,0.000000,-1.530898,1.530898,0.0000,0.0000,0.0000,-0.002440,-1.495631,1.491029,0.3099,0.6792,0.0444,0.000000,0.572175,-0.561437,0.564505,-0.592117,0.575243,-0.556835
0.9405,0.016745,0.000000,-1.539666,1.539666,0.0000,0.0000,0.0000,-0.002440,-1.507903,1.506369,0.3099,0.6792,0.0444,0.000000,0.572175,-0.561437,0.564505,-0.592117,0.575243,-0.556835
0.9573,0.016771,0.000000,-1.548447,1.548447,0.0000,0.0000,0.0000,-0.002440,-1.524777,1.523243,0.3099,0.6792,0.0444,0.000000,0.572175,-0.562971,0.564505,-0.592117,0.575243,-0.556835
0.9741,0.016742,0.000000,-1.557213,1.557213,0.0000,0.0000,0.0000,-0.002428,-1.524777,1.523243,0.3485,0.6441,-0.0081,0.000000,0.572175,-0.562971,0.564505,-0.592117,0.575243,-0.556835
0.9908,0.016753,0.000000,-1.565986,1.565986,0.0000,0.0000,0.0000,-0.002429,-1.538583,1.533981,0.3445,0.6478,-0.0026,0.000000,0.572175,-0.562971,0.564505,-0.592117,0.575243,-0.556835
1.0076,0.016749,0.000000,-1.574755,1.574755,0.0000,0.0000,0.0000,-0.002429,-1.549321,1.544719,0.3445,0.6478,-0.0026,0.000000,0.572175,-0.562971,0.564505,-0.592117,0.575243,-0.556835
1.0243,0.016752,0.000000,-1.583527,1.583527,0.0000,0.0000,0.0000,-0.002441,-1.567728,1.564660,0.3058,0.6829,0.0499,0.000000,0.572175,-0.561437,0.564505,-0.592117,0.575243,-0.556835
1.0411,0.016748,0.000000,-1.592296,1.592296,0.0000,0.0000,0.0000,-0.002427,-1.578466,1.576932,0.3490,0.6437,-0.0087,0.000000,0.572175,-0.562971,0.564505,-0.592117,0.575243,-0.556835
1.0578,0.016776,0.000000,-1.601080,1.601080,0.0000,0.0000,0.0000,-0.002427,-1.578466,1.576932,0.3490,0.6437,-0.0087,0.000000,0.572175,-0.562971,0.564505,-0.592117,0.575243,-0.556835
1.0746,0.016744,0.000000,-1.609847,1.609847,0.0000,0.0000,0.0000,-0.002429,-1.580000,1.581534,0.3445,0.6478,-0.0026,0.000000,0.572175,-0.562971,0.564505,-0.592117,0.575243,-0.556835
1.0913,0.016748,0.000000,-1.618617,1.618617,0.0000,0.0000,0.0000,-0.002441,-1.589204,1.586136,0.3058,0.6829,0.0499,0.000000,0.572175,-0.561437,0.564505,-0.592117,0.575243,-0.556835
1.1081,0.016744,0.000000,-1.627384,1.627384,0.0000,0.0000,0.0000,-0.002440,-1.606078,1.601476,0.3099,0.6793,0.0444,0.000000,0.572175,-0.561437,0.564505,-0.592117,0.575243,-0.556835
1.1248,0.016762,0.000000,-1.636160,1.636160,0.0000,0.0000,0.0000,-0.002416,-1.622952,1.619884,0.3985,0.6285,0.0456,0.000000,0.573709,-0.562971,0.564505,-0.592117,0.575243,-0.556835
1.1417,0.016835,0.000000,-1.644975,1.644975,0.0000,0.0000,0.0000,-0.002407,-1.629088,1.629088,0.4392,0.6181,0.0993,0.000000,0.575243,-0.562971,0.564505,-0.592117,0.575243,-0.556835
1.1584,0.016757,0.000000,-1.653749,1.653749,0.0000,0.0000,0.0000,-0.002407,-1.629088,1.629088,0.4392,0.6181,0.0993,0.000000,0.575243,-0.562971,0.564505,-0.592117,0.575243,-0.556835
1.1752,0.016745,0.000000,-1.662517,1.662517,0.0000,0.0000,0.0000,-0.002407,-1.629088,1.630622,0.4349,0.6192,0.0937,0.000000,0.575243,-0.562971,0.564505,-0.592117,0.575243,-0.556835
1.1923,0.017125,0.000000,-1.671483,1.671483,0.0000,0.0000,0.0000,-0.002408,-1.638291,1.641359,0.4461,0.6391,0.2012,0.000000,0.576777,-0.561437,0.564505,-0.592117,0.575243,-0.556835
1.2090,0.016748,0.000000,-1.680253,1.680253,0.0000,0.0000,0.0000,-0.002420,-1.656699,1.656699,0.4343,0.5863,0.2437,0.000000,0.576777,-0.561437,0.564505,-0.590583,0.575243,-0.556835
1.2258,0.016749,0.000000,-1.689022,1.689022,0.0000,0.0000,0.0000,-0.002419,-1.665903,1.662835,0.4355,0.5918,0.2393,0.000000,0.576777,-0.561437,0.564505,-0.590583,0.575243,-0.556835
1.2425,0.016749,0.000000,-1.697792,1.697792,0.0000,0.0000,0.0000,-0.002419,-1.682777,1.676641,0.4355,0.5918,0.2393,0.000000,0.576777,-0.561437,0.564505,-0.590583,0.575243,-0.556835
1.2593,0.016768,0.000000,-1.706572,1.706572,0.0000,0.0000,0.0000,-0.002419,-1.682777,1.676641,0.4355,0.5918,0.2393,0.000000,0.576777,-0.561437,0.564505,-0.590583,0.575243,-0.556835
1.2761,0.016743,0.000000,-1.715338,1.715338,0.0000,0.0000,0.0000,-0.002407,-1.690447,1.688913,0.4460,0.6420,0.1860,0.000000,0.576777,-0.561437,0.564505,-0.592117,0.575243,-0.556835
1.2928,0.016750,0.000000,-1.724109,1.724109,0.0000,0.0000,0.0000,-0.002396,-1.698117,1.696583,0.4841,0.6012,0.1384,0.000000,0.576777,-0.562971,0.564505,-0.592117,0.575243,-0.556835
1.3095,0.016742,0.000000,-1.732875,1.732875,0.0000,0.0000,0.0000,-0.002410,-1.707321,1.701185,0.4410,0.6410,0.1965,0.000000,0.576777,-0.561437,0.564505,-0.592117,0.575243,-0.556835
1.3263,0.016755,0.000000,-1.741648,1.741648,0.0000,0.0000,0.0000,-0.002408,-1.722660,1.711923,0.4455,0.6369,0.1905,0.000000,0.576777,-0.561437,0.564505,-0.592117,0.575243,-0.556835
1.3431,0.016761,0.000000,-1.740235,1.740235,0.0000,0.0000,0.0000,-0.002408,-1.722660,1.711923,0.4455,0.6369,0.1905,0.000000,0.576777,-0.561437,0.564505,-0.592117,0.575243,-0.556835
1.3598,0.016775,0.000000,-1.731451,1.731451,0.0000,0.0000,0.0000,-0.002408,-1.734932,1.730330,0.4455,0.6369,0.1905,0.000000,0.576777,-0.561437,0.564505,-0.592117,0.575243,-0.556835
1.3766,0.016750,0.000000,-1.722681,1.722681,0.0000,0.0000,0.0000,-0.002408,-1.738000,1.738000,0.4455,0.6369,0.1905,0.000000,0.576777,-0.561437,0.564505,-0.592117,0.575243,-0.556835
1.3933,0.016750,0.000000,-1.713911,1.713911,0.0000,0.0000,0.0000,-0.002397,-1.744136,1.742602,0.4948,0.6218,0.2449,0.000000,0.578311,-0.561437,0.564505,-0.592117,0.575243,-0.556835
1.4101,0.016783,0.000000,-1.705123,1.705123,0.0000,0.0000,0.0000,-0.002398,-1.744136,1.742602,0.4897,0.6234,0.2392,0.000000,0.578311,-0.561437,0.564505,-0.592117,0.575243,-0.556835
1.4269,0.016754,0.000000,-1.696351,1.696351,0.0000,0.0000,0.0000,-0.002409,-1.738000,1.741068,0.4795,0.5724,0.2935,0.000000,0.578311,-0.561437,0.564505,-0.590583,0.575243,-0.556835
1.4436,0.016760,0.000000,-1.687575,1.687575,0.0000,0.0000,0.0000,-0.002409,-1.738000,1.741068,0.4795,0.5724,0.2935,0.000000,0.578311,-0.561437,0.564505,-0.590583,0.575243,-0.556835
1.4604,0.016751,0.000000,-1.678805,1.678805,0.0000,0.0000,0.0000,-0.002384,-1.731864,1.739534,0.5305,0.5930,0.1810,0.000000,0.578311,-0.562971,0.564505,-0.592117,0.575243,-0.556835
1.4771,0.016744,0.000000,-1.670037,1.670037,0.0000,0.0000,0.0000,-0.002399,-1.728796,1.739534,0.4860,0.6264,0.2459,0.000000,0.578311,-0.561437,0.564505,-0.592117,0.575243,-0.556835
1.4941,0.016950,0.000000,-1.661162,1.661162,0.0000,0.0000,0.0000,-0.002398,-1.722660,1.734932,0.4906,0.6229,0.2391,0.000000,0.578311,-0.561437,0.564505,-0.592117,0.575243,-0.556835
1.5109,0.016781,0.000000,-1.652376,1.652376,0.0000,0.0000,0.0000,-0.002385,-1.718058,1.725728,0.5293,0.5877,0.1867,0.000000,0.578311,-0.562971,0.564505,-0.592117,0.575243,-0.556835
1.5276,0.016776,0.000000,-1.643592,1.643592,0.0000,0.0000,0.0000,-0.002399,-1.707321,1.708855,0.4861,0.6270,0.2453,0.000000,0.578311,-0.561437,0.564505,-0.592117,0.575243,-0.556835
1.5444,0.016748,0.000000,-1.634823,1.634823,0.0000,0.0000,0.0000,-0.002399,-1.707321,1.708855,0.4861,0.6270,0.2453,0.000000,0.578311,-0.561437,0.564505,-0.592117,0.575243,-0.556835
1.5611,0.016758,0.000000,-1.626049,1.626049,0.0000,0.0000,0.0000,-0.002385,-1.696583,1.693515,0.5298,0.5873,0.1860,0.000000,0.578311,-0.562971,0.564505,-0.592117,0.575243,-0.556835
1.5779,0.016745,0.000000,-1.617281,1.617281,0.0000,0.0000,0.0000,-0.002399,-1.682777,1.679709,0.4861,0.6270,0.2454,0.000000,0.578311,-0.561437,0.564505,-0.592117,0.575243,-0.556835
1.5946,0.016756,0.000000,-1.608508,1.608508,0.0000,0.0000,0.0000,-0.002398,-1.670505,1.667437,0.4906,0.6229,0.2392,0.000000,0.578311,-0.561437,0.564505,-0.592117,0.575243,-0.556835
1.6117,0.017031,0.000000,-1.599590,1.599590,0.0000,0.0000,0.0000,-0.002398,-1.656699,1.658233,0.4906,0.6229,0.2392,0.000000,0.578311,-0.561437,0.564505,-0.592117,0.575243,-0.556835
1.6284,0.016765,0.000000,-1.590812,1.590812,0.0000,0.0000,0.0000,-0.002398,-1.647495,1.650563,0.4906,0.6229,0.2392,0.000000,0.578311,-0.561437,0.564505,-0.592117,0.575243,-0.556835
1.6452,0.016747,0.000000,-1.582043,1.582043,0.0000,0.0000,0.0000,-0.002398,-1.647495,1.650563,0.4906,0.6229,0.2392,0.000000,0.578311,-0.561437,0.564505,-0.592117,0.575243,-0.556835
1.6619,0.016752,0.000000,-1.573272,1.573272,0.0000,0.0000,0.0000,-0.002397,-1.636758,1.642893,0.5187,0.5369,0.2403,0.000000,0.578311,-0.562971,0.564505,-0.590583,0.575243,-0.556835
1.6787,0.016747,0.000000,-1.564504,1.564504,0.0000,0.0000,0.0000,-0.002385,-1.627554,1.633690,0.5264,0.5967,0.1865,0.000000,0.578311,-0.562971,0.564505,-0.592117,0.575243,-0.556835
1.6955,0.016779,0.000000,-1.555718,1.555718,0.0000,0.0000,0.0000,-0.002399,-1.619884,1.626020,0.4864,0.6260,0.2453,0.000000,0.578311,-0.561437,0.564505,-0.592117,0.575243,-0.556835
1.7123,0.016824,0.000000,-1.546909,1.546909,0.0000,0.0000,0.0000,-0.002398,-1.610680,1.615282,0.4906,0.6230,0.2392,0.000000,0.578311,-0.561437,0.564505,-0.592117,0.575243,-0.556835
1.7291,0.016772,0.000000,-1.538128,1.538128,0.0000,0.0000,0.0000,-0.002385,-1.599942,1.601476,0.5293,0.5877,0.1867,0.000000,0.578311,-0.562971,0.564505,-0.592117,0.575243,-0.556835
1.7458,0.016772,0.000000,-1.529346,1.529346,0.0000,0.0000,0.0000,-0.002385,-1.599942,1.601476,0.5293,0.5877,0.1867,0.000000,0.578311,-0.562971,0.564505,-0.592117,0.575243,-0.556835
1.7626,0.016749,0.000000,-1.520576,1.520576,0.0000,0.0000,0.0000,-0.002399,-1.589204,1.590738,0.4861,0.6270,0.2453,0.000000,0.578311,-0.561437,0.564505,-0.592117,0.575243,-0.556835
1.7793,0.016748,0.000000,-1.511807,1.511807,0.0000,0.0000,0.0000,-0.002385,-1.576932,1.580000,0.5298,0.5873,0.1860,0.000000,0.578311,-0.562971,0.564505,-0.592117,0.575243,-0.556835
1.7961,0.016763,0.000000,-1.503030,1.503030,0.0000,0.0000,0.0000,-0.002386,-1.566194,1.573864,0.5252,0.5914,0.1922,0.000000,0.578311,-0.562971,0.564505,-0.592117,0.575243,-0.556835
1.8128,0.016756,0.000000,-1.494257,1.494257,0.0000,0.0000,0.0000,-0.002399,-1.555457,1.564660,0.4865,0.6266,0.2447,0.000000,0.578311,-0.561437,0.564505,-0.592117,0.575243,-0.556835
1.8296,0.016773,0.000000,-1.485474,1.485474,0.0000,0.0000,0.0000,-0.002398,-1.543185,1.550855,0.4906,0.6229,0.2393,0.000000,0.578311,-0.561437,0.564505,-0.592117,0.575243,-0.556835
1.8463,0.016726,0.000000,-1.476716,1.476716,0.0000,0.0000,0.0000,-0.002398,-1.543185,1.550855,0.4906,0.6229,0.2393,0.000000,0.578311,-0.561437,0.564505,-0.592117,0.575243,-0.556835
1.8631,0.016747,0.000000,-1.467948,1.467948,0.0000,0.0000,0.0000,-0.002398,-1.530913,1.538583,0.4906,0.6229,0.2393,0.000000,0.578311,-0.561437,0.564505,-0.592117,0.575243,-0.556835
1.8799,0.016767,0.000000,-1.459169,1.459169,0.0000,0.0000,0.0000,-0.002398,-1.520175,1.524777,0.4906,0.6229,0.2393,0.000000,0.578311,-0.561437,0.564505,-0.592117,0.575243,-0.556835
1.8966,0.016751,0.000000,-1.450398,1.450398,0.0000,0.0000,0.0000,-0.002398,-1.510971,1.514039,0.4906,0.6229,0.2393,0.000000,0.578311,-0.561437,0.564505,-0.592117,0.575243,-0.556835
1.9134,0.016745,0.000000,-1.441630,1.441630,0.0000,0.0000,0.0000,-0.002385,-1.500233,1.503301,0.5294,0.5877,0.1866,0.000000,0.578311,-0.562971,0.564505,-0.592117,0.575243,-0.556835
1.9301,0.016767,0.000000,-1.432851,1.432851,0.0000,0.0000,0.0000,-0.002411,-1.487961,1.492563,0.4754,0.5762,0.2990,0.000000,0.578311,-0.561437,0.564505,-0.590583,0.575243,-0.556835
1.9469,0.016750,0.000000,-1.424080,1.424080,0.0000,0.0000,0.0000,-0.002411,-1.487961,1.492563,0.4754,0.5762,0.2990,0.000000,0.578311,-0.561437,0.564505,-0.590583,0.575243,-0.556835
1.9636,0.016740,0.000000,-1.415315,1.415315,0.0000,0.0000,0.0000,-0.002384,-1.478757,1.480291,0.5309,0.5926,0.1804,0.000000,0.578311,-0.562971,0.564505,-0.592117,0.575243,-0.556835
1.9804,0.016744,0.000000,-1.406548,1.406548,0.0000,0.0000,0.0000,-0.002399,-1.468020,1.469554,0.4859,0.6265,0.2460,0.000000,0.578311,-0.561437,0.564505,-0.592117,0.575243,-0.556835
1.9972,0.016829,0.000000,-1.397736,1.397736,0.0000,0.0000,0.0000,-0.002409,-1.458816,1.458816,0.4799,0.5721,0.2928,0.000000,0.578311,-0.561437,0.564505,-0.590583,0.575243,-0.556835
2.0139,0.016747,0.000000,-1.403560,1.403560,0.0000,0.0000,0.0000,-0.002397,-1.448078,1.448078,0.4912,0.6286,0.2342,0.000000,0.578311,-0.561437,0.564505,-0.592117,0.575243,-0.556835
2.0307,0.016757,0.000000,-1.412334,1.412334,0.0000,0.0000,0.0000,-0.002397,-1.438874,1.438874,0.5186,0.5363,0.2408,0.000000,0.578311,-0.562971,0.564505,-0.590583,0.575243,-0.556835
2.0474,0.016751,0.000000,-1.421105,1.421105,0.0000,0.0000,0.0000,-0.002397,-1.438874,1.438874,0.5186,0.5363,0.2408,0.000000,0.578311,-0.562971,0.564505,-0.590583,0.575243,-0.556835
2.0642,0.016744,0.000000,-1.429872,1.429872,0.0000,0.0000,0.0000,-0.002385,-1.426602,1.426602,0.5264,0.5967,0.1865,0.000000,0.578311,-0.562971,0.564505,-0.592117,0.575243,-0.556835
2.0809,0.016739,0.000000,-1.438637,1.438637,0.0000,0.0000,0.0000,-0.002386,-1.422000,1.420466,0.5256,0.5904,0.1922,0.000000,0.578311,-0.562971,0.564505,-0.592117,0.575243,-0.556835
2.0977,0.016759,0.000000,-1.447412,1.447412,0.0000,0.0000,0.0000,-0.002399,-1.420466,1.420466,0.4865,0.6267,0.2447,0.000000,0.578311,-0.561437,0.564505,-0.592117,0.575243,-0.556835
2.1144,0.016741,0.000000,-1.456177,1.456177,0.0000,0.0000,0.0000,-0.002385,-1.429670,1.428136,0.5298,0.5873,0.1861,0.000000,0.578311,-0.562971,0.564505,-0.592117,0.575243,-0.556835
2.1312,0.016749,0.000000,-1.464947,1.464947,0.0000,0.0000,0.0000,-0.002386,-1.446544,1.441942,0.5252,0.5914,0.1922,0.000000,0.578311,-0.562971,0.564505,-0.592117,0.575243,-0.556835
2.1479,0.016745,0.000000,-1.473714,1.473714,0.0000,0.0000,0.0000,-0.002386,-1.446544,1.441942,0.5252,0.5914,0.1922,0.000000,0.578311,-0.562971,0.564505,-0.592117,0.575243,-0.556835
2.1647,0.016741,0.000000,-1.482480,1.482480,0.0000,0.0000,0.0000,-0.002399,-1.454214,1.451146,0.4865,0.6266,0.2447,0.000000,0.578311,-0.561437,0.564505,-0.592117,0.575243,-0.556835
2.1814,0.016739,0.000000,-1.491245,1.491245,0.0000,0.0000,0.0000,-0.002409,-1.458816,1.455748,0.4799,0.5721,0.2930,0.000000,0.578311,-0.561437,0.564505,-0.590583,0.575243,-0.556835
2.1982,0.016846,0.000000,-1.500065,1.500065,0.0000,0.0000,0.0000,-0.002397,-1.469554,1.464952,0.4912,0.6286,0.2342,0.000000,0.578311,-0.561437,0.564505,-0.592117,0.575243,-0.556835
2.2150,0.016749,0.000000,-1.508835,1.508835,0.0000,0.0000,0.0000,-0.002397,-1.469554,1.464952,0.4912,0.6286,0.2342,0.000000,0.578311,-0.561437,0.564505,-0.592117,0.575243,-0.556835
2.2317,0.016742,0.000000,-1.517601,1.517601,0.0000,0.0000,0.0000,-0.002398,-1.481825,1.480291,0.4901,0.6227,0.2404,0.000000,0.578311,-0.561437,0.564505,-0.592117,0.575243,-0.556835
2.2485,0.016746,0.000000,-1.526369,1.526369,0.0000,0.0000,0.0000,-0.002398,-1.500233,1.497165,0.4901,0.6227,0.2404,0.000000,0.578311,-0.561437,0.564505,-0.592117,0.575243,-0.556835
2.2652,0.016744,0.000000,-1.535136,1.535136,0.0000,0.0000,0.0000,-0.002398,-1.501767,1.498699,0.4901,0.6227,0.2404,0.000000,0.578311,-0.561437,0.564505,-0.592117,0.575243,-0.556835
2.2820,0.016746,0.000000,-1.543905,1.543905,0.0000,0.0000,0.0000,-0.002409,-1.501767,1.500233,0.4795,0.5725,0.2934,0.000000,0.578311,-0.561437,0.564505,-0.590583,0.575243,-0.556835
2.2987,0.016753,0.000000,-1.552677,1.552677,0.0000,0.0000,0.0000,-0.002409,-1.501767,1.500233,0.4795,0.5725,0.2934,0.000000,0.578311,-0.561437,0.564505,-0.590583,0.575243,-0.556835
2.3155,0.016749,0.000000,-1.561447,1.561447,0.0000,0.0000,0.0000,-0.002397,-1.520175,1.514039,0.4913,0.6286,0.2342,0.000000,0.578311,-0.561437,0.564505,-0.592117,0.575243,-0.556835
2.3322,0.016742,0.000000,-1.570213,1.570213,0.0000,0.0000,0.0000,-0.002398,-1.543185,1.533981,0.4901,0.6227,0.2404,0.000000,0.578311,-0.561437,0.564505,-0.592117,0.575243,-0.556835
2.3490,0.016749,0.000000,-1.578983,1.578983,0.0000,0.0000,0.0000,-0.002398,-1.547787,1.546253,0.4901,0.6227,0.2404,0.000000,0.578311,-0.561437,0.564505,-0.592117,0.575243,-0.556835
2.3657,0.016748,0.000000,-1.587752,1.587752,0.0000,0.0000,0.0000,-0.002398,-1.549321,1.550855,0.4901,0.6227,0.2404,0.000000,0.578311,-0.561437,0.564505,-0.592117,0.575243,-0.556835
2.3825,0.016751,0.000000,-1.596523,1.596523,0.0000,0.0000,0.0000,-0.002398,-1.558524,1.558524,0.4901,0.6227,0.2404,0.000000,0.578311,-0.561437,0.564505,-0.592117,0.575243,-0.556835
2.3993,0.016813,0.000000,-1.605326,1.605326,0.0000,0.0000,0.0000,-0.002385,-1.576932,1.576932,0.5294,0.5877,0.1865,0.000000,0.578311,-0.562971,0.564505,-0.592117,0.575243,-0.556835
2.4160,0.016742,0.000000,-1.614092,1.614092,0.0000,0.0000,0.0000,-0.002385,-1.576932,1.576932,0.5294,0.5877,0.1865,0.000000,0.578311,-0.562971,0.564505,-0.592117,0.575243,-0.556835
2.4328,0.016746,0.000000,-1.622860,1.622860,0.0000,0.0000,0.0000,-0.002386,-1.592272,1.592272,0.5253,0.5914,0.1921,0.000000,0.578311,-0.562971,0.564505,-0.592117,0.575243,-0.556835
2.4495,0.016740,0.000000,-1.631626,1.631626,0.0000,0.0000,0.0000,-0.002386,-1.596874,1.593806,0.5253,0.5914,0.1921,0.000000,0.578311,-0.562971,0.564505,-0.592117,0.575243,-0.556835
2.4662,0.016741,0.000000,-1.640391,1.640391,0.0000,0.0000,0.0000,-0.002388,-1.599942,1.595340,0.5363,0.6111,0.2986,0.000000,0.579845,-0.561437,0.564505,-0.592117,0.575243,-0.556835
2.4830,0.016743,0.000000,-1.649158,1.649158,0.0000,0.0000,0.0000,-0.002399,-1.610680,1.607612,0.4854,0.6245,0.2337,0.000000,0.578311,-0.561437,0.564505,-0.592117,0.575243,-0.556835
2.4997,0.016747,0.000000,-1.657926,1.657926,0.0000,0.0000,0.0000,-0.002385,-1.630622,1.629088,0.5299,0.5875,0.1872,0.000000,0.578311,-0.562971,0.564505,-0.592117,0.575243,-0.556835
2.5168,0.017085,0.000000,-1.666872,1.666872,0.0000,0.0000,0.0000,-0.002385,-1.630622,1.629088,0.5299,0.5875,0.1872,0.000000,0.578311,-0.562971,0.564505,-0.592117,0.575243,-0.556835
2.5336,0.016745,0.000000,-1.675640,1.675640,0.0000,0.0000,0.0000,-0.002399,-1.649029,1.647495,0.4861,0.6270,0.2453,0.000000,0.578311,-0.561437,0.564505,-0.592117,0.575243,-0.556835
2.5503,0.016741,0.000000,-1.684405,1.684405,0.0000,0.0000,0.0000,-0.002385,-1.656699,1.652097,0.5298,0.5873,0.1860,0.000000,0.578311,-0.562971,0.564505,-0.592117,0.575243,-0.556835
2.5671,0.016741,0.000000,-1.693171,1.693171,0.0000,0.0000,0.0000,-0.002386,-1.667437,1.667437,0.5252,0.5914,0.1922,0.000000,0.578311,-0.562971,0.564505,-0.592117,0.575243,-0.556835
2.5838,0.016745,0.000000,-1.701938,1.701938,0.0000,0.0000,0.0000,-0.002399,-1.687379,1.687379,0.4865,0.6266,0.2447,0.000000,0.578311,-0.561437,0.564505,-0.592117,0.575243,-0.556835
2.6005,0.016740,0.000000,-1.710703,1.710703,0.0000,0.0000,0.0000,-0.002398,-1.699651,1.696583,0.4906,0.6229,0.2393,0.000000,0.578311,-0.561437,0.564505,-0.592117,0.575243,-0.556835
2.6173,0.016743,0.000000,-1.719470,1.719470,0.0000,0.0000,0.0000,-0.002398,-1.699651,1.696583,0.4906,0.6229,0.2393,0.000000,0.578311,-0.561437,0.564505,-0.592117,0.575243,-0.556835
2.6340,0.016747,0.000000,-1.728238,1.728238,0.0000,0.0000,0.0000,-0.002398,-1.702719,1.696583,0.4906,0.6229,0.2393,0.000000,0.578311,-0.561437,0.564505,-0.592117,0.575243,-0.556835
2.6508,0.016757,0.000000,-1.737012,1.737012,0.0000,0.0000,0.0000,-0.002409,-1.708855,1.704253,0.4794,0.5725,0.2935,0.000000,0.578311,-0.561437,0.564505,-0.590583,0.575243,-0.556835
2.6675,0.016753,0.000000,-1.744874,1.744874,0.0000,0.0000,0.0000,-0.002408,-1.724194,1.722660,0.4806,0.5777,0.2879,0.000000,0.578311,-0.561437,0.564505,-0.590583,0.575243,-0.556835
2.6848,0.017217,0.000000,-1.735860,1.735860,0.0000,0.0000,0.0000,-0.002384,-1.741068,1.738000,0.5304,0.5924,0.1816,0.000000,0.578311,-0.562971,0.564505,-0.592117,0.575243,-0.556835
2.7015,0.016747,0.000000,-1.727091,1.727091,0.0000,0.0000,0.0000,-0.002399,-1.747204,1.747204,0.4860,0.6265,0.2458,0.000000,0.578311,-0.561437,0.564505,-0.592117,0.575243,-0.556835
2.7183,0.016752,0.000000,-1.718320,1.718320,0.0000,0.0000,0.0000,-0.002399,-1.747204,1.747204,0.4860,0.6265,0.2458,0.000000,0.578311,-0.561437,0.564505,-0.592117,0.575243,-0.556835
2.7350,0.016753,0.000000,-1.709548,1.709548,0.0000,0.0000,0.0000,-0.002398,-1.747204,1.745670,0.4906,0.6229,0.2391,0.000000,0.578311,-0.561437,0.564505,-0.592117,0.575243,-0.556835
2.7518,0.016751,0.000000,-1.700777,1.700777,0.0000,0.0000,0.0000,-0.002398,-1.747204,1.745670,0.4906,0.6229,0.2391,0.000000,0.578311,-0.561437,0.564505,-0.592117,0.575243,-0.556835
2.7685,0.016750,0.000000,-1.692007,1.692007,0.0000,0.0000,0.0000,-0.002398,-1.745670,1.744136,0.4906,0.6229,0.2391,0.000000,0.578311,-0.561437,0.564505,-0.592117,0.575243,-0.556835
2.7860,0.017454,0.000000,-1.682868,1.682868,0.0000,0.0000,0.0000,-0.002385,-1.734932,1.741068,0.5293,0.5877,0.1867,0.000000,0.578311,-0.562971,0.564505,-0.592117,0.575243,-0.556835
2.8027,0.016741,0.000000,-1.674102,1.674102,0.0000,0.0000,0.0000,-0.002399,-1.728796,1.739534,0.4861,0.6270,0.2453,0.000000,0.578311,-0.561437,0.564505,-0.592117,0.575243,-0.556835
2.8195,0.016757,0.000000,-1.665328,1.665328,0.0000,0.0000,0.0000,-0.002399,-1.728796,1.739534,0.4861,0.6270,0.2453,0.000000,0.578311,-0.561437,0.564505,-0.592117,0.575243,-0.556835
2.8362,0.016748,0.000000,-1.656559,1.656559,0.0000,0.0000,0.0000,-0.002385,-1.719592,1.736466,0.5298,0.5873,0.1860,0.000000,0.578311,-0.562971,0.564505,-0.592117,0.575243,-0.556835
2.8530,0.016752,0.000000,-1.647788,1.647788,0.0000,0.0000,0.0000,-0.002411,-1.710389,1.727262,0.4754,0.5762,0.2991,0.000000,0.578311,-0.561437,0.564505,-0.590583,0.575243,-0.556835
2.8697,0.016748,0.000000,-1.639019,1.639019,0.0000,0.0000,0.0000,-0.002397,-1.699651,1.711923,0.4917,0.6282,0.2336,0.000000,0.578311,-0.561437,0.564505,-0.592117,0.575243,-0.556835
2.8865,0.016755,0.000000,-1.630246,1.630246,0.0000,0.0000,0.0000,-0.002385,-1.690447,1.695049,0.5292,0.5871,0.1872,0.000000,0.578311,-0.562971,0.564505,-0.592117,0.575243,-0.556835
2.9032,0.016758,0.000000,-1.621472,1.621472,0.0000,0.0000,0.0000,-0.002385,-1.690447,1.695049,0.5292,0.5871,0.1872,0.000000,0.578311,-0.562971,0.564505,-0.592117,0.575243,-0.556835
2.9200,0.016758,0.000000,-1.612697,1.612697,0.0000,0.0000,0.0000,-0.002399,-1.676641,1.678175,0.4861,0.6270,0.2453,0.000000,0.578311,-0.561437,0.564505,-0.592117,0.575243,-0.556835
2.9367,0.016744,0.000000,-1.603930,1.603930,0.0000,0.0000,0.0000,-0.002385,-1.664369,1.662835,0.5298,0.5873,0.1860,0.000000,0.578311,-0.562971,0.564505,-0.592117,0.575243,-0.556835
2.9535,0.016744,0.000000,-1.595162,1.595162,0.0000,0.0000,0.0000,-0.002386,-1.653631,1.655165,0.5252,0.5914,0.1922,0.000000,0.578311,-0.562971,0.564505,-0.592117,0.575243,-0.556835
2.9702,0.016753,0.000000,-1.586391,1.586391,0.0000,0.0000,0.0000,-0.002388,-1.644427,1.645961,0.5364,0.6111,0.2986,0.000000,0.579845,-0.561437,0.564505,-0.592117,0.575243,-0.556835
2.9875,0.017239,0.000000,-1.577365,1.577365,0.0000,0.0000,0.0000,-0.002399,-1.633690,1.636758,0.4854,0.6245,0.2337,0.000000,0.578311,-0.561437,0.564505,-0.592117,0.575243,-0.556835
3.0042,0.016762,0.000000,-1.568588,1.568588,0.0000,0.0000,0.0000,-0.002399,-1.633690,1.636758,0.4854,0.6245,0.2337,0.000000,0.578311,-0.561437,0.564505,-0.592117,0.575243,-0.556835
3.0210,0.016756,0.000000,-1.559814,1.559814,0.0000,0.0000,0.0000,-0.002398,-1.622952,1.627554,0.4907,0.6231,0.2404,0.000000,0.578311,-0.561437,0.564505,-0.592117,0.575243,-0.556835
3.0377,0.016744,0.000000,-1.551047,1.551047,0.0000,0.0000,0.0000,-0.002409,-1.615282,1.619884,0.4794,0.5725,0.2934,0.000000,0.578311,-0.561437,0.564505,-0.590583,0.575243,-0.556835
3.0545,0.016752,0.000000,-1.542276,1.542276,0.0000,0.0000,0.0000,-0.002397,-1.609146,1.610680,0.4913,0.6286,0.2342,0.000000,0.578311,-0.561437,0.564505,-0.592117,0.575243,-0.556835
3.0712,0.016750,0.000000,-1.533506,1.533506,0.0000,0.0000,0.0000,-0.002385,-1.598408,1.598408,0.5293,0.5871,0.1872,0.000000,0.578311,-0.562971,0.564505,-0.592117,0.575243,-0.556835
3.0883,0.017030,0.000000,-1.524589,1.524589,0.0000,0.0000,0.0000,-0.002386,-1.586136,1.587670,0.5253,0.5914,0.1921,0.000000,0.578311,-0.562971,0.564505,-0.592117,0.575243,-0.556835
3.1050,0.016749,0.000000,-1.515819,1.515819,0.0000,0.0000,0.0000,-0.002386,-1.586136,1.587670,0.5253,0.5914,0.1921,0.000000,0.578311,-0.562971,0.564505,-0.592117,0.575243,-0.556835
3.1218,0.016756,0.000000,-1.507046,1.507046,0.0000,0.0000,0.0000,-0.002399,-1.572330,1.576932,0.4865,0.6266,0.2447,0.000000,0.578311,-0.561437,0.564505,-0.592117,0.575243,-0.556835
3.1385,0.016751,0.000000,-1.498275,1.498275,0.0000,0.0000,0.0000,-0.002385,-1.561592,1.570796,0.5298,0.5873,0.1861,0.000000,0.578311,-0.562971,0.564505,-0.592117,0.575243,-0.556835
3.1553,0.016749,0.000000,-1.489505,1.489505,0.0000,0.0000,0.0000,-0.002399,-1.549321,1.560058,0.4861,0.6270,0.2454,0.000000,0.578311,-0.561437,0.564505,-0.592117,0.575243,-0.556835
3.1720,0.016753,0.000000,-1.480733,1.480733,0.0000,0.0000,0.0000,-0.002385,-1.538583,1.546253,0.5298,0.5873,0.1860,0.000000,0.578311,-0.562971,0.564505,-0.592117,0.575243,-0.556835
3.1893,0.017326,0.000000,-1.471662,1.471662,0.0000,0.0000,0.0000,-0.002385,-1.529379,1.533981,0.5298,0.5873,0.1860,0.000000,0.578311,-0.561437,0.564505,-0.592117,0.575243,-0.556835
3.2061,0.016750,0.000000,-1.462891,1.462891,0.0000,0.0000,0.0000,-0.002399,-1.529379,1.533981,0.4861,0.6270,0.2454,0.000000,0.578311,-0.561437,0.564505,-0.592117,0.575243,-0.556835
3.2228,0.016750,0.000000,-1.454121,1.454121,0.0000,0.0000,0.0000,-0.002409,-1.517107,1.518641,0.4799,0.5720,0.2929,0.000000,0.578311,-0.561437,0.564505,-0.590583,0.575243,-0.556835
3.2396,0.016744,0.000000,-1.445354,1.445354,0.0000,0.0000,0.0000,-0.002397,-1.504835,1.507903,0.4912,0.6286,0.2342,0.000000,0.578311,-0.561437,0.564505,-0.592117,0.575243,-0.556835
3.2563,0.016757,0.000000,-1.436580,1.436580,0.0000,0.0000,0.0000,-0.002386,-1.497165,1.498699,0.5399,0.6073,0.2942,0.000000,0.579845,-0.561437,0.564505,-0.592117,0.575243,-0.556835
3.2731,0.016741,0.000000,-1.427814,1.427814,0.0000,0.0000,0.0000,-0.002386,-1.489495,1.492563,0.5242,0.5893,0.1809,0.000000,0.578311,-0.562971,0.564505,-0.592117,0.575243,-0.556835
3.2898,0.016763,0.000000,-1.419037,1.419037,0.0000,0.0000,0.0000,-0.002386,-1.489495,1.492563,0.5242,0.5893,0.1809,0.000000,0.578311,-0.562971,0.564505,-0.592117,0.575243,-0.556835
3.3066,0.016749,0.000000,-1.410268,1.410268,0.0000,0.0000,0.0000,-0.002388,-1.478757,1.483359,0.5365,0.6113,0.2998,0.000000,0.579845,-0.561437,0.564505,-0.592117,0.575243,-0.556835
3.3233,0.016744,0.000000,-1.401500,1.401500,0.0000,0.0000,0.0000,-0.002410,-1.471088,1.471088,0.4747,0.5737,0.2872,0.000000,0.578311,-0.561437,0.564505,-0.590583,0.575243,-0.556835
3.3401,0.016740,0.000000,-1.399792,1.399792,0.0000,0.0000,0.0000,-0.002397,-1.458816,1.457282,0.4918,0.6284,0.2348,0.000000,0.578311,-0.561437,0.564505,-0.592117,0.575243,-0.556835
3.3568,0.016751,0.000000,-1.408562,1.408562,0.0000,0.0000,0.0000,-0.002397,-1.446544,1.445010,0.5185,0.5363,0.2408,0.000000,0.578311,-0.562971,0.564505,-0.590583,0.575243,-0.556835
3.3736,0.016749,0.000000,-1.417332,1.417332,0.0000,0.0000,0.0000,-0.002385,-1.434272,1.432738,0.5264,0.5967,0.1865,0.000000,0.578311,-0.562971,0.564505,-0.592117,0.575243,-0.556835
3.3903,0.016762,0.000000,-1.426109,1.426109,0.0000,0.0000,0.0000,-0.002385,-1.434272,1.432738,0.5264,0.5967,0.1865,0.000000,0.578311,-0.562971,0.564505,-0.592117,0.575243,-0.556835
3.4071,0.016745,0.000000,-1.434876,1.434876,0.0000,0.0000,0.0000,-0.002399,-1.423534,1.423534,0.4864,0.6260,0.2453,0.000000,0.578311,-0.561437,0.564505,-0.592117,0.575243,-0.556835
3.4238,0.016746,0.000000,-1.443645,1.443645,0.0000,0.0000,0.0000,-0.002385,-1.418932,1.418932,0.5298,0.5874,0.1860,0.000000,0.578311,-0.562971,0.564505,-0.592117,0.575243,-0.556835
3.4406,0.016743,0.000000,-1.452411,1.452411,0.0000,0.0000,0.0000,-0.002399,-1.418932,1.418932,0.4861,0.6270,0.2454,0.000000,0.578311,-0.561437,0.564505,-0.592117,0.575243,-0.556835
3.4573,0.016751,0.000000,-1.461182,1.461182,0.0000,0.0000,0.0000,-0.002398,-1.426602,1.426602,0.4906,0.6229,0.2392,0.000000,0.578311,-0.561437,0.564505,-0.592117,0.575243,-0.556835
3.4741,0.016745,0.000000,-1.469950,1.469950,0.0000,0.0000,0.0000,-0.002398,-1.446544,1.443476,0.4906,0.6229,0.2392,0.000000,0.578311,-0.561437,0.564505,-0.592117,0.575243,-0.556835
3.4908,0.016736,0.000000,-1.478712,1.478712,0.0000,0.0000,0.0000,-0.002398,-1.446544,1.443476,0.4906,0.6229,0.2392,0.000000,0.578311,-0.561437,0.564505,-0.592117,0.575243,-0.556835
3.5075,0.016747,0.000000,-1.487481,1.487481,0.0000,0.0000,0.0000,-0.002398,-1.461884,1.458816,0.4906,0.6229,0.2392,0.000000,0.578311,-0.561437,0.564505,-0.592117,0.575243,-0.556835
3.5243,0.016750,0.000000,-1.496251,1.496251,0.0000,0.0000,0.0000,-0.002398,-1.463418,1.460350,0.4906,0.6229,0.2392,0.000000,0.578311,-0.561437,0.564505,-0.592117,0.575243,-0.556835
3.5410,0.016738,0.000000,-1.505015,1.505015,0.0000,0.0000,0.0000,-0.002385,-1.469554,1.464952,0.5293,0.5877,0.1867,0.000000,0.578311,-0.562971,0.564505,-0.592117,0.575243,-0.556835
3.5578,0.016751,0.000000,-1.513786,1.513786,0.0000,0.0000,0.0000,-0.002386,-1.483359,1.480291,0.5253,0.5914,0.1921,0.000000,0.578311,-0.562971,0.564505,-0.592117,0.575243,-0.556835
3.5745,0.016745,0.000000,-1.522553,1.522553,0.0000,0.0000,0.0000,-0.002411,-1.503301,1.498699,0.4758,0.5758,0.2984,0.000000,0.578311,-0.561437,0.564505,-0.590583,0.575243,-0.556835
3.5913,0.016759,0.000000,-1.531328,1.531328,0.0000,0.0000,0.0000,-0.002411,-1.503301,1.498699,0.4758,0.5758,0.2984,0.000000,0.578311,-0.561437,0.564505,-0.590583,0.575243,-0.556835
3.6080,0.016742,0.000000,-1.540094,1.540094,0.0000,0.0000,0.0000,-0.002384,-1.512505,1.507903,0.5309,0.5926,0.1805,0.000000,0.578311,-0.562971,0.564505,-0.592117,0.575243,-0.556835
3.6248,0.016747,0.000000,-1.548863,1.548863,0.0000,0.0000,0.0000,-0.002399,-1.515573,1.510971,0.4860,0.6264,0.2460,0.000000,0.578311,-0.561437,0.564505,-0.592117,0.575243,-0.556835
3.6415,0.016739,0.000000,-1.557627,1.557627,0.0000,0.0000,0.0000,-0.002385,-1.521709,1.517107,0.5298,0.5873,0.1859,0.000000,0.578311,-0.562971,0.564505,-0.592117,0.575243,-0.556835
3.6583,0.016753,0.000000,-1.566399,1.566399,0.0000,0.0000,0.0000,-0.002411,-1.540117,1.535515,0.4754,0.5762,0.2991,0.000000,0.578311,-0.561437,0.564505,-0.590583,0.575243,-0.556835
3.6750,0.016748,0.000000,-1.575168,1.575168,0.0000,0.0000,0.0000,-0.002397,-1.556990,1.553923,0.4917,0.6282,0.2336,0.000000,0.578311,-0.561437,0.564505,-0.592117,0.575243,-0.556835
3.6918,0.016755,0.000000,-1.583941,1.583941,0.0000,0.0000,0.0000,-0.002397,-1.556990,1.553923,0.4917,0.6282,0.2336,0.000000,0.578311,-0.561437,0.564505,-0.592117,0.575243,-0.556835
3.7085,0.016739,0.000000,-1.592706,1.592706,0.0000,0.0000,0.0000,-0.002398,-1.563126,1.560058,0.4900,0.6227,0.2404,0.000000,0.578311,-0.561437,0.564505,-0.592117,0.575243,-0.556835
3.7253,0.016745,0.000000,-1.601474,1.601474,0.0000,0.0000,0.0000,-0.002398,-1.566194,1.560058,0.4900,0.6227,0.2404,0.000000,0.578311,-0.561437,0.564505,-0.592117,0.575243,-0.556835
3.7420,0.016740,0.000000,-1.610239,1.610239,0.0000,0.0000,0.0000,-0.002398,-1.580000,1.572330,0.4900,0.6227,0.2404,0.000000,0.578311,-0.561437,0.564505,-0.592117,0.575243,-0.556835
3.7587,0.016745,0.000000,-1.619007,1.619007,0.0000,0.0000,0.0000,-0.002398,-1.587670,1.592272,0.4900,0.6227,0.2404,0.000000,0.578311,-0.561437,0.564505,-0.592117,0.575243,-0.556835
3.7755,0.016748,0.000000,-1.627776,1.627776,0.0000,0.0000,0.0000,-0.002398,-1.603010,1.607612,0.4900,0.6227,0.2404,0.000000,0.578311,-0.561437,0.564505,-0.592117,0.575243,-0.556835
3.7922,0.016753,0.000000,-1.636548,1.636548,0.0000,0.0000,0.0000,-0.002398,-1.603010,1.607612,0.4900,0.6227,0.2404,0.000000,0.578311,-0.561437,0.564505,-0.592117,0.575243,-0.556835
3.8090,0.016740,0.000000,-1.645313,1.645313,0.0000,0.0000,0.0000,-0.002398,-1.615282,1.610680,0.4900,0.6227,0.2404,0.000000,0.578311,-0.561437,0.564505,-0.592117,0.575243,-0.556835
3.8257,0.016748,0.000000,-1.654082,1.654082,0.0000,0.0000,0.0000,-0.002385,-1.621418,1.613748,0.5294,0.5877,0.1865,0.000000,0.578311,-0.562971,0.564505,-0.592117,0.575243,-0.556835
3.8425,0.016742,0.000000,-1.662848,1.662848,0.0000,0.0000,0.0000,-0.002399,-1.627554,1.627554,0.4861,0.6270,0.2453,0.000000,0.578311,-0.561437,0.564505,-0.592117,0.575243,-0.556835
3.8592,0.016740,0.000000,-1.671613,1.671613,0.0000,0.0000,0.0000,-0.002398,-1.641359,1.645961,0.4906,0.6229,0.2392,0.000000,0.578311,-0.561437,0.564505,-0.592117,0.575243,-0.556835
3.8760,0.016766,0.000000,-1.680392,1.680392,0.0000,0.0000,0.0000,-0.002385,-1.661301,1.659767,0.5293,0.5877,0.1867,0.000000,0.578311,-0.562971,0.564505,-0.592117,0.575243,-0.556835
3.8932,0.017265,0.000000,-1.689432,1.689432,0.0000,0.0000,0.0000,-0.002385,-1.661301,1.659767,0.5293,0.5877,0.1867,0.000000,0.578311,-0.562971,0.564505,-0.592117,0.575243,-0.556835
3.9100,0.016750,0.000000,-1.698202,1.698202,0.0000,0.0000,0.0000,-0.002375,-1.667437,1.664369,0.5751,0.5759,0.2460,0.000000,0.579845,-0.562971,0.564505,-0.592117,0.575243,-0.556835
3.9267,0.016749,0.000000,-1.706972,1.706972,0.0000,0.0000,0.0000,-0.002387,-1.672039,1.670505,0.5205,0.5926,0.1860,0.000000,0.578311,-0.562971,0.564505,-0.592117,0.575243,-0.556835
3.9435,0.016748,0.000000,-1.715741,1.715741,0.0000,0.0000,0.0000,-0.002386,-1.684311,1.679709,0.5262,0.5908,0.1922,0.000000,0.578311,-0.562971,0.564505,-0.592117,0.575243,-0.556835
3.9602,0.016756,0.000000,-1.724514,1.724514,0.0000,0.0000,0.0000,-0.002399,-1.701185,1.693515,0.4864,0.6266,0.2447,0.000000,0.578311,-0.561437,0.564505,-0.592117,0.575243,-0.556835
3.9771,0.016847,0.000000,-1.733335,1.733335,0.0000,0.0000,0.0000,-0.002399,-1.716525,1.711923,0.4864,0.6266,0.2447,0.000000,0.578311,-0.561437,0.564505,-0.592117,0.575243,-0.556835
3.9939,0.016760,0.000000,-1.742111,1.742111,0.0000,0.0000,0.0000,-0.002398,-1.716525,1.711923,0.4906,0.6229,0.2393,0.000000,0.578311,-0.561437,0.564505,-0.592117,0.575243,-0.556835
4.0106,0.016749,0.000000,-1.739777,1.739777,0.0000,0.0000,0.0000,-0.002397,-1.718058,1.719592,0.5187,0.5369,0.2403,0.000000,0.578311,-0.562971,0.564505,-0.590583,0.575243,-0.556835
4.0274,0.016756,0.000000,-1.731004,1.731004,0.0000,0.0000,0.0000,-0.002409,-1.718058,1.719592,0.4765,0.5814,0.2934,0.000000,0.578311,-0.561437,0.564505,-0.590583,0.575243,-0.556835
4.0441,0.016743,0.000000,-1.722238,1.722238,0.0000,0.0000,0.0000,-0.002385,-1.734932,1.730330,0.5414,0.6122,0.2880,0.000000,0.579845,-0.561437,0.564505,-0.592117,0.575243,-0.556835
4.0609,0.016754,0.000000,-1.713465,1.713465,0.0000,0.0000,0.0000,-0.002399,-1.747204,1.744136,0.4848,0.6244,0.2348,0.000000,0.578311,-0.561437,0.564505,-0.592117,0.575243,-0.556835
4.0777,0.016871,0.000000,-1.704632,1.704632,0.0000,0.0000,0.0000,-0.002398,-1.747204,1.744136,0.4907,0.6231,0.2403,0.000000,0.578311,-0.561437,0.564505,-0.592117,0.575243,-0.556835
4.0945,0.016753,0.000000,-1.695860,1.695860,0.0000,0.0000,0.0000,-0.002398,-1.747204,1.744136,0.4907,0.6231,0.2403,0.000000,0.578311,-0.561437,0.564505,-0.592117,0.575243,-0.556835
4.1112,0.016749,0.000000,-1.687090,1.687090,0.0000,0.0000,0.0000,-0.002385,-1.742602,1.742602,0.5293,0.5877,0.1865,0.000000,0.578311,-0.562971,0.564505,-0.592117,0.575243,-0.556835
4.1280,0.016749,0.000000,-1.678321,1.678321,0.0000,0.0000,0.0000,-0.002398,-1.739534,1.741068,0.5146,0.5406,0.2458,0.000000,0.578311,-0.562971,0.564505,-0.590583,0.575243,-0.556835
4.1447,0.016747,0.000000,-1.669552,1.669552,0.0000,0.0000,0.0000,-0.002385,-1.734932,1.741068,0.5268,0.5963,0.1860,0.000000,0.578311,-0.562971,0.564505,-0.592117,0.575243,-0.556835
4.1615,0.016749,0.000000,-1.660782,1.660782,0.0000,0.0000,0.0000,-0.002399,-1.728796,1.739534,0.4864,0.6261,0.2454,0.000000,0.578311,-0.561437,0.564505,-0.592117,0.575243,-0.556835
4.1786,0.017149,0.000000,-1.651803,1.651803,0.0000,0.0000,0.0000,-0.002398,-1.722660,1.736466,0.4906,0.6230,0.2392,0.000000,0.578311,-0.561437,0.564505,-0.592117,0.575243,-0.556835
4.1954,0.016751,0.000000,-1.643032,1.643032,0.0000,0.0000,0.0000,-0.002398,-1.722660,1.736466,0.4906,0.6230,0.2392,0.000000,0.578311,-0.561437,0.564505,-0.592117,0.575243,-0.556835
4.2121,0.016747,0.000000,-1.634264,1.634264,0.0000,0.0000,0.0000,-0.002398,-1.710389,1.722660,0.4906,0.6230,0.2392,0.000000,0.578311,-0.561437,0.564505,-0.592117,0.575243,-0.556835
4.2290,0.016873,0.000000,-1.625429,1.625429,0.0000,0.0000,0.0000,-0.002386,-1.698117,1.705787,0.5399,0.6078,0.2937,0.000000,0.579845,-0.561437,0.564505,-0.592117,0.575243,-0.556835
4.2458,0.016767,0.000000,-1.616650,1.616650,0.0000,0.0000,0.0000,-0.002399,-1.672039,1.672039,0.4850,0.6248,0.2342,0.000000,0.578311,-0.561437,0.564505,-0.592117,0.575243,-0.556835
4.2625,0.016754,0.000000,-1.607877,1.607877,0.0000,0.0000,0.0000,-0.002399,-1.672039,1.672039,0.4850,0.6248,0.2342,0.000000,0.578311,-0.561437,0.564505,-0.592117,0.575243,-0.556835
4.2793,0.016748,0.000000,-1.599108,1.599108,0.0000,0.0000,0.0000,-0.002386,-1.659767,1.658233,0.5405,0.6076,0.2942,0.000000,0.579845,-0.561437,0.564505,-0.592117,0.575243,-0.556835
4.2960,0.016760,0.000000,-1.590333,1.590333,0.0000,0.0000,0.0000,-0.002375,-1.649029,1.652097,0.5740,0.5738,0.2347,0.000000,0.579845,-0.562971,0.564505,-0.592117,0.575243,-0.556835
4.3128,0.016816,0.000000,-1.581528,1.581528,0.0000,0.0000,0.0000,-0.002412,-1.641359,1.644427,0.4708,0.5776,0.2940,0.000000,0.578311,-0.561437,0.564505,-0.590583,0.575243,-0.556835
4.3296,0.016745,0.000000,-1.572760,1.572760,0.0000,0.0000,0.0000,-0.002384,-1.632156,1.636758,0.5314,0.5924,0.1809,0.000000,0.578311,-0.562971,0.564505,-0.592117,0.575243,-0.556835
4.3463,0.016763,0.000000,-1.563983,1.563983,0.0000,0.0000,0.0000,-0.002384,-1.632156,1.636758,0.5314,0.5924,0.1809,0.000000,0.578311,-0.562971,0.564505,-0.592117,0.575243,-0.556835
4.3631,0.016744,0.000000,-1.555215,1.555215,0.0000,0.0000,0.0000,-0.002399,-1.621418,1.626020,0.4859,0.6265,0.2459,0.000000,0.578311,-0.561437,0.564505,-0.592117,0.575243,-0.556835
4.3798,0.016750,0.000000,-1.546445,1.546445,0.0000,0.0000,0.0000,-0.002398,-1.610680,1.615282,0.4906,0.6229,0.2391,0.000000,0.578311,-0.561437,0.564505,-0.592117,0.575243,-0.556835
4.3966,0.016742,0.000000,-1.537679,1.537679,0.0000,0.0000,0.0000,-0.002398,-1.601476,1.604544,0.4906,0.6229,0.2391,0.000000,0.578311,-0.561437,0.564505,-0.592117,0.575243,-0.556835
4.4134,0.016800,0.000000,-1.528882,1.528882,0.0000,0.0000,0.0000,-0.002385,-1.592272,1.595340,0.5293,0.5877,0.1867,0.000000,0.578311,-0.562971,0.564505,-0.592117,0.575243,-0.556835
4.4301,0.016746,0.000000,-1.520114,1.520114,0.0000,0.0000,0.0000,-0.002399,-1.581534,1.584602,0.4861,0.6270,0.2453,0.000000,0.578311,-0.561437,0.564505,-0.592117,0.575243,-0.556835
4.4469,0.016752,0.000000,-1.511343,1.511343,0.0000,0.0000,0.0000,-0.002399,-1.581534,1.584602,0.4861,0.6270,0.2453,0.000000,0.578311,-0.561437,0.564505,-0.592117,0.575243,-0.556835
4.4636,0.016743,0.000000,-1.502576,1.502576,0.0000,0.0000,0.0000,-0.002373,-1.570796,1.576932,0.5796,0.5718,0.2398,0.000000,0.579845,-0.562971,0.564505,-0.592117,0.575243,-0.556835
4.4804,0.016750,0.000000,-1.493806,1.493806,0.0000,0.0000,0.0000,-0.002400,-1.558524,1.567728,0.4809,0.6286,0.2398,0.000000,0.578311,-0.561437,0.564505,-0.592117,0.575243,-0.556835
4.4971,0.016741,0.000000,-1.485040,1.485040,0.0000,0.0000,0.0000,-0.002385,-1.546253,1.555457,0.5304,0.5871,0.1866,0.000000,0.578311,-0.562971,0.564505,-0.592117,0.575243,-0.556835
4.5139,0.016754,0.000000,-1.476268,1.476268,0.0000,0.0000,0.0000,-0.002399,-1.537049,1.543185,0.4860,0.6270,0.2453,0.000000,0.578311,-0.561437,0.564505,-0.592117,0.575243,-0.556835
4.5306,0.016760,0.000000,-1.467492,1.467492,0.0000,0.0000,0.0000,-0.002398,-1.527845,1.532447,0.4906,0.6229,0.2392,0.000000,0.578311,-0.561437,0.564505,-0.592117,0.575243,-0.556835
4.5474,0.016760,0.000000,-1.458717,1.458717,0.0000,0.0000,0.0000,-0.002398,-1.527845,1.532447,0.4906,0.6229,0.2392,0.000000,0.578311,-0.561437,0.564505,-0.592117,0.575243,-0.556835
4.5641,0.016744,0.000000,-1.449950,1.449950,0.0000,0.0000,0.0000,-0.002397,-1.515573,1.518641,0.5187,0.5369,0.2403,0.000000,0.578311,-0.562971,0.564505,-0.590583,0.575243,-0.556835
4.5809,0.016748,0.000000,-1.441181,1.441181,0.0000,0.0000,0.0000,-0.002386,-1.501767,1.504835,0.5370,0.6168,0.2936,0.000000,0.579845,-0.561437,0.564505,-0.592117,0.575243,-0.556835
4.5976,0.016743,0.000000,-1.432414,1.432414,0.0000,0.0000,0.0000,-0.002386,-1.491029,1.495631,0.5245,0.5883,0.1810,0.000000,0.578311,-0.562971,0.564505,-0.592117,0.575243,-0.556835
4.6144,0.016745,0.000000,-1.423646,1.423646,0.0000,0.0000,0.0000,-0.002399,-1.480291,1.483359,0.4866,0.6269,0.2459,0.000000,0.578311,-0.561437,0.564505,-0.592117,0.575243,-0.556835
4.6312,0.016806,0.000000,-1.414847,1.414847,0.0000,0.0000,0.0000,-0.002398,-1.471088,1.472622,0.5296,0.5566,0.3467,0.000000,0.579845,-0.561437,0.564505,-0.590583,0.575243,-0.556835
4.6479,0.016760,0.000000,-1.406071,1.406071,0.0000,0.0000,0.0000,-0.002398,-1.471088,1.472622,0.5296,0.5566,0.3467,0.000000,0.579845,-0.561437,0.564505,-0.590583,0.575243,-0.556835
4.6647,0.016743,0.000000,-1.397305,1.397305,0.0000,0.0000,0.0000,-0.002385,-1.460350,1.460350,0.5253,0.5946,0.1755,0.000000,0.578311,-0.562971,0.564505,-0.592117,0.575243,-0.556835
4.6814,0.016744,0.000000,-1.403989,1.403989,0.0000,0.0000,0.0000,-0.002399,-1.449612,1.449612,0.5256,0.5600,0.3540,0.000000,0.579845,-0.561437,0.564505,-0.590583,0.575243,-0.556835
4.6982,0.016745,0.000000,-1.412757,1.412757,0.0000,0.0000,0.0000,-0.002398,-1.441942,1.441942,0.4865,0.6298,0.2279,0.000000,0.578311,-0.561437,0.564505,-0.592117,0.575243,-0.556835
4.7149,0.016748,0.000000,-1.421526,1.421526,0.0000,0.0000,0.0000,-0.002398,-1.431204,1.432738,0.4906,0.6226,0.2410,0.000000,0.578311,-0.561437,0.564505,-0.592117,0.575243,-0.556835
4.7317,0.016751,0.000000,-1.430297,1.430297,0.0000,0.0000,0.0000,-0.002385,-1.423534,1.426602,0.5294,0.5877,0.1865,0.000000,0.578311,-0.562971,0.564505,-0.592117,0.575243,-0.556835
4.7484,0.016750,0.000000,-1.439068,1.439068,0.0000,0.0000,0.0000,-0.002385,-1.423534,1.426602,0.5294,0.5877,0.1865,0.000000,0.578311,-0.562971,0.564505,-0.592117,0.575243,-0.556835
4.7652,0.016746,0.000000,-1.447836,1.447836,0.0000,0.0000,0.0000,-0.002399,-1.423534,1.423534,0.4861,0.6270,0.2453,0.000000,0.578311,-0.561437,0.564505,-0.592117,0.575243,-0.556835
4.7819,0.016741,0.000000,-1.456601,1.456601,0.0000,0.0000,0.0000,-0.002385,-1.425068,1.423534,0.5298,0.5873,0.1860,0.000000,0.578311,-0.562971,0.564505,-0.592117,0.575243,-0.556835
4.7986,0.016743,0.000000,-1.465368,1.465368,0.0000,0.0000,0.0000,-0.002386,-1.432738,1.431204,0.5252,0.5914,0.1922,0.000000,0.578311,-0.562971,0.564505,-0.592117,0.575243,-0.556835
4.8154,0.016749,0.000000,-1.474138,1.474138,0.0000,0.0000,0.0000,-0.002399,-1.448078,1.445010,0.4865,0.6266,0.2447,0.000000,0.578311,-0.561437,0.564505,-0.592117,0.575243,-0.556835
4.8321,0.016742,0.000000,-1.482904,1.482904,0.0000,0.0000,0.0000,-0.002398,-1.468020,1.461884,0.4906,0.6229,0.2393,0.000000,0.578311,-0.561437,0.564505,-0.592117,0.575243,-0.556835
4.8489,0.016744,0.000000,-1.491671,1.491671,0.0000,0.0000,0.0000,-0.002398,-1.468020,1.461884,0.4906,0.6229,0.2393,0.000000,0.578311,-0.561437,0.564505,-0.592117,0.575243,-0.556835
4.8656,0.016743,0.000000,-1.500437,1.500437,0.0000,0.0000,0.0000,-0.002386,-1.469554,1.469554,0.5399,0.6078,0.2937,0.000000,0.579845,-0.561437,0.564505,-0.592117,0.575243,-0.556835
4.8824,0.016741,0.000000,-1.509203,1.509203,0.0000,0.0000,0.0000,-0.002386,-1.474156,1.472622,0.5242,0.5892,0.1810,0.000000,0.578311,-0.562971,0.564505,-0.592117,0.575243,-0.556835
4.8992,0.016852,0.000000,-1.518026,1.518026,0.0000,0.0000,0.0000,-0.002386,-1.484893,1.481825,0.5258,0.5912,0.1927,0.000000,0.578311,-0.562971,0.564505,-0.592117,0.575243,-0.556835
4.9160,0.016745,0.000000,-1.526794,1.526794,0.0000,0.0000,0.0000,-0.002388,-1.506369,1.497165,0.5363,0.6111,0.2985,0.000000,0.579845,-0.561437,0.564505,-0.592117,0.575243,-0.556835
4.9327,0.016772,0.000000,-1.535576,1.535576,0.0000,0.0000,0.0000,-0.002386,-1.518641,1.512505,0.5246,0.5889,0.1805,0.000000,0.578311,-0.562971,0.564505,-0.592117,0.575243,-0.556835
4.9495,0.016758,0.000000,-1.544351,1.544351,0.0000,0.0000,0.0000,-0.002386,-1.518641,1.512505,0.5246,0.5889,0.1805,0.000000,0.578311,-0.562971,0.564505,-0.592117,0.575243,-0.556835
4.9662,0.016739,0.000000,-1.553115,1.553115,0.0000,0.0000,0.0000,-0.002399,-1.521709,1.518641,0.4866,0.6268,0.2460,0.000000,0.578311,-0.561437,0.564505,-0.592117,0.575243,-0.556835
4.9830,0.016745,0.000000,-1.561883,1.561883,0.0000,0.0000,0.0000,-0.002385,-1.526311,1.526311,0.5298,0.5873,0.1859,0.000000,0.578311,-0.562971,0.564505,-0.592117,0.575243,-0.556835
4.9997,0.016741,0.000000,-1.570649,1.570649,0.0000,0.0000,0.0000,-0.002398,-1.543185,1.540117,0.5146,0.5406,0.2459,0.000000,0.578311,-0.562971,0.564505,-0.590583,0.575243,-0.556835
5.0165,0.016751,0.000000,-1.579420,1.579420,0.0000,0.0000,0.0000,-0.002398,-1.558524,1.553923,0.4876,0.6319,0.2391,0.000000,0.578311,-0.561437,0.564505,-0.592117,0.575243,-0.556835
5.0332,0.016743,0.000000,-1.588186,1.588186,0.0000,0.0000,0.0000,-0.002385,-1.570796,1.567728,0.5297,0.5867,0.1867,0.000000,0.578311,-0.562971,0.564505,-0.592117,0.575243,-0.556835
5.0500,0.016748,0.000000,-1.596956,1.596956,0.0000,0.0000,0.0000,-0.002385,-1.570796,1.567728,0.5297,0.5867,0.1867,0.000000,0.578311,-0.562971,0.564505,-0.592117,0.575243,-0.556835
5.0667,0.016744,0.000000,-1.605723,1.605723,0.0000,0.0000,0.0000,-0.002399,-1.573864,1.570796,0.4861,0.6271,0.2453,0.000000,0.578311,-0.561437,0.564505,-0.592117,0.575243,-0.556835
5.0835,0.016750,0.000000,-1.614493,1.614493,0.0000,0.0000,0.0000,-0.002385,-1.576932,1.573864,0.5298,0.5873,0.1860,0.000000,0.578311,-0.562971,0.564505,-0.592117,0.575243,-0.556835
5.1002,0.016769,0.000000,-1.623273,1.623273,0.0000,0.0000,0.0000,-0.002386,-1.590738,1.592272,0.5252,0.5914,0.1922,0.000000,0.578311,-0.562971,0.564505,-0.592117,0.575243,-0.556835
5.1170,0.016748,0.000000,-1.632042,1.632042,0.0000,0.0000,0.0000,-0.002386,-1.607612,1.609146,0.5252,0.5914,0.1922,0.000000,0.578311,-0.562971,0.564505,-0.592117,0.575243,-0.556835
5.1337,0.016754,0.000000,-1.640815,1.640815,0.0000,0.0000,0.0000,-0.002399,-1.619884,1.618350,0.4865,0.6266,0.2447,0.000000,0.578311,-0.561437,0.564505,-0.592117,0.575243,-0.556835
5.1505,0.016777,0.000000,-1.649600,1.649600,0.0000,0.0000,0.0000,-0.002399,-1.619884,1.618350,0.4865,0.6266,0.2447,0.000000,0.578311,-0.561437,0.564505,-0.592117,0.575243,-0.556835
5.1673,0.016750,0.000000,-1.658370,1.658370,0.0000,0.0000,0.0000,-0.002396,-1.627554,1.624486,0.5191,0.5365,0.2398,0.000000,0.578311,-0.562971,0.564505,-0.590583,0.575243,-0.556835
5.1840,0.016760,0.000000,-1.667146,1.667146,0.0000,0.0000,0.0000,-0.002385,-1.630622,1.630622,0.5263,0.5967,0.1866,0.000000,0.578311,-0.562971,0.564505,-0.592117,0.575243,-0.556835
5.2008,0.016762,0.000000,-1.675922,1.675922,0.0000,0.0000,0.0000,-0.002399,-1.638291,1.642893,0.4864,0.6260,0.2453,0.000000,0.578311,-0.561437,0.564505,-0.592117,0.575243,-0.556835
5.2175,0.016753,0.000000,-1.684694,1.684694,0.0000,0.0000,0.0000,-0.002385,-1.655165,1.653631,0.5689,0.5211,0.2935,0.000000,0.579845,-0.562971,0.564505,-0.590583,0.575243,-0.556835
5.2344,0.016901,0.000000,-1.693543,1.693543,0.0000,0.0000,0.0000,-0.002399,-1.676641,1.670505,0.4820,0.6339,0.2342,0.000000,0.578311,-0.561437,0.564505,-0.592117,0.575243,-0.556835
5.2517,0.017284,0.000000,-1.702593,1.702593,0.0000,0.0000,0.0000,-0.002399,-1.676641,1.670505,0.4820,0.6339,0.2342,0.000000,0.578311,-0.561437,0.564505,-0.592117,0.575243,-0.556835
5.2685,0.016757,0.000000,-1.711367,1.711367,0.0000,0.0000,0.0000,-0.002385,-1.682777,1.682777,0.5302,0.5865,0.1872,0.000000,0.578311,-0.562971,0.564505,-0.592117,0.575243,-0.556835
5.2855,0.017076,0.000000,-1.720308,1.720308,0.0000,0.0000,0.0000,-0.002386,-1.693515,1.690447,0.5252,0.5915,0.1921,0.000000,0.578311,-0.562971,0.564505,-0.592117,0.575243,-0.556835
5.3023,0.016773,0.000000,-1.729090,1.729090,0.0000,0.0000,0.0000,-0.002386,-1.693515,1.690447,0.5252,0.5915,0.1921,0.000000,0.578311,-0.562971,0.564505,-0.592117,0.575243,-0.556835
5.3191,0.016765,0.000000,-1.737868,1.737868,0.0000,0.0000,0.0000,-0.002375,-1.705787,1.699651,0.5756,0.5755,0.2454,0.000000,0.579845,-0.562971,0.564505,-0.592117,0.575243,-0.556835
5.3358,0.016749,0.000000,-1.744020,1.744020,0.0000,0.0000,0.0000,-0.002400,-1.719592,1.711923,0.4813,0.6282,0.2392,0.000000,0.578311,-0.561437,0.564505,-0.592117,0.575243,-0.556835
5.3526,0.016761,0.000000,-1.735244,1.735244,0.0000,0.0000,0.0000,-0.002398,-1.730330,1.727262,0.4911,0.6227,0.2398,0.000000,0.578311,-0.561437,0.564505,-0.592117,0.575243,-0.556835
5.3693,0.016756,0.000000,-1.726471,1.726471,0.0000,0.0000,0.0000,-0.002398,-1.734932,1.733398,0.4911,0.6227,0.2398,0.000000,0.578311,-0.561437,0.564505,-0.592117,0.575243,-0.556835
5.3861,0.016759,0.000000,-1.717696,1.717696,0.0000,0.0000,0.0000,-0.002398,-1.742602,1.742602,0.4911,0.6227,0.2398,0.000000,0.578311,-0.561437,0.564505,-0.592117,0.575243,-0.556835
5.4029,0.016762,0.000000,-1.708920,1.708920,0.0000,0.0000,0.0000,-0.002398,-1.742602,1.742602,0.4911,0.6227,0.2398,0.000000,0.578311,-0.561437,0.564505,-0.592117,0.575243,-0.556835
5.4196,0.016761,0.000000,-1.700144,1.700144,0.0000,0.0000,0.0000,-0.002398,-1.742602,1.744136,0.4911,0.6227,0.2398,0.000000,0.578311,-0.561437,0.564505,-0.592117,0.575243,-0.556835
5.4364,0.016749,0.000000,-1.691374,1.691374,0.0000,0.0000,0.0000,-0.002373,-1.736466,1.741068,0.5791,0.5722,0.2404,0.000000,0.579845,-0.562971,0.564505,-0.592117,0.575243,-0.556835
5.4531,0.016759,0.000000,-1.682599,1.682599,0.0000,0.0000,0.0000,-0.002400,-1.733398,1.738000,0.4809,0.6286,0.2397,0.000000,0.578311,-0.561437,0.564505,-0.592117,0.575243,-0.556835
5.4699,0.016750,0.000000,-1.673828,1.673828,0.0000,0.0000,0.0000,-0.002385,-1.730330,1.736466,0.5304,0.5871,0.1866,0.000000,0.578311,-0.562971,0.564505,-0.592117,0.575243,-0.556835
5.4867,0.016762,0.000000,-1.665052,1.665052,0.0000,0.0000,0.0000,-0.002399,-1.724194,1.728796,0.4860,0.6270,0.2453,0.000000,0.578311,-0.561437,0.564505,-0.592117,0.575243,-0.556835
