t,loop_dt,cmd_z,cmd_ant_l,cmd_ant_r,cmd_roll,cmd_pitch,cmd_yaw,pres_z,pres_ant_l,pres_ant_r,pres_roll,pres_pitch,pres_yaw,pres_j0,pres_j1,pres_j2,pres_j3,pres_j4,pres_j5,pres_j6
0.0000,0.000001,0.000000,-0.349066,0.349066,0.0000,0.0000,0.0000,-0.002475,-0.171806,0.168738,0.4455,0.7329,0.1844,0.000000,0.572175,-0.561437,0.564505,-0.590583,0.575243,-0.552233
0.0168,0.016754,0.000000,-0.348481,0.348481,0.0000,0.0000,0.0000,-0.002488,-0.171806,0.168738,0.4338,0.6762,0.2444,0.000000,0.572175,-0.561437,0.564505,-0.590583,0.575243,-0.552233
0.0335,0.016752,0.000000,-0.347896,0.347896,0.0000,0.0000,0.0000,-0.002473,-0.174874,0.171806,0.3852,0.6644,0.1847,0.000000,0.572175,-0.561437,0.564505,-0.590583,0.575243,-0.553767
0.0502,0.016744,0.000000,-0.347312,0.347312,0.0000,0.0000,0.0000,-0.002462,-0.174874,0.171806,0.4295,0.6300,0.1378,0.000000,0.572175,-0.562971,0.564505,-0.590583,0.575243,-0.553767
0.0671,0.016827,0.000000,-0.346724,0.346724,0.0000,0.0000,0.0000,-0.002463,-0.243903,0.245437,0.4248,0.6336,0.1427,0.000000,0.572175,-0.562971,0.564505,-0.590583,0.575243,-0.553767
0.0838,0.016742,0.000000,-0.346140,0.346140,0.0000,0.0000,0.0000,-0.002476,-0.317534,0.319068,0.3862,0.6688,0.1953,0.000000,0.572175,-0.561437,0.564505,-0.590583,0.575243,-0.553767
0.1013,0.017468,0.000000,-0.345530,0.345530,0.0000,0.0000,0.0000,-0.002474,-0.317534,0.319068,0.3902,0.6652,0.1899,0.000000,0.572175,-0.561437,0.564505,-0.590583,0.575243,-0.553767
0.1180,0.016747,0.000000,-0.344946,0.344946,0.0000,0.0000,0.0000,-0.002474,-0.317534,0.319068,0.3902,0.6652,0.1899,0.000000,0.572175,-0.561437,0.564505,-0.590583,0.575243,-0.553767
0.1348,0.016755,0.000000,-0.344361,0.344361,0.0000,0.0000,0.0000,-0.002450,-0.381961,0.377359,0.4395,0.6808,0.0836,0.000000,0.572175,-0.562971,0.564505,-0.592117,0.575243,-0.553767
0.1515,0.016743,0.000000,-0.343776,0.343776,0.0000,0.0000,0.0000,-0.002440,-0.371223,0.366621,0.3846,0.6615,0.0412,0.000000,0.572175,-0.562971,0.564505,-0.592117,0.575243,-0.555301
0.1683,0.016745,0.000000,-0.343192,0.343192,0.0000,0.0000,0.0000,-0.002428,-0.355884,0.354350,0.3407,0.6460,-0.0078,0.000000,0.572175,-0.562971,0.564505,-0.592117,0.575243,-0.556835
0.1850,0.016751,0.000000,-0.342607,0.342607,0.0000,0.0000,0.0000,-0.002440,-0.343612,0.348214,0.3347,0.5968,0.0511,0.000000,0.572175,-0.562971,0.564505,-0.590583,0.575243,-0.556835
0.2019,0.016914,0.000000,-0.342017,0.342017,0.0000,0.0000,0.0000,-0.002440,-0.345146,0.342078,0.3462,0.6218,0.1518,0.000000,0.573709,-0.561437,0.564505,-0.590583,0.575243,-0.556835
0.2187,0.016746,0.000000,-0.341432,0.341432,0.0000,0.0000,0.0000,-0.002440,-0.345146,0.342078,0.3462,0.6218,0.1518,0.000000,0.573709,-0.561437,0.564505,-0.590583,0.575243,-0.556835
0.2354,0.016753,0.000000,-0.340847,0.340847,0.0000,0.0000,0.0000,-0.002391,-0.348214,0.342078,0.3950,0.6013,0.0347,0.000000,0.575243,-0.562971,0.564505,-0.592117,0.575243,-0.558369
0.2522,0.016747,0.000000,-0.340263,0.340263,0.0000,0.0000,0.0000,-0.002384,-0.346680,0.342078,0.4398,0.5878,0.1007,0.000000,0.576777,-0.562971,0.564505,-0.592117,0.575243,-0.558369
0.2690,0.016764,0.000000,-0.339678,0.339678,0.0000,0.0000,0.0000,-0.002360,-0.343612,0.342078,0.4355,0.5560,0.0942,0.000000,0.578311,-0.562971,0.564505,-0.592117,0.575243,-0.559903
0.2857,0.016747,0.000000,-0.339093,0.339093,0.0000,0.0000,0.0000,-0.002374,-0.345146,0.342078,0.4252,0.5085,0.1486,0.000000,0.578311,-0.562971,0.564505,-0.590583,0.575243,-0.559903
0.3026,0.016856,0.000000,-0.338505,0.338505,0.0000,0.0000,0.0000,-0.002373,-0.343612,0.342078,0.4263,0.5134,0.1429,0.000000,0.578311,-0.562971,0.564505,-0.590583,0.575243,-0.559903
0.3193,0.016744,0.000000,-0.337920,0.337920,0.0000,0.0000,0.0000,-0.002373,-0.343612,0.342078,0.4263,0.5134,0.1429,0.000000,0.578311,-0.562971,0.564505,-0.590583,0.575243,-0.559903
0.3361,0.016752,0.000000,-0.337335,0.337335,0.0000,0.0000,0.0000,-0.002360,-0.343612,0.340544,0.3766,0.4953,0.0900,0.000000,0.578311,-0.562971,0.564505,-0.590583,0.575243,-0.561437
0.3528,0.016746,0.000000,-0.336751,0.336751,0.0000,0.0000,0.0000,-0.002350,-0.343612,0.342078,0.4316,0.4816,0.1494,0.000000,0.579845,-0.562971,0.564505,-0.590583,0.575243,-0.561437
0.3696,0.016773,0.000000,-0.336165,0.336165,0.0000,0.0000,0.0000,-0.002339,-0.343612,0.340544,0.4366,0.5338,0.0894,0.000000,0.579845,-0.562971,0.564505,-0.592117,0.575243,-0.561437
0.3863,0.016745,0.000000,-0.335581,0.335581,0.0000,0.0000,0.0000,-0.002365,-0.343612,0.340544,0.4748,0.4952,0.2029,0.000000,0.579845,-0.562971,0.564505,-0.590583,0.575243,-0.559903
0.4031,0.016769,0.000000,-0.334996,0.334996,0.0000,0.0000,0.0000,-0.002349,-0.343612,0.340544,0.4213,0.4816,0.1376,0.000000,0.579845,-0.562971,0.564505,-0.590583,0.575243,-0.561437
0.4198,0.016744,0.000000,-0.334411,0.334411,0.0000,0.0000,0.0000,-0.002349,-0.343612,0.340544,0.4213,0.4816,0.1376,0.000000,0.579845,-0.562971,0.564505,-0.590583,0.575243,-0.561437
0.4366,0.016752,0.000000,-0.333826,0.333826,0.0000,0.0000,0.0000,-0.002351,-0.343612,0.340544,0.3879,0.5494,0.0368,0.000000,0.578311,-0.562971,0.564505,-0.592117,0.575243,-0.561437
0.4533,0.016741,0.000000,-0.333242,0.333242,0.0000,0.0000,0.0000,-0.002339,-0.343612,0.340544,0.4412,0.5267,0.1012,0.000000,0.579845,-0.562971,0.564505,-0.592117,0.575243,-0.561437
0.4701,0.016765,0.000000,-0.332657,0.332657,0.0000,0.0000,0.0000,-0.002340,-0.343612,0.340544,0.4356,0.5291,0.0945,0.000000,0.579845,-0.562971,0.564505,-0.592117,0.575243,-0.561437
0.4868,0.016747,0.000000,-0.332072,0.332072,0.0000,0.0000,0.0000,-0.002365,-0.343612,0.340544,0.4359,0.5621,0.0948,0.000000,0.578311,-0.562971,0.564505,-0.592117,0.575243,-0.559903
0.5036,0.016776,0.000000,-0.331487,0.331487,0.0000,0.0000,0.0000,-0.002365,-0.343612,0.340544,0.4359,0.5621,0.0948,0.000000,0.578311,-0.562971,0.564505,-0.592117,0.575243,-0.559903
0.5204,0.016742,0.000000,-0.330902,0.330902,0.0000,0.0000,0.0000,-0.002361,-0.343612,0.339010,0.3756,0.4903,0.0950,0.000000,0.578311,-0.562971,0.564505,-0.590583,0.575243,-0.561437
0.5371,0.016752,0.000000,-0.330317,0.330317,0.0000,0.0000,0.0000,-0.002338,-0.343612,0.337476,0.4425,0.5329,0.0951,0.000000,0.579845,-0.562971,0.564505,-0.592117,0.575243,-0.561437
0.5538,0.016743,0.000000,-0.329733,0.329733,0.0000,0.0000,0.0000,-0.002340,-0.343612,0.335942,0.4355,0.5285,0.0951,0.000000,0.579845,-0.562971,0.564505,-0.592117,0.575243,-0.561437
0.5706,0.016766,0.000000,-0.329148,0.329148,0.0000,0.0000,0.0000,-0.002352,-0.342078,0.335942,0.4254,0.4782,0.1488,0.000000,0.579845,-0.562971,0.564505,-0.590583,0.575243,-0.561437
0.5874,0.016743,0.000000,-0.328563,0.328563,0.0000,0.0000,0.0000,-0.002351,-0.340544,0.335942,0.3874,0.5498,0.0357,0.000000,0.578311,-0.562971,0.564505,-0.592117,0.575243,-0.561437
0.6041,0.016770,0.000000,-0.327978,0.327978,0.0000,0.0000,0.0000,-0.002351,-0.340544,0.335942,0.3874,0.5498,0.0357,0.000000,0.578311,-0.562971,0.564505,-0.592117,0.575243,-0.561437
0.6209,0.016752,0.000000,-0.327393,0.327393,0.0000,0.0000,0.0000,-0.002362,-0.340544,0.335942,0.3806,0.4916,0.1012,0.000000,0.578311,-0.562971,0.564505,-0.590583,0.575243,-0.561437
0.6376,0.016755,0.000000,-0.326808,0.326808,0.0000,0.0000,0.0000,-0.002349,-0.340544,0.335942,0.3921,0.5484,0.0406,0.000000,0.578311,-0.562971,0.564505,-0.592117,0.575243,-0.561437
0.6544,0.016742,0.000000,-0.326224,0.326224,0.0000,0.0000,0.0000,-0.002363,-0.340544,0.335942,0.3908,0.5116,0.2077,0.000000,0.579845,-0.561437,0.564505,-0.590583,0.575243,-0.561437
0.6712,0.016811,0.000000,-0.325637,0.325637,0.0000,0.0000,0.0000,-0.002349,-0.340544,0.335942,0.4301,0.4799,0.1371,0.000000,0.579845,-0.562971,0.564505,-0.590583,0.575243,-0.561437
0.6879,0.016745,0.000000,-0.325053,0.325053,0.0000,0.0000,0.0000,-0.002339,-0.340544,0.335942,0.4368,0.5340,0.0907,0.000000,0.579845,-0.562971,0.564505,-0.592117,0.575243,-0.561437
0.7047,0.016768,0.000000,-0.324467,0.324467,0.0000,0.0000,0.0000,-0.002339,-0.340544,0.335942,0.4368,0.5340,0.0907,0.000000,0.579845,-0.562971,0.564505,-0.592117,0.575243,-0.561437
0.7214,0.016750,0.000000,-0.323883,0.323883,0.0000,0.0000,0.0000,-0.002352,-0.340544,0.335942,0.3863,0.5439,0.0417,0.000000,0.578311,-0.562971,0.564505,-0.592117,0.575243,-0.561437
0.7382,0.016754,0.000000,-0.323298,0.323298,0.0000,0.0000,0.0000,-0.002362,-0.340544,0.335942,0.3808,0.4922,0.1006,0.000000,0.578311,-0.562971,0.564505,-0.590583,0.575243,-0.561437
0.7549,0.016744,0.000000,-0.322713,0.322713,0.0000,0.0000,0.0000,-0.002374,-0.340544,0.335942,0.4309,0.5151,0.1479,0.000000,0.578311,-0.562971,0.564505,-0.590583,0.575243,-0.559903
0.7717,0.016753,0.000000,-0.322128,0.322128,0.0000,0.0000,0.0000,-0.002348,-0.340544,0.335942,0.3869,0.5459,0.0358,0.000000,0.578311,-0.562971,0.564505,-0.592117,0.575243,-0.561437
0.7885,0.016827,0.000000,-0.321541,0.321541,0.0000,0.0000,0.0000,-0.002351,-0.339010,0.335942,0.3915,0.5427,0.0475,0.000000,0.578311,-0.562971,0.564505,-0.592117,0.575243,-0.561437
0.8053,0.016768,0.000000,-0.320956,0.320956,0.0000,0.0000,0.0000,-0.002351,-0.339010,0.335942,0.3915,0.5427,0.0475,0.000000,0.578311,-0.562971,0.564505,-0.592117,0.575243,-0.561437
0.8220,0.016743,0.000000,-0.320371,0.320371,0.0000,0.0000,0.0000,-0.002352,-0.339010,0.335942,0.4903,0.5451,0.1536,0.000000,0.579845,-0.562971,0.564505,-0.592117,0.575243,-0.559903
0.8388,0.016751,0.000000,-0.319787,0.319787,0.0000,0.0000,0.0000,-0.002375,-0.339010,0.335942,0.4195,0.5096,0.1424,0.000000,0.578311,-0.562971,0.564505,-0.590583,0.575243,-0.559903
0.8555,0.016744,0.000000,-0.319202,0.319202,0.0000,0.0000,0.0000,-0.002360,-0.335942,0.335942,0.3773,0.4957,0.0901,0.000000,0.578311,-0.562971,0.564505,-0.590583,0.575243,-0.561437
0.8723,0.016759,0.000000,-0.318617,0.318617,0.0000,0.0000,0.0000,-0.002350,-0.329806,0.335942,0.4315,0.4815,0.1493,0.000000,0.579845,-0.562971,0.564505,-0.590583,0.575243,-0.561437
0.8890,0.016746,0.000000,-0.318033,0.318033,0.0000,0.0000,0.0000,-0.002351,-0.322136,0.334408,0.4259,0.4830,0.1432,0.000000,0.579845,-0.562971,0.564505,-0.590583,0.575243,-0.561437
0.9058,0.016755,0.000000,-0.317448,0.317448,0.0000,0.0000,0.0000,-0.002351,-0.322136,0.334408,0.4259,0.4830,0.1432,0.000000,0.579845,-0.562971,0.564505,-0.590583,0.575243,-0.561437
0.9225,0.016743,0.000000,-0.316863,0.316863,0.0000,0.0000,0.0000,-0.002362,-0.322136,0.332874,0.3767,0.4985,0.0900,0.000000,0.578311,-0.562971,0.564505,-0.590583,0.575243,-0.561437
0.9393,0.016752,0.000000,-0.316279,0.316279,0.0000,0.0000,0.0000,-0.002361,-0.320602,0.331340,0.3818,0.4969,0.0955,0.000000,0.578311,-0.562971,0.564505,-0.590583,0.575243,-0.561437
0.9562,0.016863,0.000000,-0.315690,0.315690,0.0000,0.0000,0.0000,-0.002350,-0.320602,0.329806,0.3920,0.5478,0.0412,0.000000,0.578311,-0.562971,0.564505,-0.592117,0.575243,-0.561437
0.9729,0.016758,0.000000,-0.315105,0.315105,0.0000,0.0000,0.0000,-0.002351,-0.319068,0.323670,0.4300,0.4761,0.1544,0.000000,0.579845,-0.562971,0.564505,-0.590583,0.575243,-0.561437
0.9898,0.016863,0.000000,-0.314516,0.314516,0.0000,0.0000,0.0000,-0.002350,-0.319068,0.320602,0.4260,0.4836,0.1426,0.000000,0.579845,-0.562971,0.564505,-0.590583,0.575243,-0.561437
1.0065,0.016757,0.000000,-0.313931,0.313931,0.0000,0.0000,0.0000,-0.002350,-0.319068,0.320602,0.4260,0.4836,0.1426,0.000000,0.579845,-0.562971,0.564505,-0.590583,0.575243,-0.561437
1.0233,0.016752,0.000000,-0.313347,0.313347,0.0000,0.0000,0.0000,-0.002339,-0.319068,0.316000,0.4372,0.5336,0.0901,0.000000,0.579845,-0.562971,0.564505,-0.592117,0.575243,-0.561437
1.0400,0.016754,0.000000,-0.312762,0.312762,0.0000,0.0000,0.0000,-0.002363,-0.317534,0.316000,0.3755,0.4932,0.0955,0.000000,0.578311,-0.562971,0.564505,-0.590583,0.575243,-0.561437
1.0568,0.016741,0.000000,-0.312177,0.312177,0.0000,0.0000,0.0000,-0.002338,-0.319068,0.316000,0.4425,0.5326,0.0951,0.000000,0.579845,-0.562971,0.564505,-0.592117,0.575243,-0.561437
1.0735,0.016750,0.000000,-0.311593,0.311593,0.0000,0.0000,0.0000,-0.002352,-0.317534,0.314466,0.4247,0.4777,0.1488,0.000000,0.579845,-0.562971,0.564505,-0.590583,0.575243,-0.561437
1.0904,0.016871,0.000000,-0.311004,0.311004,0.0000,0.0000,0.0000,-0.002339,-0.317534,0.314466,0.4373,0.5342,0.0895,0.000000,0.579845,-0.562971,0.564505,-0.592117,0.575243,-0.561437
1.1072,0.016753,0.000000,-0.310419,0.310419,0.0000,0.0000,0.0000,-0.002339,-0.317534,0.314466,0.4373,0.5342,0.0895,0.000000,0.579845,-0.562971,0.564505,-0.592117,0.575243,-0.561437
1.1239,0.016750,0.000000,-0.309834,0.309834,0.0000,0.0000,0.0000,-0.002352,-0.317534,0.314466,0.4252,0.4776,0.1494,0.000000,0.579845,-0.562971,0.564505,-0.590583,0.575243,-0.561437
1.1406,0.016744,0.000000,-0.309250,0.309250,0.0000,0.0000,0.0000,-0.002350,-0.317534,0.314466,0.4265,0.4835,0.1432,0.000000,0.579845,-0.562971,0.564505,-0.590583,0.575243,-0.561437
1.1574,0.016740,0.000000,-0.308665,0.308665,0.0000,0.0000,0.0000,-0.002351,-0.317534,0.314466,0.3873,0.5492,0.0363,0.000000,0.578311,-0.562971,0.564505,-0.592117,0.575243,-0.561437
1.1741,0.016743,0.000000,-0.308081,0.308081,0.0000,0.0000,0.0000,-0.002350,-0.317534,0.314466,0.4305,0.4760,0.1550,0.000000,0.579845,-0.562971,0.564505,-0.590583,0.575243,-0.561437
1.1911,0.016948,0.000000,-0.307489,0.307489,0.0000,0.0000,0.0000,-0.002363,-0.317534,0.312932,0.3477,0.5855,0.0882,0.000000,0.578311,-0.561437,0.564505,-0.592117,0.575243,-0.561437
1.2078,0.016750,0.000000,-0.306905,0.306905,0.0000,0.0000,0.0000,-0.002363,-0.317534,0.312932,0.3477,0.5855,0.0882,0.000000,0.578311,-0.561437,0.564505,-0.592117,0.575243,-0.561437
1.2246,0.016746,0.000000,-0.306320,0.306320,0.0000,0.0000,0.0000,-0.002361,-0.317534,0.312932,0.3848,0.4878,0.0957,0.000000,0.578311,-0.562971,0.564505,-0.590583,0.575243,-0.561437
1.2413,0.016741,0.000000,-0.305736,0.305736,0.0000,0.0000,0.0000,-0.002350,-0.317534,0.312932,0.3917,0.5488,0.0412,0.000000,0.578311,-0.562971,0.564505,-0.592117,0.575243,-0.561437
1.2580,0.016710,0.000000,-0.305153,0.305153,0.0000,0.0000,0.0000,-0.002352,-0.317534,0.312932,0.4016,0.5623,0.1539,0.000000,0.579845,-0.561437,0.564505,-0.592117,0.575243,-0.561437
1.2748,0.016786,0.000000,-0.304567,0.304567,0.0000,0.0000,0.0000,-0.002375,-0.316000,0.312932,0.4287,0.5078,0.1424,0.000000,0.578311,-0.562971,0.564505,-0.590583,0.575243,-0.559903
1.2916,0.016753,0.000000,-0.303982,0.303982,0.0000,0.0000,0.0000,-0.002348,-0.314466,0.312932,0.4261,0.4803,0.1439,0.000000,0.579845,-0.562971,0.564505,-0.590583,0.575243,-0.561437
1.3083,0.016758,0.000000,-0.303397,0.303397,0.0000,0.0000,0.0000,-0.002348,-0.314466,0.312932,0.4261,0.4803,0.1439,0.000000,0.579845,-0.562971,0.564505,-0.590583,0.575243,-0.561437
1.3251,0.016746,0.000000,-0.302812,0.302812,0.0000,0.0000,0.0000,-0.002351,-0.312932,0.312932,0.4264,0.4832,0.1437,0.000000,0.579845,-0.562971,0.564505,-0.590583,0.575243,-0.561437
1.3418,0.016745,0.000000,-0.302228,0.302228,0.0000,0.0000,0.0000,-0.002350,-0.312932,0.312932,0.4264,0.4828,0.1438,0.000000,0.579845,-0.562971,0.564505,-0.590583,0.575243,-0.561437
1.3586,0.016752,0.000000,-0.301643,0.301643,0.0000,0.0000,0.0000,-0.002339,-0.312932,0.312932,0.4372,0.5337,0.0900,0.000000,0.579845,-0.562971,0.564505,-0.592117,0.575243,-0.561437
1.3753,0.016745,0.000000,-0.301059,0.301059,0.0000,0.0000,0.0000,-0.002352,-0.312932,0.311398,0.4253,0.4776,0.1493,0.000000,0.579845,-0.562971,0.564505,-0.590583,0.575243,-0.561437
1.3921,0.016750,0.000000,-0.300474,0.300474,0.0000,0.0000,0.0000,-0.002352,-0.312932,0.311398,0.4253,0.4776,0.1493,0.000000,0.579845,-0.562971,0.564505,-0.590583,0.575243,-0.561437
1.4088,0.016700,0.000000,-0.299891,0.299891,0.0000,0.0000,0.0000,-0.002352,-0.312932,0.311398,0.3981,0.5698,0.1426,0.000000,0.579845,-0.561437,0.564505,-0.592117,0.575243,-0.561437
1.4255,0.016745,0.000000,-0.299306,0.299306,0.0000,0.0000,0.0000,-0.002350,-0.312932,0.311398,0.4293,0.4738,0.1439,0.000000,0.579845,-0.562971,0.564505,-0.590583,0.575243,-0.561437
1.4422,0.016742,0.000000,-0.298722,0.298722,0.0000,0.0000,0.0000,-0.002350,-0.312932,0.309864,0.4261,0.4838,0.1437,0.000000,0.579845,-0.562971,0.564505,-0.590583,0.575243,-0.561437
1.4590,0.016745,0.000000,-0.298137,0.298137,0.0000,0.0000,0.0000,-0.002351,-0.312932,0.308330,0.3874,0.5492,0.0362,0.000000,0.578311,-0.562971,0.564505,-0.592117,0.575243,-0.561437
1.4759,0.016865,0.000000,-0.297549,0.297549,0.0000,0.0000,0.0000,-0.002339,-0.312932,0.308330,0.4412,0.5268,0.1012,0.000000,0.579845,-0.562971,0.564505,-0.592117,0.575243,-0.561437
1.4926,0.016758,0.000000,-0.296964,0.296964,0.0000,0.0000,0.0000,-0.002339,-0.312932,0.308330,0.4412,0.5268,0.1012,0.000000,0.579845,-0.562971,0.564505,-0.592117,0.575243,-0.561437
1.5094,0.016747,0.000000,-0.296379,0.296379,0.0000,0.0000,0.0000,-0.002340,-0.312932,0.308330,0.4356,0.5291,0.0945,0.000000,0.579845,-0.562971,0.564505,-0.592117,0.575243,-0.561437
1.5261,0.016746,0.000000,-0.295795,0.295795,0.0000,0.0000,0.0000,-0.002340,-0.312932,0.308330,0.4356,0.5291,0.0945,0.000000,0.579845,-0.562971,0.564505,-0.592117,0.575243,-0.561437
1.5428,0.016742,0.000000,-0.295210,0.295210,0.0000,0.0000,0.0000,-0.002365,-0.312932,0.308330,0.4359,0.5621,0.0948,0.000000,0.578311,-0.562971,0.564505,-0.592117,0.575243,-0.559903
1.5596,0.016747,0.000000,-0.294626,0.294626,0.0000,0.0000,0.0000,-0.002338,-0.312932,0.308330,0.4362,0.5254,0.0951,0.000000,0.579845,-0.562971,0.564505,-0.592117,0.575243,-0.561437
1.5766,0.017001,0.000000,-0.294032,0.294032,0.0000,0.0000,0.0000,-0.002352,-0.312932,0.308330,0.3863,0.5448,0.0413,0.000000,0.578311,-0.562971,0.564505,-0.592117,0.575243,-0.561437
1.5933,0.016754,0.000000,-0.293447,0.293447,0.0000,0.0000,0.0000,-0.002352,-0.312932,0.308330,0.3863,0.5448,0.0413,0.000000,0.578311,-0.562971,0.564505,-0.592117,0.575243,-0.561437
1.6101,0.016746,0.000000,-0.292863,0.292863,0.0000,0.0000,0.0000,-0.002362,-0.312932,0.308330,0.3808,0.4921,0.1006,0.000000,0.578311,-0.562971,0.564505,-0.590583,0.575243,-0.561437
1.6268,0.016747,0.000000,-0.292278,0.292278,0.0000,0.0000,0.0000,-0.002361,-0.312932,0.308330,0.3814,0.4976,0.0944,0.000000,0.578311,-0.562971,0.564505,-0.590583,0.575243,-0.561437
1.6436,0.016743,0.000000,-0.291694,0.291694,0.0000,0.0000,0.0000,-0.002361,-0.311398,0.308330,0.3814,0.4976,0.0944,0.000000,0.578311,-0.562971,0.564505,-0.590583,0.575243,-0.561437
1.6603,0.016748,0.000000,-0.291109,0.291109,0.0000,0.0000,0.0000,-0.002349,-0.311398,0.308330,0.4311,0.4814,0.1489,0.000000,0.579845,-0.562971,0.564505,-0.590583,0.575243,-0.561437
1.6771,0.016752,0.000000,-0.290524,0.290524,0.0000,0.0000,0.0000,-0.002351,-0.311398,0.306796,0.3869,0.5494,0.0357,0.000000,0.578311,-0.562971,0.564505,-0.592117,0.575243,-0.561437
1.6938,0.016746,0.000000,-0.289940,0.289940,0.0000,0.0000,0.0000,-0.002351,-0.311398,0.306796,0.3869,0.5494,0.0357,0.000000,0.578311,-0.562971,0.564505,-0.592117,0.575243,-0.561437
1.7106,0.016748,0.000000,-0.289355,0.289355,0.0000,0.0000,0.0000,-0.002350,-0.308330,0.305262,0.4305,0.4760,0.1550,0.000000,0.579845,-0.562971,0.564505,-0.590583,0.575243,-0.561437
1.7273,0.016744,0.000000,-0.288771,0.288771,0.0000,0.0000,0.0000,-0.002362,-0.302194,0.302194,0.3762,0.4992,0.0888,0.000000,0.578311,-0.562971,0.564505,-0.590583,0.575243,-0.561437
1.7441,0.016747,0.000000,-0.288186,0.288186,0.0000,0.0000,0.0000,-0.002338,-0.296058,0.299126,0.4424,0.5320,0.0958,0.000000,0.579845,-0.562971,0.564505,-0.592117,0.575243,-0.561437
1.7609,0.016845,0.000000,-0.287598,0.287598,0.0000,0.0000,0.0000,-0.002376,-0.289922,0.294524,0.4245,0.5110,0.1484,0.000000,0.578311,-0.562971,0.564505,-0.590583,0.575243,-0.559903
1.7777,0.016747,0.000000,-0.287014,0.287014,0.0000,0.0000,0.0000,-0.002348,-0.289922,0.292990,0.4266,0.4800,0.1433,0.000000,0.579845,-0.562971,0.564505,-0.590583,0.575243,-0.561437
1.7944,0.016743,0.000000,-0.286429,0.286429,0.0000,0.0000,0.0000,-0.002348,-0.289922,0.292990,0.4266,0.4800,0.1433,0.000000,0.579845,-0.562971,0.564505,-0.590583,0.575243,-0.561437
1.8112,0.016746,0.000000,-0.285845,0.285845,0.0000,0.0000,0.0000,-0.002364,-0.289922,0.291456,0.4759,0.5008,0.1973,0.000000,0.579845,-0.562971,0.564505,-0.590583,0.575243,-0.559903
1.8279,0.016746,0.000000,-0.285260,0.285260,0.0000,0.0000,0.0000,-0.002349,-0.288388,0.288388,0.3822,0.5474,0.0306,0.000000,0.578311,-0.562971,0.564505,-0.592117,0.575243,-0.561437
1.8446,0.016742,0.000000,-0.284676,0.284676,0.0000,0.0000,0.0000,-0.002375,-0.288388,0.288388,0.3420,0.5273,0.1549,0.000000,0.578311,-0.561437,0.564505,-0.590583,0.575243,-0.561437
1.8614,0.016743,0.000000,-0.284091,0.284091,0.0000,0.0000,0.0000,-0.002336,-0.288388,0.286854,0.4460,0.5291,0.0889,0.000000,0.579845,-0.562971,0.564505,-0.592117,0.575243,-0.561437
1.8781,0.016748,0.000000,-0.283507,0.283507,0.0000,0.0000,0.0000,-0.002354,-0.288388,0.286854,0.4846,0.5465,0.1492,0.000000,0.579845,-0.562971,0.564505,-0.592117,0.575243,-0.559903
1.8949,0.016758,0.000000,-0.282922,0.282922,0.0000,0.0000,0.0000,-0.002354,-0.288388,0.286854,0.4846,0.5465,0.1492,0.000000,0.579845,-0.562971,0.564505,-0.592117,0.575243,-0.559903
1.9116,0.016743,0.000000,-0.282337,0.282337,0.0000,0.0000,0.0000,-0.002350,-0.288388,0.286854,0.4203,0.4763,0.1432,0.000000,0.579845,-0.562971,0.564505,-0.590583,0.575243,-0.561437
1.9284,0.016743,0.000000,-0.281753,0.281753,0.0000,0.0000,0.0000,-0.002375,-0.286854,0.286854,0.4268,0.5168,0.1435,0.000000,0.578311,-0.562971,0.564505,-0.590583,0.575243,-0.559903
1.9453,0.016900,0.000000,-0.281163,0.281163,0.0000,0.0000,0.0000,-0.002360,-0.286854,0.286854,0.3765,0.4950,0.0900,0.000000,0.578311,-0.562971,0.564505,-0.590583,0.575243,-0.561437
1.9620,0.016757,0.000000,-0.280578,0.280578,0.0000,0.0000,0.0000,-0.002350,-0.286854,0.286854,0.4316,0.4816,0.1494,0.000000,0.579845,-0.562971,0.564505,-0.590583,0.575243,-0.561437
1.9788,0.016771,0.000000,-0.279993,0.279993,0.0000,0.0000,0.0000,-0.002351,-0.286854,0.286854,0.4258,0.4830,0.1432,0.000000,0.579845,-0.562971,0.564505,-0.590583,0.575243,-0.561437
1.9956,0.016747,0.000000,-0.279408,0.279408,0.0000,0.0000,0.0000,-0.002351,-0.286854,0.286854,0.4258,0.4830,0.1432,0.000000,0.579845,-0.562971,0.564505,-0.590583,0.575243,-0.561437
2.0123,0.016741,0.000000,-0.278824,0.278824,0.0000,0.0000,0.0000,-0.002362,-0.286854,0.285320,0.3767,0.4985,0.0900,0.000000,0.578311,-0.562971,0.564505,-0.590583,0.575243,-0.561437
2.0290,0.016749,0.000000,-0.278239,0.278239,0.0000,0.0000,0.0000,-0.002349,-0.286854,0.285320,0.3925,0.5477,0.0418,0.000000,0.578311,-0.562971,0.564505,-0.592117,0.575243,-0.561437
2.0458,0.016745,0.000000,-0.277654,0.277654,0.0000,0.0000,0.0000,-0.002362,-0.286854,0.285320,0.3801,0.4918,0.1006,0.000000,0.578311,-0.562971,0.564505,-0.590583,0.575243,-0.561437
2.0625,0.016745,0.000000,-0.277070,0.277070,0.0000,0.0000,0.0000,-0.002349,-0.285320,0.283786,0.4312,0.4820,0.1483,0.000000,0.579845,-0.562971,0.564505,-0.590583,0.575243,-0.561437
2.0793,0.016745,0.000000,-0.276485,0.276485,0.0000,0.0000,0.0000,-0.002362,-0.283786,0.283786,0.3761,0.4986,0.0895,0.000000,0.578311,-0.562971,0.564505,-0.590583,0.575243,-0.561437
2.0960,0.016748,0.000000,-0.275901,0.275901,0.0000,0.0000,0.0000,-0.002362,-0.283786,0.283786,0.3761,0.4986,0.0895,0.000000,0.578311,-0.562971,0.564505,-0.590583,0.575243,-0.561437
2.1128,0.016748,0.000000,-0.275316,0.275316,0.0000,0.0000,0.0000,-0.002349,-0.283786,0.283786,0.4316,0.4812,0.1494,0.000000,0.579845,-0.562971,0.564505,-0.590583,0.575243,-0.561437
2.1295,0.016754,0.000000,-0.274731,0.274731,0.0000,0.0000,0.0000,-0.002339,-0.283786,0.282252,0.4366,0.5339,0.0894,0.000000,0.579845,-0.562971,0.564505,-0.592117,0.575243,-0.561437
2.1463,0.016733,0.000000,-0.274147,0.274147,0.0000,0.0000,0.0000,-0.002352,-0.283786,0.282252,0.3863,0.5440,0.0419,0.000000,0.578311,-0.562971,0.564505,-0.592117,0.575243,-0.561437
2.1632,0.016928,0.000000,-0.273556,0.273556,0.0000,0.0000,0.0000,-0.002362,-0.283786,0.282252,0.3808,0.4922,0.1006,0.000000,0.578311,-0.562971,0.564505,-0.590583,0.575243,-0.561437
2.1799,0.016746,0.000000,-0.272972,0.272972,0.0000,0.0000,0.0000,-0.002362,-0.283786,0.282252,0.3808,0.4922,0.1006,0.000000,0.578311,-0.562971,0.564505,-0.590583,0.575243,-0.561437
2.1967,0.016759,0.000000,-0.272387,0.272387,0.0000,0.0000,0.0000,-0.002349,-0.283786,0.282252,0.4312,0.4819,0.1483,0.000000,0.579845,-0.562971,0.564505,-0.590583,0.575243,-0.561437
2.2134,0.016743,0.000000,-0.271802,0.271802,0.0000,0.0000,0.0000,-0.002351,-0.283786,0.282252,0.4259,0.4830,0.1433,0.000000,0.579845,-0.562971,0.564505,-0.590583,0.575243,-0.561437
2.2302,0.016745,0.000000,-0.271218,0.271218,0.0000,0.0000,0.0000,-0.002351,-0.283786,0.282252,0.4259,0.4830,0.1433,0.000000,0.579845,-0.562971,0.564505,-0.590583,0.575243,-0.561437
2.2469,0.016745,0.000000,-0.270633,0.270633,0.0000,0.0000,0.0000,-0.002351,-0.283786,0.282252,0.4259,0.4830,0.1433,0.000000,0.579845,-0.562971,0.564505,-0.590583,0.575243,-0.561437
2.2641,0.017163,0.000000,-0.270034,0.270034,0.0000,0.0000,0.0000,-0.002351,-0.283786,0.282252,0.4259,0.4830,0.1433,0.000000,0.579845,-0.562971,0.564505,-0.590583,0.575243,-0.559903
2.2808,0.016718,0.000000,-0.269451,0.269451,0.0000,0.0000,0.0000,-0.002364,-0.283786,0.282252,0.4760,0.5005,0.1973,0.000000,0.579845,-0.562971,0.564505,-0.590583,0.575243,-0.559903
2.2976,0.016751,0.000000,-0.268866,0.268866,0.0000,0.0000,0.0000,-0.002349,-0.282252,0.282252,0.3822,0.5474,0.0306,0.000000,0.578311,-0.562971,0.564505,-0.592117,0.575243,-0.561437
2.3143,0.016741,0.000000,-0.268282,0.268282,0.0000,0.0000,0.0000,-0.002351,-0.283786,0.282252,0.3920,0.5426,0.0480,0.000000,0.578311,-0.562971,0.564505,-0.592117,0.575243,-0.561437
2.3311,0.016756,0.000000,-0.267697,0.267697,0.0000,0.0000,0.0000,-0.002350,-0.282252,0.282252,0.4300,0.4767,0.1537,0.000000,0.579845,-0.562971,0.564505,-0.590583,0.575243,-0.561437
2.3481,0.017038,0.000000,-0.267102,0.267102,0.0000,0.0000,0.0000,-0.002350,-0.282252,0.282252,0.4260,0.4835,0.1427,0.000000,0.579845,-0.562971,0.564505,-0.590583,0.575243,-0.561437
2.3649,0.016758,0.000000,-0.266517,0.266517,0.0000,0.0000,0.0000,-0.002339,-0.282252,0.282252,0.4372,0.5336,0.0901,0.000000,0.579845,-0.562971,0.564505,-0.592117,0.575243,-0.561437
2.3816,0.016747,0.000000,-0.265932,0.265932,0.0000,0.0000,0.0000,-0.002339,-0.282252,0.282252,0.4372,0.5336,0.0901,0.000000,0.579845,-0.562971,0.564505,-0.592117,0.575243,-0.561437
2.3984,0.016760,0.000000,-0.265347,0.265347,0.0000,0.0000,0.0000,-0.002352,-0.282252,0.282252,0.4253,0.4776,0.1493,0.000000,0.579845,-0.562971,0.564505,-0.590583,0.575243,-0.561437
2.4151,0.016743,0.000000,-0.264763,0.264763,0.0000,0.0000,0.0000,-0.002351,-0.282252,0.282252,0.3875,0.5498,0.0356,0.000000,0.578311,-0.562971,0.564505,-0.592117,0.575243,-0.561437
2.4319,0.016750,0.000000,-0.264178,0.264178,0.0000,0.0000,0.0000,-0.002339,-0.282252,0.282252,0.4412,0.5267,0.1013,0.000000,0.579845,-0.562971,0.564505,-0.592117,0.575243,-0.561437
2.4486,0.016753,0.000000,-0.263593,0.263593,0.0000,0.0000,0.0000,-0.002365,-0.282252,0.280718,0.3856,0.5139,0.2014,0.000000,0.579845,-0.561437,0.564505,-0.590583,0.575243,-0.561437
2.4658,0.017226,0.000000,-0.262992,0.262992,0.0000,0.0000,0.0000,-0.002349,-0.280718,0.279185,0.4307,0.4797,0.1377,0.000000,0.579845,-0.562971,0.564505,-0.590583,0.575243,-0.561437
2.4826,0.016753,0.000000,-0.262407,0.262407,0.0000,0.0000,0.0000,-0.002349,-0.280718,0.279185,0.4307,0.4797,0.1377,0.000000,0.579845,-0.562971,0.564505,-0.590583,0.575243,-0.561437
2.4993,0.016756,0.000000,-0.261822,0.261822,0.0000,0.0000,0.0000,-0.002364,-0.277651,0.277651,0.4755,0.5009,0.1978,0.000000,0.579845,-0.562971,0.564505,-0.590583,0.575243,-0.559903
2.5161,0.016750,0.000000,-0.261238,0.261238,0.0000,0.0000,0.0000,-0.002361,-0.269981,0.274583,0.3715,0.4966,0.0843,0.000000,0.578311,-0.562971,0.564505,-0.590583,0.575243,-0.561437
2.5329,0.016765,0.000000,-0.260653,0.260653,0.0000,0.0000,0.0000,-0.002349,-0.263845,0.271515,0.4321,0.4814,0.1500,0.000000,0.579845,-0.562971,0.564505,-0.590583,0.575243,-0.561437
2.5496,0.016744,0.000000,-0.260068,0.260068,0.0000,0.0000,0.0000,-0.002364,-0.262311,0.265379,0.3476,0.5849,0.0887,0.000000,0.578311,-0.561437,0.564505,-0.592117,0.575243,-0.561437
2.5664,0.016768,0.000000,-0.259483,0.259483,0.0000,0.0000,0.0000,-0.002364,-0.262311,0.265379,0.3476,0.5849,0.0887,0.000000,0.578311,-0.561437,0.564505,-0.592117,0.575243,-0.561437
2.5831,0.016719,0.000000,-0.258899,0.258899,0.0000,0.0000,0.0000,-0.002362,-0.262311,0.262311,0.3954,0.5078,0.2027,0.000000,0.579845,-0.561437,0.564505,-0.590583,0.575243,-0.561437
2.5998,0.016754,0.000000,-0.258314,0.258314,0.0000,0.0000,0.0000,-0.002349,-0.262311,0.259243,0.3906,0.5467,0.0301,0.000000,0.578311,-0.562971,0.564505,-0.592117,0.575243,-0.561437
2.6166,0.016745,0.000000,-0.257730,0.257730,0.0000,0.0000,0.0000,-0.002351,-0.262311,0.259243,0.3911,0.5426,0.0480,0.000000,0.578311,-0.562971,0.564505,-0.592117,0.575243,-0.561437
2.6333,0.016756,0.000000,-0.257145,0.257145,0.0000,0.0000,0.0000,-0.002339,-0.262311,0.259243,0.4409,0.5274,0.1000,0.000000,0.579845,-0.562971,0.564505,-0.592117,0.575243,-0.561437
2.6501,0.016740,0.000000,-0.256561,0.256561,0.0000,0.0000,0.0000,-0.002365,-0.260777,0.259243,0.4354,0.5623,0.0943,0.000000,0.578311,-0.562971,0.564505,-0.592117,0.575243,-0.559903
2.6668,0.016755,0.000000,-0.255976,0.255976,0.0000,0.0000,0.0000,-0.002365,-0.260777,0.259243,0.4354,0.5623,0.0943,0.000000,0.578311,-0.562971,0.564505,-0.592117,0.575243,-0.559903
2.6836,0.016742,0.000000,-0.255391,0.255391,0.0000,0.0000,0.0000,-0.002349,-0.260777,0.259243,0.4255,0.4746,0.1489,0.000000,0.579845,-0.562971,0.564505,-0.590583,0.575243,-0.561437
2.7003,0.016750,0.000000,-0.254807,0.254807,0.0000,0.0000,0.0000,-0.002362,-0.260777,0.257709,0.3767,0.4994,0.0894,0.000000,0.578311,-0.562971,0.564505,-0.590583,0.575243,-0.561437
2.7171,0.016739,0.000000,-0.254222,0.254222,0.0000,0.0000,0.0000,-0.002349,-0.260777,0.257709,0.4316,0.4812,0.1494,0.000000,0.579845,-0.562971,0.564505,-0.590583,0.575243,-0.561437
2.7338,0.016757,0.000000,-0.253637,0.253637,0.0000,0.0000,0.0000,-0.002362,-0.260777,0.256175,0.3761,0.4987,0.0894,0.000000,0.578311,-0.562971,0.564505,-0.590583,0.575243,-0.561437
2.7506,0.016744,0.000000,-0.253053,0.253053,0.0000,0.0000,0.0000,-0.002349,-0.260777,0.256175,0.3926,0.5477,0.0419,0.000000,0.578311,-0.562971,0.564505,-0.592117,0.575243,-0.561437
2.7673,0.016752,0.000000,-0.252468,0.252468,0.0000,0.0000,0.0000,-0.002349,-0.260777,0.256175,0.3926,0.5477,0.0419,0.000000,0.578311,-0.562971,0.564505,-0.592117,0.575243,-0.561437
2.7841,0.016741,0.000000,-0.251884,0.251884,0.0000,0.0000,0.0000,-0.002351,-0.260777,0.256175,0.3909,0.5425,0.0468,0.000000,0.578311,-0.562971,0.564505,-0.592117,0.575243,-0.561437
2.8008,0.016748,0.000000,-0.251299,0.251299,0.0000,0.0000,0.0000,-0.002362,-0.260777,0.256175,0.3803,0.4923,0.1000,0.000000,0.578311,-0.562971,0.564505,-0.590583,0.575243,-0.561437
2.8176,0.016743,0.000000,-0.250715,0.250715,0.0000,0.0000,0.0000,-0.002349,-0.260777,0.254641,0.4312,0.4819,0.1483,0.000000,0.579845,-0.562971,0.564505,-0.590583,0.575243,-0.561437
2.8343,0.016750,0.000000,-0.250130,0.250130,0.0000,0.0000,0.0000,-0.002351,-0.259243,0.256175,0.4259,0.4830,0.1433,0.000000,0.579845,-0.562971,0.564505,-0.590583,0.575243,-0.561437
2.8510,0.016744,0.000000,-0.249546,0.249546,0.0000,0.0000,0.0000,-0.002351,-0.259243,0.254641,0.4259,0.4830,0.1433,0.000000,0.579845,-0.562971,0.564505,-0.590583,0.575243,-0.561437
2.8678,0.016757,0.000000,-0.248961,0.248961,0.0000,0.0000,0.0000,-0.002351,-0.259243,0.254641,0.4259,0.4830,0.1433,0.000000,0.579845,-0.562971,0.564505,-0.590583,0.575243,-0.561437
2.8845,0.016742,0.000000,-0.248376,0.248376,0.0000,0.0000,0.0000,-0.002352,-0.259243,0.254641,0.4867,0.5513,0.1436,0.000000,0.579845,-0.562971,0.564505,-0.592117,0.575243,-0.559903
2.9013,0.016750,0.000000,-0.247792,0.247792,0.0000,0.0000,0.0000,-0.002339,-0.256175,0.254641,0.4309,0.5265,0.0900,0.000000,0.579845,-0.562971,0.564505,-0.592117,0.575243,-0.561437
2.9180,0.016740,0.000000,-0.247207,0.247207,0.0000,0.0000,0.0000,-0.002365,-0.256175,0.256175,0.3477,0.5802,0.0950,0.000000,0.578311,-0.561437,0.564505,-0.592117,0.575243,-0.561437
2.9348,0.016750,0.000000,-0.246623,0.246623,0.0000,0.0000,0.0000,-0.002361,-0.256175,0.254641,0.3848,0.4884,0.0950,0.000000,0.578311,-0.562971,0.564505,-0.590583,0.575243,-0.561437
2.9515,0.016749,0.000000,-0.246038,0.246038,0.0000,0.0000,0.0000,-0.002361,-0.256175,0.254641,0.3809,0.4979,0.0950,0.000000,0.578311,-0.562971,0.564505,-0.590583,0.575243,-0.561437
2.9683,0.016752,0.000000,-0.245453,0.245453,0.0000,0.0000,0.0000,-0.002361,-0.256175,0.254641,0.3809,0.4979,0.0950,0.000000,0.578311,-0.562971,0.564505,-0.590583,0.575243,-0.561437
2.9850,0.016741,0.000000,-0.244869,0.244869,0.0000,0.0000,0.0000,-0.002350,-0.256175,0.254641,0.3921,0.5477,0.0413,0.000000,0.578311,-0.562971,0.564505,-0.592117,0.575243,-0.561437
3.0018,0.016755,0.000000,-0.244284,0.244284,0.0000,0.0000,0.0000,-0.002362,-0.256175,0.254641,0.3802,0.4918,0.1006,0.000000,0.578311,-0.562971,0.564505,-0.590583,0.575243,-0.561437
3.0185,0.016740,0.000000,-0.243700,0.243700,0.0000,0.0000,0.0000,-0.002349,-0.256175,0.256175,0.3922,0.5484,0.0407,0.000000,0.578311,-0.562971,0.564505,-0.592117,0.575243,-0.561437
3.0353,0.016749,0.000000,-0.243115,0.243115,0.0000,0.0000,0.0000,-0.002362,-0.256175,0.254641,0.3802,0.4917,0.1007,0.000000,0.578311,-0.562971,0.564505,-0.590583,0.575243,-0.561437
3.0520,0.016762,0.000000,-0.242530,0.242530,0.0000,0.0000,0.0000,-0.002374,-0.256175,0.254641,0.4310,0.5152,0.1479,0.000000,0.578311,-0.562971,0.564505,-0.590583,0.575243,-0.559903
3.0688,0.016777,0.000000,-0.241944,0.241944,0.0000,0.0000,0.0000,-0.002374,-0.256175,0.254641,0.4310,0.5152,0.1479,0.000000,0.578311,-0.562971,0.564505,-0.590583,0.575243,-0.559903
3.0856,0.016743,0.000000,-0.241360,0.241360,0.0000,0.0000,0.0000,-0.002348,-0.256175,0.254641,0.4259,0.4795,0.1433,0.000000,0.579845,-0.562971,0.564505,-0.590583,0.575243,-0.561437
3.1025,0.016904,0.000000,-0.240770,0.240770,0.0000,0.0000,0.0000,-0.002364,-0.256175,0.254641,0.4760,0.5009,0.1973,0.000000,0.579845,-0.562971,0.564505,-0.590583,0.575243,-0.559903
3.1192,0.016742,0.000000,-0.240185,0.240185,0.0000,0.0000,0.0000,-0.002350,-0.256175,0.254641,0.3928,0.5673,0.1376,0.000000,0.579845,-0.561437,0.564505,-0.592117,0.575243,-0.561437
3.1359,0.016749,0.000000,-0.239601,0.239601,0.0000,0.0000,0.0000,-0.002351,-0.256175,0.254641,0.3909,0.5405,0.0368,0.000000,0.578311,-0.562971,0.564505,-0.592117,0.575243,-0.561437
3.1527,0.016765,0.000000,-0.239015,0.239015,0.0000,0.0000,0.0000,-0.002352,-0.254641,0.253107,0.4904,0.5453,0.1547,0.000000,0.579845,-0.562971,0.564505,-0.592117,0.575243,-0.559903
3.1695,0.016752,0.000000,-0.238431,0.238431,0.0000,0.0000,0.0000,-0.002352,-0.254641,0.253107,0.4904,0.5453,0.1547,0.000000,0.579845,-0.562971,0.564505,-0.592117,0.575243,-0.559903
3.1862,0.016745,0.000000,-0.237846,0.237846,0.0000,0.0000,0.0000,-0.002362,-0.254641,0.253107,0.3699,0.4920,0.0888,0.000000,0.578311,-0.562971,0.564505,-0.590583,0.575243,-0.561437
3.2030,0.016748,0.000000,-0.237262,0.237262,0.0000,0.0000,0.0000,-0.002349,-0.251573,0.253107,0.4323,0.4819,0.1495,0.000000,0.579845,-0.562971,0.564505,-0.590583,0.575243,-0.561437
3.2197,0.016741,0.000000,-0.236677,0.236677,0.0000,0.0000,0.0000,-0.002362,-0.243903,0.251573,0.3760,0.4986,0.0894,0.000000,0.578311,-0.562971,0.564505,-0.590583,0.575243,-0.561437
3.2365,0.016777,0.000000,-0.236092,0.236092,0.0000,0.0000,0.0000,-0.002362,-0.237767,0.248505,0.3924,0.5167,0.2026,0.000000,0.579845,-0.561437,0.564505,-0.590583,0.575243,-0.561437
3.2532,0.016743,0.000000,-0.235507,0.235507,0.0000,0.0000,0.0000,-0.002362,-0.237767,0.248505,0.3924,0.5167,0.2026,0.000000,0.579845,-0.561437,0.564505,-0.590583,0.575243,-0.561437
3.2700,0.016755,0.000000,-0.234922,0.234922,0.0000,0.0000,0.0000,-0.002349,-0.237767,0.243903,0.4300,0.4794,0.1376,0.000000,0.579845,-0.562971,0.564505,-0.590583,0.575243,-0.561437
3.2867,0.016744,0.000000,-0.234338,0.234338,0.0000,0.0000,0.0000,-0.002351,-0.239301,0.240835,0.4260,0.4833,0.1444,0.000000,0.579845,-0.562971,0.564505,-0.590583,0.575243,-0.561437
3.3035,0.016752,0.000000,-0.233753,0.233753,0.0000,0.0000,0.0000,-0.002351,-0.236233,0.237767,0.4260,0.4833,0.1444,0.000000,0.579845,-0.562971,0.564505,-0.590583,0.575243,-0.561437
3.3202,0.016747,0.000000,-0.233168,0.233168,0.0000,0.0000,0.0000,-0.002351,-0.236233,0.236233,0.4260,0.4833,0.1444,0.000000,0.579845,-0.562971,0.564505,-0.590583,0.575243,-0.561437
3.3372,0.017003,0.000000,-0.232575,0.232575,0.0000,0.0000,0.0000,-0.002351,-0.234699,0.234699,0.3874,0.5492,0.0361,0.000000,0.578311,-0.562971,0.564505,-0.592117,0.575243,-0.561437
3.3540,0.016772,0.000000,-0.231989,0.231989,0.0000,0.0000,0.0000,-0.002351,-0.234699,0.234699,0.3874,0.5492,0.0361,0.000000,0.578311,-0.562971,0.564505,-0.592117,0.575243,-0.561437
3.3707,0.016748,0.000000,-0.231405,0.231405,0.0000,0.0000,0.0000,-0.002350,-0.234699,0.233165,0.4305,0.4760,0.1550,0.000000,0.579845,-0.562971,0.564505,-0.590583,0.575243,-0.561437
3.3875,0.016773,0.000000,-0.230819,0.230819,0.0000,0.0000,0.0000,-0.002339,-0.236233,0.233165,0.4367,0.5344,0.0889,0.000000,0.579845,-0.562971,0.564505,-0.592117,0.575243,-0.561437
3.4043,0.016787,0.000000,-0.230233,0.230233,0.0000,0.0000,0.0000,-0.002352,-0.234699,0.233165,0.4253,0.4775,0.1495,0.000000,0.579845,-0.562971,0.564505,-0.590583,0.575243,-0.561437
3.4210,0.016744,0.000000,-0.229649,0.229649,0.0000,0.0000,0.0000,-0.002339,-0.233165,0.233165,0.4373,0.5343,0.0894,0.000000,0.579845,-0.562971,0.564505,-0.592117,0.575243,-0.561437
3.4379,0.016837,0.000000,-0.229061,0.229061,0.0000,0.0000,0.0000,-0.002352,-0.233165,0.233165,0.3862,0.5439,0.0419,0.000000,0.578311,-0.562971,0.564505,-0.592117,0.575243,-0.561437
3.4546,0.016742,0.000000,-0.228477,0.228477,0.0000,0.0000,0.0000,-0.002352,-0.233165,0.233165,0.3862,0.5439,0.0419,0.000000,0.578311,-0.562971,0.564505,-0.592117,0.575243,-0.561437
3.4713,0.016709,0.000000,-0.227894,0.227894,0.0000,0.0000,0.0000,-0.002339,-0.233165,0.233165,0.4414,0.5273,0.1006,0.000000,0.579845,-0.562971,0.564505,-0.592117,0.575243,-0.561437
3.4881,0.016743,0.000000,-0.227309,0.227309,0.0000,0.0000,0.0000,-0.002352,-0.231631,0.233165,0.4248,0.4783,0.1482,0.000000,0.579845,-0.562971,0.564505,-0.590583,0.575243,-0.561437
3.5050,0.016934,0.000000,-0.226718,0.226718,0.0000,0.0000,0.0000,-0.002363,-0.231631,0.231631,0.4761,0.5010,0.1968,0.000000,0.579845,-0.562971,0.564505,-0.590583,0.575243,-0.559903
3.5218,0.016748,0.000000,-0.226133,0.226133,0.0000,0.0000,0.0000,-0.002349,-0.231631,0.231631,0.3821,0.5473,0.0307,0.000000,0.578311,-0.562971,0.564505,-0.592117,0.575243,-0.561437
3.5385,0.016769,0.000000,-0.225548,0.225548,0.0000,0.0000,0.0000,-0.002351,-0.230097,0.231631,0.4310,0.4762,0.1555,0.000000,0.579845,-0.562971,0.564505,-0.590583,0.575243,-0.561437
3.5553,0.016752,0.000000,-0.224963,0.224963,0.0000,0.0000,0.0000,-0.002351,-0.230097,0.231631,0.4310,0.4762,0.1555,0.000000,0.579845,-0.562971,0.564505,-0.590583,0.575243,-0.561437
3.5720,0.016753,0.000000,-0.224378,0.224378,0.0000,0.0000,0.0000,-0.002362,-0.230097,0.230097,0.3761,0.4992,0.0887,0.000000,0.578311,-0.562971,0.564505,-0.590583,0.575243,-0.561437
3.5888,0.016748,0.000000,-0.223794,0.223794,0.0000,0.0000,0.0000,-0.002338,-0.230097,0.230097,0.4424,0.5320,0.0958,0.000000,0.579845,-0.562971,0.564505,-0.592117,0.575243,-0.561437
3.6056,0.016772,0.000000,-0.223208,0.223208,0.0000,0.0000,0.0000,-0.002376,-0.230097,0.230097,0.4245,0.5110,0.1484,0.000000,0.578311,-0.562971,0.564505,-0.590583,0.575243,-0.559903
3.6223,0.016751,0.000000,-0.222624,0.222624,0.0000,0.0000,0.0000,-0.002336,-0.230097,0.230097,0.4374,0.5308,0.0895,0.000000,0.579845,-0.562971,0.564505,-0.592117,0.575243,-0.561437
3.6391,0.016769,0.000000,-0.222038,0.222038,0.0000,0.0000,0.0000,-0.002364,-0.230097,0.230097,0.3755,0.4935,0.0956,0.000000,0.578311,-0.562971,0.564505,-0.590583,0.575243,-0.561437
3.6558,0.016748,0.000000,-0.221454,0.221454,0.0000,0.0000,0.0000,-0.002364,-0.230097,0.230097,0.3755,0.4935,0.0956,0.000000,0.578311,-0.562971,0.564505,-0.590583,0.575243,-0.561437
3.6726,0.016753,0.000000,-0.220869,0.220869,0.0000,0.0000,0.0000,-0.002349,-0.230097,0.228563,0.4317,0.4818,0.1488,0.000000,0.579845,-0.562971,0.564505,-0.590583,0.575243,-0.561437
3.6893,0.016746,0.000000,-0.220284,0.220284,0.0000,0.0000,0.0000,-0.002351,-0.230097,0.228563,0.4258,0.4830,0.1432,0.000000,0.579845,-0.562971,0.564505,-0.590583,0.575243,-0.561437
3.7061,0.016770,0.000000,-0.219699,0.219699,0.0000,0.0000,0.0000,-0.002362,-0.230097,0.228563,0.3767,0.4985,0.0900,0.000000,0.578311,-0.562971,0.564505,-0.590583,0.575243,-0.561437
3.7228,0.016744,0.000000,-0.219114,0.219114,0.0000,0.0000,0.0000,-0.002338,-0.230097,0.228563,0.4424,0.5321,0.0956,0.000000,0.579845,-0.562971,0.564505,-0.592117,0.575243,-0.561437
3.7396,0.016783,0.000000,-0.218529,0.218529,0.0000,0.0000,0.0000,-0.002365,-0.230097,0.227029,0.4742,0.4954,0.2022,0.000000,0.579845,-0.562971,0.564505,-0.590583,0.575243,-0.559903
3.7564,0.016754,0.000000,-0.217944,0.217944,0.0000,0.0000,0.0000,-0.002365,-0.230097,0.227029,0.4742,0.4954,0.2022,0.000000,0.579845,-0.562971,0.564505,-0.590583,0.575243,-0.559903
3.7731,0.016749,0.000000,-0.217359,0.217359,0.0000,0.0000,0.0000,-0.002374,-0.230097,0.227029,0.4212,0.5148,0.1373,0.000000,0.578311,-0.562971,0.564505,-0.590583,0.575243,-0.559903
3.7899,0.016747,0.000000,-0.216775,0.216775,0.0000,0.0000,0.0000,-0.002348,-0.230097,0.227029,0.3879,0.5460,0.0369,0.000000,0.578311,-0.562971,0.564505,-0.592117,0.575243,-0.561437
3.8066,0.016754,0.000000,-0.216190,0.216190,0.0000,0.0000,0.0000,-0.002351,-0.228563,0.227029,0.4304,0.4763,0.1549,0.000000,0.579845,-0.562971,0.564505,-0.590583,0.575243,-0.561437
3.8234,0.016748,0.000000,-0.215605,0.215605,0.0000,0.0000,0.0000,-0.002362,-0.228563,0.227029,0.3762,0.4992,0.0888,0.000000,0.578311,-0.562971,0.564505,-0.590583,0.575243,-0.561437
3.8401,0.016748,0.000000,-0.215021,0.215021,0.0000,0.0000,0.0000,-0.002338,-0.228563,0.227029,0.4424,0.5320,0.0958,0.000000,0.579845,-0.562971,0.564505,-0.592117,0.575243,-0.561437
3.8569,0.016751,0.000000,-0.214436,0.214436,0.0000,0.0000,0.0000,-0.002338,-0.228563,0.227029,0.4424,0.5320,0.0958,0.000000,0.579845,-0.562971,0.564505,-0.592117,0.575243,-0.561437
3.8736,0.016749,0.000000,-0.213851,0.213851,0.0000,0.0000,0.0000,-0.002352,-0.227029,0.227029,0.3857,0.5442,0.0412,0.000000,0.578311,-0.562971,0.564505,-0.592117,0.575243,-0.561437
3.8904,0.016746,0.000000,-0.213267,0.213267,0.0000,0.0000,0.0000,-0.002339,-0.220893,0.227029,0.4414,0.5273,0.1007,0.000000,0.579845,-0.562971,0.564505,-0.592117,0.575243,-0.561437
3.9071,0.016745,0.000000,-0.212682,0.212682,0.0000,0.0000,0.0000,-0.002340,-0.214757,0.227029,0.4356,0.5291,0.0945,0.000000,0.579845,-0.562971,0.564505,-0.592117,0.575243,-0.561437
3.9239,0.016743,0.000000,-0.212098,0.212098,0.0000,0.0000,0.0000,-0.002352,-0.213223,0.227029,0.4254,0.4781,0.1489,0.000000,0.579845,-0.562971,0.564505,-0.590583,0.575243,-0.561437
3.9406,0.016745,0.000000,-0.211513,0.211513,0.0000,0.0000,0.0000,-0.002352,-0.213223,0.227029,0.4254,0.4781,0.1489,0.000000,0.579845,-0.562971,0.564505,-0.590583,0.575243,-0.561437
3.9573,0.016753,0.000000,-0.210928,0.210928,0.0000,0.0000,0.0000,-0.002350,-0.213223,0.227029,0.4265,0.4834,0.1432,0.000000,0.579845,-0.562971,0.564505,-0.590583,0.575243,-0.561437
3.9741,0.016749,0.000000,-0.210344,0.210344,0.0000,0.0000,0.0000,-0.002339,-0.213223,0.227029,0.4371,0.5336,0.0901,0.000000,0.579845,-0.562971,0.564505,-0.592117,0.575243,-0.561437
3.9908,0.016741,0.000000,-0.209759,0.209759,0.0000,0.0000,0.0000,-0.002352,-0.213223,0.225495,0.3862,0.5440,0.0418,0.000000,0.578311,-0.562971,0.564505,-0.592117,0.575243,-0.561437
4.0076,0.016747,0.000000,-0.209175,0.209175,0.0000,0.0000,0.0000,-0.002339,-0.213223,0.223961,0.4414,0.5273,0.1007,0.000000,0.579845,-0.562971,0.564505,-0.592117,0.575243,-0.561437
4.0243,0.016745,0.000000,-0.208590,0.208590,0.0000,0.0000,0.0000,-0.002340,-0.211689,0.220893,0.4356,0.5291,0.0945,0.000000,0.579845,-0.562971,0.564505,-0.592117,0.575243,-0.561437
4.0411,0.016757,0.000000,-0.208005,0.208005,0.0000,0.0000,0.0000,-0.002340,-0.211689,0.220893,0.4356,0.5291,0.0945,0.000000,0.579845,-0.562971,0.564505,-0.592117,0.575243,-0.561437
4.0578,0.016747,0.000000,-0.207421,0.207421,0.0000,0.0000,0.0000,-0.002376,-0.210155,0.217825,0.3364,0.5292,0.1482,0.000000,0.578311,-0.561437,0.564505,-0.590583,0.575243,-0.561437
4.0746,0.016744,0.000000,-0.206836,0.206836,0.0000,0.0000,0.0000,-0.002348,-0.208621,0.211689,0.3967,0.5445,0.0357,0.000000,0.578311,-0.562971,0.564505,-0.592117,0.575243,-0.561437
4.0913,0.016745,0.000000,-0.206252,0.206252,0.0000,0.0000,0.0000,-0.002339,-0.208621,0.210155,0.4403,0.5272,0.1013,0.000000,0.579845,-0.562971,0.564505,-0.592117,0.575243,-0.561437
4.1081,0.016745,0.000000,-0.205667,0.205667,0.0000,0.0000,0.0000,-0.002340,-0.208621,0.207087,0.4357,0.5291,0.0944,0.000000,0.579845,-0.562971,0.564505,-0.592117,0.575243,-0.561437
4.1248,0.016751,0.000000,-0.205082,0.205082,0.0000,0.0000,0.0000,-0.002352,-0.207087,0.205553,0.4254,0.4781,0.1489,0.000000,0.579845,-0.562971,0.564505,-0.590583,0.575243,-0.561437
4.1416,0.016747,0.000000,-0.204498,0.204498,0.0000,0.0000,0.0000,-0.002352,-0.207087,0.205553,0.4254,0.4781,0.1489,0.000000,0.579845,-0.562971,0.564505,-0.590583,0.575243,-0.561437
4.1583,0.016744,0.000000,-0.203913,0.203913,0.0000,0.0000,0.0000,-0.002350,-0.207087,0.205553,0.4265,0.4834,0.1432,0.000000,0.579845,-0.562971,0.564505,-0.590583,0.575243,-0.561437
4.1751,0.016746,0.000000,-0.203329,0.203329,0.0000,0.0000,0.0000,-0.002375,-0.207087,0.205553,0.4261,0.5161,0.1435,0.000000,0.578311,-0.562971,0.564505,-0.590583,0.575243,-0.559903
4.1918,0.016749,0.000000,-0.202744,0.202744,0.0000,0.0000,0.0000,-0.002348,-0.205553,0.205553,0.4264,0.4794,0.1438,0.000000,0.579845,-0.562971,0.564505,-0.590583,0.575243,-0.561437
4.2086,0.016746,0.000000,-0.202160,0.202160,0.0000,0.0000,0.0000,-0.002339,-0.204019,0.205553,0.4372,0.5341,0.0900,0.000000,0.579845,-0.562971,0.564505,-0.592117,0.575243,-0.561437
4.2253,0.016752,0.000000,-0.201575,0.201575,0.0000,0.0000,0.0000,-0.002340,-0.205553,0.205553,0.4360,0.5283,0.0956,0.000000,0.579845,-0.562971,0.564505,-0.592117,0.575243,-0.561437
4.2420,0.016743,0.000000,-0.200991,0.200991,0.0000,0.0000,0.0000,-0.002340,-0.205553,0.205553,0.4360,0.5283,0.0956,0.000000,0.579845,-0.562971,0.564505,-0.592117,0.575243,-0.561437
4.2588,0.016743,0.000000,-0.200406,0.200406,0.0000,0.0000,0.0000,-0.002340,-0.204019,0.205553,0.4360,0.5283,0.0956,0.000000,0.579845,-0.562971,0.564505,-0.592117,0.575243,-0.561437
4.2755,0.016742,0.000000,-0.199822,0.199822,0.0000,0.0000,0.0000,-0.002340,-0.204019,0.205553,0.4360,0.5283,0.0956,0.000000,0.579845,-0.562971,0.564505,-0.592117,0.575243,-0.561437
4.2923,0.016740,0.000000,-0.199237,0.199237,0.0000,0.0000,0.0000,-0.002352,-0.202485,0.204019,0.4254,0.4782,0.1488,0.000000,0.579845,-0.562971,0.564505,-0.590583,0.575243,-0.561437
4.3090,0.016775,0.000000,-0.198652,0.198652,0.0000,0.0000,0.0000,-0.002363,-0.202485,0.204019,0.3483,0.5853,0.0888,0.000000,0.578311,-0.561437,0.564505,-0.592117,0.575243,-0.561437
4.3261,0.017050,0.000000,-0.198057,0.198057,0.0000,0.0000,0.0000,-0.002338,-0.202485,0.204019,0.4453,0.5230,0.0957,0.000000,0.579845,-0.562971,0.564505,-0.592117,0.575243,-0.561437
4.3428,0.016741,0.000000,-0.197472,0.197472,0.0000,0.0000,0.0000,-0.002338,-0.202485,0.204019,0.4453,0.5230,0.0957,0.000000,0.579845,-0.562971,0.564505,-0.592117,0.575243,-0.561437
4.3596,0.016747,0.000000,-0.196888,0.196888,0.0000,0.0000,0.0000,-0.002365,-0.202485,0.202485,0.4739,0.4964,0.2022,0.000000,0.579845,-0.562971,0.564505,-0.590583,0.575243,-0.559903
4.3763,0.016744,0.000000,-0.196303,0.196303,0.0000,0.0000,0.0000,-0.002361,-0.200951,0.202485,0.3716,0.4970,0.0839,0.000000,0.578311,-0.562971,0.564505,-0.590583,0.575243,-0.561437
4.3931,0.016743,0.000000,-0.195719,0.195719,0.0000,0.0000,0.0000,-0.002338,-0.200951,0.200951,0.4429,0.5322,0.0963,0.000000,0.579845,-0.562971,0.564505,-0.592117,0.575243,-0.561437
4.4098,0.016744,0.000000,-0.195134,0.195134,0.0000,0.0000,0.0000,-0.002365,-0.200951,0.199418,0.4352,0.5618,0.0946,0.000000,0.578311,-0.562971,0.564505,-0.592117,0.575243,-0.559903
4.4267,0.016902,0.000000,-0.194544,0.194544,0.0000,0.0000,0.0000,-0.002365,-0.200951,0.199418,0.4352,0.5618,0.0946,0.000000,0.579845,-0.562971,0.564505,-0.592117,0.575243,-0.561437
4.4435,0.016741,0.000000,-0.193960,0.193960,0.0000,0.0000,0.0000,-0.002337,-0.200951,0.199418,0.4363,0.5255,0.0951,0.000000,0.579845,-0.562971,0.564505,-0.592117,0.575243,-0.561437
4.4603,0.016850,0.000000,-0.193372,0.193372,0.0000,0.0000,0.0000,-0.002363,-0.200951,0.199418,0.3756,0.4941,0.0950,0.000000,0.578311,-0.562971,0.564505,-0.590583,0.575243,-0.561437
4.4771,0.016743,0.000000,-0.192787,0.192787,0.0000,0.0000,0.0000,-0.002349,-0.200951,0.199418,0.4317,0.4817,0.1488,0.000000,0.579845,-0.562971,0.564505,-0.590583,0.575243,-0.561437
4.4940,0.016947,0.000000,-0.192196,0.192196,0.0000,0.0000,0.0000,-0.002351,-0.200951,0.199418,0.3868,0.5494,0.0357,0.000000,0.578311,-0.562971,0.564505,-0.592117,0.575243,-0.561437
4.5107,0.016748,0.000000,-0.191611,0.191611,0.0000,0.0000,0.0000,-0.002350,-0.200951,0.199418,0.4305,0.4760,0.1550,0.000000,0.579845,-0.562971,0.564505,-0.590583,0.575243,-0.561437
4.5275,0.016749,0.000000,-0.191026,0.191026,0.0000,0.0000,0.0000,-0.002362,-0.200951,0.199418,0.3762,0.4992,0.0888,0.000000,0.578311,-0.562971,0.564505,-0.590583,0.575243,-0.561437
4.5442,0.016739,0.000000,-0.190442,0.190442,0.0000,0.0000,0.0000,-0.002362,-0.200951,0.199418,0.3762,0.4992,0.0888,0.000000,0.578311,-0.562971,0.564505,-0.590583,0.575243,-0.561437
4.5610,0.016758,0.000000,-0.189857,0.189857,0.0000,0.0000,0.0000,-0.002349,-0.200951,0.199418,0.4316,0.4812,0.1495,0.000000,0.579845,-0.562971,0.564505,-0.590583,0.575243,-0.561437
4.5778,0.016789,0.000000,-0.189271,0.189271,0.0000,0.0000,0.0000,-0.002351,-0.200951,0.199418,0.4258,0.4831,0.1432,0.000000,0.579845,-0.562971,0.564505,-0.590583,0.575243,-0.561437
4.5950,0.017190,0.000000,-0.188671,0.188671,0.0000,0.0000,0.0000,-0.002351,-0.200951,0.199418,0.4258,0.4831,0.1432,0.000000,0.579845,-0.562971,0.564505,-0.590583,0.575243,-0.561437
4.6117,0.016742,0.000000,-0.188087,0.188087,0.0000,0.0000,0.0000,-0.002351,-0.200951,0.199418,0.4258,0.4831,0.1432,0.000000,0.579845,-0.562971,0.564505,-0.590583,0.575243,-0.561437
4.6285,0.016768,0.000000,-0.187501,0.187501,0.0000,0.0000,0.0000,-0.002351,-0.200951,0.199418,0.4258,0.4831,0.1432,0.000000,0.579845,-0.562971,0.564505,-0.590583,0.575243,-0.561437
4.6452,0.016748,0.000000,-0.186917,0.186917,0.0000,0.0000,0.0000,-0.002362,-0.200951,0.199418,0.3767,0.4985,0.0900,0.000000,0.578311,-0.562971,0.564505,-0.590583,0.575243,-0.561437
4.6620,0.016753,0.000000,-0.186332,0.186332,0.0000,0.0000,0.0000,-0.002349,-0.200951,0.199418,0.4316,0.4813,0.1494,0.000000,0.579845,-0.562971,0.564505,-0.590583,0.575243,-0.561437
4.6788,0.016855,0.000000,-0.185744,0.185744,0.0000,0.0000,0.0000,-0.002351,-0.199418,0.199418,0.4258,0.4831,0.1432,0.000000,0.579845,-0.562971,0.564505,-0.590583,0.575243,-0.561437
4.6956,0.016755,0.000000,-0.185159,0.185159,0.0000,0.0000,0.0000,-0.002351,-0.194816,0.199418,0.4258,0.4831,0.1432,0.000000,0.579845,-0.562971,0.564505,-0.590583,0.575243,-0.561437
4.7124,0.016788,0.000000,-0.184573,0.184573,0.0000,0.0000,0.0000,-0.002364,-0.188680,0.199418,0.4760,0.5005,0.1973,0.000000,0.579845,-0.562971,0.564505,-0.590583,0.575243,-0.559903
4.7291,0.016762,0.000000,-0.183988,0.183988,0.0000,0.0000,0.0000,-0.002364,-0.188680,0.199418,0.4760,0.5005,0.1973,0.000000,0.579845,-0.562971,0.564505,-0.590583,0.575243,-0.559903
4.7459,0.016742,0.000000,-0.183403,0.183403,0.0000,0.0000,0.0000,-0.002349,-0.187146,0.199418,0.3822,0.5474,0.0306,0.000000,0.578311,-0.562971,0.564505,-0.592117,0.575243,-0.561437
4.7626,0.016760,0.000000,-0.182818,0.182818,0.0000,0.0000,0.0000,-0.002351,-0.188680,0.199418,0.4310,0.4762,0.1555,0.000000,0.579845,-0.562971,0.564505,-0.590583,0.575243,-0.561437
4.7794,0.016745,0.000000,-0.182234,0.182234,0.0000,0.0000,0.0000,-0.002364,-0.187146,0.199418,0.4755,0.5012,0.1960,0.000000,0.579845,-0.562971,0.564505,-0.590583,0.575243,-0.559903
4.7962,0.016762,0.000000,-0.181649,0.181649,0.0000,0.0000,0.0000,-0.002349,-0.187146,0.197884,0.4213,0.4810,0.1383,0.000000,0.579845,-0.562971,0.564505,-0.590583,0.575243,-0.561437
4.8129,0.016743,0.000000,-0.181064,0.181064,0.0000,0.0000,0.0000,-0.002339,-0.185612,0.197884,0.4377,0.5339,0.0906,0.000000,0.579845,-0.562971,0.564505,-0.592117,0.575243,-0.561437
4.8297,0.016760,0.000000,-0.180479,0.180479,0.0000,0.0000,0.0000,-0.002339,-0.185612,0.197884,0.4377,0.5339,0.0906,0.000000,0.579845,-0.562971,0.564505,-0.592117,0.575243,-0.561437
4.8464,0.016741,0.000000,-0.179895,0.179895,0.0000,0.0000,0.0000,-0.002352,-0.184078,0.194816,0.4252,0.4776,0.1493,0.000000,0.579845,-0.562971,0.564505,-0.590583,0.575243,-0.561437
4.8636,0.017217,0.000000,-0.179294,0.179294,0.0000,0.0000,0.0000,-0.002388,-0.184078,0.193282,0.3871,0.5522,0.1960,0.000000,0.578311,-0.561437,0.564505,-0.590583,0.575243,-0.559903
4.8804,0.016762,0.000000,-0.178709,0.178709,0.0000,0.0000,0.0000,-0.002371,-0.184078,0.188680,0.4303,0.5089,0.1380,0.000000,0.578311,-0.562971,0.564505,-0.590583,0.575243,-0.559903
4.8971,0.016768,0.000000,-0.178123,0.178123,0.0000,0.0000,0.0000,-0.002350,-0.182544,0.184078,0.4863,0.5486,0.1441,0.000000,0.579845,-0.562971,0.564505,-0.592117,0.575243,-0.559903
4.9139,0.016774,0.000000,-0.177538,0.177538,0.0000,0.0000,0.0000,-0.002350,-0.181010,0.177942,0.4863,0.5486,0.1441,0.000000,0.579845,-0.562971,0.564505,-0.592117,0.575243,-0.561437
4.9307,0.016764,0.000000,-0.176953,0.176953,0.0000,0.0000,0.0000,-0.002339,-0.181010,0.177942,0.4309,0.5268,0.0900,0.000000,0.579845,-0.562971,0.564505,-0.592117,0.575243,-0.561437
4.9474,0.016751,0.000000,-0.176368,0.176368,0.0000,0.0000,0.0000,-0.002363,-0.181010,0.177942,0.3761,0.4939,0.0956,0.000000,0.578311,-0.562971,0.564505,-0.590583,0.575243,-0.561437
4.9642,0.016761,0.000000,-0.175783,0.175783,0.0000,0.0000,0.0000,-0.002362,-0.181010,0.177942,0.4812,0.4993,0.2022,0.000000,0.579845,-0.562971,0.564505,-0.590583,0.575243,-0.559903
4.9809,0.016754,0.000000,-0.175198,0.175198,0.0000,0.0000,0.0000,-0.002349,-0.179476,0.177942,0.4207,0.4812,0.1377,0.000000,0.579845,-0.562971,0.564505,-0.590583,0.575243,-0.561437
4.9977,0.016760,0.000000,-0.174613,0.174613,0.0000,0.0000,0.0000,-0.002362,-0.179476,0.176408,0.3772,0.4987,0.0906,0.000000,0.578311,-0.562971,0.564505,-0.590583,0.575243,-0.561437
5.0145,0.016766,0.000000,-0.174028,0.174028,0.0000,0.0000,0.0000,-0.002338,-0.179476,0.176408,0.4423,0.5320,0.0956,0.000000,0.579845,-0.562971,0.564505,-0.592117,0.575243,-0.561437
5.0312,0.016761,0.000000,-0.173443,0.173443,0.0000,0.0000,0.0000,-0.002338,-0.179476,0.176408,0.4423,0.5320,0.0956,0.000000,0.579845,-0.562971,0.564505,-0.592117,0.575243,-0.561437
5.0479,0.016710,0.000000,-0.172859,0.172859,0.0000,0.0000,0.0000,-0.002340,-0.179476,0.174874,0.4355,0.5286,0.0950,0.000000,0.579845,-0.562971,0.564505,-0.592117,0.575243,-0.561437
5.0648,0.016852,0.000000,-0.172271,0.172271,0.0000,0.0000,0.0000,-0.002352,-0.177942,0.174874,0.4254,0.4782,0.1488,0.000000,0.579845,-0.562971,0.564505,-0.590583,0.575243,-0.561437
5.0815,0.016747,0.000000,-0.171687,0.171687,0.0000,0.0000,0.0000,-0.002362,-0.177942,0.174874,0.3767,0.4990,0.0894,0.000000,0.578311,-0.562971,0.564505,-0.590583,0.575243,-0.561437
5.0984,0.016859,0.000000,-0.171098,0.171098,0.0000,0.0000,0.0000,-0.002349,-0.177942,0.173340,0.3925,0.5476,0.0419,0.000000,0.578311,-0.562971,0.564505,-0.592117,0.575243,-0.561437
5.1152,0.016761,0.000000,-0.170513,0.170513,0.0000,0.0000,0.0000,-0.002349,-0.177942,0.173340,0.3925,0.5476,0.0419,0.000000,0.578311,-0.562971,0.564505,-0.592117,0.575243,-0.561437
5.1323,0.017135,0.000000,-0.169915,0.169915,0.0000,0.0000,0.0000,-0.002352,-0.177942,0.173340,0.4902,0.5445,0.1541,0.000000,0.579845,-0.562971,0.564505,-0.592117,0.575243,-0.559903
5.1491,0.016753,0.000000,-0.169330,0.169330,0.0000,0.0000,0.0000,-0.002350,-0.174874,0.171806,0.3807,0.5428,0.0351,0.000000,0.578311,-0.562971,0.564505,-0.592117,0.575243,-0.561437
5.1660,0.016966,0.000000,-0.168738,0.168738,0.0000,0.0000,0.0000,-0.002339,-0.174874,0.173340,0.4419,0.5274,0.1013,0.000000,0.579845,-0.562971,0.564505,-0.592117,0.575243,-0.561437
5.1832,0.017179,0.000000,-0.168138,0.168138,0.0000,0.0000,0.0000,-0.002363,-0.174874,0.173340,0.3750,0.4939,0.0944,0.000000,0.578311,-0.562971,0.564505,-0.590583,0.575243,-0.561437
5.2000,0.016770,0.000000,-0.167553,0.167553,0.0000,0.0000,0.0000,-0.002349,-0.174874,0.173340,0.3927,0.5482,0.0413,0.000000,0.578311,-0.562971,0.564505,-0.592117,0.575243,-0.561437
5.2168,0.016801,0.000000,-0.166966,0.166966,0.0000,0.0000,0.0000,-0.002349,-0.174874,0.173340,0.3927,0.5482,0.0413,0.000000,0.578311,-0.562971,0.564505,-0.592117,0.575243,-0.561437
5.2335,0.016762,0.000000,-0.166381,0.166381,0.0000,0.0000,0.0000,-0.002351,-0.174874,0.173340,0.4299,0.4761,0.1544,0.000000,0.579845,-0.562971,0.564505,-0.590583,0.575243,-0.561437
5.2503,0.016754,0.000000,-0.165796,0.165796,0.0000,0.0000,0.0000,-0.002351,-0.174874,0.173340,0.3870,0.5500,0.0351,0.000000,0.578311,-0.562971,0.564505,-0.592117,0.575243,-0.561437
5.2671,0.016773,0.000000,-0.165211,0.165211,0.0000,0.0000,0.0000,-0.002350,-0.174874,0.171806,0.4305,0.4759,0.1551,0.000000,0.579845,-0.562971,0.564505,-0.590583,0.575243,-0.561437
5.2838,0.016758,0.000000,-0.164626,0.164626,0.0000,0.0000,0.0000,-0.002350,-0.174874,0.173340,0.4260,0.4836,0.1426,0.000000,0.579845,-0.562971,0.564505,-0.590583,0.575243,-0.561437
5.3006,0.016772,0.000000,-0.164041,0.164041,0.0000,0.0000,0.0000,-0.002362,-0.173340,0.173340,0.3767,0.4984,0.0901,0.000000,0.578311,-0.562971,0.564505,-0.590583,0.575243,-0.561437
5.3173,0.016751,0.000000,-0.163456,0.163456,0.0000,0.0000,0.0000,-0.002362,-0.173340,0.173340,0.3767,0.4984,0.0901,0.000000,0.578311,-0.562971,0.564505,-0.590583,0.575243,-0.561437
5.3341,0.016767,0.000000,-0.162870,0.162870,0.0000,0.0000,0.0000,-0.002361,-0.174874,0.173340,0.3818,0.4969,0.0955,0.000000,0.578311,-0.562971,0.564505,-0.590583,0.575243,-0.561437
5.3509,0.016755,0.000000,-0.162286,0.162286,0.0000,0.0000,0.0000,-0.002361,-0.173340,0.173340,0.3818,0.4969,0.0955,0.000000,0.578311,-0.562971,0.564505,-0.590583,0.575243,-0.561437
5.3676,0.016747,0.000000,-0.161701,0.161701,0.0000,0.0000,0.0000,-0.002374,-0.171806,0.173340,0.3421,0.5325,0.1481,0.000000,0.578311,-0.561437,0.564505,-0.590583,0.575243,-0.561437
5.3844,0.016765,0.000000,-0.161116,0.161116,0.0000,0.0000,0.0000,-0.002361,-0.167204,0.171806,0.3960,0.5132,0.1965,0.000000,0.579845,-0.561437,0.564505,-0.590583,0.575243,-0.561437
5.4018,0.017417,0.000000,-0.160508,0.160508,0.0000,0.0000,0.0000,-0.002350,-0.162602,0.171806,0.3906,0.5461,0.0307,0.000000,0.578311,-0.562971,0.564505,-0.592117,0.575243,-0.561437
5.4185,0.016742,0.000000,-0.159923,0.159923,0.0000,0.0000,0.0000,-0.002350,-0.162602,0.171806,0.3906,0.5461,0.0307,0.000000,0.578311,-0.562971,0.564505,-0.592117,0.575243,-0.561437
5.4353,0.016749,0.000000,-0.159339,0.159339,0.0000,0.0000,0.0000,-0.002351,-0.162602,0.171806,0.4301,0.4763,0.1555,0.000000,0.579845,-0.562971,0.564505,-0.590583,0.575243,-0.561437
5.4520,0.016739,0.000000,-0.158755,0.158755,0.0000,0.0000,0.0000,-0.002352,-0.164136,0.171806,0.4863,0.5520,0.1423,0.000000,0.579845,-0.562971,0.564505,-0.592117,0.575243,-0.559903
5.4688,0.016785,0.000000,-0.158169,0.158169,0.0000,0.0000,0.0000,-0.002362,-0.161068,0.170272,0.3704,0.4913,0.0901,0.000000,0.578311,-0.562971,0.564505,-0.590583,0.575243,-0.561437
5.4855,0.016742,0.000000,-0.157584,0.157584,0.0000,0.0000,0.0000,-0.002361,-0.161068,0.168738,0.3824,0.4976,0.0955,0.000000,0.578311,-0.562971,0.564505,-0.590583,0.575243,-0.561437
