t,loop_dt,cmd_z,cmd_ant_l,cmd_ant_r,cmd_roll,cmd_pitch,cmd_yaw,pres_z,pres_ant_l,pres_ant_r,pres_roll,pres_pitch,pres_yaw,pres_j0,pres_j1,pres_j2,pres_j3,pres_j4,pres_j5,pres_j6
0.0000,0.000001,0.000000,-0.174533,0.174533,0.0000,0.0000,0.0000,-0.002462,-0.013806,0.007670,0.4290,0.6299,0.1372,0.000000,0.572175,-0.562971,0.564505,-0.590583,0.575243,-0.553767
0.0171,0.017077,0.000000,-0.170956,0.170956,0.0000,0.0000,0.0000,-0.002463,-0.010738,0.004602,0.4249,0.6336,0.1428,0.000000,0.572175,-0.562971,0.564505,-0.590583,0.575243,-0.553767
0.0338,0.016749,0.000000,-0.167448,0.167448,0.0000,0.0000,0.0000,-0.002463,-0.010738,0.004602,0.4249,0.6336,0.1428,0.000000,0.572175,-0.562971,0.564505,-0.590583,0.575243,-0.553767
0.0506,0.016747,0.000000,-0.163941,0.163941,0.0000,0.0000,0.0000,-0.002463,-0.010738,0.012272,0.4249,0.6336,0.1428,0.000000,0.572175,-0.562971,0.564505,-0.590583,0.575243,-0.553767
0.0673,0.016746,0.000000,-0.160434,0.160434,0.0000,0.0000,0.0000,-0.002463,-0.010738,0.012272,0.4249,0.6336,0.1428,0.000000,0.572175,-0.562971,0.564505,-0.590583,0.575243,-0.553767
0.0841,0.016754,0.000000,-0.156925,0.156925,0.0000,0.0000,0.0000,-0.002450,-0.144194,0.148796,0.3756,0.6156,0.0888,0.000000,0.572175,-0.562971,0.564505,-0.590583,0.575243,-0.555301
0.1008,0.016749,0.000000,-0.153417,0.153417,0.0000,0.0000,0.0000,-0.002413,-0.188680,0.190214,0.3314,0.5668,0.0413,0.000000,0.573709,-0.562971,0.564505,-0.590583,0.575243,-0.558369
0.1177,0.016839,0.000000,-0.149890,0.149890,0.0000,0.0000,0.0000,-0.002394,-0.191748,0.190214,0.3966,0.6070,0.0463,0.000000,0.575243,-0.562971,0.564505,-0.592117,0.575243,-0.558369
0.1344,0.016742,0.000000,-0.146383,0.146383,0.0000,0.0000,0.0000,-0.002394,-0.191748,0.190214,0.3966,0.6070,0.0463,0.000000,0.575243,-0.562971,0.564505,-0.592117,0.575243,-0.558369
0.1512,0.016752,0.000000,-0.142875,0.142875,0.0000,0.0000,0.0000,-0.002383,-0.173340,0.174874,0.3402,0.5852,-0.0077,0.000000,0.575243,-0.562971,0.564505,-0.592117,0.575243,-0.559903
0.1679,0.016745,0.000000,-0.139368,0.139368,0.0000,0.0000,0.0000,-0.002372,-0.158000,0.159534,0.3960,0.5718,0.0517,0.000000,0.576777,-0.562971,0.564505,-0.592117,0.575243,-0.559903
0.1846,0.016746,0.000000,-0.135861,0.135861,0.0000,0.0000,0.0000,-0.002372,-0.145728,0.147262,0.3299,0.5049,0.0458,0.000000,0.576777,-0.562971,0.564505,-0.590583,0.575243,-0.561437
0.2014,0.016742,0.000000,-0.132354,0.132354,0.0000,0.0000,0.0000,-0.002360,-0.141126,0.138058,0.3867,0.4962,0.1002,0.000000,0.578311,-0.562971,0.564505,-0.590583,0.575243,-0.561437
0.2182,0.016859,0.000000,-0.128823,0.128823,0.0000,0.0000,0.0000,-0.002361,-0.142660,0.134990,0.3807,0.4971,0.0945,0.000000,0.578311,-0.562971,0.564505,-0.590583,0.575243,-0.561437
0.2350,0.016707,0.000000,-0.125324,0.125324,0.0000,0.0000,0.0000,-0.002361,-0.142660,0.134990,0.3807,0.4971,0.0945,0.000000,0.578311,-0.562971,0.564505,-0.590583,0.575243,-0.561437
0.2517,0.016745,0.000000,-0.121817,0.121817,0.0000,0.0000,0.0000,-0.002349,-0.138058,0.134990,0.4312,0.4814,0.1489,0.000000,0.579845,-0.562971,0.564505,-0.590583,0.575243,-0.561437
0.2684,0.016745,0.000000,-0.118310,0.118310,0.0000,0.0000,0.0000,-0.002362,-0.131922,0.133456,0.3761,0.4987,0.0894,0.000000,0.578311,-0.562971,0.564505,-0.590583,0.575243,-0.561437
0.2852,0.016745,0.000000,-0.114803,0.114803,0.0000,0.0000,0.0000,-0.002361,-0.127320,0.127320,0.3818,0.4969,0.0956,0.000000,0.578311,-0.562971,0.564505,-0.590583,0.575243,-0.561437
0.3019,0.016743,0.000000,-0.111296,0.111296,0.0000,0.0000,0.0000,-0.002361,-0.124252,0.122718,0.3818,0.4969,0.0956,0.000000,0.578311,-0.562971,0.564505,-0.590583,0.575243,-0.561437
0.3188,0.016819,0.000000,-0.107773,0.107773,0.0000,0.0000,0.0000,-0.002361,-0.119651,0.119651,0.3818,0.4969,0.0956,0.000000,0.578311,-0.562971,0.564505,-0.590583,0.575243,-0.561437
0.3356,0.016804,0.000000,-0.104254,0.104254,0.0000,0.0000,0.0000,-0.002361,-0.119651,0.119651,0.3818,0.4969,0.0956,0.000000,0.578311,-0.562971,0.564505,-0.590583,0.575243,-0.561437
0.3523,0.016752,0.000000,-0.100745,0.100745,0.0000,0.0000,0.0000,-0.002349,-0.116583,0.115049,0.4310,0.4814,0.1488,0.000000,0.579845,-0.562971,0.564505,-0.590583,0.575243,-0.561437
0.3691,0.016779,0.000000,-0.097231,0.097231,0.0000,0.0000,0.0000,-0.002362,-0.111981,0.113515,0.3761,0.4986,0.0894,0.000000,0.578311,-0.562971,0.564505,-0.590583,0.575243,-0.561437
0.3858,0.016741,0.000000,-0.093725,0.093725,0.0000,0.0000,0.0000,-0.002349,-0.104311,0.108913,0.3926,0.5477,0.0419,0.000000,0.578311,-0.562971,0.564505,-0.592117,0.575243,-0.561437
0.4028,0.016932,0.000000,-0.090179,0.090179,0.0000,0.0000,0.0000,-0.002362,-0.101243,0.102777,0.3801,0.4918,0.1006,0.000000,0.578311,-0.562971,0.564505,-0.590583,0.575243,-0.561437
0.4195,0.016744,0.000000,-0.086672,0.086672,0.0000,0.0000,0.0000,-0.002362,-0.101243,0.102777,0.3801,0.4918,0.1006,0.000000,0.578311,-0.562971,0.564505,-0.590583,0.575243,-0.561437
0.4363,0.016751,0.000000,-0.083164,0.083164,0.0000,0.0000,0.0000,-0.002349,-0.099709,0.095107,0.4312,0.4820,0.1483,0.000000,0.579845,-0.562971,0.564505,-0.590583,0.575243,-0.561437
0.4530,0.016743,0.000000,-0.079657,0.079657,0.0000,0.0000,0.0000,-0.002351,-0.096641,0.092039,0.4259,0.4830,0.1433,0.000000,0.579845,-0.562971,0.564505,-0.590583,0.575243,-0.561437
0.4698,0.016790,0.000000,-0.076141,0.076141,0.0000,0.0000,0.0000,-0.002362,-0.093573,0.090505,0.3767,0.4985,0.0900,0.000000,0.578311,-0.562971,0.564505,-0.590583,0.575243,-0.561437
0.4865,0.016751,0.000000,-0.072632,0.072632,0.0000,0.0000,0.0000,-0.002361,-0.090505,0.088971,0.3818,0.4969,0.0955,0.000000,0.578311,-0.562971,0.564505,-0.590583,0.575243,-0.561437
0.5033,0.016744,0.000000,-0.069125,0.069125,0.0000,0.0000,0.0000,-0.002361,-0.082835,0.084369,0.3818,0.4969,0.0955,0.000000,0.578311,-0.562971,0.564505,-0.590583,0.575243,-0.561437
0.5200,0.016751,0.000000,-0.065617,0.065617,0.0000,0.0000,0.0000,-0.002361,-0.082835,0.084369,0.3818,0.4969,0.0955,0.000000,0.578311,-0.562971,0.564505,-0.590583,0.575243,-0.561437
0.5368,0.016744,0.000000,-0.062110,0.062110,0.0000,0.0000,0.0000,-0.002361,-0.073631,0.079767,0.3818,0.4969,0.0955,0.000000,0.578311,-0.562971,0.564505,-0.590583,0.575243,-0.561437
0.5535,0.016752,0.000000,-0.058602,0.058602,0.0000,0.0000,0.0000,-0.002361,-0.070563,0.072097,0.3818,0.4969,0.0955,0.000000,0.578311,-0.562971,0.564505,-0.590583,0.575243,-0.561437
0.5703,0.016746,0.000000,-0.055094,0.055094,0.0000,0.0000,0.0000,-0.002361,-0.073631,0.067495,0.3818,0.4969,0.0955,0.000000,0.578311,-0.562971,0.564505,-0.590583,0.575243,-0.561437
0.5874,0.017164,0.000000,-0.051500,0.051500,0.0000,0.0000,0.0000,-0.002361,-0.070563,0.062893,0.3818,0.4969,0.0955,0.000000,0.578311,-0.562971,0.564505,-0.590583,0.575243,-0.561437
0.6043,0.016883,0.000000,-0.047964,0.047964,0.0000,0.0000,0.0000,-0.002350,-0.062893,0.059825,0.3920,0.5478,0.0412,0.000000,0.578311,-0.562971,0.564505,-0.592117,0.575243,-0.561437
0.6211,0.016762,0.000000,-0.044453,0.044453,0.0000,0.0000,0.0000,-0.002350,-0.062893,0.059825,0.3920,0.5478,0.0412,0.000000,0.578311,-0.562971,0.564505,-0.592117,0.575243,-0.561437
0.6378,0.016741,0.000000,-0.040947,0.040947,0.0000,0.0000,0.0000,-0.002351,-0.055223,0.056757,0.4300,0.4761,0.1544,0.000000,0.579845,-0.562971,0.564505,-0.590583,0.575243,-0.561437
0.6546,0.016751,0.000000,-0.037439,0.037439,0.0000,0.0000,0.0000,-0.002362,-0.046019,0.052155,0.3762,0.4992,0.0888,0.000000,0.578311,-0.562971,0.564505,-0.590583,0.575243,-0.561437
0.6713,0.016745,0.000000,-0.033931,0.033931,0.0000,0.0000,0.0000,-0.002349,-0.046019,0.046019,0.3926,0.5476,0.0419,0.000000,0.578311,-0.562971,0.564505,-0.592117,0.575243,-0.561437
0.6881,0.016753,0.000000,-0.030423,0.030423,0.0000,0.0000,0.0000,-0.002362,-0.046019,0.041417,0.3801,0.4918,0.1006,0.000000,0.578311,-0.562971,0.564505,-0.590583,0.575243,-0.561437
0.7048,0.016746,0.000000,-0.026915,0.026915,0.0000,0.0000,0.0000,-0.002361,-0.039884,0.036816,0.3814,0.4976,0.0944,0.000000,0.578311,-0.562971,0.564505,-0.590583,0.575243,-0.561437
0.7216,0.016754,0.000000,-0.023406,0.023406,0.0000,0.0000,0.0000,-0.002361,-0.039884,0.036816,0.3814,0.4976,0.0944,0.000000,0.578311,-0.562971,0.564505,-0.590583,0.575243,-0.561437
0.7383,0.016746,0.000000,-0.019899,0.019899,0.0000,0.0000,0.0000,-0.002350,-0.033748,0.033748,0.3920,0.5478,0.0413,0.000000,0.578311,-0.562971,0.564505,-0.592117,0.575243,-0.561437
0.7551,0.016749,0.000000,-0.016391,0.016391,0.0000,0.0000,0.0000,-0.002351,-0.029146,0.032214,0.3909,0.5425,0.0469,0.000000,0.578311,-0.562971,0.564505,-0.592117,0.575243,-0.561437
0.7718,0.016746,0.000000,-0.012884,0.012884,0.0000,0.0000,0.0000,-0.002362,-0.024544,0.029146,0.3803,0.4923,0.1000,0.000000,0.578311,-0.562971,0.564505,-0.590583,0.575243,-0.561437
0.7886,0.016756,0.000000,-0.009375,0.009375,0.0000,0.0000,0.0000,-0.002349,-0.021476,0.024544,0.3921,0.5483,0.0408,0.000000,0.578311,-0.562971,0.564505,-0.592117,0.575243,-0.561437
0.8054,0.016876,0.000000,-0.005840,0.005840,0.0000,0.0000,0.0000,-0.002339,-0.016874,0.016874,0.4407,0.5268,0.1008,0.000000,0.579845,-0.562971,0.564505,-0.592117,0.575243,-0.561437
0.8222,0.016757,0.000000,-0.002331,0.002331,0.0000,0.0000,0.0000,-0.002339,-0.016874,0.016874,0.4407,0.5268,0.1008,0.000000,0.579845,-0.562971,0.564505,-0.592117,0.575243,-0.561437
0.8389,0.016743,0.000000,0.001176,-0.001176,0.0000,0.0000,0.0000,-0.002352,-0.010738,0.009204,0.4249,0.4783,0.1482,0.000000,0.579845,-0.562971,0.564505,-0.590583,0.575243,-0.561437
0.8557,0.016758,0.000000,0.004686,-0.004686,0.0000,0.0000,0.0000,-0.002362,-0.009204,0.009204,0.3768,0.4990,0.0895,0.000000,0.578311,-0.562971,0.564505,-0.590583,0.575243,-0.561437
0.8725,0.016746,0.000000,0.008193,-0.008193,0.0000,0.0000,0.0000,-0.002361,-0.009204,0.007670,0.3818,0.4968,0.0077,-0.001534,0.578311,-0.562971,0.564505,-0.590583,0.575243,-0.561437
0.8892,0.016755,0.000000,0.011702,-0.011702,0.0000,0.0000,0.0000,-0.002349,-0.001534,0.004602,0.4311,0.4814,0.1488,0.000000,0.579845,-0.562971,0.564505,-0.590583,0.575243,-0.561437
0.9061,0.016868,0.000000,0.015235,-0.015235,0.0000,0.0000,0.0000,-0.002351,0.007670,0.000000,0.4259,0.4830,0.1432,0.000000,0.579845,-0.562971,0.564505,-0.590583,0.575243,-0.561437
0.9228,0.016748,0.000000,0.018743,-0.018743,0.0000,0.0000,0.0000,-0.002351,0.007670,0.000000,0.4259,0.4830,0.1432,0.000000,0.579845,-0.562971,0.564505,-0.590583,0.575243,-0.561437
0.9396,0.016743,0.000000,0.022249,-0.022249,0.0000,0.0000,0.0000,-0.002339,0.009204,-0.006136,0.4372,0.5337,0.0901,0.000000,0.579845,-0.562971,0.564505,-0.592117,0.575243,-0.561437
0.9563,0.016760,0.000000,0.025760,-0.025760,0.0000,0.0000,0.0000,-0.002352,0.007670,-0.013806,0.4253,0.4776,0.1493,0.000000,0.579845,-0.562971,0.564505,-0.590583,0.575243,-0.561437
0.9731,0.016759,0.000000,0.029270,-0.029270,0.0000,0.0000,0.0000,-0.002362,0.010738,-0.013806,0.3767,0.4990,0.0894,0.000000,0.578311,-0.562971,0.564505,-0.590583,0.575243,-0.561437
0.9900,0.016952,0.000000,0.032820,-0.032820,0.0000,0.0000,0.0000,-0.002338,0.018408,-0.016874,0.4424,0.5320,0.0957,0.000000,0.579845,-0.562971,0.564505,-0.592117,0.575243,-0.561437
1.0068,0.016768,0.000000,0.036332,-0.036332,0.0000,0.0000,0.0000,-0.002338,0.018408,-0.016874,0.4424,0.5320,0.0957,0.000000,0.579845,-0.562971,0.564505,-0.592117,0.575243,-0.561437
1.0236,0.016765,0.000000,0.039843,-0.039843,0.0000,0.0000,0.0000,-0.002352,0.027612,-0.021476,0.4247,0.4778,0.1488,0.000000,0.579845,-0.562971,0.564505,-0.590583,0.575243,-0.561437
1.0407,0.017125,0.000000,0.043430,-0.043430,0.0000,0.0000,0.0000,-0.002339,0.032214,-0.027612,0.4373,0.5342,0.0895,0.000000,0.579845,-0.562971,0.564505,-0.592117,0.575243,-0.561437
1.0575,0.016759,0.000000,0.046940,-0.046940,0.0000,0.0000,0.0000,-0.002352,0.032214,-0.033748,0.4252,0.4776,0.1494,0.000000,0.579845,-0.562971,0.564505,-0.590583,0.575243,-0.561437
1.0744,0.016923,0.000000,0.050484,-0.050484,0.0000,0.0000,0.0000,-0.002351,0.030680,-0.038350,0.3875,0.5498,0.0356,0.000000,0.578311,-0.562971,0.564505,-0.592117,0.575243,-0.561437
1.0911,0.016728,0.000000,0.053988,-0.053988,0.0000,0.0000,0.0000,-0.002351,0.036816,-0.041417,0.3875,0.5498,0.0356,0.000000,0.578311,-0.562971,0.564505,-0.592117,0.575243,-0.561437
1.1079,0.016753,0.000000,0.057496,-0.057496,0.0000,0.0000,0.0000,-0.002351,0.036816,-0.041417,0.3914,0.5423,0.0475,0.000000,0.578311,-0.562971,0.564505,-0.592117,0.575243,-0.561437
1.1246,0.016770,0.000000,0.061009,-0.061009,0.0000,0.0000,0.0000,-0.002350,0.049087,-0.046019,0.4300,0.4767,0.1538,0.000000,0.579845,-0.562971,0.564505,-0.590583,0.575243,-0.561437
1.1414,0.016756,0.000000,0.064518,-0.064518,0.0000,0.0000,0.0000,-0.002362,0.050621,-0.047553,0.3762,0.4991,0.0889,0.000000,0.578311,-0.562971,0.564505,-0.590583,0.575243,-0.561437
1.1582,0.016766,0.000000,0.068030,-0.068030,0.0000,0.0000,0.0000,-0.002349,0.047553,-0.049087,0.3926,0.5476,0.0419,0.000000,0.578311,-0.562971,0.564505,-0.592117,0.575243,-0.561437
1.1749,0.016752,0.000000,0.071538,-0.071538,0.0000,0.0000,0.0000,-0.002351,0.055223,-0.055223,0.3909,0.5425,0.0468,0.000000,0.578311,-0.562971,0.564505,-0.592117,0.575243,-0.561437
1.1917,0.016761,0.000000,0.075048,-0.075048,0.0000,0.0000,0.0000,-0.002339,0.067495,-0.062893,0.4409,0.5274,0.1001,0.000000,0.579845,-0.562971,0.564505,-0.592117,0.575243,-0.561437
1.2084,0.016746,0.000000,0.078556,-0.078556,0.0000,0.0000,0.0000,-0.002339,0.067495,-0.062893,0.4409,0.5274,0.1001,0.000000,0.579845,-0.562971,0.564505,-0.592117,0.575243,-0.561437
1.2274,0.019000,0.000000,0.082535,-0.082535,0.0000,0.0000,0.0000,-0.002352,0.069029,-0.069029,0.3859,0.5446,0.0408,0.000000,0.578311,-0.562971,0.564505,-0.592117,0.575243,-0.561437
1.2442,0.016745,0.000000,0.086042,-0.086042,0.0000,0.0000,0.0000,-0.002350,0.064427,-0.070563,0.4306,0.4765,0.1545,0.000000,0.579845,-0.562971,0.564505,-0.590583,0.575243,-0.561437
1.2609,0.016765,0.000000,0.089553,-0.089553,0.0000,0.0000,0.0000,-0.002339,0.067495,-0.070563,0.4367,0.5344,0.0889,0.000000,0.579845,-0.562971,0.564505,-0.592117,0.575243,-0.561437
1.2777,0.016752,0.000000,0.093062,-0.093062,0.0000,0.0000,0.0000,-0.002352,0.076699,-0.073631,0.4253,0.4776,0.1495,0.000000,0.579845,-0.562971,0.564505,-0.590583,0.575243,-0.561437
1.2944,0.016772,0.000000,0.096575,-0.096575,0.0000,0.0000,0.0000,-0.002362,0.087437,-0.076699,0.3767,0.4991,0.0894,0.000000,0.578311,-0.562971,0.564505,-0.590583,0.575243,-0.561437
1.3112,0.016754,0.000000,0.100084,-0.100084,0.0000,0.0000,0.0000,-0.002362,0.087437,-0.076699,0.3767,0.4991,0.0894,0.000000,0.578311,-0.562971,0.564505,-0.590583,0.575243,-0.561437
1.3280,0.016762,0.000000,0.103594,-0.103594,0.0000,0.0000,0.0000,-0.002361,0.090505,-0.081301,0.3818,0.4968,0.0956,0.000000,0.578311,-0.562971,0.564505,-0.590583,0.575243,-0.561437
1.3447,0.016758,0.000000,0.107104,-0.107104,0.0000,0.0000,0.0000,-0.002361,0.085903,-0.084369,0.3818,0.4968,0.0956,0.000000,0.578311,-0.562971,0.564505,-0.590583,0.575243,-0.561437
1.3615,0.016758,0.000000,0.110614,-0.110614,0.0000,0.0000,0.0000,-0.002338,0.088971,-0.090505,0.4418,0.5322,0.0950,0.000000,0.579845,-0.562971,0.564505,-0.592117,0.575243,-0.561437
1.3783,0.016794,0.000000,0.114131,-0.114131,0.0000,0.0000,0.0000,-0.002352,0.099709,-0.096641,0.4248,0.4778,0.1488,0.000000,0.579845,-0.562971,0.564505,-0.590583,0.575243,-0.561437
1.3950,0.016766,0.000000,0.117643,-0.117643,0.0000,0.0000,0.0000,-0.002352,0.107379,-0.102777,0.4248,0.4778,0.1488,0.000000,0.578311,-0.562971,0.564505,-0.590583,0.575243,-0.561437
1.4118,0.016750,0.000000,0.121151,-0.121151,0.0000,0.0000,0.0000,-0.002362,0.107379,-0.102777,0.3768,0.4990,0.0894,0.000000,0.578311,-0.562971,0.564505,-0.590583,0.575243,-0.561437
1.4285,0.016759,0.000000,0.124661,-0.124661,0.0000,0.0000,0.0000,-0.002349,0.108913,-0.107379,0.4316,0.4812,0.1494,0.000000,0.579845,-0.562971,0.564505,-0.590583,0.575243,-0.561437
1.4453,0.016762,0.000000,0.128172,-0.128172,0.0000,0.0000,0.0000,-0.002351,0.116583,-0.118117,0.4259,0.4831,0.1432,0.000000,0.579845,-0.562971,0.564505,-0.590583,0.575243,-0.561437
1.4621,0.016766,0.000000,0.131683,-0.131683,0.0000,0.0000,0.0000,-0.002362,0.124252,-0.122718,0.3767,0.4985,0.0900,0.000000,0.578311,-0.562971,0.564505,-0.590583,0.575243,-0.561437
1.4788,0.016756,0.000000,0.135193,-0.135193,0.0000,0.0000,0.0000,-0.002349,0.124252,-0.127320,0.3925,0.5477,0.0418,0.000000,0.578311,-0.562971,0.564505,-0.592117,0.575243,-0.561437
1.4956,0.016760,0.000000,0.138703,-0.138703,0.0000,0.0000,0.0000,-0.002349,0.124252,-0.127320,0.3925,0.5477,0.0418,0.000000,0.578311,-0.562971,0.564505,-0.592117,0.575243,-0.561437
1.5123,0.016755,0.000000,0.142212,-0.142212,0.0000,0.0000,0.0000,-0.002339,0.124252,-0.130388,0.4407,0.5269,0.1007,0.000000,0.579845,-0.562971,0.564505,-0.592117,0.575243,-0.561437
1.5291,0.016749,0.000000,0.145720,-0.145720,0.0000,0.0000,0.0000,-0.002352,0.133456,-0.131922,0.4249,0.4783,0.1482,0.000000,0.579845,-0.562971,0.564505,-0.590583,0.575243,-0.561437
1.5458,0.016751,0.000000,0.149228,-0.149228,0.0000,0.0000,0.0000,-0.002350,0.139592,-0.133456,0.4265,0.4834,0.1433,0.000000,0.579845,-0.562971,0.564505,-0.590583,0.575243,-0.561437
1.5626,0.016755,0.000000,0.152737,-0.152737,0.0000,0.0000,0.0000,-0.002362,0.141126,-0.139592,0.3766,0.4984,0.0900,0.000000,0.578311,-0.562971,0.564505,-0.590583,0.575243,-0.561437
1.5794,0.016831,0.000000,0.156263,-0.156263,0.0000,0.0000,0.0000,-0.002349,0.141126,-0.145728,0.3925,0.5477,0.0418,0.000000,0.578311,-0.562971,0.564505,-0.592117,0.575243,-0.561437
1.5962,0.016761,0.000000,0.159773,-0.159773,0.0000,0.0000,0.0000,-0.002349,0.141126,-0.145728,0.3925,0.5477,0.0418,0.000000,0.578311,-0.562971,0.564505,-0.592117,0.575243,-0.561437
1.6129,0.016757,0.000000,0.163282,-0.163282,0.0000,0.0000,0.0000,-0.002339,0.153398,-0.154932,0.4407,0.5269,0.1007,0.000000,0.579845,-0.562971,0.564505,-0.592117,0.575243,-0.561437
1.6297,0.016755,0.000000,0.166792,-0.166792,0.0000,0.0000,0.0000,-0.002363,0.156466,-0.156466,0.3751,0.4939,0.0944,0.000000,0.578311,-0.562971,0.564505,-0.590583,0.575243,-0.561437
1.6465,0.016775,0.000000,0.170305,-0.170305,0.0000,0.0000,0.0000,-0.002349,0.153398,-0.156466,0.3927,0.5482,0.0413,0.000000,0.578311,-0.562971,0.564505,-0.592117,0.575243,-0.561437
1.6634,0.016951,0.000000,0.173855,-0.173855,0.0000,0.0000,0.0000,-0.002339,0.154932,-0.159534,0.4407,0.5269,0.1007,0.000000,0.579845,-0.562971,0.564505,-0.592117,0.575243,-0.561437
1.6803,0.016886,0.000000,0.171674,-0.171674,0.0000,0.0000,0.0000,-0.002352,0.165670,-0.165670,0.4249,0.4783,0.1482,0.000000,0.579845,-0.562971,0.564505,-0.590583,0.575243,-0.561437
1.6971,0.016759,0.000000,0.168164,-0.168164,0.0000,0.0000,0.0000,-0.002352,0.165670,-0.165670,0.4249,0.4783,0.1482,0.000000,0.579845,-0.562971,0.564505,-0.590583,0.575243,-0.561437
1.7138,0.016758,0.000000,0.164654,-0.164654,0.0000,0.0000,0.0000,-0.002350,0.177942,-0.171806,0.4265,0.4834,0.1433,0.000000,0.579845,-0.562971,0.564505,-0.590583,0.575243,-0.561437
1.7306,0.016755,0.000000,0.161145,-0.161145,0.0000,0.0000,0.0000,-0.002351,0.176408,-0.177942,0.3873,0.5492,0.0362,0.000000,0.578311,-0.562971,0.564505,-0.592117,0.575243,-0.561437
1.7474,0.016838,0.000000,0.157618,-0.157618,0.0000,0.0000,0.0000,-0.002350,0.165670,-0.173340,0.4305,0.4760,0.1550,0.000000,0.579845,-0.562971,0.564505,-0.590583,0.575243,-0.561437
1.7642,0.016754,0.000000,0.154109,-0.154109,0.0000,0.0000,0.0000,-0.002350,0.162602,-0.167204,0.4260,0.4836,0.1426,0.000000,0.579845,-0.562971,0.564505,-0.590583,0.575243,-0.561437
1.7810,0.016777,0.000000,0.150595,-0.150595,0.0000,0.0000,0.0000,-0.002350,0.161068,-0.164136,0.4266,0.4826,0.1443,0.000000,0.579845,-0.562971,0.564505,-0.590583,0.575243,-0.561437
1.7977,0.016759,0.000000,0.147085,-0.147085,0.0000,0.0000,0.0000,-0.002350,0.161068,-0.164136,0.4266,0.4826,0.1443,0.000000,0.579845,-0.562971,0.564505,-0.590583,0.575243,-0.561437
1.8145,0.016762,0.000000,0.143575,-0.143575,0.0000,0.0000,0.0000,-0.002350,0.156466,-0.158000,0.4266,0.4826,0.1443,0.000000,0.579845,-0.562971,0.564505,-0.590583,0.575243,-0.561437
1.8312,0.016757,0.000000,0.140065,-0.140065,0.0000,0.0000,0.0000,-0.002362,0.151864,-0.154932,0.3766,0.4985,0.0899,0.000000,0.578311,-0.562971,0.564505,-0.590583,0.575243,-0.561437
1.8480,0.016764,0.000000,0.136554,-0.136554,0.0000,0.0000,0.0000,-0.002349,0.148796,-0.153398,0.4316,0.4812,0.1494,0.000000,0.579845,-0.562971,0.564505,-0.590583,0.575243,-0.561437
1.8648,0.016756,0.000000,0.133045,-0.133045,0.0000,0.0000,0.0000,-0.002351,0.144194,-0.150330,0.4258,0.4831,0.1432,0.000000,0.579845,-0.562971,0.564505,-0.590583,0.575243,-0.561437
1.8815,0.016760,0.000000,0.129535,-0.129535,0.0000,0.0000,0.0000,-0.002339,0.141126,-0.145728,0.4372,0.5337,0.0901,0.000000,0.579845,-0.562971,0.564505,-0.592117,0.575243,-0.561437
1.8983,0.016757,0.000000,0.126025,-0.126025,0.0000,0.0000,0.0000,-0.002339,0.141126,-0.145728,0.4372,0.5337,0.0901,0.000000,0.579845,-0.562971,0.564505,-0.592117,0.575243,-0.561437
1.9150,0.016759,0.000000,0.122515,-0.122515,0.0000,0.0000,0.0000,-0.002352,0.136524,-0.144194,0.4253,0.4776,0.1493,0.000000,0.579845,-0.562971,0.564505,-0.590583,0.575243,-0.561437
1.9318,0.016753,0.000000,0.119006,-0.119006,0.0000,0.0000,0.0000,-0.002362,0.131922,-0.139592,0.3767,0.4990,0.0894,0.000000,0.578311,-0.562971,0.564505,-0.590583,0.575243,-0.561437
1.9485,0.016756,0.000000,0.115497,-0.115497,0.0000,0.0000,0.0000,-0.002361,0.125786,-0.133456,0.3818,0.4968,0.0956,0.000000,0.578311,-0.562971,0.564505,-0.590583,0.575243,-0.561437
1.9653,0.016755,0.000000,0.111988,-0.111988,0.0000,0.0000,0.0000,-0.002338,0.121184,-0.125786,0.4418,0.5322,0.0950,0.000000,0.579845,-0.562971,0.564505,-0.592117,0.575243,-0.561437
1.9821,0.016756,0.000000,0.108478,-0.108478,0.0000,0.0000,0.0000,-0.002352,0.116583,-0.119651,0.4248,0.4778,0.1488,0.000000,0.579845,-0.562971,0.564505,-0.590583,0.575243,-0.561437
1.9988,0.016755,0.000000,0.104969,-0.104969,0.0000,0.0000,0.0000,-0.002352,0.116583,-0.119651,0.4248,0.4778,0.1488,0.000000,0.579845,-0.562971,0.564505,-0.590583,0.575243,-0.561437
2.0156,0.016749,0.000000,0.101461,-0.101461,0.0000,0.0000,0.0000,-0.002350,0.115049,-0.118117,0.4266,0.4834,0.1432,0.000000,0.579845,-0.562971,0.564505,-0.590583,0.575243,-0.561437
2.0323,0.016757,0.000000,0.097952,-0.097952,0.0000,0.0000,0.0000,-0.002350,0.113515,-0.118117,0.4266,0.4834,0.1432,0.000000,0.579845,-0.562971,0.564505,-0.590583,0.575243,-0.561437
2.0491,0.016752,0.000000,0.094443,-0.094443,0.0000,0.0000,0.0000,-0.002351,0.110447,-0.118117,0.3873,0.5492,0.0363,0.000000,0.578311,-0.562971,0.564505,-0.592117,0.575243,-0.561437
2.0658,0.016755,0.000000,0.090934,-0.090934,0.0000,0.0000,0.0000,-0.002351,0.110447,-0.118117,0.3873,0.5492,0.0363,0.000000,0.578311,-0.562971,0.564505,-0.592117,0.575243,-0.561437
2.0826,0.016779,0.000000,0.087420,-0.087420,0.0000,0.0000,0.0000,-0.002350,0.102777,-0.116583,0.4305,0.4760,0.1550,0.000000,0.579845,-0.562971,0.564505,-0.590583,0.575243,-0.561437
2.0994,0.016783,0.000000,0.083905,-0.083905,0.0000,0.0000,0.0000,-0.002350,0.095107,-0.110447,0.4260,0.4836,0.1426,0.000000,0.579845,-0.562971,0.564505,-0.590583,0.575243,-0.561437
2.1161,0.016747,0.000000,0.080398,-0.080398,0.0000,0.0000,0.0000,-0.002362,0.090505,-0.098175,0.3767,0.4984,0.0901,0.000000,0.578311,-0.562971,0.564505,-0.590583,0.575243,-0.561437
2.1331,0.017008,0.000000,0.076835,-0.076835,0.0000,0.0000,0.0000,-0.002349,0.088971,-0.088971,0.4316,0.4813,0.1494,0.000000,0.579845,-0.562971,0.564505,-0.590583,0.575243,-0.561437
2.1499,0.016755,0.000000,0.073326,-0.073326,0.0000,0.0000,0.0000,-0.002349,0.085903,-0.081301,0.4316,0.4813,0.1494,0.000000,0.579845,-0.562971,0.564505,-0.592117,0.575243,-0.561437
2.1666,0.016751,0.000000,0.069818,-0.069818,0.0000,0.0000,0.0000,-0.002339,0.085903,-0.081301,0.4366,0.5339,0.0894,0.000000,0.579845,-0.562971,0.564505,-0.592117,0.575243,-0.561437
2.1834,0.016785,0.000000,0.066303,-0.066303,0.0000,0.0000,0.0000,-0.002340,0.081301,-0.079767,0.4361,0.5284,0.0957,0.000000,0.579845,-0.562971,0.564505,-0.592117,0.575243,-0.561437
2.2002,0.016764,0.000000,0.062791,-0.062791,0.0000,0.0000,0.0000,-0.002363,0.076699,-0.078233,0.3756,0.4938,0.0950,0.000000,0.578311,-0.562971,0.564505,-0.590583,0.575243,-0.561437
2.2169,0.016748,0.000000,0.059284,-0.059284,0.0000,0.0000,0.0000,-0.002349,0.072097,-0.073631,0.4317,0.4817,0.1488,0.000000,0.579845,-0.562971,0.564505,-0.590583,0.575243,-0.561437
2.2337,0.016772,0.000000,0.055771,-0.055771,0.0000,0.0000,0.0000,-0.002362,0.065961,-0.067495,0.3761,0.4986,0.0894,0.000000,0.578311,-0.562971,0.564505,-0.590583,0.575243,-0.561437
2.2505,0.016745,0.000000,0.052264,-0.052264,0.0000,0.0000,0.0000,-0.002362,0.065961,-0.067495,0.3761,0.4986,0.0894,0.000000,0.578311,-0.562971,0.564505,-0.590583,0.575243,-0.561437
2.2672,0.016754,0.000000,0.048755,-0.048755,0.0000,0.0000,0.0000,-0.002349,0.059825,-0.064427,0.3926,0.5477,0.0419,0.000000,0.578311,-0.562971,0.564505,-0.592117,0.575243,-0.561437
2.2840,0.016750,0.000000,0.045247,-0.045247,0.0000,0.0000,0.0000,-0.002351,0.058291,-0.059825,0.4299,0.4761,0.1544,0.000000,0.579845,-0.562971,0.564505,-0.590583,0.575243,-0.561437
2.3007,0.016765,0.000000,0.041736,-0.041736,0.0000,0.0000,0.0000,-0.002362,0.059825,-0.053689,0.3762,0.4992,0.0888,0.000000,0.578311,-0.562971,0.564505,-0.590583,0.575243,-0.561437
2.3176,0.016882,0.000000,0.038200,-0.038200,0.0000,0.0000,0.0000,-0.002361,0.056757,-0.050621,0.3818,0.4968,0.0957,0.000000,0.578311,-0.562971,0.564505,-0.590583,0.575243,-0.561437
2.3344,0.016763,0.000000,0.034689,-0.034689,0.0000,0.0000,0.0000,-0.002349,0.050621,-0.046019,0.4310,0.4814,0.1488,0.000000,0.579845,-0.562971,0.564505,-0.590583,0.575243,-0.561437
2.3511,0.016754,0.000000,0.031180,-0.031180,0.0000,0.0000,0.0000,-0.002349,0.050621,-0.046019,0.4310,0.4814,0.1488,0.000000,0.579845,-0.562971,0.564505,-0.590583,0.575243,-0.561437
2.3679,0.016762,0.000000,0.027670,-0.027670,0.0000,0.0000,0.0000,-0.002362,0.038350,-0.041417,0.3761,0.4986,0.0894,0.000000,0.578311,-0.562971,0.564505,-0.590583,0.575243,-0.561437
2.3846,0.016730,0.000000,0.024166,-0.024166,0.0000,0.0000,0.0000,-0.002349,0.033748,-0.041417,0.4316,0.4812,0.1494,0.000000,0.579845,-0.562971,0.564505,-0.590583,0.575243,-0.561437
2.4014,0.016757,0.000000,0.020656,-0.020656,0.0000,0.0000,0.0000,-0.002351,0.033748,-0.038350,0.4258,0.4831,0.1432,0.000000,0.579845,-0.562971,0.564505,-0.590583,0.575243,-0.561437
2.4181,0.016758,0.000000,0.017146,-0.017146,0.0000,0.0000,0.0000,-0.002351,0.035282,-0.033748,0.4258,0.4831,0.1432,0.000000,0.579845,-0.562971,0.564505,-0.590583,0.575243,-0.561437
2.4349,0.016781,0.000000,0.013632,-0.013632,0.0000,0.0000,0.0000,-0.002351,0.035282,-0.033748,0.4258,0.4831,0.1432,0.000000,0.579845,-0.562971,0.564505,-0.590583,0.575243,-0.561437
2.4517,0.016747,0.000000,0.010124,-0.010124,0.0000,0.0000,0.0000,-0.002339,0.030680,-0.026078,0.4372,0.5337,0.0901,0.000000,0.579845,-0.562971,0.564505,-0.592117,0.575243,-0.561437
2.4684,0.016754,0.000000,0.006615,-0.006615,0.0000,0.0000,0.0000,-0.002340,0.023010,-0.016874,0.4360,0.5284,0.0956,0.000000,0.579845,-0.562971,0.564505,-0.592117,0.575243,-0.561437
2.4852,0.016752,0.000000,0.003107,-0.003107,0.0000,0.0000,0.0000,-0.002363,0.015340,-0.016874,0.3756,0.4938,0.0950,0.000000,0.578311,-0.562971,0.564505,-0.590583,0.575243,-0.561437
2.5019,0.016759,0.000000,-0.000403,0.000403,0.0000,0.0000,0.0000,-0.002349,0.009204,-0.012272,0.3926,0.5482,0.0413,0.000000,0.578311,-0.562971,0.564505,-0.592117,0.575243,-0.561437
2.5187,0.016756,0.000000,-0.003913,0.003913,0.0000,0.0000,0.0000,-0.002351,0.007670,-0.003068,0.4299,0.4761,0.1544,0.000000,0.579845,-0.562971,0.564505,-0.590583,0.575243,-0.561437
2.5354,0.016743,0.000000,-0.007419,0.007419,0.0000,0.0000,0.0000,-0.002351,0.007670,-0.003068,0.4299,0.4761,0.1544,0.000000,0.579845,-0.562971,0.564505,-0.590583,0.575243,-0.561437
2.5522,0.016750,0.000000,-0.010927,0.010927,0.0000,0.0000,0.0000,-0.002362,-0.001534,0.000000,0.3762,0.4992,0.0888,0.000000,0.578311,-0.562971,0.564505,-0.590583,0.575243,-0.561437
2.5689,0.016756,0.000000,-0.014437,0.014437,0.0000,0.0000,0.0000,-0.002338,-0.004602,0.001534,0.4424,0.5320,0.0957,0.000000,0.579845,-0.562971,0.564505,-0.592117,0.575243,-0.561437
2.5860,0.017050,0.000000,-0.018008,0.018008,0.0000,0.0000,0.0000,-0.002352,-0.004602,0.004602,0.4247,0.4778,0.1488,0.000000,0.579845,-0.562971,0.564505,-0.590583,0.575243,-0.561437
2.6027,0.016762,0.000000,-0.021518,0.021518,0.0000,0.0000,0.0000,-0.002350,-0.006136,0.009204,0.4266,0.4834,0.1432,0.000000,0.579845,-0.562971,0.564505,-0.590583,0.575243,-0.561437
2.6195,0.016759,0.000000,-0.025028,0.025028,0.0000,0.0000,0.0000,-0.002350,-0.013806,0.015340,0.4266,0.4834,0.1432,0.000000,0.578311,-0.562971,0.564505,-0.592117,0.575243,-0.561437
2.6364,0.016865,0.000000,-0.028560,0.028560,0.0000,0.0000,0.0000,-0.002351,-0.013806,0.015340,0.3873,0.5492,0.0363,0.000000,0.578311,-0.562971,0.564505,-0.592117,0.575243,-0.561437
2.6531,0.016772,0.000000,-0.032073,0.032073,0.0000,0.0000,0.0000,-0.002350,-0.026078,0.018408,0.4305,0.4760,0.1550,0.000000,0.579845,-0.562971,0.564505,-0.590583,0.575243,-0.561437
2.6699,0.016765,0.000000,-0.035584,0.035584,0.0000,0.0000,0.0000,-0.002350,-0.026078,0.019942,0.4260,0.4836,0.1426,0.000000,0.579845,-0.562971,0.564505,-0.590583,0.575243,-0.561437
2.6867,0.016845,0.000000,-0.039112,0.039112,0.0000,0.0000,0.0000,-0.002362,-0.021476,0.026078,0.3767,0.4984,0.0901,0.000000,0.578311,-0.562971,0.564505,-0.590583,0.575243,-0.561437
2.7035,0.016746,0.000000,-0.042620,0.042620,0.0000,0.0000,0.0000,-0.002338,-0.024544,0.033748,0.4424,0.5321,0.0956,0.000000,0.579845,-0.562971,0.564505,-0.592117,0.575243,-0.561437
2.7203,0.016773,0.000000,-0.046132,0.046132,0.0000,0.0000,0.0000,-0.002338,-0.033748,0.039884,0.4424,0.5321,0.0956,0.000000,0.578311,-0.562971,0.564505,-0.590583,0.575243,-0.561437
2.7370,0.016755,0.000000,-0.049642,0.049642,0.0000,0.0000,0.0000,-0.002363,-0.033748,0.039884,0.3749,0.4934,0.0950,0.000000,0.578311,-0.562971,0.564505,-0.590583,0.575243,-0.561437
2.7538,0.016759,0.000000,-0.053152,0.053152,0.0000,0.0000,0.0000,-0.002349,-0.042951,0.038350,0.4318,0.4818,0.1488,0.000000,0.579845,-0.562971,0.564505,-0.590583,0.575243,-0.561437
2.7705,0.016751,0.000000,-0.056660,0.056660,0.0000,0.0000,0.0000,-0.002339,-0.047553,0.039884,0.4366,0.5338,0.0895,0.000000,0.579845,-0.562971,0.564505,-0.592117,0.575243,-0.561437
2.7873,0.016765,0.000000,-0.060171,0.060171,0.0000,0.0000,0.0000,-0.002352,-0.047553,0.049087,0.4253,0.4776,0.1494,0.000000,0.579845,-0.562971,0.564505,-0.590583,0.575243,-0.561437
2.8041,0.016755,0.000000,-0.063680,0.063680,0.0000,0.0000,0.0000,-0.002351,-0.050621,0.053689,0.3875,0.5498,0.0356,0.000000,0.578311,-0.562971,0.564505,-0.592117,0.575243,-0.561437
2.8210,0.016912,0.000000,-0.067222,0.067222,0.0000,0.0000,0.0000,-0.002351,-0.050621,0.053689,0.3875,0.5498,0.0356,0.000000,0.578311,-0.562971,0.564505,-0.592117,0.575243,-0.561437
2.8377,0.016754,0.000000,-0.070731,0.070731,0.0000,0.0000,0.0000,-0.002362,-0.058291,0.055223,0.3806,0.4916,0.1012,0.000000,0.578311,-0.562971,0.564505,-0.590583,0.575243,-0.561437
2.8545,0.016761,0.000000,-0.074242,0.074242,0.0000,0.0000,0.0000,-0.002338,-0.065961,0.061359,0.4419,0.5328,0.0945,0.000000,0.579845,-0.562971,0.564505,-0.592117,0.575243,-0.561437
2.8712,0.016761,0.000000,-0.077752,0.077752,0.0000,0.0000,0.0000,-0.002363,-0.065961,0.067495,0.3750,0.4933,0.0951,0.000000,0.578311,-0.562971,0.564505,-0.590583,0.575243,-0.561437
2.8880,0.016761,0.000000,-0.081263,0.081263,0.0000,0.0000,0.0000,-0.002349,-0.064427,0.065961,0.4318,0.4818,0.1488,0.000000,0.579845,-0.562971,0.564505,-0.590583,0.575243,-0.561437
2.9048,0.016762,0.000000,-0.084773,0.084773,0.0000,0.0000,0.0000,-0.002351,-0.069029,0.067495,0.4258,0.4830,0.1432,0.000000,0.579845,-0.562971,0.564505,-0.590583,0.575243,-0.561437
2.9215,0.016761,0.000000,-0.088284,0.088284,0.0000,0.0000,0.0000,-0.002351,-0.078233,0.078233,0.4258,0.4830,0.1432,0.000000,0.579845,-0.562971,0.564505,-0.590583,0.575243,-0.561437
2.9383,0.016763,0.000000,-0.091794,0.091794,0.0000,0.0000,0.0000,-0.002351,-0.078233,0.078233,0.4258,0.4830,0.1432,0.000000,0.579845,-0.562971,0.564505,-0.590583,0.575243,-0.561437
2.9550,0.016752,0.000000,-0.095303,0.095303,0.0000,0.0000,0.0000,-0.002351,-0.084369,0.081301,0.3874,0.5493,0.0363,0.000000,0.578311,-0.562971,0.564505,-0.592117,0.575243,-0.561437
2.9718,0.016767,0.000000,-0.098815,0.098815,0.0000,0.0000,0.0000,-0.002362,-0.082835,0.082835,0.3807,0.4916,0.1011,0.000000,0.578311,-0.562971,0.564505,-0.590583,0.575243,-0.561437
2.9886,0.016760,0.000000,-0.102325,0.102325,0.0000,0.0000,0.0000,-0.002361,-0.084369,0.088971,0.3814,0.4976,0.0944,0.000000,0.578311,-0.562971,0.564505,-0.590583,0.575243,-0.561437
3.0053,0.016748,0.000000,-0.105833,0.105833,0.0000,0.0000,0.0000,-0.002361,-0.096641,0.098175,0.3814,0.4976,0.0944,0.000000,0.578311,-0.562971,0.564505,-0.590583,0.575243,-0.561437
3.0223,0.017023,0.000000,-0.109398,0.109398,0.0000,0.0000,0.0000,-0.002361,-0.096641,0.098175,0.3814,0.4976,0.0944,0.000000,0.578311,-0.562971,0.564505,-0.590583,0.575243,-0.561437
3.0391,0.016766,0.000000,-0.112909,0.112909,0.0000,0.0000,0.0000,-0.002350,-0.105845,0.098175,0.3920,0.5478,0.0413,0.000000,0.578311,-0.562971,0.564505,-0.592117,0.575243,-0.561437
3.0559,0.016768,0.000000,-0.116421,0.116421,0.0000,0.0000,0.0000,-0.002362,-0.105845,0.098175,0.3802,0.4918,0.1006,0.000000,0.578311,-0.562971,0.564505,-0.590583,0.575243,-0.561437
3.0728,0.016884,0.000000,-0.119957,0.119957,0.0000,0.0000,0.0000,-0.002349,-0.104311,0.102777,0.4312,0.4820,0.1483,0.000000,0.579845,-0.562971,0.564505,-0.590583,0.575243,-0.561437
3.0895,0.016763,0.000000,-0.123468,0.123468,0.0000,0.0000,0.0000,-0.002349,-0.104311,0.102777,0.4312,0.4820,0.1483,0.000000,0.579845,-0.562971,0.564505,-0.590583,0.575243,-0.561437
3.1063,0.016784,0.000000,-0.126983,0.126983,0.0000,0.0000,0.0000,-0.002351,-0.108913,0.108913,0.4259,0.4830,0.1433,0.000000,0.579845,-0.562971,0.564505,-0.590583,0.575243,-0.561437
3.1231,0.016755,0.000000,-0.130492,0.130492,0.0000,0.0000,0.0000,-0.002362,-0.118117,0.118117,0.3767,0.4985,0.0900,0.000000,0.578311,-0.562971,0.564505,-0.590583,0.575243,-0.561437
3.1398,0.016746,0.000000,-0.134000,0.134000,0.0000,0.0000,0.0000,-0.002349,-0.124252,0.119651,0.4316,0.4813,0.1494,0.000000,0.579845,-0.562971,0.564505,-0.590583,0.575243,-0.561437
3.1566,0.016757,0.000000,-0.137509,0.137509,0.0000,0.0000,0.0000,-0.002351,-0.127320,0.119651,0.4258,0.4831,0.1432,0.000000,0.579845,-0.562971,0.564505,-0.590583,0.575243,-0.561437
3.1733,0.016755,0.000000,-0.141018,0.141018,0.0000,0.0000,0.0000,-0.002351,-0.131922,0.127320,0.4258,0.4831,0.1432,0.000000,0.579845,-0.562971,0.564505,-0.590583,0.575243,-0.561437
3.1901,0.016759,0.000000,-0.144529,0.144529,0.0000,0.0000,0.0000,-0.002351,-0.131922,0.127320,0.4258,0.4831,0.1432,0.000000,0.579845,-0.562971,0.564505,-0.590583,0.575243,-0.561437
3.2068,0.016741,0.000000,-0.148035,0.148035,0.0000,0.0000,0.0000,-0.002351,-0.136524,0.134990,0.3874,0.5493,0.0363,0.000000,0.578311,-0.562971,0.564505,-0.592117,0.575243,-0.561437
3.2236,0.016751,0.000000,-0.151543,0.151543,0.0000,0.0000,0.0000,-0.002362,-0.136524,0.134990,0.3807,0.4916,0.1011,0.000000,0.578311,-0.562971,0.564505,-0.590583,0.575243,-0.561437
3.2403,0.016741,0.000000,-0.155049,0.155049,0.0000,0.0000,0.0000,-0.002361,-0.138058,0.136524,0.3814,0.4976,0.0944,0.000000,0.578311,-0.562971,0.564505,-0.590583,0.575243,-0.561437
3.2571,0.016755,0.000000,-0.158559,0.158559,0.0000,0.0000,0.0000,-0.002350,-0.145728,0.148796,0.3920,0.5478,0.0413,0.000000,0.578311,-0.562971,0.564505,-0.592117,0.575243,-0.561437
3.2739,0.016886,0.000000,-0.162095,0.162095,0.0000,0.0000,0.0000,-0.002362,-0.158000,0.151864,0.3802,0.4918,0.1006,0.000000,0.578311,-0.562971,0.564505,-0.590583,0.575243,-0.561437
3.2907,0.016757,0.000000,-0.165605,0.165605,0.0000,0.0000,0.0000,-0.002362,-0.158000,0.151864,0.3802,0.4918,0.1006,0.000000,0.578311,-0.562971,0.564505,-0.590583,0.575243,-0.561437
3.3074,0.016739,0.000000,-0.169111,0.169111,0.0000,0.0000,0.0000,-0.002338,-0.159534,0.150330,0.4420,0.5328,0.0945,0.000000,0.579845,-0.562971,0.564505,-0.592117,0.575243,-0.561437
3.3242,0.016744,0.000000,-0.172618,0.172618,0.0000,0.0000,0.0000,-0.002363,-0.158000,0.154932,0.3750,0.4933,0.0951,0.000000,0.578311,-0.562971,0.564505,-0.590583,0.575243,-0.561437
3.3409,0.016741,0.000000,-0.172942,0.172942,0.0000,0.0000,0.0000,-0.002361,-0.164136,0.162602,0.3820,0.4974,0.0950,0.000000,0.578311,-0.562971,0.564505,-0.590583,0.575243,-0.561437
3.3577,0.016751,0.000000,-0.169434,0.169434,0.0000,0.0000,0.0000,-0.002349,-0.168738,0.165670,0.4310,0.4814,0.1488,0.000000,0.579845,-0.562971,0.564505,-0.590583,0.575243,-0.561437
3.3744,0.016744,0.000000,-0.165927,0.165927,0.0000,0.0000,0.0000,-0.002362,-0.174874,0.173340,0.3761,0.4987,0.0894,0.000000,0.578311,-0.562971,0.564505,-0.590583,0.575243,-0.561437
3.3913,0.016827,0.000000,-0.162403,0.162403,0.0000,0.0000,0.0000,-0.002362,-0.174874,0.173340,0.3761,0.4987,0.0894,0.000000,0.578311,-0.562971,0.564505,-0.590583,0.575243,-0.561437
3.4080,0.016744,0.000000,-0.158896,0.158896,0.0000,0.0000,0.0000,-0.002349,-0.177942,0.176408,0.4316,0.4812,0.1494,0.000000,0.579845,-0.562971,0.564505,-0.590583,0.575243,-0.561437
3.4247,0.016742,0.000000,-0.155389,0.155389,0.0000,0.0000,0.0000,-0.002362,-0.176408,0.171806,0.3761,0.4987,0.0894,0.000000,0.578311,-0.562971,0.564505,-0.590583,0.575243,-0.561437
3.4415,0.016744,0.000000,-0.151882,0.151882,0.0000,0.0000,0.0000,-0.002349,-0.170272,0.167204,0.4316,0.4812,0.1494,0.000000,0.579845,-0.562971,0.564505,-0.590583,0.575243,-0.561437
3.4582,0.016752,0.000000,-0.148374,0.148374,0.0000,0.0000,0.0000,-0.002362,-0.165670,0.165670,0.3761,0.4987,0.0894,0.000000,0.578311,-0.562971,0.564505,-0.590583,0.575243,-0.561437
3.4750,0.016746,0.000000,-0.144867,0.144867,0.0000,0.0000,0.0000,-0.002349,-0.156466,0.161068,0.3926,0.5477,0.0419,0.000000,0.578311,-0.562971,0.564505,-0.592117,0.575243,-0.561437
3.4917,0.016753,0.000000,-0.141358,0.141358,0.0000,0.0000,0.0000,-0.002349,-0.156466,0.161068,0.3926,0.5477,0.0419,0.000000,0.578311,-0.562971,0.564505,-0.592117,0.575243,-0.561437
3.5085,0.016745,0.000000,-0.137851,0.137851,0.0000,0.0000,0.0000,-0.002362,-0.154932,0.156466,0.3801,0.4918,0.1006,0.000000,0.578311,-0.562971,0.564505,-0.590583,0.575243,-0.561437
3.5252,0.016746,0.000000,-0.134344,0.134344,0.0000,0.0000,0.0000,-0.002349,-0.154932,0.150330,0.3922,0.5484,0.0407,0.000000,0.578311,-0.562971,0.564505,-0.592117,0.575243,-0.561437
3.5420,0.016795,0.000000,-0.130826,0.130826,0.0000,0.0000,0.0000,-0.002351,-0.150330,0.148796,0.4300,0.4761,0.1545,0.000000,0.579845,-0.562971,0.564505,-0.590583,0.575243,-0.561437
3.5588,0.016758,0.000000,-0.127316,0.127316,0.0000,0.0000,0.0000,-0.002351,-0.145728,0.144194,0.3870,0.5500,0.0351,0.000000,0.578311,-0.562971,0.564505,-0.592117,0.575243,-0.561437
3.5755,0.016749,0.000000,-0.123808,0.123808,0.0000,0.0000,0.0000,-0.002351,-0.141126,0.142660,0.3915,0.5423,0.0475,0.000000,0.578311,-0.562971,0.564505,-0.592117,0.575243,-0.561437
3.5923,0.016758,0.000000,-0.120299,0.120299,0.0000,0.0000,0.0000,-0.002351,-0.141126,0.142660,0.3915,0.5423,0.0475,0.000000,0.578311,-0.562971,0.564505,-0.592117,0.575243,-0.561437
3.6090,0.016744,0.000000,-0.116792,0.116792,0.0000,0.0000,0.0000,-0.002350,-0.133456,0.139592,0.4300,0.4767,0.1538,0.000000,0.579845,-0.562971,0.564505,-0.590583,0.575243,-0.561437
3.6258,0.016745,0.000000,-0.113285,0.113285,0.0000,0.0000,0.0000,-0.002362,-0.128854,0.134990,0.3762,0.4991,0.0889,0.000000,0.578311,-0.562971,0.564505,-0.590583,0.575243,-0.561437
3.6425,0.016743,0.000000,-0.109778,0.109778,0.0000,0.0000,0.0000,-0.002361,-0.127320,0.127320,0.3818,0.4968,0.0957,0.000000,0.578311,-0.562971,0.564505,-0.590583,0.575243,-0.561437
3.6593,0.016752,0.000000,-0.106270,0.106270,0.0000,0.0000,0.0000,-0.002349,-0.124252,0.121184,0.4310,0.4814,0.1488,0.000000,0.579845,-0.562971,0.564505,-0.590583,0.575243,-0.561437
3.6760,0.016777,0.000000,-0.102756,0.102756,0.0000,0.0000,0.0000,-0.002351,-0.121184,0.116583,0.4259,0.4830,0.1432,0.000000,0.579845,-0.562971,0.564505,-0.590583,0.575243,-0.561437
3.6928,0.016755,0.000000,-0.099247,0.099247,0.0000,0.0000,0.0000,-0.002351,-0.121184,0.116583,0.4259,0.4830,0.1432,0.000000,0.579845,-0.562971,0.564505,-0.590583,0.575243,-0.561437
3.7095,0.016740,0.000000,-0.095741,0.095741,0.0000,0.0000,0.0000,-0.002351,-0.116583,0.113515,0.4259,0.4830,0.1432,0.000000,0.579845,-0.562971,0.564505,-0.590583,0.575243,-0.561437
3.7263,0.016757,0.000000,-0.092231,0.092231,0.0000,0.0000,0.0000,-0.002339,-0.110447,0.110447,0.4372,0.5337,0.0901,0.000000,0.579845,-0.562971,0.564505,-0.592117,0.575243,-0.561437
3.7430,0.016741,0.000000,-0.088725,0.088725,0.0000,0.0000,0.0000,-0.002352,-0.104311,0.104311,0.4253,0.4776,0.1493,0.000000,0.579845,-0.562971,0.564505,-0.590583,0.575243,-0.561437
3.7598,0.016755,0.000000,-0.085216,0.085216,0.0000,0.0000,0.0000,-0.002351,-0.101243,0.092039,0.3875,0.5498,0.0356,0.000000,0.578311,-0.562971,0.564505,-0.592117,0.575243,-0.561437
3.7765,0.016745,0.000000,-0.081709,0.081709,0.0000,0.0000,0.0000,-0.002362,-0.093573,0.090505,0.3806,0.4916,0.1012,0.000000,0.578311,-0.562971,0.564505,-0.590583,0.575243,-0.561437
3.7933,0.016759,0.000000,-0.078199,0.078199,0.0000,0.0000,0.0000,-0.002362,-0.093573,0.090505,0.3806,0.4916,0.1012,0.000000,0.578311,-0.562971,0.564505,-0.590583,0.575243,-0.561437
3.8100,0.016741,0.000000,-0.074692,0.074692,0.0000,0.0000,0.0000,-0.002361,-0.093573,0.090505,0.3814,0.4976,0.0944,0.000000,0.578311,-0.562971,0.564505,-0.590583,0.575243,-0.561437
3.8268,0.016755,0.000000,-0.071183,0.071183,0.0000,0.0000,0.0000,-0.002349,-0.079767,0.087437,0.4311,0.4813,0.1489,0.000000,0.579845,-0.562971,0.564505,-0.590583,0.575243,-0.561437
3.8435,0.016745,0.000000,-0.067676,0.067676,0.0000,0.0000,0.0000,-0.002351,-0.078233,0.084369,0.4259,0.4831,0.1432,0.000000,0.579845,-0.562971,0.564505,-0.590583,0.575243,-0.561437
3.8603,0.016764,0.000000,-0.064165,0.064165,0.0000,0.0000,0.0000,-0.002351,-0.075165,0.078233,0.4259,0.4831,0.1432,0.000000,0.579845,-0.562971,0.564505,-0.590583,0.575243,-0.561437
3.8771,0.016749,0.000000,-0.060657,0.060657,0.0000,0.0000,0.0000,-0.002362,-0.069029,0.069029,0.3767,0.4985,0.0900,0.000000,0.578311,-0.562971,0.564505,-0.590583,0.575243,-0.561437
3.8938,0.016758,0.000000,-0.057147,0.057147,0.0000,0.0000,0.0000,-0.002362,-0.069029,0.069029,0.3767,0.4985,0.0900,0.000000,0.578311,-0.562971,0.564505,-0.590583,0.575243,-0.561437
3.9106,0.016744,0.000000,-0.053640,0.053640,0.0000,0.0000,0.0000,-0.002349,-0.065961,0.064427,0.4316,0.4813,0.1494,0.000000,0.579845,-0.562971,0.564505,-0.590583,0.575243,-0.561437
3.9273,0.016760,0.000000,-0.050130,0.050130,0.0000,0.0000,0.0000,-0.002351,-0.065961,0.062893,0.4258,0.4831,0.1432,0.000000,0.579845,-0.562971,0.564505,-0.590583,0.575243,-0.561437
3.9441,0.016745,0.000000,-0.046623,0.046623,0.0000,0.0000,0.0000,-0.002339,-0.061359,0.061359,0.4372,0.5337,0.0901,0.000000,0.579845,-0.562971,0.564505,-0.592117,0.575243,-0.561437
3.9608,0.016766,0.000000,-0.043112,0.043112,0.0000,0.0000,0.0000,-0.002352,-0.050621,0.058291,0.4253,0.4776,0.1493,0.000000,0.579845,-0.562971,0.564505,-0.590583,0.575243,-0.561437
3.9776,0.016753,0.000000,-0.039603,0.039603,0.0000,0.0000,0.0000,-0.002352,-0.044485,0.053689,0.4253,0.4776,0.1493,0.000000,0.579845,-0.562971,0.564505,-0.592117,0.575243,-0.561437
3.9943,0.016757,0.000000,-0.036093,0.036093,0.0000,0.0000,0.0000,-0.002339,-0.044485,0.053689,0.4373,0.5342,0.0894,0.000000,0.579845,-0.562971,0.564505,-0.592117,0.575243,-0.561437
4.0111,0.016747,0.000000,-0.032586,0.032586,0.0000,0.0000,0.0000,-0.002363,-0.046019,0.046019,0.3755,0.4932,0.0956,0.000000,0.578311,-0.562971,0.564505,-0.590583,0.575243,-0.561437
4.0278,0.016756,0.000000,-0.029077,0.029077,0.0000,0.0000,0.0000,-0.002349,-0.046019,0.039884,0.4317,0.4818,0.1488,0.000000,0.579845,-0.562971,0.564505,-0.590583,0.575243,-0.561437
4.0446,0.016746,0.000000,-0.025569,0.025569,0.0000,0.0000,0.0000,-0.002351,-0.041417,0.036816,0.4258,0.4830,0.1432,0.000000,0.579845,-0.562971,0.564505,-0.590583,0.575243,-0.561437
4.0613,0.016761,0.000000,-0.022059,0.022059,0.0000,0.0000,0.0000,-0.002339,-0.033748,0.033748,0.4372,0.5337,0.0901,0.000000,0.579845,-0.562971,0.564505,-0.592117,0.575243,-0.561437
4.0781,0.016751,0.000000,-0.018551,0.018551,0.0000,0.0000,0.0000,-0.002339,-0.023010,0.030680,0.4372,0.5337,0.0901,0.000000,0.579845,-0.562971,0.564505,-0.590583,0.575243,-0.561437
4.0949,0.016764,0.000000,-0.015040,0.015040,0.0000,0.0000,0.0000,-0.002352,-0.023010,0.030680,0.4253,0.4776,0.1493,0.000000,0.579845,-0.562971,0.564505,-0.590583,0.575243,-0.561437
4.1116,0.016745,0.000000,-0.011532,0.011532,0.0000,0.0000,0.0000,-0.002362,-0.021476,0.026078,0.3767,0.4990,0.0894,0.000000,0.578311,-0.562971,0.564505,-0.590583,0.575243,-0.561437
4.1283,0.016745,0.000000,-0.008025,0.008025,0.0000,0.0000,0.0000,-0.002361,-0.024544,0.019942,0.3818,0.4968,0.0956,0.000000,0.578311,-0.562971,0.564505,-0.590583,0.575243,-0.561437
4.1451,0.016763,0.000000,-0.004514,0.004514,0.0000,0.0000,0.0000,-0.002349,-0.021476,0.015340,0.4310,0.4814,0.1488,0.000000,0.579845,-0.562971,0.564505,-0.590583,0.575243,-0.561437
4.1619,0.016751,0.000000,-0.001006,0.001006,0.0000,0.0000,0.0000,-0.002351,-0.013806,0.010738,0.4259,0.4830,0.1432,0.000000,0.579845,-0.562971,0.564505,-0.590583,0.575243,-0.561437
4.1786,0.016746,0.000000,0.002501,-0.002501,0.0000,0.0000,0.0000,-0.002362,-0.006136,0.006136,0.3767,0.4985,0.0900,0.000000,0.578311,-0.562971,0.564505,-0.590583,0.575243,-0.561437
4.1954,0.016770,0.000000,0.006014,-0.006014,0.0000,0.0000,0.0000,-0.002362,-0.006136,0.006136,0.3767,0.4985,0.0900,0.000000,0.578311,-0.562971,0.564505,-0.590583,0.575243,-0.561437
4.2121,0.016752,0.000000,0.009522,-0.009522,0.0000,0.0000,0.0000,-0.002349,0.001534,0.003068,0.4316,0.4813,0.1494,0.000000,0.579845,-0.562971,0.564505,-0.590583,0.575243,-0.561437
4.2289,0.016755,0.000000,0.013031,-0.013031,0.0000,0.0000,0.0000,-0.002351,0.001534,0.000000,0.4258,0.4831,0.1432,0.000000,0.579845,-0.562971,0.564505,-0.590583,0.575243,-0.561437
4.2457,0.016798,0.000000,0.016549,-0.016549,0.0000,0.0000,0.0000,-0.002339,-0.001534,-0.004602,0.4372,0.5337,0.0901,0.000000,0.579845,-0.562971,0.564505,-0.592117,0.575243,-0.561437
4.2633,0.017664,0.000000,0.020249,-0.020249,0.0000,0.0000,0.0000,-0.002352,0.004602,-0.010738,0.3862,0.5440,0.0418,0.000000,0.578311,-0.562971,0.564505,-0.592117,0.575243,-0.561437
4.2804,0.017096,0.000000,0.023829,-0.023829,0.0000,0.0000,0.0000,-0.002352,0.013806,-0.015340,0.3862,0.5440,0.0418,0.000000,0.578311,-0.562971,0.564505,-0.590583,0.575243,-0.561437
4.2972,0.016743,0.000000,0.027336,-0.027336,0.0000,0.0000,0.0000,-0.002362,0.013806,-0.015340,0.3808,0.4922,0.1006,0.000000,0.578311,-0.562971,0.564505,-0.590583,0.575243,-0.561437
4.3139,0.016752,0.000000,0.030845,-0.030845,0.0000,0.0000,0.0000,-0.002361,0.018408,-0.015340,0.3814,0.4975,0.0944,0.000000,0.578311,-0.562971,0.564505,-0.590583,0.575243,-0.561437
4.3307,0.016744,0.000000,0.034351,-0.034351,0.0000,0.0000,0.0000,-0.002350,0.018408,-0.018408,0.3920,0.5478,0.0413,0.000000,0.578311,-0.562971,0.564505,-0.592117,0.575243,-0.561437
4.3474,0.016743,0.000000,0.037858,-0.037858,0.0000,0.0000,0.0000,-0.002351,0.018408,-0.021476,0.4300,0.4761,0.1544,0.000000,0.579845,-0.562971,0.564505,-0.590583,0.575243,-0.561437
4.3642,0.016747,0.000000,0.041366,-0.041366,0.0000,0.0000,0.0000,-0.002350,0.027612,-0.027612,0.4260,0.4836,0.1426,0.000000,0.579845,-0.562971,0.564505,-0.590583,0.575243,-0.561437
4.3811,0.016934,0.000000,0.044912,-0.044912,0.0000,0.0000,0.0000,-0.002339,0.039884,-0.036816,0.4372,0.5336,0.0901,0.000000,0.579845,-0.562971,0.564505,-0.592117,0.575243,-0.561437
4.3979,0.016760,0.000000,0.048422,-0.048422,0.0000,0.0000,0.0000,-0.002339,0.039884,-0.036816,0.4372,0.5336,0.0901,0.000000,0.579845,-0.562971,0.564505,-0.592117,0.575243,-0.561437
4.4146,0.016740,0.000000,0.051929,-0.051929,0.0000,0.0000,0.0000,-0.002363,0.038350,-0.039884,0.3755,0.4932,0.0955,0.000000,0.578311,-0.562971,0.564505,-0.590583,0.575243,-0.561437
4.4313,0.016740,0.000000,0.055435,-0.055435,0.0000,0.0000,0.0000,-0.002338,0.035282,-0.039884,0.4425,0.5326,0.0951,0.000000,0.579845,-0.562971,0.564505,-0.592117,0.575243,-0.561437
4.4481,0.016744,0.000000,0.058941,-0.058941,0.0000,0.0000,0.0000,-0.002340,0.038350,-0.041417,0.4355,0.5285,0.0951,0.000000,0.579845,-0.562971,0.564505,-0.592117,0.575243,-0.561437
4.4648,0.016745,0.000000,0.062449,-0.062449,0.0000,0.0000,0.0000,-0.002352,0.050621,-0.047553,0.3864,0.5445,0.0413,0.000000,0.578311,-0.562971,0.564505,-0.592117,0.575243,-0.561437
4.4819,0.017078,0.000000,0.066025,-0.066025,0.0000,0.0000,0.0000,-0.002350,0.059825,-0.055223,0.4306,0.4765,0.1544,0.000000,0.579845,-0.562971,0.564505,-0.590583,0.575243,-0.561437
4.4987,0.016743,0.000000,0.069532,-0.069532,0.0000,0.0000,0.0000,-0.002350,0.059825,-0.055223,0.4306,0.4765,0.1544,0.000000,0.579845,-0.562971,0.564505,-0.590583,0.575243,-0.561437
4.5154,0.016738,0.000000,0.073038,-0.073038,0.0000,0.0000,0.0000,-0.002362,0.061359,-0.061359,0.3762,0.4992,0.0888,0.000000,0.578311,-0.562971,0.564505,-0.590583,0.575243,-0.561437
4.5321,0.016743,0.000000,0.076544,-0.076544,0.0000,0.0000,0.0000,-0.002349,0.059825,-0.062893,0.4316,0.4812,0.1495,0.000000,0.579845,-0.562971,0.564505,-0.590583,0.575243,-0.561437
4.5489,0.016742,0.000000,0.080051,-0.080051,0.0000,0.0000,0.0000,-0.002362,0.061359,-0.067495,0.3761,0.4987,0.0894,0.000000,0.578311,-0.562971,0.564505,-0.590583,0.575243,-0.561437
4.5656,0.016741,0.000000,0.083557,-0.083557,0.0000,0.0000,0.0000,-0.002349,0.070563,-0.072097,0.4316,0.4812,0.1494,0.000000,0.579845,-0.562971,0.564505,-0.590583,0.575243,-0.561437
4.5824,0.016783,0.000000,0.087072,-0.087072,0.0000,0.0000,0.0000,-0.002362,0.078233,-0.075165,0.3761,0.4987,0.0894,0.000000,0.578311,-0.562971,0.564505,-0.590583,0.575243,-0.561437
4.5991,0.016744,0.000000,0.090579,-0.090579,0.0000,0.0000,0.0000,-0.002362,0.078233,-0.075165,0.3761,0.4987,0.0894,0.000000,0.578311,-0.562971,0.564505,-0.590583,0.575243,-0.561437
4.6159,0.016764,0.000000,0.094090,-0.094090,0.0000,0.0000,0.0000,-0.002338,0.081301,-0.075165,0.4424,0.5320,0.0957,0.000000,0.579845,-0.562971,0.564505,-0.592117,0.575243,-0.561437
4.6327,0.016747,0.000000,0.097597,-0.097597,0.0000,0.0000,0.0000,-0.002352,0.079767,-0.076699,0.4247,0.4778,0.1488,0.000000,0.579845,-0.562971,0.564505,-0.590583,0.575243,-0.561437
4.6494,0.016739,0.000000,0.101103,-0.101103,0.0000,0.0000,0.0000,-0.002362,0.085903,-0.078233,0.3768,0.4990,0.0894,0.000000,0.578311,-0.562971,0.564505,-0.590583,0.575243,-0.561437
4.6662,0.016800,0.000000,0.104622,-0.104622,0.0000,0.0000,0.0000,-0.002349,0.098175,-0.084369,0.4316,0.4812,0.1494,0.000000,0.579845,-0.562971,0.564505,-0.590583,0.575243,-0.561437
4.6830,0.016761,0.000000,0.108132,-0.108132,0.0000,0.0000,0.0000,-0.002362,0.099709,-0.092039,0.3761,0.4987,0.0894,0.000000,0.578311,-0.562971,0.564505,-0.590583,0.575243,-0.561437
4.6997,0.016698,0.000000,0.111629,-0.111629,0.0000,0.0000,0.0000,-0.002362,0.099709,-0.092039,0.3761,0.4987,0.0894,0.000000,0.578311,-0.562971,0.564505,-0.590583,0.575243,-0.561437
4.7164,0.016749,0.000000,0.115137,-0.115137,0.0000,0.0000,0.0000,-0.002349,0.096641,-0.101243,0.4316,0.4812,0.1494,0.000000,0.579845,-0.562971,0.564505,-0.590583,0.575243,-0.561437
4.7331,0.016743,0.000000,0.118644,-0.118644,0.0000,0.0000,0.0000,-0.002351,0.098175,-0.104311,0.4258,0.4831,0.1432,0.000000,0.579845,-0.562971,0.564505,-0.590583,0.575243,-0.561437
4.7499,0.016761,0.000000,0.122154,-0.122154,0.0000,0.0000,0.0000,-0.002351,0.107379,-0.108913,0.4258,0.4831,0.1432,0.000000,0.579845,-0.562971,0.564505,-0.590583,0.575243,-0.561437
4.7667,0.016744,0.000000,0.125661,-0.125661,0.0000,0.0000,0.0000,-0.002351,0.116583,-0.113515,0.4258,0.4831,0.1432,0.000000,0.579845,-0.562971,0.564505,-0.590583,0.575243,-0.561437
4.7834,0.016758,0.000000,0.129171,-0.129171,0.0000,0.0000,0.0000,-0.002351,0.116583,-0.113515,0.4258,0.4831,0.1432,0.000000,0.579845,-0.562971,0.564505,-0.590583,0.575243,-0.561437
4.8002,0.016743,0.000000,0.132678,-0.132678,0.0000,0.0000,0.0000,-0.002351,0.122718,-0.119651,0.4258,0.4831,0.1432,0.000000,0.579845,-0.562971,0.564505,-0.590583,0.575243,-0.561437
4.8169,0.016741,0.000000,0.136184,-0.136184,0.0000,0.0000,0.0000,-0.002351,0.119651,-0.124252,0.4258,0.4831,0.1432,0.000000,0.579845,-0.562971,0.564505,-0.590583,0.575243,-0.561437
4.8336,0.016742,0.000000,0.139690,-0.139690,0.0000,0.0000,0.0000,-0.002351,0.119651,-0.125786,0.4258,0.4831,0.1432,0.000000,0.579845,-0.562971,0.564505,-0.590583,0.575243,-0.561437
4.8504,0.016742,0.000000,0.143197,-0.143197,0.0000,0.0000,0.0000,-0.002351,0.130388,-0.128854,0.4258,0.4831,0.1432,0.000000,0.579845,-0.562971,0.564505,-0.590583,0.575243,-0.561437
4.8671,0.016742,0.000000,0.146703,-0.146703,0.0000,0.0000,0.0000,-0.002362,0.139592,-0.133456,0.3767,0.4985,0.0900,0.000000,0.578311,-0.562971,0.564505,-0.590583,0.575243,-0.561437
4.8839,0.016760,0.000000,0.150213,-0.150213,0.0000,0.0000,0.0000,-0.002362,0.139592,-0.133456,0.3767,0.4985,0.0900,0.000000,0.578311,-0.562971,0.564505,-0.590583,0.575243,-0.561437
4.9006,0.016744,0.000000,0.153720,-0.153720,0.0000,0.0000,0.0000,-0.002349,0.139592,-0.138058,0.4316,0.4813,0.1494,0.000000,0.579845,-0.562971,0.564505,-0.590583,0.575243,-0.561437
4.9174,0.016745,0.000000,0.157227,-0.157227,0.0000,0.0000,0.0000,-0.002339,0.139592,-0.145728,0.4366,0.5339,0.0894,0.000000,0.579845,-0.562971,0.564505,-0.592117,0.575243,-0.561437
4.9341,0.016739,0.000000,0.160733,-0.160733,0.0000,0.0000,0.0000,-0.002352,0.147262,-0.150330,0.4253,0.4776,0.1494,0.000000,0.579845,-0.562971,0.564505,-0.590583,0.575243,-0.561437
4.9508,0.016734,0.000000,0.164238,-0.164238,0.0000,0.0000,0.0000,-0.002350,0.154932,-0.154932,0.4265,0.4834,0.1432,0.000000,0.579845,-0.562971,0.564505,-0.590583,0.575243,-0.561437
4.9676,0.016747,0.000000,0.167745,-0.167745,0.0000,0.0000,0.0000,-0.002350,0.154932,-0.159534,0.4265,0.4834,0.1432,0.000000,0.579845,-0.562971,0.564505,-0.590583,0.575243,-0.561437
4.9843,0.016757,0.000000,0.171255,-0.171255,0.0000,0.0000,0.0000,-0.002350,0.154932,-0.159534,0.4265,0.4834,0.1432,0.000000,0.579845,-0.562971,0.564505,-0.590583,0.575243,-0.561437
5.0011,0.016746,0.000000,0.174304,-0.174304,0.0000,0.0000,0.0000,-0.002350,0.154932,-0.161068,0.4265,0.4834,0.1432,0.000000,0.579845,-0.562971,0.564505,-0.590583,0.575243,-0.561437
5.0179,0.016757,0.000000,0.170794,-0.170794,0.0000,0.0000,0.0000,-0.002350,0.161068,-0.162602,0.4265,0.4834,0.1432,0.000000,0.579845,-0.562971,0.564505,-0.590583,0.575243,-0.561437
5.0346,0.016743,0.000000,0.167288,-0.167288,0.0000,0.0000,0.0000,-0.002350,0.174874,-0.168738,0.4265,0.4834,0.1432,0.000000,0.579845,-0.562971,0.564505,-0.590583,0.575243,-0.561437
5.0513,0.016753,0.000000,0.163779,-0.163779,0.0000,0.0000,0.0000,-0.002350,0.174874,-0.176408,0.4265,0.4834,0.1432,0.000000,0.579845,-0.562971,0.564505,-0.590583,0.575243,-0.561437
5.0681,0.016744,0.000000,0.160272,-0.160272,0.0000,0.0000,0.0000,-0.002350,0.165670,-0.174874,0.4265,0.4834,0.1432,0.000000,0.579845,-0.562971,0.564505,-0.590583,0.575243,-0.561437
5.0848,0.016751,0.000000,0.156764,-0.156764,0.0000,0.0000,0.0000,-0.002350,0.165670,-0.174874,0.4265,0.4834,0.1432,0.000000,0.579845,-0.562971,0.564505,-0.590583,0.575243,-0.561437
5.1016,0.016754,0.000000,0.153255,-0.153255,0.0000,0.0000,0.0000,-0.002362,0.165670,-0.170272,0.3766,0.4984,0.0900,0.000000,0.578311,-0.562971,0.564505,-0.590583,0.575243,-0.561437
5.1183,0.016752,0.000000,0.149747,-0.149747,0.0000,0.0000,0.0000,-0.002349,0.167204,-0.167204,0.4316,0.4813,0.1494,0.000000,0.579845,-0.562971,0.564505,-0.590583,0.575243,-0.561437
5.1351,0.016748,0.000000,0.146239,-0.146239,0.0000,0.0000,0.0000,-0.002351,0.164136,-0.164136,0.4258,0.4831,0.1432,0.000000,0.579845,-0.562971,0.564505,-0.590583,0.575243,-0.561437
5.1521,0.016966,0.000000,0.142685,-0.142685,0.0000,0.0000,0.0000,-0.002362,0.158000,-0.158000,0.3767,0.4985,0.0900,0.000000,0.578311,-0.562971,0.564505,-0.590583,0.575243,-0.561437
5.1688,0.016749,0.000000,0.139178,-0.139178,0.0000,0.0000,0.0000,-0.002349,0.148796,-0.153398,0.3925,0.5477,0.0418,0.000000,0.578311,-0.562971,0.564505,-0.592117,0.575243,-0.561437
5.1856,0.016757,0.000000,0.135668,-0.135668,0.0000,0.0000,0.0000,-0.002349,0.148796,-0.153398,0.3925,0.5477,0.0418,0.000000,0.578311,-0.562971,0.564505,-0.592117,0.575243,-0.561437
5.2023,0.016747,0.000000,0.132161,-0.132161,0.0000,0.0000,0.0000,-0.002351,0.142660,-0.150330,0.4299,0.4761,0.1544,0.000000,0.579845,-0.562971,0.564505,-0.590583,0.575243,-0.561437
5.2191,0.016752,0.000000,0.128652,-0.128652,0.0000,0.0000,0.0000,-0.002350,0.141126,-0.147262,0.4260,0.4836,0.1426,0.000000,0.579845,-0.562971,0.564505,-0.590583,0.575243,-0.561437
5.2358,0.016744,0.000000,0.125145,-0.125145,0.0000,0.0000,0.0000,-0.002350,0.141126,-0.145728,0.4260,0.4836,0.1426,0.000000,0.579845,-0.562971,0.564505,-0.590583,0.575243,-0.561437
5.2526,0.016753,0.000000,0.121636,-0.121636,0.0000,0.0000,0.0000,-0.002362,0.138058,-0.142660,0.3766,0.4984,0.0901,0.000000,0.578311,-0.562971,0.564505,-0.590583,0.575243,-0.561437
5.2694,0.016856,0.000000,0.118106,-0.118106,0.0000,0.0000,0.0000,-0.002349,0.131922,-0.136524,0.4316,0.4813,0.1494,0.000000,0.579845,-0.562971,0.564505,-0.590583,0.575243,-0.561437
5.2863,0.016872,0.000000,0.114573,-0.114573,0.0000,0.0000,0.0000,-0.002349,0.131922,-0.136524,0.4316,0.4813,0.1494,0.000000,0.579845,-0.562971,0.564505,-0.590583,0.575243,-0.561437
5.3030,0.016744,0.000000,0.111066,-0.111066,0.0000,0.0000,0.0000,-0.002339,0.122718,-0.128854,0.4366,0.5339,0.0894,0.000000,0.579845,-0.562971,0.564505,-0.592117,0.575243,-0.561437
5.3198,0.016754,0.000000,0.107557,-0.107557,0.0000,0.0000,0.0000,-0.002352,0.116583,-0.122718,0.4253,0.4776,0.1494,0.000000,0.579845,-0.562971,0.564505,-0.590583,0.575243,-0.561437
5.3365,0.016752,0.000000,0.104048,-0.104048,0.0000,0.0000,0.0000,-0.002351,0.116583,-0.122718,0.3875,0.5498,0.0356,0.000000,0.578311,-0.562971,0.564505,-0.592117,0.575243,-0.561437
5.3534,0.016876,0.000000,0.100514,-0.100514,0.0000,0.0000,0.0000,-0.002350,0.113515,-0.121184,0.4304,0.4759,0.1550,0.000000,0.579845,-0.562971,0.564505,-0.590583,0.575243,-0.561437
5.3702,0.016744,0.000000,0.097007,-0.097007,0.0000,0.0000,0.0000,-0.002350,0.113515,-0.121184,0.4304,0.4759,0.1550,0.000000,0.579845,-0.562971,0.564505,-0.590583,0.575243,-0.561437
5.3869,0.016723,0.000000,0.093504,-0.093504,0.0000,0.0000,0.0000,-0.002362,0.107379,-0.116583,0.3762,0.4992,0.0888,0.000000,0.578311,-0.562971,0.564505,-0.590583,0.575243,-0.561437
5.4036,0.016746,0.000000,0.089997,-0.089997,0.0000,0.0000,0.0000,-0.002349,0.102777,-0.113515,0.4316,0.4812,0.1495,0.000000,0.579845,-0.562971,0.564505,-0.590583,0.575243,-0.561437
5.4204,0.016769,0.000000,0.086485,-0.086485,0.0000,0.0000,0.0000,-0.002351,0.099709,-0.105845,0.4258,0.4831,0.1432,0.000000,0.579845,-0.562971,0.564505,-0.590583,0.575243,-0.561437
5.4371,0.016747,0.000000,0.082977,-0.082977,0.0000,0.0000,0.0000,-0.002362,0.095107,-0.095107,0.3767,0.4985,0.0900,0.000000,0.578311,-0.562971,0.564505,-0.590583,0.575243,-0.561437
5.4539,0.016758,0.000000,0.079467,-0.079467,0.0000,0.0000,0.0000,-0.002361,0.088971,-0.088971,0.3818,0.4969,0.0955,0.000000,0.578311,-0.562971,0.564505,-0.590583,0.575243,-0.561437
5.4707,0.016747,0.000000,0.075960,-0.075960,0.0000,0.0000,0.0000,-0.002361,0.088971,-0.088971,0.3818,0.4969,0.0955,0.000000,0.578311,-0.562971,0.564505,-0.590583,0.575243,-0.561437
5.4874,0.016760,0.000000,0.072450,-0.072450,0.0000,0.0000,0.0000,-0.002361,0.084369,-0.087437,0.3818,0.4969,0.0955,0.000000,0.578311,-0.562971,0.564505,-0.590583,0.575243,-0.561437
