t,loop_dt,cmd_z,cmd_ant_l,cmd_ant_r,cmd_roll,cmd_pitch,cmd_yaw,pres_z,pres_ant_l,pres_ant_r,pres_roll,pres_pitch,pres_yaw,pres_j0,pres_j1,pres_j2,pres_j3,pres_j4,pres_j5,pres_j6
0.0000,0.000001,0.000000,-1.745329,1.745329,0.0000,0.0000,0.0000,-0.002497,-1.613748,1.606078,0.4633,0.7705,0.2864,0.000000,0.572175,-0.559903,0.564505,-0.592117,0.575243,-0.550699
0.0168,0.016792,0.000000,-1.741812,1.741812,0.0000,0.0000,0.0000,-0.002497,-1.613748,1.606078,0.4633,0.7705,0.2864,0.000000,0.572175,-0.559903,0.564505,-0.592117,0.575243,-0.550699
0.0336,0.016760,0.000000,-1.738302,1.738302,0.0000,0.0000,0.0000,-0.002513,-1.612214,1.606078,0.5028,0.7943,0.3398,0.000000,0.572175,-0.559903,0.564505,-0.592117,0.575243,-0.549165
0.0503,0.016759,0.000000,-1.734792,1.734792,0.0000,0.0000,0.0000,-0.002523,-1.621418,1.615282,0.4882,0.7410,0.3879,0.000000,0.572175,-0.559903,0.564505,-0.590583,0.575243,-0.549165
0.0671,0.016759,0.000000,-1.731282,1.731282,0.0000,0.0000,0.0000,-0.002510,-1.670505,1.670505,0.4111,0.8152,0.3289,0.000000,0.572175,-0.558369,0.564505,-0.592117,0.575243,-0.550699
0.0838,0.016768,0.000000,-1.727770,1.727770,0.0000,0.0000,0.0000,-0.002510,-1.741068,1.734932,0.4479,0.7210,0.3357,0.000000,0.572175,-0.559903,0.564505,-0.590583,0.575243,-0.550699
0.1006,0.016760,0.000000,-1.724260,1.724260,0.0000,0.0000,0.0000,-0.002499,-1.771748,1.765612,0.4546,0.7816,0.2813,0.000000,0.572175,-0.559903,0.564505,-0.592117,0.575243,-0.550699
0.1174,0.016781,0.000000,-1.720745,1.720745,0.0000,0.0000,0.0000,-0.002499,-1.767146,1.765612,0.4546,0.7816,0.2813,0.000000,0.572175,-0.559903,0.564505,-0.592117,0.575243,-0.552233
0.1341,0.016758,0.000000,-1.717236,1.717236,0.0000,0.0000,0.0000,-0.002486,-1.767146,1.765612,0.4042,0.7575,0.2336,0.000000,0.572175,-0.559903,0.564505,-0.592117,0.575243,-0.552233
0.1509,0.016759,0.000000,-1.713726,1.713726,0.0000,0.0000,0.0000,-0.002486,-1.754874,1.759476,0.3491,0.6915,0.2389,0.000000,0.572175,-0.559903,0.564505,-0.590583,0.575243,-0.553767
0.1677,0.016792,0.000000,-1.710209,1.710209,0.0000,0.0000,0.0000,-0.002460,-1.744136,1.754874,0.2555,0.6631,0.1316,0.000000,0.572175,-0.559903,0.564505,-0.590583,0.575243,-0.556835
0.1846,0.016930,0.000000,-1.706663,1.706663,0.0000,0.0000,0.0000,-0.002438,-1.738000,1.750272,0.2263,0.6993,0.0355,0.000000,0.572175,-0.559903,0.564505,-0.592117,0.575243,-0.558369
0.2014,0.016752,0.000000,-1.703154,1.703154,0.0000,0.0000,0.0000,-0.002427,-1.734932,1.745670,0.1799,0.6780,-0.0080,0.000000,0.572175,-0.559903,0.564505,-0.592117,0.575243,-0.559903
0.2188,0.017453,0.000000,-1.699499,1.699499,0.0000,0.0000,0.0000,-0.002427,-1.733398,1.742602,0.1799,0.6780,-0.0080,0.000000,0.573709,-0.559903,0.564505,-0.592117,0.575243,-0.559903
0.2356,0.016755,0.000000,-1.695990,1.695990,0.0000,0.0000,0.0000,-0.002416,-1.733398,1.742602,0.2346,0.6645,0.0503,0.000000,0.573709,-0.559903,0.564505,-0.592117,0.575243,-0.559903
0.2523,0.016755,0.000000,-1.692481,1.692481,0.0000,0.0000,0.0000,-0.002406,-1.731864,1.739534,0.2788,0.6502,0.0981,0.000000,0.575243,-0.559903,0.564505,-0.592117,0.575243,-0.559903
0.2691,0.016761,0.000000,-1.688970,1.688970,0.0000,0.0000,0.0000,-0.002382,-1.730330,1.739534,0.3633,0.6006,0.0938,0.000000,0.576777,-0.561437,0.564505,-0.592117,0.575243,-0.559903
0.2859,0.016767,0.000000,-1.685459,1.685459,0.0000,0.0000,0.0000,-0.002385,-1.725728,1.738000,0.3544,0.6058,0.0942,0.000000,0.576777,-0.561437,0.564505,-0.592117,0.575243,-0.559903
0.3026,0.016758,0.000000,-1.681949,1.681949,0.0000,0.0000,0.0000,-0.002372,-1.722660,1.733398,0.4336,0.5033,0.1486,0.000000,0.578311,-0.562971,0.564505,-0.590583,0.575243,-0.559903
0.3194,0.016770,0.000000,-1.678437,1.678437,0.0000,0.0000,0.0000,-0.002372,-1.722660,1.733398,0.4336,0.5033,0.1486,0.000000,0.578311,-0.562971,0.564505,-0.590583,0.575243,-0.559903
0.3361,0.016750,0.000000,-1.674928,1.674928,0.0000,0.0000,0.0000,-0.002373,-1.721126,1.724194,0.4254,0.5140,0.1429,0.000000,0.578311,-0.562971,0.564505,-0.590583,0.575243,-0.559903
0.3529,0.016755,0.000000,-1.671419,1.671419,0.0000,0.0000,0.0000,-0.002361,-1.721126,1.714991,0.4370,0.5637,0.0898,0.000000,0.578311,-0.562971,0.564505,-0.592117,0.575243,-0.559903
0.3696,0.016748,0.000000,-1.667912,1.667912,0.0000,0.0000,0.0000,-0.002375,-1.721126,1.707321,0.3966,0.5940,0.1485,0.000000,0.578311,-0.561437,0.564505,-0.592117,0.575243,-0.559903
0.3864,0.016754,0.000000,-1.664403,1.664403,0.0000,0.0000,0.0000,-0.002361,-1.716525,1.701185,0.4400,0.5553,0.0892,0.000000,0.578311,-0.562971,0.564505,-0.592117,0.575243,-0.559903
0.4031,0.016751,0.000000,-1.660894,1.660894,0.0000,0.0000,0.0000,-0.002363,-1.707321,1.696583,0.4355,0.5594,0.0954,0.000000,0.578311,-0.562971,0.564505,-0.592117,0.575243,-0.559903
0.4199,0.016769,0.000000,-1.657382,1.657382,0.0000,0.0000,0.0000,-0.002363,-1.707321,1.696583,0.4355,0.5594,0.0954,0.000000,0.578311,-0.562971,0.564505,-0.592117,0.575243,-0.559903
0.4367,0.016753,0.000000,-1.653874,1.653874,0.0000,0.0000,0.0000,-0.002375,-1.696583,1.690447,0.3968,0.5945,0.1479,0.000000,0.578311,-0.561437,0.564505,-0.592117,0.575243,-0.559903
0.4534,0.016756,0.000000,-1.650364,1.650364,0.0000,0.0000,0.0000,-0.002385,-1.688913,1.688913,0.3900,0.5400,0.1962,0.000000,0.578311,-0.561437,0.564505,-0.590583,0.575243,-0.559903
0.4703,0.016910,0.000000,-1.646823,1.646823,0.0000,0.0000,0.0000,-0.002373,-1.681243,1.688913,0.4015,0.5965,0.1374,0.000000,0.578311,-0.561437,0.564505,-0.592117,0.575243,-0.559903
0.4873,0.016959,0.000000,-1.643271,1.643271,0.0000,0.0000,0.0000,-0.002386,-1.678175,1.687379,0.3895,0.5398,0.1973,0.000000,0.578311,-0.561437,0.564505,-0.590583,0.575243,-0.559903
0.5043,0.016990,0.000000,-1.639712,1.639712,0.0000,0.0000,0.0000,-0.002373,-1.673573,1.687379,0.4015,0.5965,0.1373,0.000000,0.578311,-0.561437,0.564505,-0.592117,0.575243,-0.559903
0.5211,0.016784,0.000000,-1.636197,1.636197,0.0000,0.0000,0.0000,-0.002373,-1.673573,1.687379,0.4015,0.5965,0.1373,0.000000,0.578311,-0.561437,0.564505,-0.592117,0.575243,-0.559903
0.5378,0.016755,0.000000,-1.632688,1.632688,0.0000,0.0000,0.0000,-0.002374,-1.670505,1.687379,0.4003,0.5906,0.1435,0.000000,0.578311,-0.561437,0.564505,-0.592117,0.575243,-0.559903
0.5546,0.016769,0.000000,-1.629176,1.629176,0.0000,0.0000,0.0000,-0.002374,-1.667437,1.687379,0.4003,0.5906,0.1435,0.000000,0.578311,-0.561437,0.564505,-0.592117,0.575243,-0.559903
0.5713,0.016754,0.000000,-1.625667,1.625667,0.0000,0.0000,0.0000,-0.002373,-1.665903,1.685845,0.4289,0.5049,0.1434,0.000000,0.578311,-0.562971,0.564505,-0.590583,0.575243,-0.559903
0.5881,0.016763,0.000000,-1.622156,1.622156,0.0000,0.0000,0.0000,-0.002373,-1.665903,1.685845,0.4289,0.5049,0.1434,0.000000,0.578311,-0.562971,0.564505,-0.590583,0.575243,-0.559903
0.6049,0.016756,0.000000,-1.618647,1.618647,0.0000,0.0000,0.0000,-0.002386,-1.665903,1.678175,0.3867,0.5493,0.1966,0.000000,0.578311,-0.561437,0.564505,-0.590583,0.575243,-0.559903
0.6216,0.016754,0.000000,-1.615138,1.615138,0.0000,0.0000,0.0000,-0.002384,-1.665903,1.665903,0.3911,0.5447,0.1911,0.000000,0.578311,-0.561437,0.564505,-0.590583,0.575243,-0.559903
0.6384,0.016821,0.000000,-1.611615,1.611615,0.0000,0.0000,0.0000,-0.002360,-1.665903,1.656699,0.4406,0.5605,0.0848,0.000000,0.578311,-0.562971,0.564505,-0.592117,0.575243,-0.559903
0.6552,0.016760,0.000000,-1.608105,1.608105,0.0000,0.0000,0.0000,-0.002387,-1.665903,1.649029,0.3855,0.5436,0.2027,0.000000,0.578311,-0.561437,0.564505,-0.590583,0.575243,-0.559903
0.6720,0.016843,0.000000,-1.604577,1.604577,0.0000,0.0000,0.0000,-0.002384,-1.664369,1.645961,0.3912,0.5453,0.1905,0.000000,0.578311,-0.561437,0.564505,-0.590583,0.575243,-0.559903
0.6888,0.016759,0.000000,-1.601067,1.601067,0.0000,0.0000,0.0000,-0.002384,-1.664369,1.645961,0.3912,0.5453,0.1905,0.000000,0.578311,-0.561437,0.564505,-0.590583,0.575243,-0.559903
0.7056,0.016763,0.000000,-1.597556,1.597556,0.0000,0.0000,0.0000,-0.002360,-1.653631,1.641359,0.4405,0.5604,0.0848,0.000000,0.578311,-0.562971,0.564505,-0.592117,0.575243,-0.559903
0.7223,0.016780,0.000000,-1.594042,1.594042,0.0000,0.0000,0.0000,-0.002363,-1.641359,1.638291,0.4354,0.5588,0.0958,0.000000,0.578311,-0.562971,0.564505,-0.592117,0.575243,-0.559903
0.7391,0.016747,0.000000,-1.590535,1.590535,0.0000,0.0000,0.0000,-0.002374,-1.632156,1.633690,0.4252,0.5082,0.1484,0.000000,0.578311,-0.562971,0.564505,-0.590583,0.575243,-0.559903
0.7558,0.016752,0.000000,-1.587026,1.587026,0.0000,0.0000,0.0000,-0.002361,-1.626020,1.633690,0.4370,0.5643,0.0892,0.000000,0.578311,-0.562971,0.564505,-0.592117,0.575243,-0.559903
0.7729,0.017086,0.000000,-1.583448,1.583448,0.0000,0.0000,0.0000,-0.002363,-1.621418,1.633690,0.4358,0.5584,0.0954,0.000000,0.578311,-0.562971,0.564505,-0.592117,0.575243,-0.559903
0.7897,0.016766,0.000000,-1.579936,1.579936,0.0000,0.0000,0.0000,-0.002363,-1.621418,1.633690,0.4358,0.5584,0.0954,0.000000,0.578311,-0.562971,0.564505,-0.592117,0.575243,-0.559903
0.8065,0.016767,0.000000,-1.576425,1.576425,0.0000,0.0000,0.0000,-0.002363,-1.618350,1.633690,0.4358,0.5584,0.0954,0.000000,0.578311,-0.562971,0.564505,-0.592117,0.575243,-0.559903
0.8232,0.016784,0.000000,-1.572909,1.572909,0.0000,0.0000,0.0000,-0.002387,-1.615282,1.630622,0.3860,0.5438,0.2016,0.000000,0.578311,-0.561437,0.564505,-0.590583,0.575243,-0.559903
0.8400,0.016760,0.000000,-1.569399,1.569399,0.0000,0.0000,0.0000,-0.002373,-1.613748,1.626020,0.4019,0.5961,0.1368,0.000000,0.578311,-0.561437,0.564505,-0.592117,0.575243,-0.559903
0.8568,0.016749,0.000000,-1.565891,1.565891,0.0000,0.0000,0.0000,-0.002373,-1.612214,1.615282,0.4287,0.5043,0.1441,0.000000,0.578311,-0.562971,0.564505,-0.590583,0.575243,-0.559903
0.8735,0.016767,0.000000,-1.562380,1.562380,0.0000,0.0000,0.0000,-0.002373,-1.612214,1.606078,0.4287,0.5043,0.1441,0.000000,0.578311,-0.561437,0.564505,-0.592117,0.575243,-0.559903
0.8903,0.016762,0.000000,-1.558869,1.558869,0.0000,0.0000,0.0000,-0.002374,-1.612214,1.606078,0.3974,0.6002,0.1428,0.000000,0.578311,-0.561437,0.564505,-0.592117,0.575243,-0.559903
0.9070,0.016767,0.000000,-1.555357,1.555357,0.0000,0.0000,0.0000,-0.002374,-1.612214,1.598408,0.4007,0.5902,0.1430,0.000000,0.578311,-0.561437,0.564505,-0.592117,0.575243,-0.559903
0.9238,0.016759,0.000000,-1.551847,1.551847,0.0000,0.0000,0.0000,-0.002374,-1.612214,1.595340,0.4002,0.5916,0.1429,0.000000,0.578311,-0.561437,0.564505,-0.592117,0.575243,-0.559903
0.9406,0.016768,0.000000,-1.548335,1.548335,0.0000,0.0000,0.0000,-0.002374,-1.612214,1.592272,0.4002,0.5916,0.1429,0.000000,0.578311,-0.561437,0.564505,-0.592117,0.575243,-0.559903
0.9575,0.016905,0.000000,-1.544795,1.544795,0.0000,0.0000,0.0000,-0.002386,-1.607612,1.592272,0.3896,0.5403,0.1967,0.000000,0.578311,-0.561437,0.564505,-0.590583,0.575243,-0.559903
0.9742,0.016763,0.000000,-1.541284,1.541284,0.0000,0.0000,0.0000,-0.002386,-1.596874,1.592272,0.3896,0.5403,0.1967,0.000000,0.578311,-0.561437,0.564505,-0.592117,0.575243,-0.559903
0.9910,0.016762,0.000000,-1.537774,1.537774,0.0000,0.0000,0.0000,-0.002373,-1.596874,1.592272,0.4015,0.5965,0.1373,0.000000,0.578311,-0.561437,0.564505,-0.592117,0.575243,-0.559903
1.0078,0.016767,0.000000,-1.534262,1.534262,0.0000,0.0000,0.0000,-0.002361,-1.584602,1.589204,0.4395,0.5551,0.0904,0.000000,0.578311,-0.562971,0.564505,-0.592117,0.575243,-0.559903
1.0245,0.016756,0.000000,-1.530752,1.530752,0.0000,0.0000,0.0000,-0.002374,-1.572330,1.584602,0.4248,0.5086,0.1490,0.000000,0.578311,-0.562971,0.564505,-0.590583,0.575243,-0.559903
1.0413,0.016792,0.000000,-1.527236,1.527236,0.0000,0.0000,0.0000,-0.002374,-1.564660,1.578466,0.3978,0.5998,0.1423,0.000000,0.578311,-0.561437,0.564505,-0.592117,0.575243,-0.559903
1.0581,0.016753,0.000000,-1.523727,1.523727,0.0000,0.0000,0.0000,-0.002386,-1.560058,1.575398,0.3899,0.5395,0.1967,0.000000,0.578311,-0.561437,0.564505,-0.590583,0.575243,-0.559903
1.0748,0.016774,0.000000,-1.520214,1.520214,0.0000,0.0000,0.0000,-0.002386,-1.560058,1.570796,0.3899,0.5395,0.1967,0.000000,0.578311,-0.562971,0.564505,-0.592117,0.575243,-0.559903
1.0916,0.016752,0.000000,-1.516705,1.516705,0.0000,0.0000,0.0000,-0.002360,-1.560058,1.570796,0.4407,0.5610,0.0842,0.000000,0.578311,-0.562971,0.564505,-0.592117,0.575243,-0.559903
1.1084,0.016768,0.000000,-1.513193,1.513193,0.0000,0.0000,0.0000,-0.002363,-1.560058,1.564660,0.4354,0.5588,0.0959,0.000000,0.578311,-0.562971,0.564505,-0.592117,0.575243,-0.559903
1.1251,0.016757,0.000000,-1.509684,1.509684,0.0000,0.0000,0.0000,-0.002387,-1.560058,1.555457,0.3860,0.5438,0.2016,0.000000,0.578311,-0.561437,0.564505,-0.590583,0.575243,-0.559903
1.1419,0.016773,0.000000,-1.506171,1.506171,0.0000,0.0000,0.0000,-0.002371,-1.560058,1.549321,0.4304,0.5098,0.1374,0.000000,0.578311,-0.562971,0.564505,-0.590583,0.575243,-0.559903
1.1587,0.016765,0.000000,-1.502659,1.502659,0.0000,0.0000,0.0000,-0.002373,-1.556990,1.549321,0.4257,0.5133,0.1441,0.000000,0.578311,-0.562971,0.564505,-0.590583,0.575243,-0.559903
1.1754,0.016766,0.000000,-1.499148,1.499148,0.0000,0.0000,0.0000,-0.002373,-1.556990,1.549321,0.4257,0.5133,0.1441,0.000000,0.578311,-0.562971,0.564505,-0.590583,0.575243,-0.559903
1.1922,0.016773,0.000000,-1.495635,1.495635,0.0000,0.0000,0.0000,-0.002374,-1.550855,1.546253,0.3978,0.5993,0.1428,0.000000,0.578311,-0.561437,0.564505,-0.592117,0.575243,-0.559903
1.2089,0.016743,0.000000,-1.492128,1.492128,0.0000,0.0000,0.0000,-0.002373,-1.540117,1.538583,0.4291,0.5040,0.1435,0.000000,0.578311,-0.562971,0.564505,-0.590583,0.575243,-0.559903
1.2257,0.016765,0.000000,-1.488617,1.488617,0.0000,0.0000,0.0000,-0.002373,-1.527845,1.530913,0.4259,0.5139,0.1434,0.000000,0.578311,-0.562971,0.564505,-0.590583,0.575243,-0.559903
1.2425,0.016762,0.000000,-1.485107,1.485107,0.0000,0.0000,0.0000,-0.002374,-1.520175,1.524777,0.3977,0.5992,0.1429,0.000000,0.578311,-0.561437,0.564505,-0.592117,0.575243,-0.559903
1.2595,0.017075,0.000000,-1.481530,1.481530,0.0000,0.0000,0.0000,-0.002374,-1.510971,1.521709,0.3977,0.5992,0.1429,0.000000,0.578311,-0.561437,0.564505,-0.592117,0.575243,-0.559903
1.2763,0.016753,0.000000,-1.478022,1.478022,0.0000,0.0000,0.0000,-0.002374,-1.510971,1.521709,0.4007,0.5903,0.1430,0.000000,0.578311,-0.561437,0.564505,-0.592117,0.575243,-0.559903
1.2931,0.016775,0.000000,-1.474508,1.474508,0.0000,0.0000,0.0000,-0.002374,-1.507903,1.517107,0.4007,0.5903,0.1430,0.000000,0.578311,-0.561437,0.564505,-0.592117,0.575243,-0.559903
1.3098,0.016758,0.000000,-1.470999,1.470999,0.0000,0.0000,0.0000,-0.002361,-1.506369,1.514039,0.4396,0.5557,0.0898,0.000000,0.578311,-0.562971,0.564505,-0.592117,0.575243,-0.559903
1.3266,0.016754,0.000000,-1.467490,1.467490,0.0000,0.0000,0.0000,-0.002363,-1.506369,1.509437,0.4355,0.5593,0.0953,0.000000,0.578311,-0.562971,0.564505,-0.592117,0.575243,-0.559903
1.3433,0.016750,0.000000,-1.463981,1.463981,0.0000,0.0000,0.0000,-0.002387,-1.506369,1.503301,0.3860,0.5437,0.2016,0.000000,0.578311,-0.561437,0.564505,-0.590583,0.575243,-0.559903
1.3601,0.016758,0.000000,-1.460472,1.460472,0.0000,0.0000,0.0000,-0.002387,-1.504835,1.498699,0.3860,0.5437,0.2016,0.000000,0.578311,-0.561437,0.564505,-0.592117,0.575243,-0.559903
1.3769,0.016768,0.000000,-1.456960,1.456960,0.0000,0.0000,0.0000,-0.002373,-1.504835,1.498699,0.4019,0.5961,0.1368,0.000000,0.578311,-0.561437,0.564505,-0.592117,0.575243,-0.559903
1.3936,0.016749,0.000000,-1.453452,1.453452,0.0000,0.0000,0.0000,-0.002386,-1.504835,1.495631,0.3895,0.5399,0.1973,0.000000,0.578311,-0.561437,0.564505,-0.590583,0.575243,-0.559903
1.4104,0.016755,0.000000,-1.449943,1.449943,0.0000,0.0000,0.0000,-0.002373,-1.503301,1.495631,0.4015,0.5965,0.1373,0.000000,0.578311,-0.561437,0.564505,-0.592117,0.575243,-0.559903
1.4271,0.016755,0.000000,-1.446434,1.446434,0.0000,0.0000,0.0000,-0.002361,-1.497165,1.494097,0.4395,0.5551,0.0904,0.000000,0.578311,-0.562971,0.564505,-0.592117,0.575243,-0.559903
1.4439,0.016755,0.000000,-1.442925,1.442925,0.0000,0.0000,0.0000,-0.002387,-1.486427,1.486427,0.3856,0.5441,0.2022,0.000000,0.578311,-0.561437,0.564505,-0.590583,0.575243,-0.559903
1.4606,0.016755,0.000000,-1.439415,1.439415,0.0000,0.0000,0.0000,-0.002373,-1.474156,1.477223,0.4019,0.5961,0.1368,0.000000,0.578311,-0.561437,0.564505,-0.592117,0.575243,-0.559903
1.4774,0.016749,0.000000,-1.435907,1.435907,0.0000,0.0000,0.0000,-0.002373,-1.474156,1.477223,0.4019,0.5961,0.1368,0.000000,0.578311,-0.561437,0.564505,-0.592117,0.575243,-0.559903
1.4941,0.016762,0.000000,-1.432397,1.432397,0.0000,0.0000,0.0000,-0.002361,-1.466486,1.471088,0.3507,0.5730,0.0901,0.000000,0.578311,-0.561437,0.564505,-0.592117,0.575243,-0.561437
1.5109,0.016752,0.000000,-1.428888,1.428888,0.0000,0.0000,0.0000,-0.002375,-1.461884,1.464952,0.4056,0.5930,0.1484,0.000000,0.578311,-0.561437,0.564505,-0.592117,0.575243,-0.559903
1.5277,0.016764,0.000000,-1.425377,1.425377,0.0000,0.0000,0.0000,-0.002385,-1.460350,1.461884,0.3891,0.5402,0.1961,0.000000,0.578311,-0.561437,0.564505,-0.590583,0.575243,-0.559903
1.5446,0.016937,0.000000,-1.421830,1.421830,0.0000,0.0000,0.0000,-0.002385,-1.460350,1.461884,0.3891,0.5402,0.1961,0.000000,0.578311,-0.561437,0.564505,-0.590583,0.575243,-0.559903
1.5613,0.016750,0.000000,-1.418322,1.418322,0.0000,0.0000,0.0000,-0.002373,-1.455748,1.457282,0.4016,0.5965,0.1374,0.000000,0.578311,-0.561437,0.564505,-0.592117,0.575243,-0.559903
1.5781,0.016753,0.000000,-1.414813,1.414813,0.0000,0.0000,0.0000,-0.002361,-1.452680,1.452680,0.4395,0.5551,0.0903,0.000000,0.578311,-0.562971,0.564505,-0.592117,0.575243,-0.559903
1.5951,0.016993,0.000000,-1.411254,1.411254,0.0000,0.0000,0.0000,-0.002363,-1.452680,1.449612,0.4355,0.5594,0.0953,0.000000,0.578311,-0.562971,0.564505,-0.592117,0.575243,-0.559903
1.6118,0.016756,0.000000,-1.407744,1.407744,0.0000,0.0000,0.0000,-0.002363,-1.452680,1.445010,0.4355,0.5594,0.0953,0.000000,0.578311,-0.562971,0.564505,-0.592117,0.575243,-0.559903
1.6286,0.016758,0.000000,-1.404235,1.404235,0.0000,0.0000,0.0000,-0.002375,-1.452680,1.445010,0.3967,0.5945,0.1479,0.000000,0.578311,-0.561437,0.564505,-0.592117,0.575243,-0.559903
1.6454,0.016760,0.000000,-1.400724,1.400724,0.0000,0.0000,0.0000,-0.002375,-1.452680,1.445010,0.3967,0.5945,0.1479,0.000000,0.578311,-0.561437,0.564505,-0.592117,0.575243,-0.559903
1.6621,0.016750,0.000000,-1.397216,1.397216,0.0000,0.0000,0.0000,-0.002374,-1.452680,1.445010,0.4008,0.5908,0.1424,0.000000,0.578311,-0.561437,0.564505,-0.592117,0.575243,-0.559903
1.6791,0.016983,0.000000,-1.398868,1.398868,0.0000,0.0000,0.0000,-0.002361,-1.451146,1.445010,0.4396,0.5557,0.0898,0.000000,0.578311,-0.562971,0.564505,-0.592117,0.575243,-0.559903
1.6960,0.016900,0.000000,-1.402407,1.402407,0.0000,0.0000,0.0000,-0.002375,-1.449612,1.443476,0.3963,0.5949,0.1485,0.000000,0.578311,-0.561437,0.564505,-0.592117,0.575243,-0.559903
1.7128,0.016763,0.000000,-1.405918,1.405918,0.0000,0.0000,0.0000,-0.002361,-1.443476,1.440408,0.4400,0.5552,0.0892,0.000000,0.578311,-0.562971,0.564505,-0.592117,0.575243,-0.559903
1.7295,0.016769,0.000000,-1.409430,1.409430,0.0000,0.0000,0.0000,-0.002363,-1.431204,1.432738,0.4354,0.5594,0.0954,0.000000,0.578311,-0.562971,0.564505,-0.592117,0.575243,-0.559903
1.7463,0.016761,0.000000,-1.412940,1.412940,0.0000,0.0000,0.0000,-0.002363,-1.431204,1.432738,0.4354,0.5594,0.0954,0.000000,0.578311,-0.562971,0.564505,-0.592117,0.575243,-0.559903
1.7631,0.016759,0.000000,-1.416450,1.416450,0.0000,0.0000,0.0000,-0.002374,-1.423534,1.426602,0.4252,0.5082,0.1485,0.000000,0.578311,-0.562971,0.564505,-0.590583,0.575243,-0.559903
1.7798,0.016750,0.000000,-1.419958,1.419958,0.0000,0.0000,0.0000,-0.002361,-1.422000,1.422000,0.4370,0.5643,0.0892,0.000000,0.578311,-0.562971,0.564505,-0.592117,0.575243,-0.559903
1.7966,0.016760,0.000000,-1.423469,1.423469,0.0000,0.0000,0.0000,-0.002363,-1.422000,1.422000,0.4358,0.5584,0.0954,0.000000,0.578311,-0.562971,0.564505,-0.592117,0.575243,-0.559903
1.8134,0.016801,0.000000,-1.426987,1.426987,0.0000,0.0000,0.0000,-0.002363,-1.422000,1.422000,0.4358,0.5584,0.0954,0.000000,0.578311,-0.562971,0.564505,-0.592117,0.575243,-0.559903
1.8301,0.016769,0.000000,-1.430500,1.430500,0.0000,0.0000,0.0000,-0.002363,-1.423534,1.422000,0.4358,0.5584,0.0954,0.000000,0.578311,-0.562971,0.564505,-0.592117,0.575243,-0.559903
1.8469,0.016722,0.000000,-1.434002,1.434002,0.0000,0.0000,0.0000,-0.002363,-1.423534,1.422000,0.4358,0.5584,0.0954,0.000000,0.578311,-0.562971,0.564505,-0.592117,0.575243,-0.559903
1.8636,0.016762,0.000000,-1.437513,1.437513,0.0000,0.0000,0.0000,-0.002375,-1.425068,1.423534,0.3967,0.5946,0.1479,0.000000,0.578311,-0.561437,0.564505,-0.592117,0.575243,-0.559903
1.8804,0.016760,0.000000,-1.441023,1.441023,0.0000,0.0000,0.0000,-0.002350,-1.431204,1.428136,0.4898,0.5397,0.1431,0.000000,0.579845,-0.562971,0.564505,-0.592117,0.575243,-0.559903
1.8971,0.016760,0.000000,-1.444533,1.444533,0.0000,0.0000,0.0000,-0.002377,-1.432738,1.428136,0.3911,0.5965,0.1429,0.000000,0.578311,-0.561437,0.564505,-0.592117,0.575243,-0.559903
1.9140,0.016909,0.000000,-1.448074,1.448074,0.0000,0.0000,0.0000,-0.002374,-1.437340,1.431204,0.4014,0.5906,0.1429,0.000000,0.578311,-0.561437,0.564505,-0.592117,0.575243,-0.559903
1.9308,0.016769,0.000000,-1.451586,1.451586,0.0000,0.0000,0.0000,-0.002374,-1.437340,1.431204,0.4014,0.5906,0.1429,0.000000,0.578311,-0.561437,0.564505,-0.592117,0.575243,-0.559903
1.9476,0.016760,0.000000,-1.455097,1.455097,0.0000,0.0000,0.0000,-0.002373,-1.446544,1.441942,0.4288,0.5049,0.1435,0.000000,0.578311,-0.562971,0.564505,-0.590583,0.575243,-0.559903
1.9643,0.016762,0.000000,-1.458607,1.458607,0.0000,0.0000,0.0000,-0.002374,-1.446544,1.448078,0.3974,0.6002,0.1429,0.000000,0.578311,-0.561437,0.564505,-0.592117,0.575243,-0.559903
1.9811,0.016759,0.000000,-1.462117,1.462117,0.0000,0.0000,0.0000,-0.002374,-1.448078,1.448078,0.4007,0.5902,0.1430,0.000000,0.578311,-0.561437,0.564505,-0.592117,0.575243,-0.559903
1.9979,0.016757,0.000000,-1.465627,1.465627,0.0000,0.0000,0.0000,-0.002363,-1.458816,1.452680,0.4502,0.5757,0.1968,0.000000,0.579845,-0.561437,0.564505,-0.592117,0.575243,-0.559903
2.0147,0.016833,0.000000,-1.469152,1.469152,0.0000,0.0000,0.0000,-0.002362,-1.458816,1.457282,0.4344,0.5572,0.0842,0.000000,0.578311,-0.562971,0.564505,-0.592117,0.575243,-0.559903
2.0314,0.016762,0.000000,-1.472663,1.472663,0.0000,0.0000,0.0000,-0.002362,-1.458816,1.457282,0.4344,0.5572,0.0842,0.000000,0.578311,-0.562971,0.564505,-0.592117,0.575243,-0.559903
2.0482,0.016763,0.000000,-1.476174,1.476174,0.0000,0.0000,0.0000,-0.002375,-1.464952,1.463418,0.3969,0.5947,0.1491,0.000000,0.578311,-0.561437,0.564505,-0.592117,0.575243,-0.559903
2.0650,0.016756,0.000000,-1.479683,1.479683,0.0000,0.0000,0.0000,-0.002374,-1.469554,1.464952,0.4008,0.5908,0.1423,0.000000,0.578311,-0.561437,0.564505,-0.592117,0.575243,-0.559903
2.0817,0.016770,0.000000,-1.483195,1.483195,0.0000,0.0000,0.0000,-0.002361,-1.469554,1.469554,0.4396,0.5557,0.0898,0.000000,0.578311,-0.562971,0.564505,-0.592117,0.575243,-0.559903
2.0985,0.016757,0.000000,-1.486705,1.486705,0.0000,0.0000,0.0000,-0.002375,-1.471088,1.472622,0.3963,0.5949,0.1485,0.000000,0.578311,-0.561437,0.564505,-0.592117,0.575243,-0.559903
2.1152,0.016756,0.000000,-1.490214,1.490214,0.0000,0.0000,0.0000,-0.002375,-1.481825,1.480291,0.3963,0.5949,0.1485,0.000000,0.578311,-0.561437,0.564505,-0.592117,0.575243,-0.559903
2.1320,0.016753,0.000000,-1.493723,1.493723,0.0000,0.0000,0.0000,-0.002374,-1.481825,1.480291,0.4008,0.5908,0.1424,0.000000,0.578311,-0.561437,0.564505,-0.592117,0.575243,-0.559903
2.1488,0.016755,0.000000,-1.497232,1.497232,0.0000,0.0000,0.0000,-0.002374,-1.486427,1.480291,0.4008,0.5908,0.1424,0.000000,0.578311,-0.561437,0.564505,-0.592117,0.575243,-0.559903
2.1655,0.016751,0.000000,-1.500741,1.500741,0.0000,0.0000,0.0000,-0.002361,-1.487961,1.481825,0.4396,0.5557,0.0898,0.000000,0.578311,-0.562971,0.564505,-0.592117,0.575243,-0.559903
2.1823,0.016754,0.000000,-1.504250,1.504250,0.0000,0.0000,0.0000,-0.002375,-1.500233,1.495631,0.3963,0.5949,0.1485,0.000000,0.578311,-0.561437,0.564505,-0.592117,0.575243,-0.559903
2.1990,0.016751,0.000000,-1.507758,1.507758,0.0000,0.0000,0.0000,-0.002374,-1.501767,1.500233,0.4008,0.5908,0.1424,0.000000,0.578311,-0.561437,0.564505,-0.592117,0.575243,-0.559903
2.2158,0.016761,0.000000,-1.511268,1.511268,0.0000,0.0000,0.0000,-0.002374,-1.501767,1.500233,0.4008,0.5908,0.1424,0.000000,0.578311,-0.561437,0.564505,-0.592117,0.575243,-0.559903
2.2325,0.016756,0.000000,-1.514778,1.514778,0.0000,0.0000,0.0000,-0.002386,-1.504835,1.503301,0.3896,0.5404,0.1967,0.000000,0.578311,-0.561437,0.564505,-0.590583,0.575243,-0.559903
2.2493,0.016754,0.000000,-1.518287,1.518287,0.0000,0.0000,0.0000,-0.002360,-1.510971,1.503301,0.4407,0.5609,0.0842,0.000000,0.578311,-0.562971,0.564505,-0.592117,0.575243,-0.559903
2.2661,0.016765,0.000000,-1.521798,1.521798,0.0000,0.0000,0.0000,-0.002351,-1.514039,1.509437,0.4852,0.5432,0.1497,0.000000,0.579845,-0.562971,0.564505,-0.592117,0.575243,-0.559903
2.2828,0.016754,0.000000,-1.525307,1.525307,0.0000,0.0000,0.0000,-0.002388,-1.517107,1.514039,0.3808,0.5454,0.1960,0.000000,0.578311,-0.561437,0.564505,-0.590583,0.575243,-0.559903
2.2996,0.016759,0.000000,-1.528817,1.528817,0.0000,0.0000,0.0000,-0.002360,-1.526311,1.520175,0.4416,0.5604,0.0842,0.000000,0.578311,-0.562971,0.564505,-0.592117,0.575243,-0.559903
2.3163,0.016764,0.000000,-1.532328,1.532328,0.0000,0.0000,0.0000,-0.002360,-1.526311,1.520175,0.4416,0.5604,0.0842,0.000000,0.578311,-0.562971,0.564505,-0.592117,0.575243,-0.559903
2.3331,0.016757,0.000000,-1.535838,1.535838,0.0000,0.0000,0.0000,-0.002363,-1.527845,1.527845,0.4353,0.5588,0.0959,0.000000,0.578311,-0.562971,0.564505,-0.592117,0.575243,-0.559903
2.3498,0.016755,0.000000,-1.539347,1.539347,0.0000,0.0000,0.0000,-0.002374,-1.527845,1.527845,0.4252,0.5082,0.1484,0.000000,0.578311,-0.562971,0.564505,-0.590583,0.575243,-0.559903
2.3667,0.016892,0.000000,-1.542884,1.542884,0.0000,0.0000,0.0000,-0.002361,-1.535515,1.527845,0.4370,0.5643,0.0892,0.000000,0.578311,-0.562971,0.564505,-0.592117,0.575243,-0.559903
2.3836,0.016822,0.000000,-1.546408,1.546408,0.0000,0.0000,0.0000,-0.002363,-1.544719,1.537049,0.4358,0.5584,0.0954,0.000000,0.578311,-0.562971,0.564505,-0.592117,0.575243,-0.559903
2.4003,0.016766,0.000000,-1.549919,1.549919,0.0000,0.0000,0.0000,-0.002374,-1.544719,1.543185,0.4252,0.5083,0.1485,0.000000,0.578311,-0.562971,0.564505,-0.590583,0.575243,-0.559903
2.4171,0.016754,0.000000,-1.553428,1.553428,0.0000,0.0000,0.0000,-0.002374,-1.544719,1.543185,0.4252,0.5083,0.1485,0.000000,0.578311,-0.562971,0.564505,-0.590583,0.575243,-0.559903
2.4338,0.016754,0.000000,-1.556937,1.556937,0.0000,0.0000,0.0000,-0.002374,-1.544719,1.543185,0.3978,0.5998,0.1424,0.000000,0.578311,-0.561437,0.564505,-0.592117,0.575243,-0.559903
2.4506,0.016761,0.000000,-1.560448,1.560448,0.0000,0.0000,0.0000,-0.002361,-1.553923,1.549321,0.4399,0.5547,0.0898,0.000000,0.578311,-0.562971,0.564505,-0.592117,0.575243,-0.559903
2.4674,0.016777,0.000000,-1.563961,1.563961,0.0000,0.0000,0.0000,-0.002387,-1.555457,1.555457,0.3855,0.5442,0.2022,0.000000,0.578311,-0.561437,0.564505,-0.590583,0.575243,-0.559903
2.4841,0.016762,0.000000,-1.567472,1.567472,0.0000,0.0000,0.0000,-0.002360,-1.560058,1.556990,0.4411,0.5605,0.0836,0.000000,0.578311,-0.562971,0.564505,-0.592117,0.575243,-0.559903
2.5009,0.016771,0.000000,-1.570985,1.570985,0.0000,0.0000,0.0000,-0.002376,-1.567728,1.561592,0.3962,0.5943,0.1491,0.000000,0.578311,-0.561437,0.564505,-0.592117,0.575243,-0.559903
2.5176,0.016751,0.000000,-1.574493,1.574493,0.0000,0.0000,0.0000,-0.002376,-1.567728,1.561592,0.3962,0.5943,0.1491,0.000000,0.578311,-0.561437,0.564505,-0.592117,0.575243,-0.559903
2.5344,0.016754,0.000000,-1.578002,1.578002,0.0000,0.0000,0.0000,-0.002374,-1.567728,1.564660,0.4008,0.5908,0.1423,0.000000,0.578311,-0.561437,0.564505,-0.592117,0.575243,-0.559903
2.5512,0.016763,0.000000,-1.581513,1.581513,0.0000,0.0000,0.0000,-0.002374,-1.569262,1.566194,0.4008,0.5908,0.1423,0.000000,0.578311,-0.561437,0.564505,-0.592117,0.575243,-0.559903
2.5679,0.016758,0.000000,-1.585022,1.585022,0.0000,0.0000,0.0000,-0.002374,-1.578466,1.573864,0.4008,0.5908,0.1423,0.000000,0.578311,-0.561437,0.564505,-0.592117,0.575243,-0.559903
2.5853,0.017326,0.000000,-1.588651,1.588651,0.0000,0.0000,0.0000,-0.002361,-1.580000,1.583068,0.4396,0.5556,0.0898,0.000000,0.578311,-0.562971,0.564505,-0.592117,0.575243,-0.559903
2.6020,0.016762,0.000000,-1.592162,1.592162,0.0000,0.0000,0.0000,-0.002361,-1.580000,1.583068,0.4396,0.5556,0.0898,0.000000,0.578311,-0.562971,0.564505,-0.592117,0.575243,-0.559903
2.6188,0.016756,0.000000,-1.595671,1.595671,0.0000,0.0000,0.0000,-0.002375,-1.580000,1.581534,0.3963,0.5949,0.1485,0.000000,0.578311,-0.561437,0.564505,-0.592117,0.575243,-0.559903
2.6355,0.016752,0.000000,-1.599180,1.599180,0.0000,0.0000,0.0000,-0.002374,-1.587670,1.583068,0.4008,0.5908,0.1424,0.000000,0.578311,-0.561437,0.564505,-0.592117,0.575243,-0.559903
2.6523,0.016767,0.000000,-1.602692,1.602692,0.0000,0.0000,0.0000,-0.002373,-1.592272,1.590738,0.4288,0.5049,0.1436,0.000000,0.578311,-0.562971,0.564505,-0.590583,0.575243,-0.559903
2.6690,0.016759,0.000000,-1.606202,1.606202,0.0000,0.0000,0.0000,-0.002361,-1.592272,1.590738,0.4366,0.5646,0.0897,0.000000,0.578311,-0.562971,0.564505,-0.592117,0.575243,-0.559903
2.6864,0.017398,0.000000,-1.609845,1.609845,0.0000,0.0000,0.0000,-0.002361,-1.599942,1.595340,0.4366,0.5646,0.0897,0.000000,0.578311,-0.561437,0.564505,-0.592117,0.575243,-0.559903
2.7032,0.016755,0.000000,-1.613355,1.613355,0.0000,0.0000,0.0000,-0.002375,-1.599942,1.595340,0.3966,0.5939,0.1485,0.000000,0.578311,-0.561437,0.564505,-0.592117,0.575243,-0.559903
2.7200,0.016762,0.000000,-1.616865,1.616865,0.0000,0.0000,0.0000,-0.002361,-1.606078,1.606078,0.4400,0.5553,0.0892,0.000000,0.578311,-0.562971,0.564505,-0.592117,0.575243,-0.559903
2.7367,0.016751,0.000000,-1.620374,1.620374,0.0000,0.0000,0.0000,-0.002363,-1.606078,1.609146,0.4355,0.5594,0.0954,0.000000,0.578311,-0.562971,0.564505,-0.592117,0.575243,-0.559903
2.7535,0.016762,0.000000,-1.623884,1.623884,0.0000,0.0000,0.0000,-0.002363,-1.610680,1.610680,0.4355,0.5594,0.0954,0.000000,0.578311,-0.562971,0.564505,-0.592117,0.575243,-0.559903
2.7702,0.016748,0.000000,-1.627392,1.627392,0.0000,0.0000,0.0000,-0.002375,-1.621418,1.615282,0.3968,0.5945,0.1479,0.000000,0.578311,-0.561437,0.564505,-0.592117,0.575243,-0.559903
2.7870,0.016765,0.000000,-1.630903,1.630903,0.0000,0.0000,0.0000,-0.002375,-1.621418,1.615282,0.3968,0.5945,0.1479,0.000000,0.578311,-0.561437,0.564505,-0.592117,0.575243,-0.559903
2.8037,0.016750,0.000000,-1.634411,1.634411,0.0000,0.0000,0.0000,-0.002362,-1.624486,1.624486,0.4506,0.5753,0.1963,0.000000,0.579845,-0.561437,0.564505,-0.592117,0.575243,-0.559903
2.8209,0.017128,0.000000,-1.637999,1.637999,0.0000,0.0000,0.0000,-0.002387,-1.624486,1.624486,0.3844,0.5420,0.1911,0.000000,0.578311,-0.561437,0.564505,-0.590583,0.575243,-0.559903
2.8376,0.016759,0.000000,-1.641509,1.641509,0.0000,0.0000,0.0000,-0.002384,-1.629088,1.624486,0.3913,0.5455,0.1917,0.000000,0.578311,-0.561437,0.564505,-0.590583,0.575243,-0.559903
2.8544,0.016765,0.000000,-1.645020,1.645020,0.0000,0.0000,0.0000,-0.002373,-1.632156,1.632156,0.4013,0.5959,0.1379,0.000000,0.578311,-0.561437,0.564505,-0.592117,0.575243,-0.559903
2.8712,0.016764,0.000000,-1.648531,1.648531,0.0000,0.0000,0.0000,-0.002373,-1.639825,1.641359,0.4288,0.5043,0.1440,0.000000,0.578311,-0.562971,0.564505,-0.590583,0.575243,-0.559903
2.8879,0.016756,0.000000,-1.652040,1.652040,0.0000,0.0000,0.0000,-0.002373,-1.639825,1.641359,0.4288,0.5043,0.1440,0.000000,0.578311,-0.562971,0.564505,-0.590583,0.575243,-0.559903
2.9047,0.016770,0.000000,-1.655553,1.655553,0.0000,0.0000,0.0000,-0.002350,-1.642893,1.641359,0.4864,0.5491,0.1435,0.000000,0.579845,-0.562971,0.564505,-0.592117,0.575243,-0.559903
2.9214,0.016755,0.000000,-1.659062,1.659062,0.0000,0.0000,0.0000,-0.002377,-1.644427,1.642893,0.3914,0.5955,0.1429,0.000000,0.578311,-0.561437,0.564505,-0.592117,0.575243,-0.559903
2.9382,0.016761,0.000000,-1.662572,1.662572,0.0000,0.0000,0.0000,-0.002374,-1.652097,1.649029,0.4013,0.5907,0.1429,0.000000,0.578311,-0.561437,0.564505,-0.592117,0.575243,-0.559903
2.9550,0.016764,0.000000,-1.666083,1.666083,0.0000,0.0000,0.0000,-0.002386,-1.658233,1.655165,0.3895,0.5404,0.1967,0.000000,0.578311,-0.561437,0.564505,-0.590583,0.575243,-0.559903
2.9717,0.016764,0.000000,-1.669594,1.669594,0.0000,0.0000,0.0000,-0.002386,-1.658233,1.655165,0.3895,0.5404,0.1967,0.000000,0.578311,-0.561437,0.564505,-0.590583,0.575243,-0.559903
2.9885,0.016751,0.000000,-1.673102,1.673102,0.0000,0.0000,0.0000,-0.002348,-1.658233,1.659767,0.4905,0.5454,0.1380,0.000000,0.579845,-0.562971,0.564505,-0.592117,0.575243,-0.559903
3.0052,0.016764,0.000000,-1.676614,1.676614,0.0000,0.0000,0.0000,-0.002377,-1.662835,1.662835,0.3910,0.5959,0.1435,0.000000,0.578311,-0.561437,0.564505,-0.592117,0.575243,-0.559903
3.0220,0.016757,0.000000,-1.680123,1.680123,0.0000,0.0000,0.0000,-0.002374,-1.665903,1.664369,0.4014,0.5907,0.1429,0.000000,0.578311,-0.561437,0.564505,-0.592117,0.575243,-0.559903
3.0388,0.016762,0.000000,-1.683634,1.683634,0.0000,0.0000,0.0000,-0.002361,-1.673573,1.668971,0.4395,0.5557,0.0898,0.000000,0.578311,-0.562971,0.564505,-0.592117,0.575243,-0.559903
3.0555,0.016750,0.000000,-1.687142,1.687142,0.0000,0.0000,0.0000,-0.002363,-1.678175,1.672039,0.4355,0.5593,0.0953,0.000000,0.578311,-0.562971,0.564505,-0.592117,0.575243,-0.559903
3.0723,0.016811,0.000000,-1.690663,1.690663,0.0000,0.0000,0.0000,-0.002363,-1.678175,1.672039,0.4355,0.5593,0.0953,0.000000,0.578311,-0.562971,0.564505,-0.592117,0.575243,-0.559903
3.0891,0.016756,0.000000,-1.694172,1.694172,0.0000,0.0000,0.0000,-0.002363,-1.685845,1.681243,0.4355,0.5593,0.0953,0.000000,0.578311,-0.562971,0.564505,-0.592117,0.575243,-0.559903
3.1059,0.016774,0.000000,-1.697685,1.697685,0.0000,0.0000,0.0000,-0.002363,-1.685845,1.684311,0.4355,0.5593,0.0953,0.000000,0.578311,-0.562971,0.564505,-0.592117,0.575243,-0.559903
3.1226,0.016760,0.000000,-1.701195,1.701195,0.0000,0.0000,0.0000,-0.002375,-1.687379,1.684311,0.3967,0.5945,0.1479,0.000000,0.578311,-0.561437,0.564505,-0.592117,0.575243,-0.559903
3.1395,0.016916,0.000000,-1.704738,1.704738,0.0000,0.0000,0.0000,-0.002361,-1.691981,1.688913,0.4400,0.5553,0.0893,0.000000,0.578311,-0.562971,0.564505,-0.592117,0.575243,-0.559903
3.1563,0.016794,0.000000,-1.708256,1.708256,0.0000,0.0000,0.0000,-0.002374,-1.701185,1.696583,0.4247,0.5086,0.1491,0.000000,0.578311,-0.562971,0.564505,-0.590583,0.575243,-0.559903
3.1731,0.016765,0.000000,-1.711767,1.711767,0.0000,0.0000,0.0000,-0.002374,-1.701185,1.696583,0.4247,0.5086,0.1491,0.000000,0.578311,-0.562971,0.564505,-0.590583,0.575243,-0.559903
3.1898,0.016753,0.000000,-1.715276,1.715276,0.0000,0.0000,0.0000,-0.002362,-1.704253,1.701185,0.4477,0.5842,0.1961,0.000000,0.579845,-0.561437,0.564505,-0.592117,0.575243,-0.559903
3.2066,0.016766,0.000000,-1.718787,1.718787,0.0000,0.0000,0.0000,-0.002351,-1.705787,1.702719,0.4845,0.5408,0.1381,0.000000,0.579845,-0.562971,0.564505,-0.592117,0.575243,-0.559903
3.2234,0.016755,0.000000,-1.722296,1.722296,0.0000,0.0000,0.0000,-0.002352,-1.710389,1.704253,0.4806,0.5453,0.1441,0.000000,0.579845,-0.562971,0.564505,-0.592117,0.575243,-0.559903
3.2401,0.016759,0.000000,-1.725806,1.725806,0.0000,0.0000,0.0000,-0.002365,-1.716525,1.713457,0.4418,0.5804,0.1967,0.000000,0.579845,-0.561437,0.564505,-0.592117,0.575243,-0.559903
3.2570,0.016866,0.000000,-1.729339,1.729339,0.0000,0.0000,0.0000,-0.002362,-1.724194,1.721126,0.4353,0.5567,0.0842,0.000000,0.578311,-0.562971,0.564505,-0.592117,0.575243,-0.559903
3.2737,0.016757,0.000000,-1.732848,1.732848,0.0000,0.0000,0.0000,-0.002362,-1.724194,1.721126,0.4353,0.5567,0.0842,0.000000,0.578311,-0.562971,0.564505,-0.592117,0.575243,-0.559903
3.2905,0.016753,0.000000,-1.736357,1.736357,0.0000,0.0000,0.0000,-0.002351,-1.727262,1.721126,0.4858,0.5436,0.1497,0.000000,0.579845,-0.562971,0.564505,-0.592117,0.575243,-0.559903
3.3073,0.016796,0.000000,-1.739875,1.739875,0.0000,0.0000,0.0000,-0.002352,-1.727262,1.721126,0.4805,0.5450,0.1429,0.000000,0.579845,-0.562971,0.564505,-0.592117,0.575243,-0.559903
3.3240,0.016756,0.000000,-1.743384,1.743384,0.0000,0.0000,0.0000,-0.002388,-1.736466,1.734932,0.3813,0.5452,0.1967,0.000000,0.578311,-0.561437,0.564505,-0.590583,0.575243,-0.559903
3.3410,0.016989,0.000000,-1.743716,1.743716,0.0000,0.0000,0.0000,-0.002360,-1.742602,1.738000,0.4416,0.5604,0.0842,0.000000,0.578311,-0.562971,0.564505,-0.592117,0.575243,-0.559903
3.3578,0.016776,0.000000,-1.740203,1.740203,0.0000,0.0000,0.0000,-0.002363,-1.744136,1.744136,0.4353,0.5588,0.0959,0.000000,0.578311,-0.562971,0.564505,-0.592117,0.575243,-0.559903
3.3746,0.016758,0.000000,-1.736693,1.736693,0.0000,0.0000,0.0000,-0.002363,-1.744136,1.744136,0.4353,0.5588,0.0959,0.000000,0.578311,-0.562971,0.564505,-0.592117,0.575243,-0.559903
3.3913,0.016755,0.000000,-1.733184,1.733184,0.0000,0.0000,0.0000,-0.002375,-1.744136,1.744136,0.3968,0.5945,0.1478,0.000000,0.578311,-0.561437,0.564505,-0.592117,0.575243,-0.559903
3.4081,0.016758,0.000000,-1.729674,1.729674,0.0000,0.0000,0.0000,-0.002362,-1.744136,1.744136,0.4506,0.5753,0.1963,0.000000,0.579845,-0.561437,0.564505,-0.592117,0.575243,-0.559903
3.4248,0.016764,0.000000,-1.726163,1.726163,0.0000,0.0000,0.0000,-0.002362,-1.742602,1.744136,0.4344,0.5572,0.0842,0.000000,0.578311,-0.562971,0.564505,-0.592117,0.575243,-0.559903
3.4416,0.016759,0.000000,-1.722653,1.722653,0.0000,0.0000,0.0000,-0.002362,-1.741068,1.744136,0.4360,0.5591,0.0959,0.000000,0.578311,-0.562971,0.564505,-0.592117,0.575243,-0.559903
3.4584,0.016816,0.000000,-1.719131,1.719131,0.0000,0.0000,0.0000,-0.002362,-1.739534,1.744136,0.4360,0.5591,0.0959,0.000000,0.578311,-0.562971,0.564505,-0.592117,0.575243,-0.559903
3.4752,0.016767,0.000000,-1.715619,1.715619,0.0000,0.0000,0.0000,-0.002362,-1.739534,1.744136,0.4360,0.5591,0.0959,0.000000,0.578311,-0.562971,0.564505,-0.592117,0.575243,-0.559903
3.4919,0.016757,0.000000,-1.712110,1.712110,0.0000,0.0000,0.0000,-0.002362,-1.739534,1.744136,0.4360,0.5591,0.0959,0.000000,0.578311,-0.562971,0.564505,-0.592117,0.575243,-0.559903
3.5087,0.016764,0.000000,-1.708599,1.708599,0.0000,0.0000,0.0000,-0.002375,-1.739534,1.744136,0.3967,0.5945,0.1478,0.000000,0.578311,-0.561437,0.564505,-0.592117,0.575243,-0.559903
3.5255,0.016759,0.000000,-1.705089,1.705089,0.0000,0.0000,0.0000,-0.002374,-1.738000,1.742602,0.4008,0.5908,0.1424,0.000000,0.578311,-0.561437,0.564505,-0.592117,0.575243,-0.559903
3.5422,0.016764,0.000000,-1.701578,1.701578,0.0000,0.0000,0.0000,-0.002361,-1.736466,1.741068,0.4396,0.5557,0.0898,0.000000,0.578311,-0.562971,0.564505,-0.592117,0.575243,-0.559903
3.5590,0.016760,0.000000,-1.698067,1.698067,0.0000,0.0000,0.0000,-0.002361,-1.736466,1.741068,0.4396,0.5557,0.0898,0.000000,0.578311,-0.562971,0.564505,-0.592117,0.575243,-0.559903
3.5758,0.016759,0.000000,-1.694557,1.694557,0.0000,0.0000,0.0000,-0.002363,-1.736466,1.741068,0.4355,0.5593,0.0953,0.000000,0.578311,-0.562971,0.564505,-0.592117,0.575243,-0.559903
3.5926,0.016841,0.000000,-1.691030,1.691030,0.0000,0.0000,0.0000,-0.002363,-1.736466,1.741068,0.4355,0.5593,0.0953,0.000000,0.578311,-0.562971,0.564505,-0.592117,0.575243,-0.559903
3.6093,0.016754,0.000000,-1.687521,1.687521,0.0000,0.0000,0.0000,-0.002351,-1.736466,1.741068,0.4857,0.5434,0.1486,0.000000,0.579845,-0.562971,0.564505,-0.592117,0.575243,-0.559903
3.6262,0.016845,0.000000,-1.683993,1.683993,0.0000,0.0000,0.0000,-0.002376,-1.733398,1.739534,0.4305,0.5298,0.2499,0.000000,0.579845,-0.561437,0.564505,-0.590583,0.575243,-0.559903
3.6430,0.016763,0.000000,-1.680482,1.680482,0.0000,0.0000,0.0000,-0.002376,-1.733398,1.739534,0.4305,0.5298,0.2499,0.000000,0.579845,-0.561437,0.564505,-0.590583,0.575243,-0.559903
3.6597,0.016751,0.000000,-1.676974,1.676974,0.0000,0.0000,0.0000,-0.002349,-1.727262,1.739534,0.4863,0.5465,0.1324,0.000000,0.579845,-0.562971,0.564505,-0.592117,0.575243,-0.559903
3.6765,0.016757,0.000000,-1.673464,1.673464,0.0000,0.0000,0.0000,-0.002364,-1.719592,1.733398,0.4306,0.5603,0.0909,0.000000,0.578311,-0.562971,0.564505,-0.592117,0.575243,-0.559903
3.6932,0.016764,0.000000,-1.669953,1.669953,0.0000,0.0000,0.0000,-0.002351,-1.710389,1.722660,0.4863,0.5433,0.1490,0.000000,0.579845,-0.562971,0.564505,-0.592117,0.575243,-0.559903
3.7100,0.016755,0.000000,-1.666444,1.666444,0.0000,0.0000,0.0000,-0.002364,-1.704253,1.708855,0.4306,0.5606,0.0891,0.000000,0.578311,-0.562971,0.564505,-0.592117,0.575243,-0.559903
3.7269,0.016879,0.000000,-1.662909,1.662909,0.0000,0.0000,0.0000,-0.002364,-1.698117,1.699651,0.4471,0.5788,0.2024,0.000000,0.579845,-0.561437,0.564505,-0.592117,0.575243,-0.559903
3.7436,0.016758,0.000000,-1.659400,1.659400,0.0000,0.0000,0.0000,-0.002364,-1.698117,1.699651,0.4471,0.5788,0.2024,0.000000,0.579845,-0.561437,0.564505,-0.592117,0.575243,-0.559903
3.7604,0.016749,0.000000,-1.655892,1.655892,0.0000,0.0000,0.0000,-0.002375,-1.695049,1.690447,0.3955,0.5924,0.1368,0.000000,0.578311,-0.561437,0.564505,-0.592117,0.575243,-0.559903
3.7771,0.016759,0.000000,-1.652381,1.652381,0.0000,0.0000,0.0000,-0.002361,-1.693515,1.687379,0.4401,0.5555,0.0904,0.000000,0.578311,-0.562971,0.564505,-0.592117,0.575243,-0.559903
3.7939,0.016759,0.000000,-1.648872,1.648872,0.0000,0.0000,0.0000,-0.002375,-1.693515,1.687379,0.3963,0.5949,0.1484,0.000000,0.578311,-0.561437,0.564505,-0.592117,0.575243,-0.559903
3.8107,0.016767,0.000000,-1.645360,1.645360,0.0000,0.0000,0.0000,-0.002349,-1.691981,1.687379,0.4898,0.5397,0.1430,0.000000,0.579845,-0.562971,0.564505,-0.592117,0.575243,-0.559903
3.8274,0.016767,0.000000,-1.641848,1.641848,0.0000,0.0000,0.0000,-0.002349,-1.687379,1.687379,0.4898,0.5397,0.1430,0.000000,0.579845,-0.562971,0.564505,-0.590583,0.575243,-0.559903
3.8442,0.016764,0.000000,-1.638337,1.638337,0.0000,0.0000,0.0000,-0.002364,-1.687379,1.687379,0.4693,0.4947,0.1973,0.000000,0.579845,-0.562971,0.564505,-0.590583,0.575243,-0.559903
3.8609,0.016752,0.000000,-1.634829,1.634829,0.0000,0.0000,0.0000,-0.002375,-1.676641,1.687379,0.3932,0.6012,0.1373,0.000000,0.578311,-0.561437,0.564505,-0.592117,0.575243,-0.559903
3.8778,0.016825,0.000000,-1.631305,1.631305,0.0000,0.0000,0.0000,-0.002374,-1.667437,1.687379,0.4401,0.5238,0.2511,0.000000,0.579845,-0.561437,0.564505,-0.590583,0.575243,-0.559903
3.8945,0.016759,0.000000,-1.627795,1.627795,0.0000,0.0000,0.0000,-0.002374,-1.665903,1.684311,0.3962,0.5982,0.1317,0.000000,0.578311,-0.561437,0.564505,-0.592117,0.575243,-0.559903
3.9113,0.016794,0.000000,-1.624277,1.624277,0.0000,0.0000,0.0000,-0.002374,-1.665903,1.678175,0.4008,0.5904,0.1441,0.000000,0.578311,-0.561437,0.564505,-0.592117,0.575243,-0.559903
3.9281,0.016763,0.000000,-1.620767,1.620767,0.0000,0.0000,0.0000,-0.002374,-1.665903,1.667437,0.4002,0.5915,0.1424,0.000000,0.578311,-0.561437,0.564505,-0.592117,0.575243,-0.559903
3.9448,0.016762,0.000000,-1.617256,1.617256,0.0000,0.0000,0.0000,-0.002374,-1.665903,1.667437,0.4002,0.5915,0.1424,0.000000,0.578311,-0.561437,0.564505,-0.592117,0.575243,-0.559903
3.9616,0.016802,0.000000,-1.613737,1.613737,0.0000,0.0000,0.0000,-0.002373,-1.664369,1.656699,0.4289,0.5048,0.1436,0.000000,0.578311,-0.562971,0.564505,-0.590583,0.575243,-0.559903
3.9784,0.016747,0.000000,-1.610229,1.610229,0.0000,0.0000,0.0000,-0.002386,-1.664369,1.652097,0.3867,0.5494,0.1966,0.000000,0.578311,-0.561437,0.564505,-0.590583,0.575243,-0.559903
3.9951,0.016747,0.000000,-1.606722,1.606722,0.0000,0.0000,0.0000,-0.002372,-1.655165,1.647495,0.4303,0.5092,0.1379,0.000000,0.578311,-0.562971,0.564505,-0.590583,0.575243,-0.559903
4.0119,0.016746,0.000000,-1.603215,1.603215,0.0000,0.0000,0.0000,-0.002374,-1.645961,1.645961,0.3973,0.5997,0.1435,0.000000,0.578311,-0.561437,0.564505,-0.592117,0.575243,-0.559903
4.0289,0.017069,0.000000,-1.599640,1.599640,0.0000,0.0000,0.0000,-0.002350,-1.638291,1.644427,0.4897,0.5392,0.1435,0.000000,0.579845,-0.562971,0.564505,-0.592117,0.575243,-0.559903
4.0457,0.016760,0.000000,-1.596130,1.596130,0.0000,0.0000,0.0000,-0.002350,-1.638291,1.644427,0.4897,0.5392,0.1435,0.000000,0.579845,-0.562971,0.564505,-0.592117,0.575243,-0.559903
4.0625,0.016743,0.000000,-1.592623,1.592623,0.0000,0.0000,0.0000,-0.002365,-1.632156,1.639825,0.4409,0.5810,0.1967,0.000000,0.579845,-0.561437,0.564505,-0.592117,0.575243,-0.559903
4.0792,0.016749,0.000000,-1.589115,1.589115,0.0000,0.0000,0.0000,-0.002375,-1.627554,1.633690,0.3962,0.5922,0.1373,0.000000,0.578311,-0.561437,0.564505,-0.592117,0.575243,-0.559903
4.0959,0.016739,0.000000,-1.585609,1.585609,0.0000,0.0000,0.0000,-0.002373,-1.624486,1.632156,0.4293,0.5047,0.1441,0.000000,0.578311,-0.562971,0.564505,-0.590583,0.575243,-0.559903
4.1127,0.016754,0.000000,-1.582100,1.582100,0.0000,0.0000,0.0000,-0.002386,-1.624486,1.629088,0.3866,0.5494,0.1966,0.000000,0.578311,-0.561437,0.564505,-0.590583,0.575243,-0.559903
4.1294,0.016755,0.000000,-1.578591,1.578591,0.0000,0.0000,0.0000,-0.002372,-1.622952,1.626020,0.4303,0.5092,0.1379,0.000000,0.578311,-0.562971,0.564505,-0.590583,0.575243,-0.559903
4.1462,0.016764,0.000000,-1.575080,1.575080,0.0000,0.0000,0.0000,-0.002372,-1.622952,1.626020,0.4303,0.5092,0.1379,0.000000,0.578311,-0.562971,0.564505,-0.590583,0.575243,-0.559903
4.1630,0.016749,0.000000,-1.571572,1.571572,0.0000,0.0000,0.0000,-0.002373,-1.621418,1.618350,0.4257,0.5134,0.1440,0.000000,0.578311,-0.562971,0.564505,-0.590583,0.575243,-0.559903
4.1797,0.016752,0.000000,-1.568064,1.568064,0.0000,0.0000,0.0000,-0.002361,-1.615282,1.612214,0.4369,0.5637,0.0897,0.000000,0.578311,-0.562971,0.564505,-0.592117,0.575243,-0.559903
4.1965,0.016747,0.000000,-1.564556,1.564556,0.0000,0.0000,0.0000,-0.002364,-1.610680,1.606078,0.4464,0.5785,0.2023,0.000000,0.579845,-0.561437,0.564505,-0.592117,0.575243,-0.559903
4.2132,0.016767,0.000000,-1.561045,1.561045,0.0000,0.0000,0.0000,-0.002375,-1.607612,1.606078,0.3956,0.5925,0.1368,0.000000,0.578311,-0.561437,0.564505,-0.592117,0.575243,-0.559903
4.2300,0.016815,0.000000,-1.557523,1.557523,0.0000,0.0000,0.0000,-0.002361,-1.599942,1.604544,0.4401,0.5555,0.0904,0.000000,0.578311,-0.562971,0.564505,-0.592117,0.575243,-0.559903
4.2468,0.016760,0.000000,-1.554013,1.554013,0.0000,0.0000,0.0000,-0.002361,-1.599942,1.604544,0.4401,0.5555,0.0904,0.000000,0.578311,-0.562971,0.564505,-0.592117,0.575243,-0.559903
4.2636,0.016758,0.000000,-1.550503,1.550503,0.0000,0.0000,0.0000,-0.002375,-1.592272,1.604544,0.3963,0.5949,0.1484,0.000000,0.578311,-0.561437,0.564505,-0.592117,0.575243,-0.559903
4.2805,0.016932,0.000000,-1.546957,1.546957,0.0000,0.0000,0.0000,-0.002349,-1.587670,1.603010,0.4898,0.5397,0.1430,0.000000,0.579845,-0.562971,0.564505,-0.592117,0.575243,-0.559903
4.2973,0.016779,0.000000,-1.543443,1.543443,0.0000,0.0000,0.0000,-0.002377,-1.586136,1.601476,0.3911,0.5965,0.1429,0.000000,0.578311,-0.561437,0.564505,-0.592117,0.575243,-0.559903
4.3140,0.016773,0.000000,-1.539930,1.539930,0.0000,0.0000,0.0000,-0.002361,-1.584602,1.592272,0.4406,0.5551,0.0898,0.000000,0.578311,-0.562971,0.564505,-0.592117,0.575243,-0.559903
4.3308,0.016776,0.000000,-1.536416,1.536416,0.0000,0.0000,0.0000,-0.002375,-1.584602,1.583068,0.3962,0.5949,0.1485,0.000000,0.578311,-0.561437,0.564505,-0.592117,0.575243,-0.559903
4.3476,0.016756,0.000000,-1.532907,1.532907,0.0000,0.0000,0.0000,-0.002375,-1.584602,1.583068,0.3962,0.5949,0.1485,0.000000,0.578311,-0.561437,0.564505,-0.592117,0.575243,-0.559903
4.3643,0.016752,0.000000,-1.529398,1.529398,0.0000,0.0000,0.0000,-0.002361,-1.584602,1.576932,0.4400,0.5552,0.0892,0.000000,0.578311,-0.562971,0.564505,-0.592117,0.575243,-0.559903
4.3811,0.016809,0.000000,-1.525878,1.525878,0.0000,0.0000,0.0000,-0.002363,-1.584602,1.575398,0.4354,0.5594,0.0954,0.000000,0.578311,-0.562971,0.564505,-0.592117,0.575243,-0.559903
4.3979,0.016748,0.000000,-1.522370,1.522370,0.0000,0.0000,0.0000,-0.002387,-1.575398,1.570796,0.3860,0.5437,0.2016,0.000000,0.578311,-0.561437,0.564505,-0.590583,0.575243,-0.559903
4.4146,0.016763,0.000000,-1.518859,1.518859,0.0000,0.0000,0.0000,-0.002360,-1.564660,1.564660,0.4411,0.5606,0.0837,0.000000,0.578311,-0.562971,0.564505,-0.592117,0.575243,-0.559903
4.4314,0.016759,0.000000,-1.515349,1.515349,0.0000,0.0000,0.0000,-0.002360,-1.564660,1.564660,0.4411,0.5606,0.0837,0.000000,0.578311,-0.562971,0.564505,-0.592117,0.575243,-0.559903
4.4482,0.016756,0.000000,-1.511840,1.511840,0.0000,0.0000,0.0000,-0.002376,-1.555457,1.556990,0.3962,0.5943,0.1491,0.000000,0.578311,-0.561437,0.564505,-0.592117,0.575243,-0.559903
4.4649,0.016774,0.000000,-1.508327,1.508327,0.0000,0.0000,0.0000,-0.002349,-1.546253,1.552389,0.4899,0.5397,0.1430,0.000000,0.579845,-0.562971,0.564505,-0.592117,0.575243,-0.559903
4.4817,0.016752,0.000000,-1.504818,1.504818,0.0000,0.0000,0.0000,-0.002388,-1.543185,1.550855,0.3803,0.5457,0.1967,0.000000,0.578311,-0.561437,0.564505,-0.590583,0.575243,-0.559903
4.4984,0.016756,0.000000,-1.501309,1.501309,0.0000,0.0000,0.0000,-0.002360,-1.538583,1.550855,0.4417,0.5604,0.0842,0.000000,0.578311,-0.562971,0.564505,-0.592117,0.575243,-0.559903
4.5152,0.016785,0.000000,-1.497794,1.497794,0.0000,0.0000,0.0000,-0.002376,-1.535515,1.547787,0.3961,0.5944,0.1491,0.000000,0.578311,-0.561437,0.564505,-0.592117,0.575243,-0.559903
4.5320,0.016761,0.000000,-1.494283,1.494283,0.0000,0.0000,0.0000,-0.002376,-1.535515,1.547787,0.3961,0.5944,0.1491,0.000000,0.578311,-0.561437,0.564505,-0.592117,0.575243,-0.559903
4.5487,0.016744,0.000000,-1.490776,1.490776,0.0000,0.0000,0.0000,-0.002362,-1.532447,1.541651,0.4506,0.5753,0.1962,0.000000,0.579845,-0.561437,0.564505,-0.592117,0.575243,-0.559903
4.5655,0.016752,0.000000,-1.487268,1.487268,0.0000,0.0000,0.0000,-0.002375,-1.532447,1.533981,0.3952,0.5928,0.1374,0.000000,0.578311,-0.561437,0.564505,-0.592117,0.575243,-0.559903
4.5822,0.016762,0.000000,-1.483757,1.483757,0.0000,0.0000,0.0000,-0.002362,-1.532447,1.526311,0.4507,0.5754,0.1974,0.000000,0.579845,-0.561437,0.564505,-0.592117,0.575243,-0.559903
4.5990,0.016748,0.000000,-1.480249,1.480249,0.0000,0.0000,0.0000,-0.002362,-1.530913,1.523243,0.4344,0.5572,0.0841,0.000000,0.578311,-0.562971,0.564505,-0.592117,0.575243,-0.559903
4.6158,0.016756,0.000000,-1.476740,1.476740,0.0000,0.0000,0.0000,-0.002375,-1.524777,1.520175,0.3969,0.5947,0.1491,0.000000,0.578311,-0.561437,0.564505,-0.592117,0.575243,-0.559903
4.6325,0.016748,0.000000,-1.473232,1.473232,0.0000,0.0000,0.0000,-0.002375,-1.524777,1.520175,0.3969,0.5947,0.1491,0.000000,0.578311,-0.561437,0.564505,-0.592117,0.575243,-0.559903
4.6493,0.016762,0.000000,-1.469722,1.469722,0.0000,0.0000,0.0000,-0.002361,-1.515573,1.518641,0.4400,0.5552,0.0891,0.000000,0.578311,-0.562971,0.564505,-0.592117,0.575243,-0.559903
4.6660,0.016750,0.000000,-1.466214,1.466214,0.0000,0.0000,0.0000,-0.002387,-1.507903,1.512505,0.3855,0.5441,0.2023,0.000000,0.578311,-0.561437,0.564505,-0.590583,0.575243,-0.559903
4.6828,0.016748,0.000000,-1.462706,1.462706,0.0000,0.0000,0.0000,-0.002373,-1.497165,1.503301,0.4019,0.5961,0.1368,0.000000,0.578311,-0.561437,0.564505,-0.592117,0.575243,-0.559903
4.6995,0.016743,0.000000,-1.459199,1.459199,0.0000,0.0000,0.0000,-0.002386,-1.492563,1.498699,0.3895,0.5399,0.1973,0.000000,0.578311,-0.561437,0.564505,-0.590583,0.575243,-0.559903
4.7163,0.016784,0.000000,-1.455684,1.455684,0.0000,0.0000,0.0000,-0.002360,-1.487961,1.494097,0.4407,0.5610,0.0841,0.000000,0.578311,-0.562971,0.564505,-0.592117,0.575243,-0.559903
4.7330,0.016743,0.000000,-1.452177,1.452177,0.0000,0.0000,0.0000,-0.002360,-1.487961,1.494097,0.4407,0.5610,0.0841,0.000000,0.578311,-0.562971,0.564505,-0.592117,0.575243,-0.559903
4.7498,0.016747,0.000000,-1.448670,1.448670,0.0000,0.0000,0.0000,-0.002363,-1.487961,1.494097,0.4354,0.5588,0.0959,0.000000,0.578311,-0.562971,0.564505,-0.592117,0.575243,-0.559903
4.7665,0.016747,0.000000,-1.445162,1.445162,0.0000,0.0000,0.0000,-0.002363,-1.480291,1.483359,0.4354,0.5588,0.0959,0.000000,0.578311,-0.562971,0.564505,-0.592117,0.575243,-0.559903
4.7833,0.016748,0.000000,-1.441655,1.441655,0.0000,0.0000,0.0000,-0.002364,-1.480291,1.475690,0.4466,0.5790,0.2017,0.000000,0.579845,-0.561437,0.564505,-0.592117,0.575243,-0.559903
4.8000,0.016742,0.000000,-1.438148,1.438148,0.0000,0.0000,0.0000,-0.002375,-1.478757,1.471088,0.3956,0.5924,0.1368,0.000000,0.578311,-0.561437,0.564505,-0.592117,0.575243,-0.559903
4.8168,0.016753,0.000000,-1.434639,1.434639,0.0000,0.0000,0.0000,-0.002361,-1.478757,1.468020,0.4401,0.5555,0.0904,0.000000,0.578311,-0.562971,0.564505,-0.592117,0.575243,-0.559903
4.8335,0.016749,0.000000,-1.431131,1.431131,0.0000,0.0000,0.0000,-0.002361,-1.478757,1.468020,0.4401,0.5555,0.0904,0.000000,0.578311,-0.562971,0.564505,-0.592117,0.575243,-0.559903
4.8503,0.016748,0.000000,-1.427624,1.427624,0.0000,0.0000,0.0000,-0.002363,-1.478757,1.464952,0.4354,0.5593,0.0953,0.000000,0.578311,-0.562971,0.564505,-0.592117,0.575243,-0.559903
4.8670,0.016742,0.000000,-1.424117,1.424117,0.0000,0.0000,0.0000,-0.002363,-1.478757,1.464952,0.4354,0.5593,0.0953,0.000000,0.578311,-0.562971,0.564505,-0.592117,0.575243,-0.559903
4.8838,0.016773,0.000000,-1.420604,1.420604,0.0000,0.0000,0.0000,-0.002363,-1.477223,1.460350,0.4354,0.5593,0.0953,0.000000,0.578311,-0.562971,0.564505,-0.592117,0.575243,-0.559903
4.9005,0.016744,0.000000,-1.417097,1.417097,0.0000,0.0000,0.0000,-0.002363,-1.460350,1.452680,0.4354,0.5593,0.0953,0.000000,0.578311,-0.562971,0.564505,-0.592117,0.575243,-0.559903
4.9173,0.016825,0.000000,-1.413574,1.413574,0.0000,0.0000,0.0000,-0.002375,-1.448078,1.448078,0.3968,0.5945,0.1479,0.000000,0.578311,-0.561437,0.564505,-0.592117,0.575243,-0.559903
4.9341,0.016742,0.000000,-1.410067,1.410067,0.0000,0.0000,0.0000,-0.002375,-1.448078,1.448078,0.3968,0.5945,0.1479,0.000000,0.578311,-0.561437,0.564505,-0.592117,0.575243,-0.559903
4.9508,0.016746,0.000000,-1.406560,1.406560,0.0000,0.0000,0.0000,-0.002361,-1.440408,1.445010,0.4400,0.5553,0.0893,0.000000,0.578311,-0.562971,0.564505,-0.592117,0.575243,-0.559903
4.9676,0.016748,0.000000,-1.403052,1.403052,0.0000,0.0000,0.0000,-0.002364,-1.435806,1.445010,0.4461,0.5793,0.2024,0.000000,0.579845,-0.561437,0.564505,-0.592117,0.575243,-0.559903
4.9843,0.016751,0.000000,-1.399544,1.399544,0.0000,0.0000,0.0000,-0.002362,-1.431204,1.445010,0.4349,0.5568,0.0836,0.000000,0.578311,-0.562971,0.564505,-0.592117,0.575243,-0.559903
5.0011,0.016745,0.000000,-1.396490,1.396490,0.0000,0.0000,0.0000,-0.002375,-1.429670,1.443476,0.3968,0.5947,0.1491,0.000000,0.578311,-0.561437,0.564505,-0.592117,0.575243,-0.559903
5.0179,0.016844,0.000000,-1.400018,1.400018,0.0000,0.0000,0.0000,-0.002385,-1.426602,1.440408,0.3900,0.5400,0.1960,0.000000,0.578311,-0.561437,0.564505,-0.590583,0.575243,-0.559903
5.0347,0.016746,0.000000,-1.403525,1.403525,0.0000,0.0000,0.0000,-0.002385,-1.426602,1.440408,0.3900,0.5400,0.1960,0.000000,0.578311,-0.561437,0.564505,-0.590583,0.575243,-0.559903
5.0514,0.016744,0.000000,-1.407032,1.407032,0.0000,0.0000,0.0000,-0.002360,-1.426602,1.435806,0.4407,0.5610,0.0842,0.000000,0.578311,-0.562971,0.564505,-0.592117,0.575243,-0.559903
5.0682,0.016744,0.000000,-1.410538,1.410538,0.0000,0.0000,0.0000,-0.002363,-1.426602,1.428136,0.4354,0.5588,0.0959,0.000000,0.578311,-0.562971,0.564505,-0.592117,0.575243,-0.559903
5.0849,0.016767,0.000000,-1.414050,1.414050,0.0000,0.0000,0.0000,-0.002363,-1.426602,1.422000,0.4354,0.5588,0.0959,0.000000,0.578311,-0.562971,0.564505,-0.592117,0.575243,-0.559903
5.1017,0.016754,0.000000,-1.417559,1.417559,0.0000,0.0000,0.0000,-0.002387,-1.426602,1.422000,0.3860,0.5438,0.2016,0.000000,0.578311,-0.561437,0.564505,-0.590583,0.575243,-0.559903
5.1184,0.016754,0.000000,-1.421068,1.421068,0.0000,0.0000,0.0000,-0.002373,-1.426602,1.422000,0.4019,0.5961,0.1368,0.000000,0.578311,-0.561437,0.564505,-0.592117,0.575243,-0.559903
5.1352,0.016750,0.000000,-1.424576,1.424576,0.0000,0.0000,0.0000,-0.002373,-1.426602,1.422000,0.4019,0.5961,0.1368,0.000000,0.578311,-0.561437,0.564505,-0.592117,0.575243,-0.559903
5.1519,0.016747,0.000000,-1.428084,1.428084,0.0000,0.0000,0.0000,-0.002361,-1.426602,1.422000,0.4394,0.5551,0.0904,0.000000,0.578311,-0.562971,0.564505,-0.592117,0.575243,-0.559903
5.1686,0.016718,0.000000,-1.431585,1.431585,0.0000,0.0000,0.0000,-0.002375,-1.426602,1.422000,0.3963,0.5949,0.1484,0.000000,0.578311,-0.561437,0.564505,-0.592117,0.575243,-0.559903
5.1854,0.016747,0.000000,-1.435093,1.435093,0.0000,0.0000,0.0000,-0.002362,-1.428136,1.423534,0.4506,0.5752,0.1962,0.000000,0.579845,-0.561437,0.564505,-0.592117,0.575243,-0.559903
5.2022,0.016758,0.000000,-1.438603,1.438603,0.0000,0.0000,0.0000,-0.002362,-1.432738,1.429670,0.4344,0.5573,0.0842,0.000000,0.578311,-0.562971,0.564505,-0.592117,0.575243,-0.559903
5.2189,0.016747,0.000000,-1.442110,1.442110,0.0000,0.0000,0.0000,-0.002362,-1.437340,1.434272,0.4360,0.5591,0.0959,0.000000,0.578311,-0.562971,0.564505,-0.592117,0.575243,-0.559903
5.2357,0.016749,0.000000,-1.445618,1.445618,0.0000,0.0000,0.0000,-0.002362,-1.437340,1.434272,0.4360,0.5591,0.0959,0.000000,0.578311,-0.562971,0.564505,-0.592117,0.575243,-0.559903
5.2524,0.016742,0.000000,-1.449125,1.449125,0.0000,0.0000,0.0000,-0.002375,-1.438874,1.435806,0.3967,0.5945,0.1478,0.000000,0.578311,-0.561437,0.564505,-0.592117,0.575243,-0.559903
5.2691,0.016753,0.000000,-1.452633,1.452633,0.0000,0.0000,0.0000,-0.002361,-1.441942,1.438874,0.4400,0.5553,0.0893,0.000000,0.578311,-0.562971,0.564505,-0.592117,0.575243,-0.559903
5.2859,0.016748,0.000000,-1.456141,1.456141,0.0000,0.0000,0.0000,-0.002363,-1.448078,1.448078,0.4355,0.5594,0.0954,0.000000,0.578311,-0.562971,0.564505,-0.592117,0.575243,-0.559903
5.3026,0.016753,0.000000,-1.459650,1.459650,0.0000,0.0000,0.0000,-0.002363,-1.455748,1.451146,0.4355,0.5594,0.0954,0.000000,0.578311,-0.562971,0.564505,-0.592117,0.575243,-0.559903
5.3194,0.016754,0.000000,-1.463159,1.463159,0.0000,0.0000,0.0000,-0.002363,-1.457282,1.452680,0.4355,0.5594,0.0954,0.000000,0.579845,-0.561437,0.564505,-0.592117,0.575243,-0.559903
5.3361,0.016746,0.000000,-1.466666,1.466666,0.0000,0.0000,0.0000,-0.002364,-1.457282,1.452680,0.4466,0.5789,0.2017,0.000000,0.579845,-0.561437,0.564505,-0.592117,0.575243,-0.559903
5.3529,0.016755,0.000000,-1.470175,1.470175,0.0000,0.0000,0.0000,-0.002375,-1.460350,1.457282,0.3956,0.5924,0.1368,0.000000,0.578311,-0.561437,0.564505,-0.592117,0.575243,-0.559903
5.3696,0.016745,0.000000,-1.473682,1.473682,0.0000,0.0000,0.0000,-0.002350,-1.464952,1.463418,0.4899,0.5399,0.1442,0.000000,0.579845,-0.562971,0.564505,-0.592117,0.575243,-0.559903
5.3864,0.016746,0.000000,-1.477189,1.477189,0.0000,0.0000,0.0000,-0.002388,-1.472622,1.469554,0.3803,0.5457,0.1965,0.000000,0.578311,-0.561437,0.564505,-0.590583,0.575243,-0.559903
5.4031,0.016754,0.000000,-1.480698,1.480698,0.0000,0.0000,0.0000,-0.002373,-1.472622,1.471088,0.4025,0.5959,0.1374,0.000000,0.578311,-0.561437,0.564505,-0.592117,0.575243,-0.559903
5.4199,0.016746,0.000000,-1.484206,1.484206,0.0000,0.0000,0.0000,-0.002373,-1.472622,1.471088,0.4025,0.5959,0.1374,0.000000,0.578311,-0.561437,0.564505,-0.592117,0.575243,-0.559903
5.4366,0.016752,0.000000,-1.487714,1.487714,0.0000,0.0000,0.0000,-0.002373,-1.475690,1.472622,0.4286,0.5043,0.1441,0.000000,0.578311,-0.562971,0.564505,-0.590583,0.575243,-0.559903
5.4534,0.016743,0.000000,-1.491221,1.491221,0.0000,0.0000,0.0000,-0.002350,-1.481825,1.478757,0.4865,0.5491,0.1435,0.000000,0.579845,-0.562971,0.564505,-0.592117,0.575243,-0.559903
5.4701,0.016755,0.000000,-1.494730,1.494730,0.0000,0.0000,0.0000,-0.002377,-1.487961,1.483359,0.3914,0.5955,0.1429,0.000000,0.578311,-0.561437,0.564505,-0.592117,0.575243,-0.559903
5.4869,0.016748,0.000000,-1.498237,1.498237,0.0000,0.0000,0.0000,-0.002374,-1.491029,1.487961,0.4013,0.5907,0.1429,0.000000,0.578311,-0.561437,0.564505,-0.592117,0.575243,-0.559903
