t,loop_dt,cmd_z,cmd_ant_l,cmd_ant_r,cmd_roll,cmd_pitch,cmd_yaw,pres_z,pres_ant_l,pres_ant_r,pres_roll,pres_pitch,pres_yaw,pres_j0,pres_j1,pres_j2,pres_j3,pres_j4,pres_j5,pres_j6
0.0000,0.000001,0.000000,-0.349066,0.349066,0.0000,0.0000,0.0000,-0.002498,-0.188680,0.191748,0.4801,0.6981,0.2864,0.000000,0.572175,-0.561437,0.564505,-0.590583,0.575243,-0.550699
0.0167,0.016748,0.000000,-0.345558,0.345558,0.0000,0.0000,0.0000,-0.002498,-0.188680,0.191748,0.4801,0.6981,0.2864,0.000000,0.572175,-0.561437,0.564505,-0.590583,0.575243,-0.550699
0.0335,0.016746,0.000000,-0.342051,0.342051,0.0000,0.0000,0.0000,-0.002487,-0.179476,0.185612,0.4904,0.7483,0.2334,0.000000,0.572175,-0.561437,0.564505,-0.592117,0.575243,-0.550699
0.0502,0.016748,0.000000,-0.338543,0.338543,0.0000,0.0000,0.0000,-0.002500,-0.182544,0.185612,0.4788,0.6923,0.2926,0.000000,0.572175,-0.561437,0.564505,-0.590583,0.575243,-0.550699
0.0670,0.016740,0.000000,-0.335037,0.335037,0.0000,0.0000,0.0000,-0.002472,-0.234699,0.231631,0.3805,0.6627,0.1797,0.000000,0.572175,-0.561437,0.564505,-0.590583,0.575243,-0.553767
0.0837,0.016760,0.000000,-0.331527,0.331527,0.0000,0.0000,0.0000,-0.002449,-0.312932,0.305262,0.3803,0.6126,0.0850,0.000000,0.572175,-0.562971,0.564505,-0.590583,0.575243,-0.555301
0.1005,0.016744,0.000000,-0.328020,0.328020,0.0000,0.0000,0.0000,-0.002413,-0.366621,0.358952,0.3309,0.5671,0.0417,0.000000,0.573709,-0.562971,0.564505,-0.590583,0.575243,-0.558369
0.1172,0.016743,0.000000,-0.324513,0.324513,0.0000,0.0000,0.0000,-0.002413,-0.366621,0.358952,0.3309,0.5671,0.0417,0.000000,0.573709,-0.562971,0.564505,-0.590583,0.575243,-0.558369
0.1340,0.016749,0.000000,-0.321005,0.321005,0.0000,0.0000,0.0000,-0.002392,-0.372757,0.365087,0.3364,0.5386,0.0465,0.000000,0.575243,-0.562971,0.564505,-0.590583,0.575243,-0.559903
0.1507,0.016743,0.000000,-0.317499,0.317499,0.0000,0.0000,0.0000,-0.002383,-0.354350,0.355884,0.3465,0.5924,-0.0078,0.000000,0.575243,-0.562971,0.564505,-0.592117,0.575243,-0.559903
0.1675,0.016743,0.000000,-0.313992,0.313992,0.0000,0.0000,0.0000,-0.002372,-0.339010,0.343612,0.3067,0.5890,0.0513,0.000000,0.576777,-0.561437,0.564505,-0.592117,0.575243,-0.561437
0.1842,0.016744,0.000000,-0.310485,0.310485,0.0000,0.0000,0.0000,-0.002372,-0.322136,0.328272,0.3393,0.5031,0.0458,0.000000,0.576777,-0.562971,0.564505,-0.590583,0.575243,-0.561437
0.2010,0.016750,0.000000,-0.306977,0.306977,0.0000,0.0000,0.0000,-0.002372,-0.314466,0.319068,0.3359,0.5121,0.0464,0.000000,0.576777,-0.562971,0.564505,-0.590583,0.575243,-0.561437
0.2177,0.016743,0.000000,-0.303470,0.303470,0.0000,0.0000,0.0000,-0.002372,-0.314466,0.319068,0.3359,0.5121,0.0464,0.000000,0.576777,-0.562971,0.564505,-0.590583,0.575243,-0.561437
0.2345,0.016747,0.000000,-0.299963,0.299963,0.0000,0.0000,0.0000,-0.002360,-0.316000,0.312932,0.3860,0.4955,0.1001,0.000000,0.578311,-0.562971,0.564505,-0.590583,0.575243,-0.561437
0.2512,0.016743,0.000000,-0.296456,0.296456,0.0000,0.0000,0.0000,-0.002363,-0.316000,0.309864,0.4411,0.5656,0.0942,0.000000,0.578311,-0.562971,0.564505,-0.592117,0.575243,-0.559903
0.2679,0.016741,0.000000,-0.292950,0.292950,0.0000,0.0000,0.0000,-0.002374,-0.314466,0.309864,0.4246,0.5075,0.1486,0.000000,0.578311,-0.562971,0.564505,-0.590583,0.575243,-0.559903
0.2847,0.016744,0.000000,-0.289443,0.289443,0.0000,0.0000,0.0000,-0.002360,-0.311398,0.308330,0.3768,0.4959,0.0894,0.000000,0.578311,-0.562971,0.564505,-0.590583,0.575243,-0.561437
0.3014,0.016756,0.000000,-0.285934,0.285934,0.0000,0.0000,0.0000,-0.002360,-0.311398,0.308330,0.3768,0.4959,0.0894,0.000000,0.578311,-0.562971,0.564505,-0.590583,0.575243,-0.561437
0.3182,0.016748,0.000000,-0.282426,0.282426,0.0000,0.0000,0.0000,-0.002374,-0.311398,0.308330,0.4313,0.5147,0.1491,0.000000,0.578311,-0.562971,0.564505,-0.590583,0.575243,-0.559903
0.3349,0.016749,0.000000,-0.278918,0.278918,0.0000,0.0000,0.0000,-0.002348,-0.308330,0.306796,0.3868,0.5460,0.0356,0.000000,0.578311,-0.562971,0.564505,-0.592117,0.575243,-0.561437
0.3517,0.016747,0.000000,-0.275411,0.275411,0.0000,0.0000,0.0000,-0.002362,-0.299126,0.303728,0.3807,0.4920,0.1012,0.000000,0.578311,-0.562971,0.564505,-0.590583,0.575243,-0.561437
0.3685,0.016852,0.000000,-0.271881,0.271881,0.0000,0.0000,0.0000,-0.002349,-0.289922,0.299126,0.3921,0.5484,0.0406,0.000000,0.578311,-0.562971,0.564505,-0.592117,0.575243,-0.561437
0.3853,0.016749,0.000000,-0.268373,0.268373,0.0000,0.0000,0.0000,-0.002364,-0.282252,0.291456,0.4404,0.5601,0.1004,0.000000,0.578311,-0.562971,0.564505,-0.592117,0.575243,-0.559903
0.4020,0.016762,0.000000,-0.264862,0.264862,0.0000,0.0000,0.0000,-0.002362,-0.280718,0.283786,0.4354,0.5589,0.0942,0.000000,0.578311,-0.562971,0.564505,-0.592117,0.575243,-0.559903
0.4188,0.016747,0.000000,-0.261355,0.261355,0.0000,0.0000,0.0000,-0.002362,-0.280718,0.283786,0.4354,0.5589,0.0942,0.000000,0.578311,-0.562971,0.564505,-0.592117,0.575243,-0.559903
0.4355,0.016748,0.000000,-0.257847,0.257847,0.0000,0.0000,0.0000,-0.002361,-0.277651,0.277651,0.3757,0.4906,0.0951,0.000000,0.578311,-0.562971,0.564505,-0.590583,0.575243,-0.561437
0.4523,0.016740,0.000000,-0.254341,0.254341,0.0000,0.0000,0.0000,-0.002350,-0.273049,0.274583,0.3926,0.5485,0.0413,0.000000,0.578311,-0.562971,0.564505,-0.592117,0.575243,-0.561437
0.4690,0.016752,0.000000,-0.250833,0.250833,0.0000,0.0000,0.0000,-0.002364,-0.266913,0.269981,0.4404,0.5600,0.1004,0.000000,0.578311,-0.562971,0.564505,-0.592117,0.575243,-0.559903
0.4858,0.016747,0.000000,-0.247325,0.247325,0.0000,0.0000,0.0000,-0.002361,-0.262311,0.265379,0.3751,0.4905,0.0945,0.000000,0.578311,-0.562971,0.564505,-0.590583,0.575243,-0.561437
0.5025,0.016755,0.000000,-0.243816,0.243816,0.0000,0.0000,0.0000,-0.002362,-0.259243,0.257709,0.3535,0.5840,0.0945,0.000000,0.578311,-0.561437,0.564505,-0.592117,0.575243,-0.561437
0.5193,0.016743,0.000000,-0.240309,0.240309,0.0000,0.0000,0.0000,-0.002362,-0.259243,0.257709,0.3535,0.5840,0.0945,0.000000,0.578311,-0.561437,0.564505,-0.592117,0.575243,-0.561437
0.5360,0.016743,0.000000,-0.236803,0.236803,0.0000,0.0000,0.0000,-0.002349,-0.256175,0.253107,0.3950,0.5387,0.0413,0.000000,0.578311,-0.562971,0.564505,-0.592117,0.575243,-0.561437
0.5528,0.016738,0.000000,-0.233297,0.233297,0.0000,0.0000,0.0000,-0.002362,-0.256175,0.253107,0.3799,0.4927,0.1006,0.000000,0.578311,-0.562971,0.564505,-0.590583,0.575243,-0.561437
0.5695,0.016752,0.000000,-0.229789,0.229789,0.0000,0.0000,0.0000,-0.002361,-0.254641,0.253107,0.3814,0.4975,0.0944,0.000000,0.578311,-0.562971,0.564505,-0.590583,0.575243,-0.561437
0.5863,0.016744,0.000000,-0.226282,0.226282,0.0000,0.0000,0.0000,-0.002361,-0.254641,0.251573,0.3814,0.4975,0.0944,0.000000,0.578311,-0.562971,0.564505,-0.590583,0.575243,-0.561437
0.6030,0.016763,0.000000,-0.222771,0.222771,0.0000,0.0000,0.0000,-0.002361,-0.254641,0.251573,0.3814,0.4975,0.0944,0.000000,0.578311,-0.562971,0.564505,-0.590583,0.575243,-0.561437
0.6197,0.016700,0.000000,-0.219273,0.219273,0.0000,0.0000,0.0000,-0.002374,-0.248505,0.248505,0.4308,0.5146,0.1486,0.000000,0.578311,-0.562971,0.564505,-0.590583,0.575243,-0.559903
0.6365,0.016743,0.000000,-0.215766,0.215766,0.0000,0.0000,0.0000,-0.002360,-0.237767,0.242369,0.3761,0.4952,0.0894,0.000000,0.578311,-0.562971,0.564505,-0.590583,0.575243,-0.561437
0.6532,0.016744,0.000000,-0.212260,0.212260,0.0000,0.0000,0.0000,-0.002350,-0.228563,0.234699,0.3926,0.5480,0.0419,0.000000,0.578311,-0.562971,0.564505,-0.592117,0.575243,-0.561437
0.6700,0.016750,0.000000,-0.208752,0.208752,0.0000,0.0000,0.0000,-0.002362,-0.220893,0.227029,0.3801,0.4917,0.1006,0.000000,0.578311,-0.562971,0.564505,-0.590583,0.575243,-0.561437
0.6867,0.016724,0.000000,-0.205249,0.205249,0.0000,0.0000,0.0000,-0.002387,-0.213223,0.222427,0.3918,0.5507,0.2011,0.000000,0.578311,-0.561437,0.564505,-0.590583,0.575243,-0.559903
0.7034,0.016761,0.000000,-0.201738,0.201738,0.0000,0.0000,0.0000,-0.002387,-0.213223,0.222427,0.3918,0.5507,0.2011,0.000000,0.578311,-0.561437,0.564505,-0.590583,0.575243,-0.559903
0.7202,0.016719,0.000000,-0.198237,0.198237,0.0000,0.0000,0.0000,-0.002347,-0.213223,0.220893,0.3910,0.5422,0.0302,0.000000,0.578311,-0.562971,0.564505,-0.592117,0.575243,-0.561437
0.7369,0.016785,0.000000,-0.194721,0.194721,0.0000,0.0000,0.0000,-0.002351,-0.213223,0.214757,0.3910,0.5431,0.0480,0.000000,0.578311,-0.562971,0.564505,-0.592117,0.575243,-0.561437
0.7537,0.016741,0.000000,-0.191215,0.191215,0.0000,0.0000,0.0000,-0.002362,-0.208621,0.210155,0.3803,0.4923,0.0999,0.000000,0.578311,-0.562971,0.564505,-0.590583,0.575243,-0.561437
0.7704,0.016759,0.000000,-0.187705,0.187705,0.0000,0.0000,0.0000,-0.002361,-0.202485,0.204019,0.3814,0.4975,0.0945,0.000000,0.578311,-0.562971,0.564505,-0.590583,0.575243,-0.561437
0.7873,0.016895,0.000000,-0.184167,0.184167,0.0000,0.0000,0.0000,-0.002350,-0.199418,0.199418,0.3920,0.5478,0.0413,0.000000,0.578311,-0.562971,0.564505,-0.592117,0.575243,-0.561437
0.8041,0.016760,0.000000,-0.180656,0.180656,0.0000,0.0000,0.0000,-0.002350,-0.199418,0.199418,0.3920,0.5478,0.0413,0.000000,0.578311,-0.562971,0.564505,-0.592117,0.575243,-0.561437
0.8208,0.016743,0.000000,-0.177150,0.177150,0.0000,0.0000,0.0000,-0.002362,-0.194816,0.196350,0.3802,0.4918,0.1006,0.000000,0.578311,-0.562971,0.564505,-0.590583,0.575243,-0.561437
0.8376,0.016762,0.000000,-0.173639,0.173639,0.0000,0.0000,0.0000,-0.002362,-0.188680,0.196350,0.3530,0.5839,0.0938,0.000000,0.578311,-0.561437,0.564505,-0.592117,0.575243,-0.561437
0.8544,0.016840,0.000000,-0.170112,0.170112,0.0000,0.0000,0.0000,-0.002361,-0.187146,0.193282,0.3843,0.4880,0.0951,0.000000,0.578311,-0.562971,0.564505,-0.590583,0.575243,-0.561437
0.8712,0.016756,0.000000,-0.166603,0.166603,0.0000,0.0000,0.0000,-0.002361,-0.185612,0.190214,0.3810,0.4980,0.0950,0.000000,0.578311,-0.562971,0.564505,-0.590583,0.575243,-0.561437
0.8883,0.017096,0.000000,-0.163022,0.163022,0.0000,0.0000,0.0000,-0.002361,-0.182544,0.182544,0.3814,0.4966,0.0950,0.000000,0.578311,-0.562971,0.564505,-0.590583,0.575243,-0.561437
0.9051,0.016770,0.000000,-0.159510,0.159510,0.0000,0.0000,0.0000,-0.002361,-0.182544,0.182544,0.3814,0.4966,0.0950,0.000000,0.578311,-0.562971,0.564505,-0.590583,0.575243,-0.561437
0.9218,0.016758,0.000000,-0.156000,0.156000,0.0000,0.0000,0.0000,-0.002350,-0.176408,0.174874,0.3920,0.5479,0.0413,0.000000,0.578311,-0.562971,0.564505,-0.592117,0.575243,-0.561437
0.9386,0.016771,0.000000,-0.152488,0.152488,0.0000,0.0000,0.0000,-0.002362,-0.171806,0.168738,0.3802,0.4918,0.1006,0.000000,0.578311,-0.562971,0.564505,-0.590583,0.575243,-0.561437
0.9554,0.016768,0.000000,-0.148976,0.148976,0.0000,0.0000,0.0000,-0.002349,-0.165670,0.165670,0.3922,0.5484,0.0407,0.000000,0.578311,-0.562971,0.564505,-0.592117,0.575243,-0.561437
0.9721,0.016760,0.000000,-0.145466,0.145466,0.0000,0.0000,0.0000,-0.002362,-0.159534,0.162602,0.3802,0.4917,0.1007,0.000000,0.578311,-0.562971,0.564505,-0.590583,0.575243,-0.561437
0.9889,0.016776,0.000000,-0.141952,0.141952,0.0000,0.0000,0.0000,-0.002361,-0.156466,0.156466,0.3814,0.4976,0.0944,0.000000,0.578311,-0.562971,0.564505,-0.590583,0.575243,-0.561437
1.0056,0.016709,0.000000,-0.138453,0.138453,0.0000,0.0000,0.0000,-0.002361,-0.156466,0.156466,0.3814,0.4976,0.0944,0.000000,0.578311,-0.562971,0.564505,-0.590583,0.575243,-0.561437
1.0224,0.016753,0.000000,-0.134944,0.134944,0.0000,0.0000,0.0000,-0.002350,-0.151864,0.150330,0.3920,0.5478,0.0413,0.000000,0.578311,-0.562971,0.564505,-0.592117,0.575243,-0.561437
1.0391,0.016759,0.000000,-0.131434,0.131434,0.0000,0.0000,0.0000,-0.002362,-0.147262,0.145728,0.3802,0.4918,0.1006,0.000000,0.578311,-0.562971,0.564505,-0.590583,0.575243,-0.561437
1.0558,0.016733,0.000000,-0.127929,0.127929,0.0000,0.0000,0.0000,-0.002361,-0.145728,0.142660,0.3814,0.4976,0.0944,0.000000,0.578311,-0.562971,0.564505,-0.590583,0.575243,-0.561437
1.0726,0.016761,0.000000,-0.124419,0.124419,0.0000,0.0000,0.0000,-0.002361,-0.141126,0.141126,0.3814,0.4976,0.0944,0.000000,0.578311,-0.562971,0.564505,-0.590583,0.575243,-0.561437
1.0894,0.016762,0.000000,-0.120908,0.120908,0.0000,0.0000,0.0000,-0.002350,-0.131922,0.138058,0.3920,0.5478,0.0413,0.000000,0.578311,-0.562971,0.564505,-0.592117,0.575243,-0.561437
1.1061,0.016766,0.000000,-0.117397,0.117397,0.0000,0.0000,0.0000,-0.002350,-0.131922,0.138058,0.3920,0.5478,0.0413,0.000000,0.578311,-0.562971,0.564505,-0.592117,0.575243,-0.561437
1.1229,0.016751,0.000000,-0.113889,0.113889,0.0000,0.0000,0.0000,-0.002351,-0.127320,0.131922,0.3909,0.5425,0.0469,0.000000,0.578311,-0.562971,0.564505,-0.592117,0.575243,-0.561437
1.1396,0.016761,0.000000,-0.110378,0.110378,0.0000,0.0000,0.0000,-0.002362,-0.128854,0.125786,0.3803,0.4923,0.1000,0.000000,0.578311,-0.562971,0.564505,-0.590583,0.575243,-0.561437
1.1564,0.016753,0.000000,-0.106869,0.106869,0.0000,0.0000,0.0000,-0.002349,-0.125786,0.121184,0.3921,0.5483,0.0408,0.000000,0.578311,-0.562971,0.564505,-0.592117,0.575243,-0.561437
1.1732,0.016767,0.000000,-0.103358,0.103358,0.0000,0.0000,0.0000,-0.002362,-0.121184,0.116583,0.3802,0.4917,0.1007,0.000000,0.578311,-0.562971,0.564505,-0.590583,0.575243,-0.561437
1.1899,0.016759,0.000000,-0.099848,0.099848,0.0000,0.0000,0.0000,-0.002349,-0.116583,0.113515,0.4312,0.4820,0.1482,0.000000,0.579845,-0.562971,0.564505,-0.590583,0.575243,-0.561437
1.2067,0.016766,0.000000,-0.096336,0.096336,0.0000,0.0000,0.0000,-0.002349,-0.116583,0.113515,0.4312,0.4820,0.1482,0.000000,0.579845,-0.562971,0.564505,-0.590583,0.575243,-0.561437
1.2234,0.016751,0.000000,-0.092828,0.092828,0.0000,0.0000,0.0000,-0.002362,-0.107379,0.110447,0.3761,0.4986,0.0895,0.000000,0.578311,-0.562971,0.564505,-0.590583,0.575243,-0.561437
1.2402,0.016758,0.000000,-0.089318,0.089318,0.0000,0.0000,0.0000,-0.002349,-0.104311,0.105845,0.3926,0.5477,0.0419,0.000000,0.578311,-0.562971,0.564505,-0.592117,0.575243,-0.561437
1.2570,0.016764,0.000000,-0.085807,0.085807,0.0000,0.0000,0.0000,-0.002351,-0.104311,0.101243,0.3909,0.5425,0.0468,0.000000,0.578311,-0.562971,0.564505,-0.592117,0.575243,-0.561437
1.2738,0.016800,0.000000,-0.082289,0.082289,0.0000,0.0000,0.0000,-0.002375,-0.101243,0.093573,0.4298,0.5099,0.1535,0.000000,0.578311,-0.562971,0.564505,-0.590583,0.575243,-0.559903
1.2905,0.016779,0.000000,-0.078774,0.078774,0.0000,0.0000,0.0000,-0.002348,-0.093573,0.088971,0.3870,0.5465,0.0352,0.000000,0.578311,-0.562971,0.564505,-0.592117,0.575243,-0.561437
1.3073,0.016771,0.000000,-0.075262,0.075262,0.0000,0.0000,0.0000,-0.002348,-0.093573,0.088971,0.3870,0.5465,0.0352,0.000000,0.578311,-0.562971,0.564505,-0.592117,0.575243,-0.561437
1.3241,0.016754,0.000000,-0.071753,0.071753,0.0000,0.0000,0.0000,-0.002351,-0.087437,0.087437,0.3915,0.5427,0.0475,0.000000,0.578311,-0.562971,0.564505,-0.592117,0.575243,-0.561437
1.3408,0.016759,0.000000,-0.068243,0.068243,0.0000,0.0000,0.0000,-0.002362,-0.079767,0.085903,0.3802,0.4923,0.1000,0.000000,0.578311,-0.562971,0.564505,-0.590583,0.575243,-0.561437
1.3575,0.016711,0.000000,-0.064743,0.064743,0.0000,0.0000,0.0000,-0.002361,-0.078233,0.082835,0.3814,0.4975,0.0945,0.000000,0.578311,-0.562971,0.564505,-0.590583,0.575243,-0.561437
1.3743,0.016760,0.000000,-0.061233,0.061233,0.0000,0.0000,0.0000,-0.002361,-0.078233,0.076699,0.3814,0.4975,0.0945,0.000000,0.578311,-0.562971,0.564505,-0.590583,0.575243,-0.561437
1.3911,0.016763,0.000000,-0.057722,0.057722,0.0000,0.0000,0.0000,-0.002374,-0.075165,0.067495,0.3421,0.5325,0.1482,0.000000,0.578311,-0.561437,0.564505,-0.590583,0.575243,-0.561437
1.4078,0.016770,0.000000,-0.054210,0.054210,0.0000,0.0000,0.0000,-0.002374,-0.075165,0.067495,0.3421,0.5325,0.1482,0.000000,0.578311,-0.561437,0.564505,-0.590583,0.575243,-0.561437
1.4246,0.016748,0.000000,-0.050702,0.050702,0.0000,0.0000,0.0000,-0.002360,-0.067495,0.062893,0.3854,0.4933,0.0895,0.000000,0.578311,-0.562971,0.564505,-0.590583,0.575243,-0.561437
1.4413,0.016766,0.000000,-0.047191,0.047191,0.0000,0.0000,0.0000,-0.002350,-0.061359,0.062893,0.3916,0.5482,0.0419,0.000000,0.578311,-0.562971,0.564505,-0.592117,0.575243,-0.561437
1.4581,0.016754,0.000000,-0.043682,0.043682,0.0000,0.0000,0.0000,-0.002362,-0.055223,0.061359,0.3802,0.4917,0.1006,0.000000,0.578311,-0.562971,0.564505,-0.590583,0.575243,-0.561437
1.4751,0.016967,0.000000,-0.040128,0.040128,0.0000,0.0000,0.0000,-0.002349,-0.052155,0.059825,0.3922,0.5484,0.0407,0.000000,0.578311,-0.562971,0.564505,-0.592117,0.575243,-0.561437
1.4918,0.016764,0.000000,-0.036617,0.036617,0.0000,0.0000,0.0000,-0.002349,-0.052155,0.059825,0.3922,0.5484,0.0407,0.000000,0.578311,-0.562971,0.564505,-0.592117,0.575243,-0.561437
1.5086,0.016766,0.000000,-0.033106,0.033106,0.0000,0.0000,0.0000,-0.002362,-0.050621,0.053689,0.3802,0.4917,0.1007,0.000000,0.578311,-0.562971,0.564505,-0.590583,0.575243,-0.561437
1.5253,0.016749,0.000000,-0.029598,0.029598,0.0000,0.0000,0.0000,-0.002349,-0.044485,0.046019,0.3922,0.5484,0.0407,0.000000,0.578311,-0.562971,0.564505,-0.592117,0.575243,-0.561437
1.5421,0.016767,0.000000,-0.026086,0.026086,0.0000,0.0000,0.0000,-0.002362,-0.038350,0.039884,0.3802,0.4917,0.1007,0.000000,0.578311,-0.562971,0.564505,-0.590583,0.575243,-0.561437
1.5589,0.016754,0.000000,-0.022577,0.022577,0.0000,0.0000,0.0000,-0.002361,-0.038350,0.036816,0.3814,0.4976,0.0944,0.000000,0.578311,-0.562971,0.564505,-0.590583,0.575243,-0.561437
1.5757,0.016819,0.000000,-0.019055,0.019055,0.0000,0.0000,0.0000,-0.002349,-0.036816,0.035282,0.4311,0.4813,0.1489,0.000000,0.579845,-0.562971,0.564505,-0.590583,0.575243,-0.561437
1.5924,0.016762,0.000000,-0.015544,0.015544,0.0000,0.0000,0.0000,-0.002349,-0.027612,0.032214,0.4311,0.4813,0.1489,0.000000,0.578311,-0.562971,0.564505,-0.590583,0.575243,-0.561437
1.6092,0.016760,0.000000,-0.012034,0.012034,0.0000,0.0000,0.0000,-0.002362,-0.027612,0.032214,0.3761,0.4987,0.0894,0.000000,0.578311,-0.562971,0.564505,-0.590583,0.575243,-0.561437
1.6260,0.016751,0.000000,-0.008526,0.008526,0.0000,0.0000,0.0000,-0.002361,-0.019942,0.027612,0.3818,0.4969,0.0956,0.000000,0.578311,-0.562971,0.564505,-0.590583,0.575243,-0.561437
1.6427,0.016762,0.000000,-0.005015,0.005015,0.0000,0.0000,0.0000,-0.002361,-0.019942,0.021476,0.3818,0.4969,0.0956,0.000000,0.578311,-0.562971,0.564505,-0.590583,0.575243,-0.561437
1.6595,0.016759,0.000000,-0.001505,0.001505,0.0000,0.0000,0.0000,-0.002361,-0.021476,0.013806,0.3818,0.4969,0.0956,0.000000,0.578311,-0.562971,0.564505,-0.590583,0.575243,-0.561437
1.6762,0.016763,0.000000,-0.002006,0.002006,0.0000,0.0000,0.0000,-0.002338,-0.016874,0.010738,0.4418,0.5322,0.0950,0.000000,0.579845,-0.562971,0.564505,-0.592117,0.575243,-0.561437
1.6930,0.016759,0.000000,-0.005516,0.005516,0.0000,0.0000,0.0000,-0.002338,-0.016874,0.010738,0.4418,0.5322,0.0950,0.000000,0.579845,-0.562971,0.564505,-0.592117,0.575243,-0.561437
1.7098,0.016767,0.000000,-0.009028,0.009028,0.0000,0.0000,0.0000,-0.002363,-0.009204,0.006136,0.3750,0.4934,0.0950,0.000000,0.578311,-0.562971,0.564505,-0.590583,0.575243,-0.561437
1.7265,0.016773,0.000000,-0.012541,0.012541,0.0000,0.0000,0.0000,-0.002361,0.000000,0.003068,0.3820,0.4974,0.0950,0.000000,0.578311,-0.562971,0.564505,-0.590583,0.575243,-0.561437
1.7436,0.017073,0.000000,-0.016116,0.016116,0.0000,0.0000,0.0000,-0.002374,0.001534,0.001534,0.3420,0.5325,0.1482,0.000000,0.578311,-0.561437,0.564505,-0.590583,0.575243,-0.561437
1.7604,0.016752,0.000000,-0.019625,0.019625,0.0000,0.0000,0.0000,-0.002348,-0.001534,0.003068,0.3962,0.5441,0.0357,0.000000,0.578311,-0.562971,0.564505,-0.592117,0.575243,-0.561437
1.7772,0.016849,0.000000,-0.023154,0.023154,0.0000,0.0000,0.0000,-0.002362,-0.007670,0.007670,0.3797,0.4922,0.1012,0.000000,0.578311,-0.562971,0.564505,-0.590583,0.575243,-0.561437
1.7940,0.016766,0.000000,-0.026665,0.026665,0.0000,0.0000,0.0000,-0.002362,-0.007670,0.007670,0.3797,0.4922,0.1012,0.000000,0.578311,-0.562971,0.564505,-0.590583,0.575243,-0.561437
1.8107,0.016753,0.000000,-0.030174,0.030174,0.0000,0.0000,0.0000,-0.002361,-0.015340,0.016874,0.3815,0.4975,0.0944,0.000000,0.578311,-0.562971,0.564505,-0.590583,0.575243,-0.561437
1.8275,0.016752,0.000000,-0.033682,0.033682,0.0000,0.0000,0.0000,-0.002363,-0.023010,0.016874,0.4415,0.5654,0.0948,0.000000,0.578311,-0.562971,0.564505,-0.592117,0.575243,-0.559903
1.8442,0.016755,0.000000,-0.037191,0.037191,0.0000,0.0000,0.0000,-0.002362,-0.021476,0.021476,0.4744,0.4920,0.2023,0.000000,0.579845,-0.562971,0.564505,-0.590583,0.575243,-0.559903
1.8610,0.016756,0.000000,-0.040701,0.040701,0.0000,0.0000,0.0000,-0.002361,-0.026078,0.029146,0.3716,0.4975,0.0838,0.000000,0.578311,-0.562971,0.564505,-0.590583,0.575243,-0.561437
1.8778,0.016765,0.000000,-0.044212,0.044212,0.0000,0.0000,0.0000,-0.002361,-0.026078,0.029146,0.3716,0.4975,0.0838,0.000000,0.578311,-0.562971,0.564505,-0.590583,0.575243,-0.561437
1.8946,0.016787,0.000000,-0.047728,0.047728,0.0000,0.0000,0.0000,-0.002349,-0.038350,0.036816,0.4321,0.4814,0.1500,0.000000,0.579845,-0.562971,0.564505,-0.590583,0.575243,-0.561437
1.9113,0.016754,0.000000,-0.051237,0.051237,0.0000,0.0000,0.0000,-0.002375,-0.041417,0.038350,0.3368,0.5342,0.1425,0.000000,0.578311,-0.561437,0.564505,-0.590583,0.575243,-0.561437
1.9281,0.016751,0.000000,-0.054745,0.054745,0.0000,0.0000,0.0000,-0.002360,-0.041417,0.036816,0.3860,0.4932,0.0901,0.000000,0.578311,-0.562971,0.564505,-0.590583,0.575243,-0.561437
1.9448,0.016750,0.000000,-0.058253,0.058253,0.0000,0.0000,0.0000,-0.002361,-0.042951,0.044485,0.3808,0.4974,0.0955,0.000000,0.578311,-0.562971,0.564505,-0.590583,0.575243,-0.561437
1.9616,0.016763,0.000000,-0.061764,0.061764,0.0000,0.0000,0.0000,-0.002361,-0.053689,0.053689,0.3808,0.4974,0.0955,0.000000,0.578311,-0.562971,0.564505,-0.590583,0.575243,-0.561437
1.9783,0.016756,0.000000,-0.065274,0.065274,0.0000,0.0000,0.0000,-0.002361,-0.053689,0.053689,0.3808,0.4974,0.0955,0.000000,0.578311,-0.562971,0.564505,-0.590583,0.575243,-0.561437
1.9951,0.016762,0.000000,-0.068784,0.068784,0.0000,0.0000,0.0000,-0.002374,-0.058291,0.055223,0.3422,0.5325,0.1481,0.000000,0.578311,-0.561437,0.564505,-0.590583,0.575243,-0.561437
2.0118,0.016756,0.000000,-0.072294,0.072294,0.0000,0.0000,0.0000,-0.002337,-0.058291,0.053689,0.4460,0.5285,0.0896,0.000000,0.579845,-0.562971,0.564505,-0.592117,0.575243,-0.561437
2.0286,0.016772,0.000000,-0.075807,0.075807,0.0000,0.0000,0.0000,-0.002352,-0.056757,0.059825,0.4243,0.4782,0.1494,0.000000,0.579845,-0.562971,0.564505,-0.590583,0.575243,-0.561437
2.0454,0.016758,0.000000,-0.079316,0.079316,0.0000,0.0000,0.0000,-0.002350,-0.065961,0.072097,0.4266,0.4834,0.1432,0.000000,0.579845,-0.562971,0.564505,-0.590583,0.575243,-0.561437
2.0621,0.016771,0.000000,-0.082829,0.082829,0.0000,0.0000,0.0000,-0.002375,-0.078233,0.073631,0.3374,0.5339,0.1432,0.000000,0.578311,-0.561437,0.564505,-0.590583,0.575243,-0.561437
2.0789,0.016756,0.000000,-0.086338,0.086338,0.0000,0.0000,0.0000,-0.002375,-0.078233,0.073631,0.3374,0.5339,0.1432,0.000000,0.578311,-0.561437,0.564505,-0.590583,0.575243,-0.561437
2.0957,0.016757,0.000000,-0.089848,0.089848,0.0000,0.0000,0.0000,-0.002348,-0.079767,0.070563,0.3966,0.5440,0.0363,0.000000,0.578311,-0.562971,0.564505,-0.592117,0.575243,-0.561437
2.1124,0.016754,0.000000,-0.093357,0.093357,0.0000,0.0000,0.0000,-0.002362,-0.076699,0.076699,0.3797,0.4922,0.1011,0.000000,0.578311,-0.562971,0.564505,-0.590583,0.575243,-0.561437
2.1293,0.016844,0.000000,-0.096885,0.096885,0.0000,0.0000,0.0000,-0.002361,-0.079767,0.081301,0.3815,0.4975,0.0944,0.000000,0.578311,-0.562971,0.564505,-0.590583,0.575243,-0.561437
2.1460,0.016756,0.000000,-0.100394,0.100394,0.0000,0.0000,0.0000,-0.002350,-0.088971,0.088971,0.3920,0.5478,0.0413,0.000000,0.578311,-0.562971,0.564505,-0.592117,0.575243,-0.561437
2.1628,0.016756,0.000000,-0.103903,0.103903,0.0000,0.0000,0.0000,-0.002350,-0.096641,0.095107,0.3920,0.5478,0.0413,0.000000,0.579845,-0.562971,0.564505,-0.590583,0.575243,-0.561437
2.1795,0.016754,0.000000,-0.107412,0.107412,0.0000,0.0000,0.0000,-0.002351,-0.096641,0.095107,0.4300,0.4761,0.1544,0.000000,0.579845,-0.562971,0.564505,-0.590583,0.575243,-0.561437
2.1963,0.016754,0.000000,-0.110921,0.110921,0.0000,0.0000,0.0000,-0.002350,-0.099709,0.096641,0.4260,0.4836,0.1426,0.000000,0.579845,-0.562971,0.564505,-0.590583,0.575243,-0.561437
2.2130,0.016749,0.000000,-0.114429,0.114429,0.0000,0.0000,0.0000,-0.002351,-0.101243,0.096641,0.3874,0.5492,0.0363,0.000000,0.578311,-0.562971,0.564505,-0.592117,0.575243,-0.561437
2.2298,0.016758,0.000000,-0.117939,0.117939,0.0000,0.0000,0.0000,-0.002375,-0.107379,0.102777,0.4302,0.5092,0.1546,0.000000,0.578311,-0.562971,0.564505,-0.590583,0.575243,-0.559903
2.2466,0.016768,0.000000,-0.121451,0.121451,0.0000,0.0000,0.0000,-0.002361,-0.113515,0.107379,0.4365,0.5642,0.0886,0.000000,0.578311,-0.562971,0.564505,-0.592117,0.575243,-0.559903
2.2633,0.016772,0.000000,-0.124963,0.124963,0.0000,0.0000,0.0000,-0.002361,-0.116583,0.118117,0.3755,0.4901,0.0957,0.000000,0.578311,-0.562971,0.564505,-0.590583,0.575243,-0.561437
2.2801,0.016760,0.000000,-0.128474,0.128474,0.0000,0.0000,0.0000,-0.002361,-0.116583,0.118117,0.3755,0.4901,0.0957,0.000000,0.578311,-0.562971,0.564505,-0.590583,0.575243,-0.561437
2.2968,0.016764,0.000000,-0.131985,0.131985,0.0000,0.0000,0.0000,-0.002361,-0.119651,0.119651,0.3819,0.4978,0.0950,0.000000,0.578311,-0.562971,0.564505,-0.590583,0.575243,-0.561437
2.3136,0.016755,0.000000,-0.135494,0.135494,0.0000,0.0000,0.0000,-0.002361,-0.124252,0.116583,0.3819,0.4978,0.0950,0.000000,0.578311,-0.562971,0.564505,-0.590583,0.575243,-0.561437
2.3304,0.016761,0.000000,-0.139004,0.139004,0.0000,0.0000,0.0000,-0.002338,-0.130388,0.121184,0.4418,0.5321,0.0951,0.000000,0.579845,-0.562971,0.564505,-0.592117,0.575243,-0.561437
2.3471,0.016762,0.000000,-0.142515,0.142515,0.0000,0.0000,0.0000,-0.002363,-0.134990,0.131922,0.3750,0.4934,0.0950,0.000000,0.578311,-0.562971,0.564505,-0.590583,0.575243,-0.561437
2.3639,0.016762,0.000000,-0.146026,0.146026,0.0000,0.0000,0.0000,-0.002363,-0.134990,0.131922,0.3750,0.4934,0.0950,0.000000,0.578311,-0.562971,0.564505,-0.590583,0.575243,-0.561437
2.3806,0.016754,0.000000,-0.149535,0.149535,0.0000,0.0000,0.0000,-0.002349,-0.136524,0.136524,0.4318,0.4818,0.1488,0.000000,0.579845,-0.562971,0.564505,-0.590583,0.575243,-0.561437
2.3974,0.016757,0.000000,-0.153044,0.153044,0.0000,0.0000,0.0000,-0.002364,-0.139592,0.136524,0.3476,0.5849,0.0888,0.000000,0.578311,-0.561437,0.564505,-0.592117,0.575243,-0.561437
2.4142,0.016755,0.000000,-0.156553,0.156553,0.0000,0.0000,0.0000,-0.002349,-0.144194,0.139592,0.4346,0.4723,0.1495,0.000000,0.579845,-0.562971,0.564505,-0.590583,0.575243,-0.561437
2.4309,0.016767,0.000000,-0.160065,0.160065,0.0000,0.0000,0.0000,-0.002362,-0.150330,0.150330,0.3758,0.4996,0.0894,0.000000,0.578311,-0.562971,0.564505,-0.590583,0.575243,-0.561437
2.4478,0.016915,0.000000,-0.163608,0.163608,0.0000,0.0000,0.0000,-0.002361,-0.154932,0.150330,0.3819,0.4968,0.0956,0.000000,0.578311,-0.562971,0.564505,-0.590583,0.575243,-0.561437
2.4646,0.016776,0.000000,-0.167121,0.167121,0.0000,0.0000,0.0000,-0.002361,-0.159534,0.150330,0.3819,0.4968,0.0956,0.000000,0.578311,-0.562971,0.564505,-0.590583,0.575243,-0.559903
2.4814,0.016751,0.000000,-0.170630,0.170630,0.0000,0.0000,0.0000,-0.002374,-0.159534,0.150330,0.4308,0.5147,0.1484,0.000000,0.578311,-0.562971,0.564505,-0.590583,0.575243,-0.559903
2.4981,0.016756,0.000000,-0.174139,0.174139,0.0000,0.0000,0.0000,-0.002360,-0.164136,0.159534,0.3761,0.4952,0.0895,0.000000,0.578311,-0.562971,0.564505,-0.590583,0.575243,-0.561437
2.5149,0.016753,0.000000,-0.177648,0.177648,0.0000,0.0000,0.0000,-0.002374,-0.164136,0.164136,0.4314,0.5148,0.1491,0.000000,0.578311,-0.562971,0.564505,-0.590583,0.575243,-0.559903
2.5316,0.016761,0.000000,-0.181158,0.181158,0.0000,0.0000,0.0000,-0.002348,-0.164136,0.164136,0.3868,0.5460,0.0356,0.000000,0.578311,-0.562971,0.564505,-0.592117,0.575243,-0.561437
2.5484,0.016761,0.000000,-0.184669,0.184669,0.0000,0.0000,0.0000,-0.002364,-0.173340,0.168738,0.4410,0.5603,0.1010,0.000000,0.578311,-0.562971,0.564505,-0.592117,0.575243,-0.559903
2.5652,0.016774,0.000000,-0.188182,0.188182,0.0000,0.0000,0.0000,-0.002349,-0.182544,0.179476,0.4249,0.4748,0.1482,0.000000,0.579845,-0.562971,0.564505,-0.590583,0.575243,-0.561437
2.5819,0.016755,0.000000,-0.191691,0.191691,0.0000,0.0000,0.0000,-0.002349,-0.182544,0.179476,0.4249,0.4748,0.1482,0.000000,0.579845,-0.562971,0.564505,-0.590583,0.575243,-0.561437
2.5987,0.016754,0.000000,-0.195200,0.195200,0.0000,0.0000,0.0000,-0.002364,-0.185612,0.181010,0.4370,0.5678,0.0892,0.000000,0.578311,-0.562971,0.564505,-0.592117,0.575243,-0.559903
2.6154,0.016757,0.000000,-0.198709,0.198709,0.0000,0.0000,0.0000,-0.002361,-0.184078,0.179476,0.3755,0.4897,0.0956,0.000000,0.578311,-0.562971,0.564505,-0.590583,0.575243,-0.561437
2.6322,0.016770,0.000000,-0.202222,0.202222,0.0000,0.0000,0.0000,-0.002361,-0.190214,0.184078,0.3819,0.4978,0.0950,0.000000,0.578311,-0.562971,0.564505,-0.590583,0.575243,-0.561437
2.6490,0.016837,0.000000,-0.205748,0.205748,0.0000,0.0000,0.0000,-0.002338,-0.197884,0.193282,0.4418,0.5321,0.0951,0.000000,0.579845,-0.562971,0.564505,-0.592117,0.575243,-0.561437
2.6658,0.016757,0.000000,-0.209258,0.209258,0.0000,0.0000,0.0000,-0.002338,-0.199418,0.200951,0.4418,0.5321,0.0951,0.000000,0.578311,-0.562971,0.564505,-0.592117,0.575243,-0.561437
2.6826,0.016761,0.000000,-0.212768,0.212768,0.0000,0.0000,0.0000,-0.002352,-0.199418,0.200951,0.3858,0.5441,0.0413,0.000000,0.578311,-0.562971,0.564505,-0.592117,0.575243,-0.561437
2.6993,0.016758,0.000000,-0.216278,0.216278,0.0000,0.0000,0.0000,-0.002362,-0.200951,0.200951,0.3808,0.4921,0.1006,0.000000,0.578311,-0.562971,0.564505,-0.590583,0.575243,-0.561437
2.7161,0.016762,0.000000,-0.219788,0.219788,0.0000,0.0000,0.0000,-0.002374,-0.207087,0.200951,0.4309,0.5151,0.1479,0.000000,0.578311,-0.562971,0.564505,-0.590583,0.575243,-0.559903
2.7328,0.016751,0.000000,-0.223297,0.223297,0.0000,0.0000,0.0000,-0.002360,-0.211689,0.210155,0.3761,0.4951,0.0895,0.000000,0.578311,-0.562971,0.564505,-0.590583,0.575243,-0.561437
2.7499,0.017039,0.000000,-0.226865,0.226865,0.0000,0.0000,0.0000,-0.002361,-0.214757,0.214757,0.3818,0.4972,0.0956,0.000000,0.578311,-0.562971,0.564505,-0.590583,0.575243,-0.561437
2.7666,0.016758,0.000000,-0.230375,0.230375,0.0000,0.0000,0.0000,-0.002361,-0.214757,0.214757,0.3818,0.4972,0.0956,0.000000,0.578311,-0.562971,0.564505,-0.590583,0.575243,-0.561437
2.7834,0.016761,0.000000,-0.233885,0.233885,0.0000,0.0000,0.0000,-0.002374,-0.220893,0.217825,0.4308,0.5146,0.1484,0.000000,0.578311,-0.562971,0.564505,-0.590583,0.575243,-0.559903
2.8001,0.016756,0.000000,-0.237395,0.237395,0.0000,0.0000,0.0000,-0.002373,-0.225495,0.225495,0.4257,0.5128,0.1429,0.000000,0.578311,-0.562971,0.564505,-0.590583,0.575243,-0.559903
2.8169,0.016767,0.000000,-0.240906,0.240906,0.0000,0.0000,0.0000,-0.002360,-0.223961,0.225495,0.3767,0.4954,0.0900,0.000000,0.578311,-0.562971,0.564505,-0.590583,0.575243,-0.561437
2.8337,0.016760,0.000000,-0.244417,0.244417,0.0000,0.0000,0.0000,-0.002350,-0.228563,0.227029,0.3925,0.5480,0.0418,0.000000,0.578311,-0.562971,0.564505,-0.592117,0.575243,-0.561437
2.8504,0.016776,0.000000,-0.247930,0.247930,0.0000,0.0000,0.0000,-0.002350,-0.240835,0.237767,0.3925,0.5480,0.0418,0.000000,0.579845,-0.562971,0.564505,-0.590583,0.575243,-0.559903
2.8672,0.016752,0.000000,-0.251439,0.251439,0.0000,0.0000,0.0000,-0.002364,-0.240835,0.237767,0.4794,0.4937,0.2078,0.000000,0.579845,-0.562971,0.564505,-0.590583,0.575243,-0.559903
2.8840,0.016819,0.000000,-0.254961,0.254961,0.0000,0.0000,0.0000,-0.002374,-0.243903,0.239301,0.4206,0.5150,0.1367,0.000000,0.578311,-0.562971,0.564505,-0.590583,0.575243,-0.559903
2.9008,0.016747,0.000000,-0.258469,0.258469,0.0000,0.0000,0.0000,-0.002348,-0.242369,0.237767,0.4270,0.4795,0.1445,0.000000,0.579845,-0.562971,0.564505,-0.590583,0.575243,-0.561437
2.9177,0.016907,0.000000,-0.262010,0.262010,0.0000,0.0000,0.0000,-0.002364,-0.245437,0.245437,0.4368,0.5673,0.0896,0.000000,0.578311,-0.562971,0.564505,-0.592117,0.575243,-0.559903
2.9344,0.016757,0.000000,-0.265519,0.265519,0.0000,0.0000,0.0000,-0.002361,-0.253107,0.256175,0.3755,0.4897,0.0956,0.000000,0.578311,-0.562971,0.564505,-0.590583,0.575243,-0.561437
2.9512,0.016752,0.000000,-0.269028,0.269028,0.0000,0.0000,0.0000,-0.002361,-0.262311,0.259243,0.3755,0.4897,0.0956,0.000000,0.578311,-0.562971,0.564505,-0.592117,0.575243,-0.559903
2.9679,0.016748,0.000000,-0.272536,0.272536,0.0000,0.0000,0.0000,-0.002363,-0.262311,0.259243,0.4422,0.5662,0.0947,0.000000,0.578311,-0.562971,0.564505,-0.592117,0.575243,-0.559903
2.9847,0.016758,0.000000,-0.276045,0.276045,0.0000,0.0000,0.0000,-0.002361,-0.262311,0.259243,0.3749,0.4898,0.0951,0.000000,0.578311,-0.562971,0.564505,-0.590583,0.575243,-0.561437
3.0014,0.016731,0.000000,-0.279549,0.279549,0.0000,0.0000,0.0000,-0.002338,-0.263845,0.263845,0.4425,0.5330,0.0951,0.000000,0.579845,-0.562971,0.564505,-0.592117,0.575243,-0.561437
3.0182,0.016756,0.000000,-0.283059,0.283059,0.0000,0.0000,0.0000,-0.002363,-0.271515,0.268447,0.3749,0.4933,0.0950,0.000000,0.578311,-0.562971,0.564505,-0.590583,0.575243,-0.561437
3.0349,0.016747,0.000000,-0.286566,0.286566,0.0000,0.0000,0.0000,-0.002338,-0.274583,0.273049,0.4425,0.5326,0.0951,0.000000,0.579845,-0.562971,0.564505,-0.592117,0.575243,-0.561437
3.0517,0.016765,0.000000,-0.290077,0.290077,0.0000,0.0000,0.0000,-0.002338,-0.274583,0.273049,0.4425,0.5326,0.0951,0.000000,0.579845,-0.562971,0.564505,-0.592117,0.575243,-0.561437
3.0684,0.016750,0.000000,-0.293586,0.293586,0.0000,0.0000,0.0000,-0.002352,-0.276117,0.276117,0.3857,0.5441,0.0413,0.000000,0.578311,-0.562971,0.564505,-0.592117,0.575243,-0.561437
3.0852,0.016761,0.000000,-0.297096,0.297096,0.0000,0.0000,0.0000,-0.002363,-0.280718,0.283786,0.3914,0.5120,0.2076,0.000000,0.579845,-0.561437,0.564505,-0.590583,0.575243,-0.561437
3.1025,0.017291,0.000000,-0.300717,0.300717,0.0000,0.0000,0.0000,-0.002349,-0.288388,0.285320,0.4301,0.4799,0.1371,0.000000,0.579845,-0.562971,0.564505,-0.590583,0.575243,-0.561437
3.1192,0.016754,0.000000,-0.304226,0.304226,0.0000,0.0000,0.0000,-0.002362,-0.296058,0.292990,0.3762,0.4988,0.0906,0.000000,0.578311,-0.562971,0.564505,-0.590583,0.575243,-0.561437
3.1360,0.016752,0.000000,-0.307735,0.307735,0.0000,0.0000,0.0000,-0.002362,-0.305262,0.300660,0.4421,0.5652,0.0952,0.000000,0.578311,-0.562971,0.564505,-0.592117,0.575243,-0.559903
3.1527,0.016757,0.000000,-0.311245,0.311245,0.0000,0.0000,0.0000,-0.002362,-0.305262,0.300660,0.4421,0.5652,0.0952,0.000000,0.578311,-0.562971,0.564505,-0.592117,0.575243,-0.559903
3.1695,0.016754,0.000000,-0.314753,0.314753,0.0000,0.0000,0.0000,-0.002349,-0.305262,0.302194,0.3857,0.5407,0.0413,0.000000,0.578311,-0.562971,0.564505,-0.592117,0.575243,-0.561437
3.1863,0.016769,0.000000,-0.318265,0.318265,0.0000,0.0000,0.0000,-0.002362,-0.305262,0.305262,0.3808,0.4925,0.1006,0.000000,0.578311,-0.562971,0.564505,-0.590583,0.575243,-0.561437
3.2030,0.016751,0.000000,-0.321774,0.321774,0.0000,0.0000,0.0000,-0.002362,-0.316000,0.311398,0.4416,0.5659,0.0942,0.000000,0.578311,-0.562971,0.564505,-0.592117,0.575243,-0.559903
3.2198,0.016767,0.000000,-0.325285,0.325285,0.0000,0.0000,0.0000,-0.002362,-0.322136,0.317534,0.4353,0.5582,0.0949,0.000000,0.578311,-0.562971,0.564505,-0.592117,0.575243,-0.559903
3.2365,0.016753,0.000000,-0.328794,0.328794,0.0000,0.0000,0.0000,-0.002362,-0.322136,0.317534,0.4353,0.5582,0.0949,0.000000,0.578311,-0.562971,0.564505,-0.592117,0.575243,-0.559903
3.2533,0.016753,0.000000,-0.332303,0.332303,0.0000,0.0000,0.0000,-0.002361,-0.322136,0.319068,0.3757,0.4907,0.0950,0.000000,0.578311,-0.562971,0.564505,-0.590583,0.575243,-0.561437
3.2700,0.016750,0.000000,-0.335811,0.335811,0.0000,0.0000,0.0000,-0.002374,-0.323670,0.319068,0.4314,0.5153,0.1485,0.000000,0.578311,-0.562971,0.564505,-0.590583,0.575243,-0.559903
3.2868,0.016758,0.000000,-0.339321,0.339321,0.0000,0.0000,0.0000,-0.002348,-0.331340,0.326738,0.3868,0.5459,0.0357,0.000000,0.578311,-0.562971,0.564505,-0.592117,0.575243,-0.561437
3.3036,0.016760,0.000000,-0.342831,0.342831,0.0000,0.0000,0.0000,-0.002339,-0.332874,0.331340,0.4413,0.5271,0.1013,0.000000,0.579845,-0.562971,0.564505,-0.592117,0.575243,-0.561437
3.3203,0.016762,0.000000,-0.346342,0.346342,0.0000,0.0000,0.0000,-0.002352,-0.335942,0.339010,0.3858,0.5447,0.0406,0.000000,0.578311,-0.562971,0.564505,-0.592117,0.575243,-0.561437
3.3371,0.016755,0.000000,-0.348281,0.348281,0.0000,0.0000,0.0000,-0.002352,-0.335942,0.339010,0.3858,0.5447,0.0406,0.000000,0.578311,-0.562971,0.564505,-0.592117,0.575243,-0.561437
3.3538,0.016758,0.000000,-0.344771,0.344771,0.0000,0.0000,0.0000,-0.002362,-0.346680,0.340544,0.3808,0.4921,0.1007,0.000000,0.578311,-0.562971,0.564505,-0.590583,0.575243,-0.561437
3.3706,0.016799,0.000000,-0.341253,0.341253,0.0000,0.0000,0.0000,-0.002349,-0.348214,0.340544,0.3921,0.5483,0.0407,0.000000,0.578311,-0.562971,0.564505,-0.592117,0.575243,-0.561437
3.3874,0.016762,0.000000,-0.337742,0.337742,0.0000,0.0000,0.0000,-0.002362,-0.346680,0.346680,0.3802,0.4917,0.1007,0.000000,0.578311,-0.562971,0.564505,-0.590583,0.575243,-0.561437
3.4042,0.016803,0.000000,-0.334223,0.334223,0.0000,0.0000,0.0000,-0.002361,-0.348214,0.345146,0.3814,0.4976,0.0944,0.000000,0.578311,-0.562971,0.564505,-0.590583,0.575243,-0.561437
3.4210,0.016766,0.000000,-0.330711,0.330711,0.0000,0.0000,0.0000,-0.002349,-0.345146,0.340544,0.4311,0.4813,0.1489,0.000000,0.579845,-0.562971,0.564505,-0.590583,0.575243,-0.561437
3.4377,0.016762,0.000000,-0.327201,0.327201,0.0000,0.0000,0.0000,-0.002349,-0.345146,0.340544,0.4311,0.4813,0.1489,0.000000,0.579845,-0.562971,0.564505,-0.590583,0.575243,-0.561437
3.4546,0.016874,0.000000,-0.323667,0.323667,0.0000,0.0000,0.0000,-0.002362,-0.340544,0.337476,0.3761,0.4987,0.0894,0.000000,0.578311,-0.562971,0.564505,-0.590583,0.575243,-0.561437
3.4714,0.016752,0.000000,-0.320158,0.320158,0.0000,0.0000,0.0000,-0.002338,-0.340544,0.335942,0.4424,0.5320,0.0957,0.000000,0.579845,-0.562971,0.564505,-0.592117,0.575243,-0.561437
3.4881,0.016753,0.000000,-0.316649,0.316649,0.0000,0.0000,0.0000,-0.002352,-0.339010,0.335942,0.4247,0.4778,0.1488,0.000000,0.579845,-0.562971,0.564505,-0.590583,0.575243,-0.561437
3.5049,0.016757,0.000000,-0.313140,0.313140,0.0000,0.0000,0.0000,-0.002351,-0.339010,0.335942,0.3875,0.5498,0.0357,0.000000,0.578311,-0.562971,0.564505,-0.592117,0.575243,-0.561437
3.5216,0.016753,0.000000,-0.309631,0.309631,0.0000,0.0000,0.0000,-0.002350,-0.335942,0.332874,0.4304,0.4759,0.1550,0.000000,0.579845,-0.562971,0.564505,-0.590583,0.575243,-0.561437
3.5384,0.016770,0.000000,-0.306119,0.306119,0.0000,0.0000,0.0000,-0.002350,-0.335942,0.332874,0.4304,0.4759,0.1550,0.000000,0.579845,-0.562971,0.564505,-0.590583,0.575243,-0.561437
3.5552,0.016767,0.000000,-0.302607,0.302607,0.0000,0.0000,0.0000,-0.002364,-0.328272,0.329806,0.4364,0.5676,0.0885,0.000000,0.578311,-0.562971,0.564505,-0.592117,0.575243,-0.559903
3.5719,0.016754,0.000000,-0.299098,0.299098,0.0000,0.0000,0.0000,-0.002362,-0.319068,0.323670,0.4358,0.5581,0.0954,0.000000,0.578311,-0.562971,0.564505,-0.592117,0.575243,-0.559903
3.5887,0.016761,0.000000,-0.295588,0.295588,0.0000,0.0000,0.0000,-0.002361,-0.311398,0.317534,0.3756,0.4907,0.0950,0.000000,0.578311,-0.562971,0.564505,-0.590583,0.575243,-0.561437
3.6054,0.016757,0.000000,-0.292078,0.292078,0.0000,0.0000,0.0000,-0.002374,-0.309864,0.308330,0.3427,0.5332,0.1482,0.000000,0.578311,-0.561437,0.564505,-0.590583,0.575243,-0.561437
3.6222,0.016784,0.000000,-0.288563,0.288563,0.0000,0.0000,0.0000,-0.002374,-0.305262,0.305262,0.3427,0.5332,0.1482,0.000000,0.578311,-0.562971,0.564505,-0.592117,0.575243,-0.561437
3.6390,0.016759,0.000000,-0.285053,0.285053,0.0000,0.0000,0.0000,-0.002348,-0.305262,0.305262,0.3961,0.5441,0.0357,0.000000,0.578311,-0.562971,0.564505,-0.592117,0.575243,-0.561437
3.6557,0.016754,0.000000,-0.281544,0.281544,0.0000,0.0000,0.0000,-0.002339,-0.299126,0.302194,0.4403,0.5273,0.1013,0.000000,0.579845,-0.562971,0.564505,-0.592117,0.575243,-0.561437
3.6725,0.016768,0.000000,-0.278032,0.278032,0.0000,0.0000,0.0000,-0.002363,-0.292990,0.299126,0.3752,0.4939,0.0944,0.000000,0.578311,-0.562971,0.564505,-0.590583,0.575243,-0.561437
3.6893,0.016759,0.000000,-0.274522,0.274522,0.0000,0.0000,0.0000,-0.002349,-0.289922,0.294524,0.4317,0.4817,0.1489,0.000000,0.579845,-0.562971,0.564505,-0.590583,0.575243,-0.561437
3.7060,0.016760,0.000000,-0.271012,0.271012,0.0000,0.0000,0.0000,-0.002388,-0.286854,0.289922,0.3864,0.5518,0.1961,0.000000,0.578311,-0.561437,0.564505,-0.590583,0.575243,-0.559903
3.7228,0.016761,0.000000,-0.267501,0.267501,0.0000,0.0000,0.0000,-0.002388,-0.285320,0.285320,0.3864,0.5518,0.1961,0.000000,0.578311,-0.562971,0.564505,-0.592117,0.575243,-0.561437
3.7395,0.016770,0.000000,-0.263989,0.263989,0.0000,0.0000,0.0000,-0.002347,-0.285320,0.285320,0.3915,0.5421,0.0307,0.000000,0.578311,-0.562971,0.564505,-0.592117,0.575243,-0.561437
3.7563,0.016752,0.000000,-0.260480,0.260480,0.0000,0.0000,0.0000,-0.002351,-0.282252,0.280718,0.3910,0.5431,0.0480,0.000000,0.578311,-0.562971,0.564505,-0.592117,0.575243,-0.561437
3.7730,0.016751,0.000000,-0.256972,0.256972,0.0000,0.0000,0.0000,-0.002339,-0.280718,0.279185,0.4409,0.5274,0.1000,0.000000,0.579845,-0.562971,0.564505,-0.592117,0.575243,-0.561437
3.7898,0.016749,0.000000,-0.253464,0.253464,0.0000,0.0000,0.0000,-0.002352,-0.277651,0.276117,0.3859,0.5446,0.0408,0.000000,0.578311,-0.562971,0.564505,-0.592117,0.575243,-0.561437
3.8065,0.016750,0.000000,-0.249956,0.249956,0.0000,0.0000,0.0000,-0.002375,-0.269981,0.274583,0.4303,0.5097,0.1541,0.000000,0.578311,-0.562971,0.564505,-0.590583,0.575243,-0.559903
3.8233,0.016759,0.000000,-0.246446,0.246446,0.0000,0.0000,0.0000,-0.002361,-0.262311,0.266913,0.4364,0.5641,0.0886,0.000000,0.578311,-0.562971,0.564505,-0.592117,0.575243,-0.559903
3.8401,0.016764,0.000000,-0.242935,0.242935,0.0000,0.0000,0.0000,-0.002361,-0.262311,0.266913,0.4364,0.5641,0.0886,0.000000,0.578311,-0.562971,0.564505,-0.592117,0.575243,-0.559903
3.8568,0.016757,0.000000,-0.239425,0.239425,0.0000,0.0000,0.0000,-0.002350,-0.256175,0.259243,0.3863,0.5408,0.0419,0.000000,0.578311,-0.562971,0.564505,-0.592117,0.575243,-0.561437
3.8739,0.017072,0.000000,-0.235850,0.235850,0.0000,0.0000,0.0000,-0.002364,-0.253107,0.253107,0.4410,0.5608,0.1003,0.000000,0.578311,-0.562971,0.564505,-0.592117,0.575243,-0.559903
3.8907,0.016772,0.000000,-0.232337,0.232337,0.0000,0.0000,0.0000,-0.002364,-0.253107,0.253107,0.4410,0.5608,0.1003,0.000000,0.578311,-0.562971,0.564505,-0.592117,0.575243,-0.559903
3.9075,0.016789,0.000000,-0.228820,0.228820,0.0000,0.0000,0.0000,-0.002362,-0.251573,0.251573,0.4353,0.5588,0.0942,0.000000,0.578311,-0.562971,0.564505,-0.592117,0.575243,-0.559903
3.9242,0.016758,0.000000,-0.225311,0.225311,0.0000,0.0000,0.0000,-0.002361,-0.245437,0.251573,0.3757,0.4906,0.0951,0.000000,0.578311,-0.562971,0.564505,-0.590583,0.575243,-0.561437
3.9410,0.016771,0.000000,-0.221798,0.221798,0.0000,0.0000,0.0000,-0.002361,-0.239301,0.248505,0.3819,0.4977,0.0950,0.000000,0.578311,-0.562971,0.564505,-0.590583,0.575243,-0.561437
3.9577,0.016752,0.000000,-0.218290,0.218290,0.0000,0.0000,0.0000,-0.002350,-0.233165,0.243903,0.3920,0.5478,0.0413,0.000000,0.578311,-0.562971,0.564505,-0.592117,0.575243,-0.561437
3.9745,0.016803,0.000000,-0.214770,0.214770,0.0000,0.0000,0.0000,-0.002350,-0.231631,0.239301,0.3920,0.5478,0.0413,0.000000,0.578311,-0.562971,0.564505,-0.590583,0.575243,-0.561437
3.9913,0.016750,0.000000,-0.211262,0.211262,0.0000,0.0000,0.0000,-0.002362,-0.231631,0.239301,0.3802,0.4918,0.1006,0.000000,0.578311,-0.562971,0.564505,-0.590583,0.575243,-0.561437
4.0081,0.016754,0.000000,-0.207753,0.207753,0.0000,0.0000,0.0000,-0.002361,-0.230097,0.230097,0.3814,0.4976,0.0944,0.000000,0.578311,-0.562971,0.564505,-0.590583,0.575243,-0.561437
4.0248,0.016751,0.000000,-0.204245,0.204245,0.0000,0.0000,0.0000,-0.002361,-0.228563,0.225495,0.3814,0.4976,0.0944,0.000000,0.578311,-0.562971,0.564505,-0.590583,0.575243,-0.561437
4.0416,0.016760,0.000000,-0.200735,0.200735,0.0000,0.0000,0.0000,-0.002350,-0.223961,0.223961,0.3920,0.5478,0.0413,0.000000,0.578311,-0.562971,0.564505,-0.592117,0.575243,-0.561437
4.0583,0.016739,0.000000,-0.197229,0.197229,0.0000,0.0000,0.0000,-0.002362,-0.213223,0.219359,0.3802,0.4918,0.1006,0.000000,0.578311,-0.562971,0.564505,-0.590583,0.575243,-0.561437
4.0751,0.016756,0.000000,-0.193720,0.193720,0.0000,0.0000,0.0000,-0.002361,-0.204019,0.213223,0.3814,0.4976,0.0944,0.000000,0.578311,-0.562971,0.564505,-0.590583,0.575243,-0.561437
4.0918,0.016752,0.000000,-0.190211,0.190211,0.0000,0.0000,0.0000,-0.002361,-0.204019,0.213223,0.3814,0.4976,0.0944,0.000000,0.578311,-0.562971,0.564505,-0.590583,0.575243,-0.561437
4.1086,0.016746,0.000000,-0.186704,0.186704,0.0000,0.0000,0.0000,-0.002361,-0.199418,0.205553,0.3814,0.4976,0.0944,0.000000,0.578311,-0.562971,0.564505,-0.590583,0.575243,-0.561437
4.1253,0.016744,0.000000,-0.183197,0.183197,0.0000,0.0000,0.0000,-0.002338,-0.199418,0.199418,0.4419,0.5322,0.0952,0.000000,0.579845,-0.562971,0.564505,-0.592117,0.575243,-0.561437
4.1421,0.016753,0.000000,-0.179688,0.179688,0.0000,0.0000,0.0000,-0.002340,-0.197884,0.196350,0.4356,0.5285,0.0951,0.000000,0.579845,-0.562971,0.564505,-0.592117,0.575243,-0.561437
4.1589,0.016800,0.000000,-0.176169,0.176169,0.0000,0.0000,0.0000,-0.002363,-0.190214,0.193282,0.3756,0.4938,0.0950,0.000000,0.578311,-0.562971,0.564505,-0.590583,0.575243,-0.561437
4.1756,0.016765,0.000000,-0.172658,0.172658,0.0000,0.0000,0.0000,-0.002361,-0.182544,0.190214,0.3819,0.4974,0.0950,0.000000,0.578311,-0.562971,0.564505,-0.590583,0.575243,-0.561437
4.1924,0.016740,0.000000,-0.169152,0.169152,0.0000,0.0000,0.0000,-0.002361,-0.182544,0.190214,0.3819,0.4974,0.0950,0.000000,0.578311,-0.562971,0.564505,-0.590583,0.575243,-0.561437
4.2091,0.016748,0.000000,-0.165644,0.165644,0.0000,0.0000,0.0000,-0.002338,-0.179476,0.184078,0.4418,0.5322,0.0951,0.000000,0.579845,-0.562971,0.564505,-0.592117,0.575243,-0.561437
4.2258,0.016739,0.000000,-0.162139,0.162139,0.0000,0.0000,0.0000,-0.002352,-0.177942,0.176408,0.4248,0.4778,0.1488,0.000000,0.579845,-0.562971,0.564505,-0.590583,0.575243,-0.561437
4.2426,0.016756,0.000000,-0.158629,0.158629,0.0000,0.0000,0.0000,-0.002350,-0.176408,0.171806,0.4266,0.4834,0.1432,0.000000,0.579845,-0.562971,0.564505,-0.590583,0.575243,-0.561437
4.2593,0.016737,0.000000,-0.155124,0.155124,0.0000,0.0000,0.0000,-0.002351,-0.173340,0.168738,0.3873,0.5492,0.0363,0.000000,0.578311,-0.562971,0.564505,-0.592117,0.575243,-0.561437
4.2761,0.016777,0.000000,-0.151610,0.151610,0.0000,0.0000,0.0000,-0.002351,-0.173340,0.168738,0.3873,0.5492,0.0363,0.000000,0.578311,-0.562971,0.564505,-0.592117,0.575243,-0.561437
4.2929,0.016740,0.000000,-0.148104,0.148104,0.0000,0.0000,0.0000,-0.002375,-0.168738,0.165670,0.4302,0.5092,0.1546,0.000000,0.578311,-0.562971,0.564505,-0.590583,0.575243,-0.559903
4.3096,0.016751,0.000000,-0.144596,0.144596,0.0000,0.0000,0.0000,-0.002348,-0.159534,0.161068,0.3869,0.5465,0.0351,0.000000,0.578311,-0.562971,0.564505,-0.592117,0.575243,-0.561437
4.3264,0.016745,0.000000,-0.141089,0.141089,0.0000,0.0000,0.0000,-0.002339,-0.154932,0.156466,0.4413,0.5270,0.1014,0.000000,0.579845,-0.562971,0.564505,-0.592117,0.575243,-0.561437
4.3434,0.017009,0.000000,-0.137526,0.137526,0.0000,0.0000,0.0000,-0.002363,-0.150330,0.148796,0.3751,0.4939,0.0944,0.000000,0.578311,-0.562971,0.564505,-0.590583,0.575243,-0.561437
4.3602,0.016848,0.000000,-0.133997,0.133997,0.0000,0.0000,0.0000,-0.002349,-0.145728,0.144194,0.3927,0.5482,0.0413,0.000000,0.578311,-0.562971,0.564505,-0.592117,0.575243,-0.561437
4.3786,0.018354,0.000000,-0.130153,0.130153,0.0000,0.0000,0.0000,-0.002349,-0.145728,0.144194,0.3927,0.5482,0.0413,0.000000,0.578311,-0.562971,0.564505,-0.592117,0.575243,-0.561437
4.3953,0.016748,0.000000,-0.126646,0.126646,0.0000,0.0000,0.0000,-0.002351,-0.142660,0.141126,0.4299,0.4761,0.1544,0.000000,0.579845,-0.562971,0.564505,-0.590583,0.575243,-0.561437
4.4121,0.016763,0.000000,-0.123135,0.123135,0.0000,0.0000,0.0000,-0.002362,-0.136524,0.138058,0.3762,0.4992,0.0888,0.000000,0.578311,-0.562971,0.564505,-0.590583,0.575243,-0.561437
4.4288,0.016752,0.000000,-0.119626,0.119626,0.0000,0.0000,0.0000,-0.002375,-0.133456,0.134990,0.4029,0.6007,0.1486,0.000000,0.578311,-0.561437,0.564505,-0.592117,0.575243,-0.559903
4.4456,0.016752,0.000000,-0.116118,0.116118,0.0000,0.0000,0.0000,-0.002348,-0.128854,0.128854,0.4288,0.4706,0.1432,0.000000,0.579845,-0.562971,0.564505,-0.590583,0.575243,-0.561437
4.4623,0.016753,0.000000,-0.112609,0.112609,0.0000,0.0000,0.0000,-0.002362,-0.124252,0.122718,0.3764,0.4998,0.0900,0.000000,0.578311,-0.562971,0.564505,-0.590583,0.575243,-0.561437
4.4792,0.016822,0.000000,-0.109086,0.109086,0.0000,0.0000,0.0000,-0.002362,-0.124252,0.122718,0.3764,0.4998,0.0900,0.000000,0.578311,-0.562971,0.564505,-0.590583,0.575243,-0.561437
4.4959,0.016752,0.000000,-0.105577,0.105577,0.0000,0.0000,0.0000,-0.002349,-0.121184,0.118117,0.3926,0.5475,0.0418,0.000000,0.578311,-0.562971,0.564505,-0.592117,0.575243,-0.561437
4.5127,0.016752,0.000000,-0.102069,0.102069,0.0000,0.0000,0.0000,-0.002362,-0.119651,0.115049,0.3801,0.4918,0.1006,0.000000,0.578311,-0.562971,0.564505,-0.590583,0.575243,-0.561437
4.5294,0.016745,0.000000,-0.098562,0.098562,0.0000,0.0000,0.0000,-0.002361,-0.116583,0.113515,0.3814,0.4976,0.0944,0.000000,0.578311,-0.562971,0.564505,-0.590583,0.575243,-0.561437
4.5462,0.016753,0.000000,-0.095053,0.095053,0.0000,0.0000,0.0000,-0.002338,-0.108913,0.110447,0.4419,0.5322,0.0952,0.000000,0.579845,-0.562971,0.564505,-0.592117,0.575243,-0.561437
4.5629,0.016741,0.000000,-0.091547,0.091547,0.0000,0.0000,0.0000,-0.002363,-0.101243,0.104311,0.3750,0.4934,0.0950,0.000000,0.578311,-0.562971,0.564505,-0.590583,0.575243,-0.561437
4.5797,0.016758,0.000000,-0.088037,0.088037,0.0000,0.0000,0.0000,-0.002363,-0.101243,0.104311,0.3750,0.4934,0.0950,0.000000,0.578311,-0.562971,0.564505,-0.590583,0.575243,-0.561437
4.5964,0.016754,0.000000,-0.084528,0.084528,0.0000,0.0000,0.0000,-0.002349,-0.099709,0.098175,0.3927,0.5482,0.0413,0.000000,0.578311,-0.562971,0.564505,-0.592117,0.575243,-0.561437
4.6132,0.016756,0.000000,-0.081019,0.081019,0.0000,0.0000,0.0000,-0.002364,-0.096641,0.092039,0.4404,0.5601,0.1004,0.000000,0.578311,-0.562971,0.564505,-0.592117,0.575243,-0.559903
4.6299,0.016742,0.000000,-0.077512,0.077512,0.0000,0.0000,0.0000,-0.002374,-0.093573,0.090505,0.4247,0.5081,0.1479,0.000000,0.578311,-0.562971,0.564505,-0.590583,0.575243,-0.559903
4.6467,0.016755,0.000000,-0.074003,0.074003,0.0000,0.0000,0.0000,-0.002348,-0.088971,0.088971,0.3875,0.5467,0.0358,0.000000,0.578311,-0.562971,0.564505,-0.592117,0.575243,-0.561437
4.6634,0.016746,0.000000,-0.070496,0.070496,0.0000,0.0000,0.0000,-0.002362,-0.081301,0.085903,0.3806,0.4919,0.1012,0.000000,0.578311,-0.562971,0.564505,-0.590583,0.575243,-0.561437
4.6802,0.016758,0.000000,-0.066986,0.066986,0.0000,0.0000,0.0000,-0.002362,-0.081301,0.085903,0.3806,0.4919,0.1012,0.000000,0.578311,-0.562971,0.564505,-0.590583,0.575243,-0.561437
4.6969,0.016749,0.000000,-0.063478,0.063478,0.0000,0.0000,0.0000,-0.002349,-0.073631,0.081301,0.4312,0.4819,0.1482,0.000000,0.579845,-0.562971,0.564505,-0.590583,0.575243,-0.561437
4.7137,0.016750,0.000000,-0.059970,0.059970,0.0000,0.0000,0.0000,-0.002351,-0.073631,0.075165,0.4259,0.4830,0.1433,0.000000,0.579845,-0.562971,0.564505,-0.590583,0.575243,-0.561437
4.7304,0.016743,0.000000,-0.056463,0.056463,0.0000,0.0000,0.0000,-0.002375,-0.072097,0.067495,0.4262,0.5161,0.1435,0.000000,0.578311,-0.562971,0.564505,-0.590583,0.575243,-0.559903
4.7472,0.016748,0.000000,-0.052956,0.052956,0.0000,0.0000,0.0000,-0.002348,-0.067495,0.061359,0.4264,0.4794,0.1438,0.000000,0.579845,-0.562971,0.564505,-0.590583,0.575243,-0.561437
4.7640,0.016876,0.000000,-0.049421,0.049421,0.0000,0.0000,0.0000,-0.002362,-0.061359,0.059825,0.3766,0.4989,0.0899,0.000000,0.578311,-0.562971,0.564505,-0.590583,0.575243,-0.561437
4.7808,0.016765,0.000000,-0.045910,0.045910,0.0000,0.0000,0.0000,-0.002362,-0.061359,0.059825,0.3766,0.4989,0.0899,0.000000,0.578311,-0.562971,0.564505,-0.590583,0.575243,-0.561437
4.7975,0.016750,0.000000,-0.042402,0.042402,0.0000,0.0000,0.0000,-0.002349,-0.053689,0.058291,0.3925,0.5476,0.0418,0.000000,0.578311,-0.562971,0.564505,-0.592117,0.575243,-0.561437
4.8143,0.016744,0.000000,-0.038895,0.038895,0.0000,0.0000,0.0000,-0.002362,-0.049087,0.055223,0.3801,0.4918,0.1006,0.000000,0.578311,-0.562971,0.564505,-0.590583,0.575243,-0.561437
4.8310,0.016742,0.000000,-0.035389,0.035389,0.0000,0.0000,0.0000,-0.002361,-0.052155,0.049087,0.3814,0.4976,0.0944,0.000000,0.578311,-0.562971,0.564505,-0.590583,0.575243,-0.561437
4.8478,0.016754,0.000000,-0.031880,0.031880,0.0000,0.0000,0.0000,-0.002361,-0.047553,0.041417,0.3814,0.4976,0.0944,0.000000,0.578311,-0.562971,0.564505,-0.590583,0.575243,-0.561437
4.8645,0.016743,0.000000,-0.028373,0.028373,0.0000,0.0000,0.0000,-0.002361,-0.039884,0.036816,0.3814,0.4976,0.0944,0.000000,0.578311,-0.562971,0.564505,-0.590583,0.575243,-0.561437
4.8813,0.016782,0.000000,-0.024858,0.024858,0.0000,0.0000,0.0000,-0.002361,-0.039884,0.036816,0.3814,0.4976,0.0944,0.000000,0.578311,-0.562971,0.564505,-0.590583,0.575243,-0.561437
4.8981,0.016747,0.000000,-0.021351,0.021351,0.0000,0.0000,0.0000,-0.002350,-0.033748,0.035282,0.3920,0.5478,0.0413,0.000000,0.578311,-0.562971,0.564505,-0.592117,0.575243,-0.561437
4.9148,0.016750,0.000000,-0.017843,0.017843,0.0000,0.0000,0.0000,-0.002339,-0.030680,0.035282,0.4408,0.5269,0.1007,0.000000,0.579845,-0.562971,0.564505,-0.592117,0.575243,-0.561437
4.9317,0.016908,0.000000,-0.014301,0.014301,0.0000,0.0000,0.0000,-0.002352,-0.029146,0.032214,0.4249,0.4783,0.1482,0.000000,0.579845,-0.562971,0.564505,-0.590583,0.575243,-0.561437
4.9485,0.016755,0.000000,-0.010792,0.010792,0.0000,0.0000,0.0000,-0.002375,-0.026078,0.026078,0.3376,0.5345,0.1426,0.000000,0.578311,-0.561437,0.564505,-0.590583,0.575243,-0.561437
4.9653,0.016801,0.000000,-0.007273,0.007273,0.0000,0.0000,0.0000,-0.002361,-0.019942,0.019942,0.4461,0.5615,0.0898,0.000000,0.578311,-0.562971,0.564505,-0.592117,0.575243,-0.559903
4.9820,0.016742,0.000000,-0.003767,0.003767,0.0000,0.0000,0.0000,-0.002361,-0.019942,0.019942,0.4461,0.5615,0.0898,0.000000,0.578311,-0.562971,0.564505,-0.592117,0.575243,-0.559903
4.9988,0.016747,0.000000,-0.000259,0.000259,0.0000,0.0000,0.0000,-0.002351,-0.013806,0.010738,0.4846,0.5431,0.1491,0.000000,0.579845,-0.562971,0.564505,-0.592117,0.575243,-0.559903
5.0155,0.016744,0.000000,-0.003247,0.003247,0.0000,0.0000,0.0000,-0.002375,-0.010738,0.009204,0.4201,0.5098,0.1429,0.000000,0.578311,-0.562971,0.564505,-0.590583,0.575243,-0.559903
5.0322,0.016743,0.000000,-0.006754,0.006754,0.0000,0.0000,0.0000,-0.002373,-0.007670,0.007670,0.4268,0.5133,0.1435,0.000000,0.578311,-0.562971,0.564505,-0.590583,0.575243,-0.559903
5.0490,0.016745,0.000000,-0.010261,0.010261,0.0000,0.0000,0.0000,-0.002348,0.000000,0.006136,0.3873,0.5461,0.0362,0.000000,0.578311,-0.562971,0.564505,-0.592117,0.575243,-0.561437
5.0658,0.016807,0.000000,-0.013781,0.013781,0.0000,0.0000,0.0000,-0.002348,0.001534,0.003068,0.3873,0.5461,0.0362,0.000000,0.578311,-0.562971,0.564505,-0.592117,0.575243,-0.561437
5.0825,0.016738,0.000000,-0.017287,0.017287,0.0000,0.0000,0.0000,-0.002351,0.001534,0.003068,0.3914,0.5427,0.0474,0.000000,0.578311,-0.562971,0.564505,-0.592117,0.575243,-0.561437
5.0993,0.016744,0.000000,-0.020794,0.020794,0.0000,0.0000,0.0000,-0.002351,-0.004602,0.006136,0.3914,0.5427,0.0474,0.000000,0.578311,-0.562971,0.564505,-0.592117,0.575243,-0.561437
5.1160,0.016748,0.000000,-0.024302,0.024302,0.0000,0.0000,0.0000,-0.002351,-0.012272,0.010738,0.3914,0.5427,0.0474,0.000000,0.578311,-0.562971,0.564505,-0.592117,0.575243,-0.561437
5.1328,0.016745,0.000000,-0.027809,0.027809,0.0000,0.0000,0.0000,-0.002364,-0.015340,0.012272,0.4405,0.5607,0.0997,0.000000,0.578311,-0.562971,0.564505,-0.592117,0.575243,-0.559903
5.1495,0.016767,0.000000,-0.031320,0.031320,0.0000,0.0000,0.0000,-0.002361,-0.015340,0.013806,0.3751,0.4904,0.0945,0.000000,0.578311,-0.562971,0.564505,-0.590583,0.575243,-0.561437
5.1664,0.016834,0.000000,-0.034846,0.034846,0.0000,0.0000,0.0000,-0.002349,-0.021476,0.021476,0.4317,0.4821,0.1489,0.000000,0.579845,-0.562971,0.564505,-0.590583,0.575243,-0.561437
5.1831,0.016752,0.000000,-0.038355,0.038355,0.0000,0.0000,0.0000,-0.002349,-0.021476,0.021476,0.4317,0.4821,0.1489,0.000000,0.579845,-0.562971,0.564505,-0.590583,0.575243,-0.561437
5.1999,0.016745,0.000000,-0.041862,0.041862,0.0000,0.0000,0.0000,-0.002351,-0.033748,0.029146,0.4258,0.4830,0.1432,0.000000,0.579845,-0.562971,0.564505,-0.590583,0.575243,-0.561437
5.2166,0.016744,0.000000,-0.045369,0.045369,0.0000,0.0000,0.0000,-0.002362,-0.033748,0.029146,0.3767,0.4985,0.0900,0.000000,0.578311,-0.562971,0.564505,-0.590583,0.575243,-0.561437
5.2334,0.016750,0.000000,-0.048877,0.048877,0.0000,0.0000,0.0000,-0.002361,-0.029146,0.032214,0.3818,0.4969,0.0955,0.000000,0.578311,-0.562971,0.564505,-0.590583,0.575243,-0.561437
5.2501,0.016771,0.000000,-0.052389,0.052389,0.0000,0.0000,0.0000,-0.002349,-0.033748,0.041417,0.4310,0.4814,0.1488,0.000000,0.579845,-0.562971,0.564505,-0.590583,0.575243,-0.561437
5.2670,0.016821,0.000000,-0.055912,0.055912,0.0000,0.0000,0.0000,-0.002362,-0.046019,0.046019,0.3761,0.4986,0.0894,0.000000,0.578311,-0.562971,0.564505,-0.590583,0.575243,-0.561437
5.2837,0.016742,0.000000,-0.059418,0.059418,0.0000,0.0000,0.0000,-0.002362,-0.046019,0.046019,0.3761,0.4986,0.0894,0.000000,0.578311,-0.562971,0.564505,-0.590583,0.575243,-0.561437
5.3004,0.016746,0.000000,-0.062926,0.062926,0.0000,0.0000,0.0000,-0.002349,-0.053689,0.042951,0.4316,0.4812,0.1494,0.000000,0.579845,-0.562971,0.564505,-0.590583,0.575243,-0.561437
5.3172,0.016744,0.000000,-0.066432,0.066432,0.0000,0.0000,0.0000,-0.002352,-0.053689,0.046019,0.4861,0.5515,0.1429,0.000000,0.579845,-0.562971,0.564505,-0.592117,0.575243,-0.559903
5.3339,0.016746,0.000000,-0.069940,0.069940,0.0000,0.0000,0.0000,-0.002362,-0.052155,0.053689,0.3704,0.4913,0.0900,0.000000,0.578311,-0.562971,0.564505,-0.590583,0.575243,-0.561437
5.3507,0.016770,0.000000,-0.073452,0.073452,0.0000,0.0000,0.0000,-0.002363,-0.058291,0.061359,0.4427,0.5660,0.0953,0.000000,0.578311,-0.562971,0.564505,-0.592117,0.575243,-0.559903
5.3675,0.016780,0.000000,-0.076966,0.076966,0.0000,0.0000,0.0000,-0.002349,-0.069029,0.069029,0.3856,0.5406,0.0412,0.000000,0.578311,-0.562971,0.564505,-0.592117,0.575243,-0.561437
5.3842,0.016741,0.000000,-0.080473,0.080473,0.0000,0.0000,0.0000,-0.002349,-0.069029,0.069029,0.3856,0.5406,0.0412,0.000000,0.578311,-0.562971,0.564505,-0.592117,0.575243,-0.561437
5.4010,0.016744,0.000000,-0.083980,0.083980,0.0000,0.0000,0.0000,-0.002351,-0.072097,0.069029,0.3916,0.5433,0.0469,0.000000,0.578311,-0.562971,0.564505,-0.592117,0.575243,-0.561437
5.4177,0.016740,0.000000,-0.087486,0.087486,0.0000,0.0000,0.0000,-0.002362,-0.069029,0.069029,0.3802,0.4922,0.1000,0.000000,0.578311,-0.562971,0.564505,-0.590583,0.575243,-0.561437
5.4345,0.016747,0.000000,-0.090993,0.090993,0.0000,0.0000,0.0000,-0.002362,-0.072097,0.076699,0.4417,0.5659,0.0942,0.000000,0.578311,-0.562971,0.564505,-0.592117,0.575243,-0.559903
5.4512,0.016754,0.000000,-0.094502,0.094502,0.0000,0.0000,0.0000,-0.002362,-0.082835,0.082835,0.4353,0.5582,0.0949,0.000000,0.578311,-0.562971,0.564505,-0.592117,0.575243,-0.559903
5.4680,0.016750,0.000000,-0.098010,0.098010,0.0000,0.0000,0.0000,-0.002374,-0.090505,0.088971,0.4252,0.5083,0.1485,0.000000,0.578311,-0.562971,0.564505,-0.590583,0.575243,-0.559903
5.4847,0.016743,0.000000,-0.101517,0.101517,0.0000,0.0000,0.0000,-0.002374,-0.090505,0.088971,0.4252,0.5083,0.1485,0.000000,0.578311,-0.562971,0.564505,-0.590583,0.575243,-0.559903
