t,loop_dt,cmd_z,cmd_ant_l,cmd_ant_r,cmd_roll,cmd_pitch,cmd_yaw,pres_z,pres_ant_l,pres_ant_r,pres_roll,pres_pitch,pres_yaw,pres_j0,pres_j1,pres_j2,pres_j3,pres_j4,pres_j5,pres_j6
0.0000,0.000001,0.000000,-0.349066,0.349066,0.0000,0.0000,0.0000,-0.002451,-0.182544,0.191748,0.3000,0.6341,0.0931,0.000000,0.572175,-0.561437,0.564505,-0.590583,0.575243,-0.556835
0.0168,0.016777,0.000000,-0.347602,0.347602,0.0000,0.0000,0.0000,-0.002451,-0.181010,0.185612,0.3000,0.6341,0.0931,0.000000,0.572175,-0.561437,0.564505,-0.590583,0.575243,-0.556835
0.0335,0.016770,0.000000,-0.346138,0.346138,0.0000,0.0000,0.0000,-0.002451,-0.181010,0.185612,0.3000,0.6341,0.0931,0.000000,0.572175,-0.561437,0.564505,-0.590583,0.575243,-0.556835
0.0503,0.016758,0.000000,-0.344676,0.344676,0.0000,0.0000,0.0000,-0.002438,-0.179476,0.179476,0.3390,0.5981,0.0406,0.000000,0.572175,-0.562971,0.564505,-0.590583,0.575243,-0.556835
0.0671,0.016766,0.000000,-0.343213,0.343213,0.0000,0.0000,0.0000,-0.002439,-0.190214,0.187146,0.3349,0.6018,0.0461,0.000000,0.572175,-0.562971,0.564505,-0.590583,0.575243,-0.556835
0.0838,0.016762,0.000000,-0.341750,0.341750,0.0000,0.0000,0.0000,-0.002439,-0.245437,0.239301,0.3349,0.6018,0.0461,0.000000,0.572175,-0.562971,0.564505,-0.590583,0.575243,-0.556835
0.1006,0.016768,0.000000,-0.340287,0.340287,0.0000,0.0000,0.0000,-0.002428,-0.374291,0.369689,0.3459,0.6522,-0.0083,0.000000,0.572175,-0.562971,0.564505,-0.592117,0.575243,-0.556835
0.1174,0.016773,0.000000,-0.338823,0.338823,0.0000,0.0000,0.0000,-0.002429,-0.377359,0.371223,0.3448,0.6469,-0.0026,0.000000,0.572175,-0.562971,0.564505,-0.592117,0.575243,-0.556835
0.1341,0.016759,0.000000,-0.337360,0.337360,0.0000,0.0000,0.0000,-0.002429,-0.377359,0.371223,0.3448,0.6469,-0.0026,0.000000,0.572175,-0.562971,0.564505,-0.592117,0.575243,-0.556835
0.1509,0.016760,0.000000,-0.335898,0.335898,0.0000,0.0000,0.0000,-0.002429,-0.360485,0.355884,0.3448,0.6469,-0.0026,0.000000,0.572175,-0.562971,0.564505,-0.592117,0.575243,-0.556835
0.1677,0.016767,0.000000,-0.334435,0.334435,0.0000,0.0000,0.0000,-0.002429,-0.345146,0.346680,0.3448,0.6469,-0.0026,0.000000,0.572175,-0.562971,0.564505,-0.592117,0.575243,-0.556835
0.1844,0.016758,0.000000,-0.332972,0.332972,0.0000,0.0000,0.0000,-0.002440,-0.335942,0.340544,0.3343,0.5967,0.0506,0.000000,0.572175,-0.562971,0.564505,-0.590583,0.575243,-0.556835
0.2012,0.016769,0.000000,-0.331509,0.331509,0.0000,0.0000,0.0000,-0.002440,-0.335942,0.340544,0.3343,0.5967,0.0506,0.000000,0.572175,-0.562971,0.564505,-0.590583,0.575243,-0.556835
0.2179,0.016761,0.000000,-0.330046,0.330046,0.0000,0.0000,0.0000,-0.002452,-0.335942,0.334408,0.2963,0.6375,0.0981,0.000000,0.572175,-0.561437,0.564505,-0.590583,0.575243,-0.556835
0.2347,0.016758,0.000000,-0.328584,0.328584,0.0000,0.0000,0.0000,-0.002438,-0.340544,0.335942,0.3394,0.5977,0.0401,0.000000,0.572175,-0.562971,0.564505,-0.590583,0.575243,-0.556835
0.2515,0.016775,0.000000,-0.327120,0.327120,0.0000,0.0000,0.0000,-0.002439,-0.340544,0.335942,0.3349,0.6019,0.0461,0.000000,0.572175,-0.562971,0.564505,-0.590583,0.575243,-0.556835
0.2682,0.016759,0.000000,-0.325657,0.325657,0.0000,0.0000,0.0000,-0.002439,-0.339010,0.334408,0.3349,0.6019,0.0461,0.000000,0.572175,-0.562971,0.564505,-0.590583,0.575243,-0.556835
0.2853,0.017015,0.000000,-0.324172,0.324172,0.0000,0.0000,0.0000,-0.002428,-0.337476,0.334408,0.3459,0.6522,-0.0083,0.000000,0.572175,-0.562971,0.564505,-0.592117,0.575243,-0.556835
0.3020,0.016761,0.000000,-0.322710,0.322710,0.0000,0.0000,0.0000,-0.002428,-0.337476,0.334408,0.3459,0.6522,-0.0083,0.000000,0.572175,-0.562971,0.564505,-0.592117,0.575243,-0.556835
0.3188,0.016756,0.000000,-0.321248,0.321248,0.0000,0.0000,0.0000,-0.002440,-0.334408,0.334408,0.3342,0.5962,0.0512,0.000000,0.572175,-0.562971,0.564505,-0.590583,0.575243,-0.556835
0.3355,0.016756,0.000000,-0.319785,0.319785,0.0000,0.0000,0.0000,-0.002439,-0.328272,0.334408,0.3354,0.6020,0.0450,0.000000,0.572175,-0.562971,0.564505,-0.590583,0.575243,-0.556835
0.3523,0.016771,0.000000,-0.318322,0.318322,0.0000,0.0000,0.0000,-0.002428,-0.325204,0.334408,0.3459,0.6522,-0.0081,0.000000,0.572175,-0.562971,0.564505,-0.592117,0.575243,-0.556835
0.3690,0.016745,0.000000,-0.316861,0.316861,0.0000,0.0000,0.0000,-0.002429,-0.326738,0.334408,0.3448,0.6469,-0.0026,0.000000,0.572175,-0.562971,0.564505,-0.592117,0.575243,-0.556835
0.3860,0.016999,0.000000,-0.315377,0.315377,0.0000,0.0000,0.0000,-0.002440,-0.325204,0.332874,0.3343,0.5967,0.0506,0.000000,0.572175,-0.562971,0.564505,-0.590583,0.575243,-0.556835
0.4028,0.016756,0.000000,-0.313915,0.313915,0.0000,0.0000,0.0000,-0.002440,-0.325204,0.332874,0.3343,0.5967,0.0506,0.000000,0.572175,-0.562971,0.564505,-0.590583,0.575243,-0.556835
0.4195,0.016751,0.000000,-0.312453,0.312453,0.0000,0.0000,0.0000,-0.002439,-0.325204,0.331340,0.3354,0.6020,0.0450,0.000000,0.572175,-0.562971,0.564505,-0.590583,0.575243,-0.556835
0.4364,0.016816,0.000000,-0.310986,0.310986,0.0000,0.0000,0.0000,-0.002428,-0.323670,0.328272,0.3459,0.6522,-0.0082,0.000000,0.572175,-0.562971,0.564505,-0.592117,0.575243,-0.556835
0.4531,0.016755,0.000000,-0.309524,0.309524,0.0000,0.0000,0.0000,-0.002440,-0.322136,0.323670,0.3342,0.5962,0.0511,0.000000,0.572175,-0.562971,0.564505,-0.590583,0.575243,-0.556835
0.4699,0.016750,0.000000,-0.308062,0.308062,0.0000,0.0000,0.0000,-0.002452,-0.320602,0.317534,0.2963,0.6375,0.0981,0.000000,0.572175,-0.561437,0.564505,-0.590583,0.575243,-0.556835
0.4866,0.016766,0.000000,-0.306599,0.306599,0.0000,0.0000,0.0000,-0.002426,-0.316000,0.312932,0.3500,0.6485,-0.0137,0.000000,0.572175,-0.562971,0.564505,-0.592117,0.575243,-0.556835
0.5034,0.016750,0.000000,-0.305137,0.305137,0.0000,0.0000,0.0000,-0.002426,-0.316000,0.312932,0.3500,0.6485,-0.0137,0.000000,0.572175,-0.562971,0.564505,-0.592117,0.575243,-0.556835
0.5201,0.016754,0.000000,-0.303675,0.303675,0.0000,0.0000,0.0000,-0.002429,-0.314466,0.311398,0.3443,0.6473,-0.0020,0.000000,0.572175,-0.562971,0.564505,-0.592117,0.575243,-0.556835
0.5369,0.016714,0.000000,-0.302216,0.302216,0.0000,0.0000,0.0000,-0.002440,-0.312932,0.311398,0.3343,0.5967,0.0505,0.000000,0.572175,-0.562971,0.564505,-0.590583,0.575243,-0.556835
0.5536,0.016758,0.000000,-0.300754,0.300754,0.0000,0.0000,0.0000,-0.002452,-0.312932,0.311398,0.2963,0.6375,0.0982,0.000000,0.572175,-0.561437,0.564505,-0.590583,0.575243,-0.556835
0.5704,0.016746,0.000000,-0.299292,0.299292,0.0000,0.0000,0.0000,-0.002426,-0.312932,0.309864,0.3500,0.6485,-0.0137,0.000000,0.572175,-0.562971,0.564505,-0.592117,0.575243,-0.556835
0.5871,0.016777,0.000000,-0.297828,0.297828,0.0000,0.0000,0.0000,-0.002426,-0.312932,0.309864,0.3500,0.6485,-0.0137,0.000000,0.573709,-0.562971,0.564505,-0.592117,0.575243,-0.556835
0.6039,0.016756,0.000000,-0.296366,0.296366,0.0000,0.0000,0.0000,-0.002417,-0.312932,0.309864,0.3943,0.6317,0.0517,0.000000,0.573709,-0.562971,0.564505,-0.592117,0.575243,-0.556835
0.6206,0.016748,0.000000,-0.294905,0.294905,0.0000,0.0000,0.0000,-0.002418,-0.312932,0.309864,0.4290,0.5670,0.1523,0.000000,0.575243,-0.562971,0.564505,-0.590583,0.575243,-0.556835
0.6374,0.016751,0.000000,-0.293443,0.293443,0.0000,0.0000,0.0000,-0.002418,-0.312932,0.309864,0.4254,0.5738,0.1419,0.000000,0.575243,-0.562971,0.564505,-0.590583,0.575243,-0.556835
0.6542,0.016757,0.000000,-0.291980,0.291980,0.0000,0.0000,0.0000,-0.002406,-0.312932,0.309864,0.4756,0.5575,0.1967,0.000000,0.576777,-0.562971,0.564505,-0.590583,0.575243,-0.556835
0.6709,0.016753,0.000000,-0.290518,0.290518,0.0000,0.0000,0.0000,-0.002409,-0.312932,0.309864,0.4419,0.6456,0.1904,0.000000,0.576777,-0.561437,0.564505,-0.592117,0.575243,-0.556835
0.6877,0.016771,0.000000,-0.289055,0.289055,0.0000,0.0000,0.0000,-0.002408,-0.311398,0.309864,0.4454,0.6364,0.1911,0.000000,0.576777,-0.561437,0.564505,-0.592117,0.575243,-0.556835
0.7044,0.016755,0.000000,-0.287593,0.287593,0.0000,0.0000,0.0000,-0.002408,-0.311398,0.309864,0.4454,0.6364,0.1911,0.000000,0.576777,-0.561437,0.564505,-0.592117,0.575243,-0.556835
0.7212,0.016752,0.000000,-0.286131,0.286131,0.0000,0.0000,0.0000,-0.002395,-0.311398,0.308330,0.5234,0.5355,0.2453,0.000000,0.578311,-0.562971,0.564505,-0.590583,0.575243,-0.556835
0.7379,0.016751,0.000000,-0.284669,0.284669,0.0000,0.0000,0.0000,-0.002410,-0.306796,0.308330,0.4760,0.5816,0.2929,0.000000,0.578311,-0.561437,0.564505,-0.590583,0.575243,-0.556835
0.7547,0.016783,0.000000,-0.283204,0.283204,0.0000,0.0000,0.0000,-0.002408,-0.299126,0.305262,0.4810,0.5768,0.2879,0.000000,0.578311,-0.561437,0.564505,-0.590583,0.575243,-0.556835
0.7715,0.016755,0.000000,-0.281742,0.281742,0.0000,0.0000,0.0000,-0.002397,-0.291456,0.300660,0.4911,0.6281,0.2348,0.000000,0.578311,-0.561437,0.564505,-0.592117,0.575243,-0.556835
0.7882,0.016765,0.000000,-0.280279,0.280279,0.0000,0.0000,0.0000,-0.002397,-0.291456,0.300660,0.4911,0.6281,0.2348,0.000000,0.578311,-0.561437,0.564505,-0.592117,0.575243,-0.556835
0.8050,0.016757,0.000000,-0.278817,0.278817,0.0000,0.0000,0.0000,-0.002385,-0.286854,0.294524,0.5293,0.5871,0.1871,0.000000,0.578311,-0.562971,0.564505,-0.592117,0.575243,-0.556835
0.8217,0.016756,0.000000,-0.277355,0.277355,0.0000,0.0000,0.0000,-0.002398,-0.283786,0.288388,0.5146,0.5406,0.2458,0.000000,0.578311,-0.562971,0.564505,-0.590583,0.575243,-0.556835
0.8385,0.016756,0.000000,-0.275893,0.275893,0.0000,0.0000,0.0000,-0.002385,-0.283786,0.285320,0.5268,0.5963,0.1860,0.000000,0.578311,-0.562971,0.564505,-0.592117,0.575243,-0.556835
0.8553,0.016754,0.000000,-0.274430,0.274430,0.0000,0.0000,0.0000,-0.002398,-0.283786,0.282252,0.5149,0.5397,0.2459,0.000000,0.578311,-0.562971,0.564505,-0.590583,0.575243,-0.556835
0.8720,0.016767,0.000000,-0.272967,0.272967,0.0000,0.0000,0.0000,-0.002409,-0.283786,0.282252,0.4769,0.5811,0.2928,0.000000,0.578311,-0.561437,0.564505,-0.590583,0.575243,-0.556835
0.8888,0.016756,0.000000,-0.271505,0.271505,0.0000,0.0000,0.0000,-0.002409,-0.283786,0.282252,0.4769,0.5811,0.2928,0.000000,0.578311,-0.561437,0.564505,-0.590583,0.575243,-0.556835
0.9055,0.016756,0.000000,-0.270043,0.270043,0.0000,0.0000,0.0000,-0.002408,-0.283786,0.282252,0.4809,0.5768,0.2880,0.000000,0.578311,-0.561437,0.564505,-0.590583,0.575243,-0.556835
0.9223,0.016757,0.000000,-0.268580,0.268580,0.0000,0.0000,0.0000,-0.002395,-0.283786,0.282252,0.5197,0.5417,0.2353,0.000000,0.578311,-0.562971,0.564505,-0.590583,0.575243,-0.556835
0.9390,0.016755,0.000000,-0.267118,0.267118,0.0000,0.0000,0.0000,-0.002397,-0.283786,0.282252,0.5156,0.5453,0.2408,0.000000,0.578311,-0.562971,0.564505,-0.590583,0.575243,-0.556835
0.9558,0.016756,0.000000,-0.265656,0.265656,0.0000,0.0000,0.0000,-0.002397,-0.283786,0.282252,0.5156,0.5453,0.2408,0.000000,0.578311,-0.562971,0.564505,-0.590583,0.575243,-0.556835
0.9726,0.016770,0.000000,-0.264193,0.264193,0.0000,0.0000,0.0000,-0.002385,-0.282252,0.282252,0.5267,0.5958,0.1865,0.000000,0.578311,-0.562971,0.564505,-0.592117,0.575243,-0.556835
0.9893,0.016763,0.000000,-0.262730,0.262730,0.0000,0.0000,0.0000,-0.002385,-0.282252,0.282252,0.5267,0.5958,0.1865,0.000000,0.578311,-0.562971,0.564505,-0.592117,0.575243,-0.556835
1.0061,0.016754,0.000000,-0.261268,0.261268,0.0000,0.0000,0.0000,-0.002411,-0.282252,0.282252,0.4757,0.5753,0.2990,0.000000,0.578311,-0.561437,0.564505,-0.590583,0.575243,-0.556835
1.0228,0.016756,0.000000,-0.259805,0.259805,0.0000,0.0000,0.0000,-0.002395,-0.282252,0.280718,0.5202,0.5418,0.2341,0.000000,0.578311,-0.562971,0.564505,-0.590583,0.575243,-0.556835
1.0396,0.016757,0.000000,-0.258343,0.258343,0.0000,0.0000,0.0000,-0.002397,-0.282252,0.280718,0.5156,0.5453,0.2409,0.000000,0.578311,-0.562971,0.564505,-0.590583,0.575243,-0.556835
1.0569,0.017318,0.000000,-0.256832,0.256832,0.0000,0.0000,0.0000,-0.002397,-0.280718,0.279185,0.5156,0.5453,0.2409,0.000000,0.578311,-0.562971,0.564505,-0.590583,0.575243,-0.556835
1.0737,0.016757,0.000000,-0.255369,0.255369,0.0000,0.0000,0.0000,-0.002397,-0.280718,0.279185,0.5156,0.5453,0.2409,0.000000,0.578311,-0.562971,0.564505,-0.590583,0.575243,-0.556835
1.0904,0.016761,0.000000,-0.253907,0.253907,0.0000,0.0000,0.0000,-0.002385,-0.273049,0.276117,0.5267,0.5958,0.1865,0.000000,0.578311,-0.562971,0.564505,-0.592117,0.575243,-0.556835
1.1072,0.016760,0.000000,-0.252444,0.252444,0.0000,0.0000,0.0000,-0.002398,-0.263845,0.269981,0.5149,0.5397,0.2458,0.000000,0.578311,-0.562971,0.564505,-0.590583,0.575243,-0.556835
1.1240,0.016776,0.000000,-0.250980,0.250980,0.0000,0.0000,0.0000,-0.002385,-0.259243,0.263845,0.5268,0.5964,0.1860,0.000000,0.578311,-0.562971,0.564505,-0.592117,0.575243,-0.556835
1.1407,0.016750,0.000000,-0.249519,0.249519,0.0000,0.0000,0.0000,-0.002386,-0.256175,0.257709,0.5256,0.5905,0.1922,0.000000,0.578311,-0.562971,0.564505,-0.592117,0.575243,-0.556835
1.1582,0.017500,0.000000,-0.247991,0.247991,0.0000,0.0000,0.0000,-0.002386,-0.256175,0.257709,0.5256,0.5905,0.1922,0.000000,0.578311,-0.562971,0.564505,-0.592117,0.575243,-0.556835
1.1751,0.016882,0.000000,-0.246518,0.246518,0.0000,0.0000,0.0000,-0.002398,-0.256175,0.254641,0.5150,0.5403,0.2452,0.000000,0.578311,-0.562971,0.564505,-0.590583,0.575243,-0.556835
1.1919,0.016751,0.000000,-0.245056,0.245056,0.0000,0.0000,0.0000,-0.002397,-0.256175,0.254641,0.5161,0.5455,0.2397,0.000000,0.578311,-0.562971,0.564505,-0.590583,0.575243,-0.556835
1.2086,0.016749,0.000000,-0.243595,0.243595,0.0000,0.0000,0.0000,-0.002385,-0.256175,0.254641,0.5267,0.5958,0.1866,0.000000,0.578311,-0.562971,0.564505,-0.592117,0.575243,-0.556835
1.2254,0.016757,0.000000,-0.242132,0.242132,0.0000,0.0000,0.0000,-0.002386,-0.256175,0.254641,0.5256,0.5905,0.1921,0.000000,0.578311,-0.562971,0.564505,-0.592117,0.575243,-0.556835
1.2421,0.016780,0.000000,-0.240668,0.240668,0.0000,0.0000,0.0000,-0.002398,-0.256175,0.254641,0.5150,0.5403,0.2452,0.000000,0.578311,-0.562971,0.564505,-0.590583,0.575243,-0.556835
1.2589,0.016763,0.000000,-0.239205,0.239205,0.0000,0.0000,0.0000,-0.002398,-0.256175,0.254641,0.5150,0.5403,0.2452,0.000000,0.578311,-0.562971,0.564505,-0.590583,0.575243,-0.556835
1.2757,0.016764,0.000000,-0.237742,0.237742,0.0000,0.0000,0.0000,-0.002385,-0.256175,0.254641,0.5268,0.5963,0.1860,0.000000,0.578311,-0.562971,0.564505,-0.592117,0.575243,-0.556835
1.2924,0.016756,0.000000,-0.236280,0.236280,0.0000,0.0000,0.0000,-0.002386,-0.256175,0.253107,0.5256,0.5905,0.1922,0.000000,0.578311,-0.562971,0.564505,-0.592117,0.575243,-0.556835
1.3093,0.016904,0.000000,-0.234805,0.234805,0.0000,0.0000,0.0000,-0.002411,-0.254641,0.253107,0.4758,0.5759,0.2984,0.000000,0.578311,-0.561437,0.564505,-0.590583,0.575243,-0.556835
1.3261,0.016751,0.000000,-0.233343,0.233343,0.0000,0.0000,0.0000,-0.002395,-0.253107,0.253107,0.5202,0.5418,0.2342,0.000000,0.578311,-0.562971,0.564505,-0.590583,0.575243,-0.556835
1.3430,0.016957,0.000000,-0.231863,0.231863,0.0000,0.0000,0.0000,-0.002397,-0.245437,0.250039,0.5156,0.5453,0.2409,0.000000,0.578311,-0.562971,0.564505,-0.590583,0.575243,-0.556835
1.3598,0.016760,0.000000,-0.230401,0.230401,0.0000,0.0000,0.0000,-0.002397,-0.245437,0.250039,0.5156,0.5453,0.2409,0.000000,0.578311,-0.562971,0.564505,-0.590583,0.575243,-0.556835
1.3766,0.016762,0.000000,-0.228938,0.228938,0.0000,0.0000,0.0000,-0.002398,-0.236233,0.246971,0.4875,0.6314,0.2397,0.000000,0.578311,-0.561437,0.564505,-0.592117,0.575243,-0.556835
1.3933,0.016747,0.000000,-0.227477,0.227477,0.0000,0.0000,0.0000,-0.002385,-0.233165,0.240835,0.5297,0.5868,0.1866,0.000000,0.578311,-0.562971,0.564505,-0.592117,0.575243,-0.556835
1.4101,0.016762,0.000000,-0.226014,0.226014,0.0000,0.0000,0.0000,-0.002386,-0.233165,0.237767,0.5253,0.5914,0.1921,0.000000,0.578311,-0.562971,0.564505,-0.592117,0.575243,-0.556835
1.4268,0.016753,0.000000,-0.224552,0.224552,0.0000,0.0000,0.0000,-0.002398,-0.233165,0.231631,0.5150,0.5402,0.2452,0.000000,0.578311,-0.562971,0.564505,-0.590583,0.575243,-0.556835
1.4436,0.016758,0.000000,-0.223090,0.223090,0.0000,0.0000,0.0000,-0.002397,-0.231631,0.230097,0.5161,0.5455,0.2397,0.000000,0.578311,-0.562971,0.564505,-0.590583,0.575243,-0.556835
1.4603,0.016758,0.000000,-0.221627,0.221627,0.0000,0.0000,0.0000,-0.002397,-0.231631,0.230097,0.5161,0.5455,0.2397,0.000000,0.578311,-0.562971,0.564505,-0.590583,0.575243,-0.556835
1.4771,0.016762,0.000000,-0.220164,0.220164,0.0000,0.0000,0.0000,-0.002385,-0.230097,0.228563,0.5267,0.5958,0.1866,0.000000,0.578311,-0.562971,0.564505,-0.592117,0.575243,-0.556835
1.4939,0.016759,0.000000,-0.218702,0.218702,0.0000,0.0000,0.0000,-0.002398,-0.228563,0.228563,0.5149,0.5397,0.2458,0.000000,0.578311,-0.562971,0.564505,-0.590583,0.575243,-0.556835
1.5109,0.017016,0.000000,-0.217217,0.217217,0.0000,0.0000,0.0000,-0.002385,-0.228563,0.228563,0.5268,0.5964,0.1860,0.000000,0.578311,-0.562971,0.564505,-0.592117,0.575243,-0.556835
1.5276,0.016763,0.000000,-0.215754,0.215754,0.0000,0.0000,0.0000,-0.002386,-0.228563,0.228563,0.5256,0.5905,0.1922,0.000000,0.578311,-0.562971,0.564505,-0.592117,0.575243,-0.556835
1.5444,0.016776,0.000000,-0.214290,0.214290,0.0000,0.0000,0.0000,-0.002386,-0.228563,0.227029,0.5256,0.5905,0.1922,0.000000,0.578311,-0.562971,0.564505,-0.592117,0.575243,-0.556835
1.5612,0.016748,0.000000,-0.212829,0.212829,0.0000,0.0000,0.0000,-0.002386,-0.228563,0.227029,0.5256,0.5905,0.1922,0.000000,0.578311,-0.562971,0.564505,-0.592117,0.575243,-0.556835
1.5779,0.016757,0.000000,-0.211366,0.211366,0.0000,0.0000,0.0000,-0.002398,-0.228563,0.227029,0.5150,0.5403,0.2452,0.000000,0.578311,-0.562971,0.564505,-0.590583,0.575243,-0.556835
1.5947,0.016746,0.000000,-0.209905,0.209905,0.0000,0.0000,0.0000,-0.002385,-0.227029,0.227029,0.5268,0.5963,0.1860,0.000000,0.578311,-0.562971,0.564505,-0.592117,0.575243,-0.556835
1.6114,0.016759,0.000000,-0.208442,0.208442,0.0000,0.0000,0.0000,-0.002398,-0.222427,0.227029,0.5149,0.5397,0.2459,0.000000,0.578311,-0.562971,0.564505,-0.590583,0.575243,-0.556835
1.6282,0.016749,0.000000,-0.206981,0.206981,0.0000,0.0000,0.0000,-0.002385,-0.213223,0.225495,0.5268,0.5964,0.1860,0.000000,0.578311,-0.562971,0.564505,-0.592117,0.575243,-0.556835
1.6449,0.016760,0.000000,-0.205518,0.205518,0.0000,0.0000,0.0000,-0.002386,-0.208621,0.222427,0.5256,0.5905,0.1922,0.000000,0.578311,-0.562971,0.564505,-0.592117,0.575243,-0.556835
1.6617,0.016760,0.000000,-0.204056,0.204056,0.0000,0.0000,0.0000,-0.002386,-0.208621,0.222427,0.5256,0.5905,0.1922,0.000000,0.578311,-0.562971,0.564505,-0.592117,0.575243,-0.556835
1.6784,0.016753,0.000000,-0.202594,0.202594,0.0000,0.0000,0.0000,-0.002398,-0.208621,0.217825,0.5150,0.5403,0.2452,0.000000,0.578311,-0.562971,0.564505,-0.590583,0.575243,-0.556835
1.6953,0.016807,0.000000,-0.201127,0.201127,0.0000,0.0000,0.0000,-0.002385,-0.207087,0.213223,0.5268,0.5963,0.1860,0.000000,0.578311,-0.562971,0.564505,-0.592117,0.575243,-0.556835
1.7120,0.016751,0.000000,-0.199665,0.199665,0.0000,0.0000,0.0000,-0.002411,-0.205553,0.208621,0.4757,0.5753,0.2991,0.000000,0.578311,-0.561437,0.564505,-0.590583,0.575243,-0.556835
1.7290,0.016974,0.000000,-0.198184,0.198184,0.0000,0.0000,0.0000,-0.002395,-0.205553,0.205553,0.5202,0.5418,0.2341,0.000000,0.578311,-0.562971,0.564505,-0.590583,0.575243,-0.556835
1.7458,0.016772,0.000000,-0.196720,0.196720,0.0000,0.0000,0.0000,-0.002395,-0.205553,0.205553,0.5202,0.5418,0.2341,0.000000,0.578311,-0.562971,0.564505,-0.590583,0.575243,-0.556835
1.7625,0.016755,0.000000,-0.195258,0.195258,0.0000,0.0000,0.0000,-0.002385,-0.204019,0.202485,0.5262,0.5961,0.1872,0.000000,0.578311,-0.562971,0.564505,-0.592117,0.575243,-0.556835
1.7793,0.016756,0.000000,-0.193796,0.193796,0.0000,0.0000,0.0000,-0.002398,-0.202485,0.202485,0.5149,0.5397,0.2458,0.000000,0.578311,-0.562971,0.564505,-0.590583,0.575243,-0.556835
1.7960,0.016762,0.000000,-0.192333,0.192333,0.0000,0.0000,0.0000,-0.002397,-0.200951,0.200951,0.5161,0.5455,0.2397,0.000000,0.578311,-0.562971,0.564505,-0.590583,0.575243,-0.556835
1.8128,0.016762,0.000000,-0.190870,0.190870,0.0000,0.0000,0.0000,-0.002397,-0.200951,0.200951,0.5161,0.5455,0.2397,0.000000,0.578311,-0.562971,0.564505,-0.590583,0.575243,-0.556835
1.8295,0.016754,0.000000,-0.189408,0.189408,0.0000,0.0000,0.0000,-0.002397,-0.200951,0.199418,0.5161,0.5455,0.2397,0.000000,0.578311,-0.562971,0.564505,-0.590583,0.575243,-0.556835
1.8463,0.016771,0.000000,-0.187945,0.187945,0.0000,0.0000,0.0000,-0.002397,-0.200951,0.199418,0.5161,0.5455,0.2397,0.000000,0.578311,-0.562971,0.564505,-0.590583,0.575243,-0.556835
1.8631,0.016753,0.000000,-0.186483,0.186483,0.0000,0.0000,0.0000,-0.002385,-0.200951,0.199418,0.5267,0.5958,0.1866,0.000000,0.578311,-0.562971,0.564505,-0.592117,0.575243,-0.556835
1.8798,0.016753,0.000000,-0.185021,0.185021,0.0000,0.0000,0.0000,-0.002386,-0.200951,0.199418,0.5256,0.5905,0.1921,0.000000,0.578311,-0.562971,0.564505,-0.592117,0.575243,-0.556835
1.8966,0.016756,0.000000,-0.183559,0.183559,0.0000,0.0000,0.0000,-0.002399,-0.200951,0.199418,0.4865,0.6267,0.2447,0.000000,0.578311,-0.561437,0.564505,-0.592117,0.575243,-0.556835
1.9133,0.016759,0.000000,-0.182096,0.182096,0.0000,0.0000,0.0000,-0.002396,-0.199418,0.199418,0.5191,0.5365,0.2398,0.000000,0.578311,-0.562971,0.564505,-0.590583,0.575243,-0.556835
1.9301,0.016764,0.000000,-0.180633,0.180633,0.0000,0.0000,0.0000,-0.002385,-0.196350,0.197884,0.5263,0.5967,0.1866,0.000000,0.578311,-0.562971,0.564505,-0.592117,0.575243,-0.556835
1.9469,0.016765,0.000000,-0.179170,0.179170,0.0000,0.0000,0.0000,-0.002385,-0.196350,0.197884,0.5263,0.5967,0.1866,0.000000,0.578311,-0.562971,0.564505,-0.592117,0.575243,-0.556835
1.9636,0.016753,0.000000,-0.177708,0.177708,0.0000,0.0000,0.0000,-0.002398,-0.188680,0.197884,0.5149,0.5396,0.2458,0.000000,0.578311,-0.562971,0.564505,-0.590583,0.575243,-0.556835
1.9804,0.016757,0.000000,-0.176246,0.176246,0.0000,0.0000,0.0000,-0.002385,-0.182544,0.196350,0.5268,0.5964,0.1860,0.000000,0.578311,-0.562971,0.564505,-0.592117,0.575243,-0.556835
1.9971,0.016765,0.000000,-0.174783,0.174783,0.0000,0.0000,0.0000,-0.002398,-0.182544,0.193282,0.5149,0.5397,0.2459,0.000000,0.578311,-0.562971,0.564505,-0.590583,0.575243,-0.556835
2.0140,0.016911,0.000000,-0.173307,0.173307,0.0000,0.0000,0.0000,-0.002409,-0.181010,0.190214,0.4769,0.5811,0.2928,0.000000,0.578311,-0.561437,0.564505,-0.590583,0.575243,-0.556835
2.0308,0.016769,0.000000,-0.171844,0.171844,0.0000,0.0000,0.0000,-0.002409,-0.181010,0.190214,0.4769,0.5811,0.2928,0.000000,0.578311,-0.561437,0.564505,-0.590583,0.575243,-0.556835
2.0476,0.016762,0.000000,-0.170381,0.170381,0.0000,0.0000,0.0000,-0.002395,-0.177942,0.182544,0.5201,0.5412,0.2347,0.000000,0.578311,-0.562971,0.564505,-0.590583,0.575243,-0.556835
2.0643,0.016758,0.000000,-0.168919,0.168919,0.0000,0.0000,0.0000,-0.002397,-0.177942,0.174874,0.5156,0.5454,0.2408,0.000000,0.578311,-0.562971,0.564505,-0.590583,0.575243,-0.556835
2.0811,0.016755,0.000000,-0.167456,0.167456,0.0000,0.0000,0.0000,-0.002397,-0.176408,0.171806,0.5156,0.5454,0.2408,0.000000,0.578311,-0.562971,0.564505,-0.590583,0.575243,-0.556835
2.0978,0.016752,0.000000,-0.165994,0.165994,0.0000,0.0000,0.0000,-0.002397,-0.174874,0.171806,0.5156,0.5454,0.2408,0.000000,0.578311,-0.562971,0.564505,-0.590583,0.575243,-0.556835
2.1146,0.016755,0.000000,-0.164532,0.164532,0.0000,0.0000,0.0000,-0.002397,-0.174874,0.171806,0.5156,0.5454,0.2408,0.000000,0.578311,-0.562971,0.564505,-0.590583,0.575243,-0.556835
2.1314,0.016755,0.000000,-0.163070,0.163070,0.0000,0.0000,0.0000,-0.002397,-0.174874,0.171806,0.5156,0.5454,0.2408,0.000000,0.578311,-0.562971,0.564505,-0.590583,0.575243,-0.556835
2.1481,0.016771,0.000000,-0.161607,0.161607,0.0000,0.0000,0.0000,-0.002397,-0.174874,0.171806,0.5156,0.5454,0.2408,0.000000,0.578311,-0.562971,0.564505,-0.590583,0.575243,-0.556835
2.1649,0.016749,0.000000,-0.160145,0.160145,0.0000,0.0000,0.0000,-0.002397,-0.174874,0.171806,0.5156,0.5454,0.2408,0.000000,0.578311,-0.562971,0.564505,-0.590583,0.575243,-0.556835
2.1816,0.016770,0.000000,-0.158682,0.158682,0.0000,0.0000,0.0000,-0.002397,-0.174874,0.171806,0.5156,0.5454,0.2408,0.000000,0.578311,-0.562971,0.564505,-0.590583,0.575243,-0.556835
2.1984,0.016767,0.000000,-0.157218,0.157218,0.0000,0.0000,0.0000,-0.002397,-0.173340,0.170272,0.5156,0.5454,0.2408,0.000000,0.578311,-0.562971,0.564505,-0.590583,0.575243,-0.556835
2.2152,0.016769,0.000000,-0.155755,0.155755,0.0000,0.0000,0.0000,-0.002398,-0.173340,0.170272,0.4875,0.6314,0.2397,0.000000,0.578311,-0.561437,0.564505,-0.592117,0.575243,-0.556835
2.2319,0.016758,0.000000,-0.154293,0.154293,0.0000,0.0000,0.0000,-0.002398,-0.173340,0.170272,0.4875,0.6314,0.2397,0.000000,0.578311,-0.561437,0.564505,-0.592117,0.575243,-0.556835
2.2487,0.016760,0.000000,-0.152830,0.152830,0.0000,0.0000,0.0000,-0.002396,-0.167204,0.170272,0.5190,0.5360,0.2403,0.000000,0.578311,-0.562971,0.564505,-0.590583,0.575243,-0.556835
2.2655,0.016754,0.000000,-0.151368,0.151368,0.0000,0.0000,0.0000,-0.002397,-0.159534,0.168738,0.5157,0.5459,0.2402,0.000000,0.578311,-0.562971,0.564505,-0.590583,0.575243,-0.556835
2.2822,0.016755,0.000000,-0.149906,0.149906,0.0000,0.0000,0.0000,-0.002409,-0.156466,0.165670,0.4768,0.5805,0.2934,0.000000,0.578311,-0.561437,0.564505,-0.590583,0.575243,-0.556835
2.2989,0.016720,0.000000,-0.148447,0.148447,0.0000,0.0000,0.0000,-0.002395,-0.156466,0.161068,0.5201,0.5413,0.2347,0.000000,0.578311,-0.562971,0.564505,-0.590583,0.575243,-0.556835
2.3157,0.016776,0.000000,-0.146983,0.146983,0.0000,0.0000,0.0000,-0.002385,-0.153398,0.154932,0.5262,0.5962,0.1871,0.000000,0.578311,-0.562971,0.564505,-0.592117,0.575243,-0.556835
2.3325,0.016756,0.000000,-0.145521,0.145521,0.0000,0.0000,0.0000,-0.002385,-0.153398,0.154932,0.5262,0.5962,0.1871,0.000000,0.578311,-0.562971,0.564505,-0.592117,0.575243,-0.556835
2.3492,0.016755,0.000000,-0.144058,0.144058,0.0000,0.0000,0.0000,-0.002398,-0.151864,0.148796,0.5149,0.5397,0.2458,0.000000,0.578311,-0.562971,0.564505,-0.590583,0.575243,-0.556835
2.3660,0.016755,0.000000,-0.142596,0.142596,0.0000,0.0000,0.0000,-0.002409,-0.153398,0.147262,0.4769,0.5811,0.2929,0.000000,0.578311,-0.561437,0.564505,-0.590583,0.575243,-0.556835
2.3827,0.016764,0.000000,-0.141133,0.141133,0.0000,0.0000,0.0000,-0.002395,-0.151864,0.148796,0.5201,0.5412,0.2347,0.000000,0.578311,-0.562971,0.564505,-0.590583,0.575243,-0.556835
2.3996,0.016820,0.000000,-0.139665,0.139665,0.0000,0.0000,0.0000,-0.002398,-0.148796,0.147262,0.4871,0.6318,0.2403,0.000000,0.578311,-0.561437,0.564505,-0.592117,0.575243,-0.556835
2.4163,0.016782,0.000000,-0.138201,0.138201,0.0000,0.0000,0.0000,-0.002398,-0.148796,0.147262,0.4871,0.6318,0.2403,0.000000,0.578311,-0.561437,0.564505,-0.592117,0.575243,-0.556835
2.4331,0.016751,0.000000,-0.136739,0.136739,0.0000,0.0000,0.0000,-0.002396,-0.147262,0.145728,0.5190,0.5360,0.2402,0.000000,0.578311,-0.562971,0.564505,-0.590583,0.575243,-0.556835
2.4498,0.016760,0.000000,-0.135277,0.135277,0.0000,0.0000,0.0000,-0.002397,-0.147262,0.145728,0.5157,0.5459,0.2402,0.000000,0.578311,-0.562971,0.564505,-0.590583,0.575243,-0.556835
2.4667,0.016866,0.000000,-0.133805,0.133805,0.0000,0.0000,0.0000,-0.002397,-0.145728,0.144194,0.5162,0.5446,0.2402,0.000000,0.578311,-0.562971,0.564505,-0.590583,0.575243,-0.556835
2.4835,0.016766,0.000000,-0.132342,0.132342,0.0000,0.0000,0.0000,-0.002385,-0.145728,0.145728,0.5267,0.5959,0.1865,0.000000,0.578311,-0.562971,0.564505,-0.592117,0.575243,-0.556835
2.5002,0.016751,0.000000,-0.130880,0.130880,0.0000,0.0000,0.0000,-0.002386,-0.145728,0.144194,0.5256,0.5905,0.1921,0.000000,0.578311,-0.562971,0.564505,-0.592117,0.575243,-0.556835
2.5170,0.016778,0.000000,-0.129416,0.129416,0.0000,0.0000,0.0000,-0.002386,-0.141126,0.144194,0.5256,0.5905,0.1921,0.000000,0.578311,-0.562971,0.564505,-0.590583,0.575243,-0.556835
2.5338,0.016771,0.000000,-0.127952,0.127952,0.0000,0.0000,0.0000,-0.002398,-0.141126,0.144194,0.5150,0.5403,0.2452,0.000000,0.578311,-0.562971,0.564505,-0.590583,0.575243,-0.556835
2.5505,0.016752,0.000000,-0.126490,0.126490,0.0000,0.0000,0.0000,-0.002385,-0.133456,0.141126,0.5268,0.5963,0.1860,0.000000,0.578311,-0.562971,0.564505,-0.592117,0.575243,-0.556835
2.5673,0.016755,0.000000,-0.125028,0.125028,0.0000,0.0000,0.0000,-0.002386,-0.133456,0.141126,0.5256,0.5905,0.1922,0.000000,0.578311,-0.562971,0.564505,-0.592117,0.575243,-0.556835
2.5840,0.016753,0.000000,-0.123566,0.123566,0.0000,0.0000,0.0000,-0.002398,-0.131922,0.130388,0.5150,0.5403,0.2452,0.000000,0.578311,-0.562971,0.564505,-0.590583,0.575243,-0.556835
2.6009,0.016857,0.000000,-0.122095,0.122095,0.0000,0.0000,0.0000,-0.002385,-0.127320,0.124252,0.5268,0.5963,0.1860,0.000000,0.578311,-0.562971,0.564505,-0.592117,0.575243,-0.556835
2.6177,0.016812,0.000000,-0.120628,0.120628,0.0000,0.0000,0.0000,-0.002385,-0.125786,0.122718,0.5268,0.5963,0.1860,0.000000,0.578311,-0.562971,0.564505,-0.590583,0.575243,-0.556835
2.6345,0.016771,0.000000,-0.119164,0.119164,0.0000,0.0000,0.0000,-0.002398,-0.125786,0.122718,0.5149,0.5397,0.2459,0.000000,0.578311,-0.562971,0.564505,-0.590583,0.575243,-0.556835
2.6512,0.016760,0.000000,-0.117702,0.117702,0.0000,0.0000,0.0000,-0.002397,-0.125786,0.122718,0.5161,0.5456,0.2396,0.000000,0.578311,-0.562971,0.564505,-0.590583,0.575243,-0.556835
2.6680,0.016756,0.000000,-0.116240,0.116240,0.0000,0.0000,0.0000,-0.002397,-0.124252,0.122718,0.5161,0.5456,0.2396,0.000000,0.578311,-0.562971,0.564505,-0.590583,0.575243,-0.556835
2.6848,0.016767,0.000000,-0.114776,0.114776,0.0000,0.0000,0.0000,-0.002385,-0.122718,0.121184,0.5658,0.5295,0.2941,0.000000,0.579845,-0.562971,0.564505,-0.590583,0.575243,-0.556835
2.7015,0.016762,0.000000,-0.113314,0.113314,0.0000,0.0000,0.0000,-0.002386,-0.119651,0.118117,0.5215,0.5974,0.1809,0.000000,0.578311,-0.562971,0.564505,-0.592117,0.575243,-0.556835
2.7183,0.016765,0.000000,-0.111851,0.111851,0.0000,0.0000,0.0000,-0.002386,-0.119651,0.118117,0.5215,0.5974,0.1809,0.000000,0.578311,-0.562971,0.564505,-0.592117,0.575243,-0.556835
2.7350,0.016761,0.000000,-0.110388,0.110388,0.0000,0.0000,0.0000,-0.002386,-0.119651,0.116583,0.5261,0.5903,0.1927,0.000000,0.578311,-0.562971,0.564505,-0.592117,0.575243,-0.556835
2.7518,0.016751,0.000000,-0.108926,0.108926,0.0000,0.0000,0.0000,-0.002411,-0.119651,0.116583,0.4758,0.5759,0.2984,0.000000,0.578311,-0.561437,0.564505,-0.590583,0.575243,-0.556835
2.7685,0.016745,0.000000,-0.107465,0.107465,0.0000,0.0000,0.0000,-0.002395,-0.118117,0.115049,0.5202,0.5418,0.2342,0.000000,0.578311,-0.562971,0.564505,-0.590583,0.575243,-0.556835
2.7853,0.016744,0.000000,-0.106004,0.106004,0.0000,0.0000,0.0000,-0.002385,-0.113515,0.115049,0.5262,0.5962,0.1872,0.000000,0.578311,-0.562971,0.564505,-0.592117,0.575243,-0.556835
2.8020,0.016738,0.000000,-0.104543,0.104543,0.0000,0.0000,0.0000,-0.002398,-0.108913,0.113515,0.5149,0.5397,0.2458,0.000000,0.578311,-0.562971,0.564505,-0.590583,0.575243,-0.556835
2.8188,0.016754,0.000000,-0.103081,0.103081,0.0000,0.0000,0.0000,-0.002398,-0.108913,0.113515,0.5149,0.5397,0.2458,0.000000,0.578311,-0.562971,0.564505,-0.590583,0.575243,-0.556835
2.8355,0.016751,0.000000,-0.101619,0.101619,0.0000,0.0000,0.0000,-0.002385,-0.110447,0.111981,0.5268,0.5964,0.1860,0.000000,0.578311,-0.562971,0.564505,-0.592117,0.575243,-0.556835
2.8523,0.016742,0.000000,-0.100158,0.100158,0.0000,0.0000,0.0000,-0.002398,-0.108913,0.108913,0.5149,0.5397,0.2459,0.000000,0.578311,-0.562971,0.564505,-0.590583,0.575243,-0.556835
2.8690,0.016742,0.000000,-0.098697,0.098697,0.0000,0.0000,0.0000,-0.002397,-0.105845,0.102777,0.5161,0.5456,0.2396,0.000000,0.578311,-0.562971,0.564505,-0.590583,0.575243,-0.556835
2.8858,0.016744,0.000000,-0.097236,0.097236,0.0000,0.0000,0.0000,-0.002397,-0.102777,0.099709,0.5161,0.5456,0.2396,0.000000,0.578311,-0.562971,0.564505,-0.590583,0.575243,-0.556835
2.9025,0.016774,0.000000,-0.095772,0.095772,0.0000,0.0000,0.0000,-0.002385,-0.101243,0.098175,0.5267,0.5958,0.1866,0.000000,0.578311,-0.562971,0.564505,-0.592117,0.575243,-0.556835
2.9193,0.016745,0.000000,-0.094311,0.094311,0.0000,0.0000,0.0000,-0.002385,-0.101243,0.098175,0.5267,0.5958,0.1866,0.000000,0.578311,-0.562971,0.564505,-0.592117,0.575243,-0.556835
2.9360,0.016753,0.000000,-0.092849,0.092849,0.0000,0.0000,0.0000,-0.002398,-0.101243,0.098175,0.5149,0.5397,0.2458,0.000000,0.578311,-0.562971,0.564505,-0.590583,0.575243,-0.556835
2.9528,0.016747,0.000000,-0.091388,0.091388,0.0000,0.0000,0.0000,-0.002409,-0.099709,0.096641,0.4769,0.5811,0.2928,0.000000,0.578311,-0.561437,0.564505,-0.590583,0.575243,-0.556835
2.9695,0.016745,0.000000,-0.089926,0.089926,0.0000,0.0000,0.0000,-0.002395,-0.096641,0.095107,0.5201,0.5412,0.2347,0.000000,0.578311,-0.562971,0.564505,-0.590583,0.575243,-0.556835
2.9863,0.016750,0.000000,-0.088464,0.088464,0.0000,0.0000,0.0000,-0.002385,-0.095107,0.093573,0.5262,0.5962,0.1871,0.000000,0.578311,-0.562971,0.564505,-0.592117,0.575243,-0.556835
3.0030,0.016773,0.000000,-0.087001,0.087001,0.0000,0.0000,0.0000,-0.002386,-0.092039,0.090505,0.5256,0.5905,0.1921,0.000000,0.578311,-0.562971,0.564505,-0.592117,0.575243,-0.556835
3.0198,0.016744,0.000000,-0.085540,0.085540,0.0000,0.0000,0.0000,-0.002386,-0.092039,0.090505,0.5256,0.5905,0.1921,0.000000,0.578311,-0.562971,0.564505,-0.592117,0.575243,-0.556835
3.0365,0.016746,0.000000,-0.084078,0.084078,0.0000,0.0000,0.0000,-0.002398,-0.090505,0.088971,0.5150,0.5403,0.2453,0.000000,0.578311,-0.562971,0.564505,-0.590583,0.575243,-0.556835
3.0533,0.016746,0.000000,-0.082617,0.082617,0.0000,0.0000,0.0000,-0.002409,-0.087437,0.088971,0.4769,0.5811,0.2929,0.000000,0.578311,-0.561437,0.564505,-0.590583,0.575243,-0.556835
3.0700,0.016743,0.000000,-0.081156,0.081156,0.0000,0.0000,0.0000,-0.002395,-0.084369,0.088971,0.5201,0.5412,0.2347,0.000000,0.578311,-0.562971,0.564505,-0.590583,0.575243,-0.556835
3.0868,0.016740,0.000000,-0.079695,0.079695,0.0000,0.0000,0.0000,-0.002397,-0.084369,0.087437,0.5156,0.5454,0.2408,0.000000,0.578311,-0.562971,0.564505,-0.590583,0.575243,-0.556835
3.1035,0.016747,0.000000,-0.078233,0.078233,0.0000,0.0000,0.0000,-0.002398,-0.082835,0.084369,0.4875,0.6314,0.2397,0.000000,0.578311,-0.561437,0.564505,-0.592117,0.575243,-0.556835
3.1203,0.016743,0.000000,-0.076772,0.076772,0.0000,0.0000,0.0000,-0.002398,-0.082835,0.084369,0.4875,0.6314,0.2397,0.000000,0.578311,-0.561437,0.564505,-0.592117,0.575243,-0.556835
3.1370,0.016750,0.000000,-0.075311,0.075311,0.0000,0.0000,0.0000,-0.002385,-0.078233,0.081301,0.5297,0.5868,0.1866,0.000000,0.578311,-0.562971,0.564505,-0.592117,0.575243,-0.556835
3.1538,0.016770,0.000000,-0.073847,0.073847,0.0000,0.0000,0.0000,-0.002398,-0.081301,0.076699,0.5146,0.5407,0.2458,0.000000,0.578311,-0.562971,0.564505,-0.590583,0.575243,-0.556835
3.1705,0.016741,0.000000,-0.072386,0.072386,0.0000,0.0000,0.0000,-0.002409,-0.079767,0.076699,0.4770,0.5810,0.2928,0.000000,0.578311,-0.561437,0.564505,-0.590583,0.575243,-0.556835
3.1873,0.016749,0.000000,-0.070925,0.070925,0.0000,0.0000,0.0000,-0.002395,-0.078233,0.076699,0.5201,0.5412,0.2347,0.000000,0.578311,-0.562971,0.564505,-0.590583,0.575243,-0.556835
3.2040,0.016746,0.000000,-0.069463,0.069463,0.0000,0.0000,0.0000,-0.002397,-0.073631,0.075165,0.5156,0.5454,0.2408,0.000000,0.578311,-0.562971,0.564505,-0.590583,0.575243,-0.556835
3.2208,0.016744,0.000000,-0.068002,0.068002,0.0000,0.0000,0.0000,-0.002397,-0.073631,0.075165,0.5156,0.5454,0.2408,0.000000,0.578311,-0.562971,0.564505,-0.590583,0.575243,-0.556835
3.2375,0.016746,0.000000,-0.066541,0.066541,0.0000,0.0000,0.0000,-0.002397,-0.073631,0.072097,0.5156,0.5454,0.2408,0.000000,0.578311,-0.562971,0.564505,-0.590583,0.575243,-0.556835
3.2542,0.016741,0.000000,-0.065080,0.065080,0.0000,0.0000,0.0000,-0.002397,-0.072097,0.070563,0.5156,0.5454,0.2408,0.000000,0.578311,-0.562971,0.564505,-0.590583,0.575243,-0.556835
3.2710,0.016727,0.000000,-0.063620,0.063620,0.0000,0.0000,0.0000,-0.002397,-0.070563,0.069029,0.5156,0.5454,0.2408,0.000000,0.578311,-0.562971,0.564505,-0.590583,0.575243,-0.556835
3.2877,0.016743,0.000000,-0.062159,0.062159,0.0000,0.0000,0.0000,-0.002397,-0.067495,0.069029,0.5156,0.5454,0.2408,0.000000,0.578311,-0.562971,0.564505,-0.590583,0.575243,-0.556835
3.3045,0.016747,0.000000,-0.060697,0.060697,0.0000,0.0000,0.0000,-0.002385,-0.065961,0.065961,0.5267,0.5958,0.1865,0.000000,0.578311,-0.562971,0.564505,-0.592117,0.575243,-0.556835
3.3212,0.016742,0.000000,-0.059236,0.059236,0.0000,0.0000,0.0000,-0.002385,-0.065961,0.065961,0.5267,0.5958,0.1865,0.000000,0.578311,-0.562971,0.564505,-0.592117,0.575243,-0.556835
3.3380,0.016842,0.000000,-0.057767,0.057767,0.0000,0.0000,0.0000,-0.002398,-0.062893,0.064427,0.5149,0.5397,0.2458,0.000000,0.578311,-0.562971,0.564505,-0.590583,0.575243,-0.556835
3.3548,0.016752,0.000000,-0.056305,0.056305,0.0000,0.0000,0.0000,-0.002373,-0.061359,0.062893,0.5766,0.5809,0.2398,0.000000,0.579845,-0.562971,0.564505,-0.592117,0.575243,-0.556835
3.3715,0.016746,0.000000,-0.054843,0.054843,0.0000,0.0000,0.0000,-0.002388,-0.061359,0.062893,0.5204,0.5920,0.1866,0.000000,0.578311,-0.562971,0.564505,-0.592117,0.575243,-0.556835
3.3883,0.016744,0.000000,-0.053382,0.053382,0.0000,0.0000,0.0000,-0.002386,-0.056757,0.062893,0.5262,0.5909,0.1921,0.000000,0.578311,-0.562971,0.564505,-0.592117,0.575243,-0.556835
3.4053,0.016991,0.000000,-0.051899,0.051899,0.0000,0.0000,0.0000,-0.002399,-0.052155,0.059825,0.4864,0.6266,0.2447,0.000000,0.578311,-0.561437,0.564505,-0.592117,0.575243,-0.556835
3.4222,0.016876,0.000000,-0.050427,0.050427,0.0000,0.0000,0.0000,-0.002399,-0.052155,0.059825,0.4864,0.6266,0.2447,0.000000,0.578311,-0.561437,0.564505,-0.592117,0.575243,-0.556835
3.4389,0.016752,0.000000,-0.048965,0.048965,0.0000,0.0000,0.0000,-0.002396,-0.053689,0.058291,0.5191,0.5365,0.2398,0.000000,0.578311,-0.562971,0.564505,-0.590583,0.575243,-0.556835
3.4557,0.016747,0.000000,-0.047503,0.047503,0.0000,0.0000,0.0000,-0.002385,-0.055223,0.053689,0.5263,0.5967,0.1866,0.000000,0.578311,-0.562971,0.564505,-0.592117,0.575243,-0.556835
3.4724,0.016797,0.000000,-0.046038,0.046038,0.0000,0.0000,0.0000,-0.002398,-0.052155,0.049087,0.5149,0.5396,0.2458,0.000000,0.578311,-0.562971,0.564505,-0.590583,0.575243,-0.556835
3.4892,0.016746,0.000000,-0.044576,0.044576,0.0000,0.0000,0.0000,-0.002385,-0.047553,0.047553,0.5268,0.5964,0.1860,0.000000,0.578311,-0.562971,0.564505,-0.592117,0.575243,-0.556835
3.5061,0.016899,0.000000,-0.043102,0.043102,0.0000,0.0000,0.0000,-0.002386,-0.047553,0.046019,0.5256,0.5905,0.1922,0.000000,0.578311,-0.562971,0.564505,-0.592117,0.575243,-0.556835
3.5228,0.016746,0.000000,-0.041640,0.041640,0.0000,0.0000,0.0000,-0.002386,-0.047553,0.046019,0.5256,0.5905,0.1922,0.000000,0.578311,-0.562971,0.564505,-0.592117,0.575243,-0.556835
3.5396,0.016761,0.000000,-0.040178,0.040178,0.0000,0.0000,0.0000,-0.002398,-0.047553,0.044485,0.5150,0.5403,0.2452,0.000000,0.578311,-0.562971,0.564505,-0.590583,0.575243,-0.556835
3.5563,0.016743,0.000000,-0.038716,0.038716,0.0000,0.0000,0.0000,-0.002397,-0.046019,0.044485,0.5161,0.5455,0.2397,0.000000,0.578311,-0.562971,0.564505,-0.590583,0.575243,-0.556835
3.5731,0.016750,0.000000,-0.037255,0.037255,0.0000,0.0000,0.0000,-0.002397,-0.044485,0.042951,0.5161,0.5455,0.2397,0.000000,0.578311,-0.562971,0.564505,-0.590583,0.575243,-0.556835
3.5898,0.016744,0.000000,-0.035793,0.035793,0.0000,0.0000,0.0000,-0.002385,-0.041417,0.039884,0.5658,0.5295,0.2941,0.000000,0.579845,-0.562971,0.564505,-0.590583,0.575243,-0.556835
3.6066,0.016761,0.000000,-0.034331,0.034331,0.0000,0.0000,0.0000,-0.002386,-0.039884,0.039884,0.5215,0.5974,0.1809,0.000000,0.578311,-0.562971,0.564505,-0.592117,0.575243,-0.556835
3.6233,0.016742,0.000000,-0.032870,0.032870,0.0000,0.0000,0.0000,-0.002386,-0.039884,0.039884,0.5215,0.5974,0.1809,0.000000,0.578311,-0.562971,0.564505,-0.592117,0.575243,-0.556835
3.6401,0.016751,0.000000,-0.031408,0.031408,0.0000,0.0000,0.0000,-0.002386,-0.038350,0.036816,0.5261,0.5903,0.1927,0.000000,0.578311,-0.562971,0.564505,-0.592117,0.575243,-0.556835
3.6568,0.016746,0.000000,-0.029947,0.029947,0.0000,0.0000,0.0000,-0.002398,-0.035282,0.036816,0.5150,0.5403,0.2452,0.000000,0.578311,-0.562971,0.564505,-0.590583,0.575243,-0.556835
3.6736,0.016764,0.000000,-0.028484,0.028484,0.0000,0.0000,0.0000,-0.002409,-0.033748,0.036816,0.4769,0.5811,0.2929,0.000000,0.578311,-0.561437,0.564505,-0.590583,0.575243,-0.556835
3.6904,0.016749,0.000000,-0.027022,0.027022,0.0000,0.0000,0.0000,-0.002408,-0.030680,0.035282,0.4809,0.5768,0.2879,0.000000,0.578311,-0.561437,0.564505,-0.590583,0.575243,-0.556835
3.7071,0.016761,0.000000,-0.025559,0.025559,0.0000,0.0000,0.0000,-0.002395,-0.027612,0.033748,0.5197,0.5417,0.2353,0.000000,0.578311,-0.562971,0.564505,-0.590583,0.575243,-0.556835
3.7239,0.016745,0.000000,-0.024098,0.024098,0.0000,0.0000,0.0000,-0.002395,-0.027612,0.033748,0.5197,0.5417,0.2353,0.000000,0.578311,-0.562971,0.564505,-0.590583,0.575243,-0.556835
3.7406,0.016759,0.000000,-0.022635,0.022635,0.0000,0.0000,0.0000,-0.002397,-0.027612,0.032214,0.5156,0.5453,0.2408,0.000000,0.578311,-0.562971,0.564505,-0.590583,0.575243,-0.556835
3.7574,0.016747,0.000000,-0.021174,0.021174,0.0000,0.0000,0.0000,-0.002397,-0.027612,0.029146,0.5156,0.5453,0.2408,0.000000,0.578311,-0.562971,0.564505,-0.590583,0.575243,-0.556835
3.7769,0.019581,0.000000,-0.019465,0.019465,0.0000,0.0000,0.0000,-0.002385,-0.027612,0.026078,0.5267,0.5958,0.1865,0.000000,0.578311,-0.562971,0.564505,-0.592117,0.575243,-0.556835
3.7937,0.016749,0.000000,-0.018004,0.018004,0.0000,0.0000,0.0000,-0.002398,-0.023010,0.021476,0.5149,0.5397,0.2458,0.000000,0.578311,-0.562971,0.564505,-0.590583,0.575243,-0.556835
3.8104,0.016752,0.000000,-0.016542,0.016542,0.0000,0.0000,0.0000,-0.002397,-0.018408,0.019942,0.5161,0.5455,0.2397,0.000000,0.578311,-0.562971,0.564505,-0.590583,0.575243,-0.556835
3.8279,0.017468,0.000000,-0.015017,0.015017,0.0000,0.0000,0.0000,-0.002397,-0.018408,0.019942,0.5161,0.5455,0.2397,0.000000,0.578311,-0.562971,0.564505,-0.590583,0.575243,-0.556835
3.8447,0.016756,0.000000,-0.013555,0.013555,0.0000,0.0000,0.0000,-0.002385,-0.018408,0.018408,0.5267,0.5958,0.1866,0.000000,0.578311,-0.562971,0.564505,-0.592117,0.575243,-0.556835
3.8614,0.016739,0.000000,-0.012095,0.012095,0.0000,0.0000,0.0000,-0.002375,-0.018408,0.016874,0.5754,0.5751,0.2460,0.000000,0.579845,-0.562971,0.564505,-0.592117,0.575243,-0.556835
3.8782,0.016748,0.000000,-0.010633,0.010633,0.0000,0.0000,0.0000,-0.002399,-0.018408,0.015340,0.5098,0.5419,0.2396,0.000000,0.578311,-0.562971,0.564505,-0.590583,0.575243,-0.556835
3.8949,0.016759,0.000000,-0.009170,0.009170,0.0000,0.0000,0.0000,-0.002385,-0.015340,0.013806,0.5273,0.5962,0.1866,0.000000,0.578311,-0.562971,0.564505,-0.592117,0.575243,-0.556835
3.9117,0.016758,0.000000,-0.007708,0.007708,0.0000,0.0000,0.0000,-0.002411,-0.012272,0.010738,0.4756,0.5753,0.2990,0.000000,0.578311,-0.561437,0.564505,-0.590583,0.575243,-0.556835
3.9284,0.016752,0.000000,-0.006246,0.006246,0.0000,0.0000,0.0000,-0.002395,-0.012272,0.009204,0.5202,0.5418,0.2341,0.000000,0.578311,-0.562971,0.564505,-0.590583,0.575243,-0.556835
3.9452,0.016755,0.000000,-0.004784,0.004784,0.0000,0.0000,0.0000,-0.002395,-0.012272,0.009204,0.5202,0.5418,0.2341,0.000000,0.578311,-0.562971,0.564505,-0.590583,0.575243,-0.556835
3.9620,0.016828,0.000000,-0.003316,0.003316,0.0000,0.0000,0.0000,-0.002361,-0.007670,0.009204,0.5264,0.5629,0.0997,-0.001534,0.579845,-0.562971,0.564505,-0.592117,0.575243,-0.558369
3.9788,0.016746,0.000000,-0.001854,0.001854,0.0000,0.0000,0.0000,-0.002387,-0.004602,0.009204,0.4653,0.5254,0.1923,0.000000,0.578311,-0.562971,0.564505,-0.590583,0.575243,-0.558369
3.9955,0.016747,0.000000,-0.000393,0.000393,0.0000,0.0000,0.0000,-0.002371,-0.006136,0.006136,0.4221,0.5117,0.1384,0.000000,0.578311,-0.562971,0.564505,-0.590583,0.575243,-0.559903
4.0123,0.016754,0.000000,-0.001069,0.001069,0.0000,0.0000,0.0000,-0.002373,-0.004602,0.004602,0.4266,0.5131,0.1440,0.000000,0.578311,-0.562971,0.564505,-0.590583,0.575243,-0.559903
4.0290,0.016744,0.000000,-0.002531,0.002531,0.0000,0.0000,0.0000,-0.002373,-0.004602,0.004602,0.4266,0.5131,0.1440,0.000000,0.578311,-0.562971,0.564505,-0.590583,0.575243,-0.559903
4.0458,0.016759,0.000000,-0.003993,0.003993,0.0000,0.0000,0.0000,-0.002386,0.001534,0.003068,0.3869,0.5485,0.1966,0.000000,0.578311,-0.561437,0.564505,-0.590583,0.575243,-0.559903
4.0625,0.016747,0.000000,-0.005455,0.005455,0.0000,0.0000,0.0000,-0.002360,0.001534,0.000000,0.4801,0.4937,0.1917,0.000000,0.579845,-0.562971,0.564505,-0.590583,0.575243,-0.559903
4.0793,0.016751,0.000000,-0.006916,0.006916,0.0000,0.0000,0.0000,-0.002351,-0.004602,-0.001534,0.4811,0.5502,0.1385,0.000000,0.579845,-0.562971,0.564505,-0.592117,0.575243,-0.559903
4.0960,0.016752,0.000000,-0.008378,0.008378,0.0000,0.0000,0.0000,-0.002375,-0.006136,0.001534,0.4204,0.5091,0.1440,0.000000,0.578311,-0.562971,0.564505,-0.590583,0.575243,-0.559903
4.1128,0.016748,0.000000,-0.009840,0.009840,0.0000,0.0000,0.0000,-0.002361,-0.003068,0.004602,0.4766,0.4978,0.1972,0.000000,0.579845,-0.562971,0.564505,-0.590583,0.575243,-0.559903
4.1295,0.016746,0.000000,-0.011301,0.011301,0.0000,0.0000,0.0000,-0.002361,-0.003068,0.004602,0.4766,0.4978,0.1972,0.000000,0.579845,-0.562971,0.564505,-0.590583,0.575243,-0.559903
4.1463,0.016754,0.000000,-0.012763,0.012763,0.0000,0.0000,0.0000,-0.002387,-0.003068,0.004602,0.3817,0.5501,0.1910,0.000000,0.578311,-0.561437,0.564505,-0.590583,0.575243,-0.559903
4.1630,0.016741,0.000000,-0.014224,0.014224,0.0000,0.0000,0.0000,-0.002384,-0.007670,0.006136,0.3916,0.5446,0.1917,0.000000,0.578311,-0.561437,0.564505,-0.590583,0.575243,-0.559903
4.1799,0.016952,0.000000,-0.015703,0.015703,0.0000,0.0000,0.0000,-0.002372,-0.013806,0.009204,0.4298,0.5097,0.1384,0.000000,0.578311,-0.562971,0.564505,-0.590583,0.575243,-0.559903
4.1967,0.016745,0.000000,-0.017165,0.017165,0.0000,0.0000,0.0000,-0.002374,-0.013806,0.010738,0.3973,0.5997,0.1434,0.000000,0.578311,-0.561437,0.564505,-0.592117,0.575243,-0.559903
4.2135,0.016773,0.000000,-0.018628,0.018628,0.0000,0.0000,0.0000,-0.002373,-0.013806,0.012272,0.4292,0.5040,0.1434,0.000000,0.578311,-0.562971,0.564505,-0.590583,0.575243,-0.559903
4.2302,0.016749,0.000000,-0.020090,0.020090,0.0000,0.0000,0.0000,-0.002373,-0.013806,0.012272,0.4292,0.5040,0.1434,0.000000,0.578311,-0.562971,0.564505,-0.590583,0.575243,-0.559903
4.2470,0.016754,0.000000,-0.021552,0.021552,0.0000,0.0000,0.0000,-0.002361,-0.013806,0.015340,0.4757,0.4983,0.1973,0.000000,0.579845,-0.562971,0.564505,-0.590583,0.575243,-0.559903
4.2637,0.016747,0.000000,-0.023014,0.023014,0.0000,0.0000,0.0000,-0.002375,-0.018408,0.015340,0.3925,0.6008,0.1373,0.000000,0.578311,-0.561437,0.564505,-0.592117,0.575243,-0.559903
4.2805,0.016788,0.000000,-0.024479,0.024479,0.0000,0.0000,0.0000,-0.002361,-0.023010,0.016874,0.4404,0.5546,0.0904,0.000000,0.578311,-0.562971,0.564505,-0.592117,0.575243,-0.559903
4.2973,0.016751,0.000000,-0.025940,0.025940,0.0000,0.0000,0.0000,-0.002374,-0.023010,0.019942,0.4247,0.5087,0.1490,0.000000,0.578311,-0.562971,0.564505,-0.590583,0.575243,-0.559903
4.3141,0.016829,0.000000,-0.027409,0.027409,0.0000,0.0000,0.0000,-0.002373,-0.021476,0.021476,0.4263,0.5134,0.1429,0.000000,0.578311,-0.562971,0.564505,-0.590583,0.575243,-0.559903
4.3308,0.016742,0.000000,-0.028870,0.028870,0.0000,0.0000,0.0000,-0.002373,-0.021476,0.021476,0.4263,0.5134,0.1429,0.000000,0.578311,-0.562971,0.564505,-0.590583,0.575243,-0.559903
4.3476,0.016753,0.000000,-0.030332,0.030332,0.0000,0.0000,0.0000,-0.002361,-0.024544,0.021476,0.4369,0.5637,0.0898,0.000000,0.578311,-0.562971,0.564505,-0.592117,0.575243,-0.559903
4.3643,0.016747,0.000000,-0.031794,0.031794,0.0000,0.0000,0.0000,-0.002362,-0.027612,0.023010,0.4748,0.4921,0.2028,0.000000,0.579845,-0.562971,0.564505,-0.590583,0.575243,-0.559903
4.3811,0.016773,0.000000,-0.033257,0.033257,0.0000,0.0000,0.0000,-0.002374,-0.029146,0.024544,0.4211,0.5151,0.1373,0.000000,0.578311,-0.562971,0.564505,-0.590583,0.575243,-0.559903
4.3978,0.016742,0.000000,-0.034718,0.034718,0.0000,0.0000,0.0000,-0.002362,-0.029146,0.026078,0.4481,0.5835,0.1974,0.000000,0.579845,-0.561437,0.564505,-0.592117,0.575243,-0.559903
4.4146,0.016765,0.000000,-0.036181,0.036181,0.0000,0.0000,0.0000,-0.002362,-0.027612,0.030680,0.4347,0.5564,0.0841,0.000000,0.578311,-0.562971,0.564505,-0.592117,0.575243,-0.559903
4.4314,0.016749,0.000000,-0.037643,0.037643,0.0000,0.0000,0.0000,-0.002362,-0.027612,0.030680,0.4347,0.5564,0.0841,0.000000,0.578311,-0.562971,0.564505,-0.592117,0.575243,-0.559903
4.4481,0.016760,0.000000,-0.039105,0.039105,0.0000,0.0000,0.0000,-0.002374,-0.030680,0.032214,0.4253,0.5085,0.1496,0.000000,0.578311,-0.562971,0.564505,-0.590583,0.575243,-0.559903
4.4649,0.016774,0.000000,-0.040569,0.040569,0.0000,0.0000,0.0000,-0.002361,-0.035282,0.032214,0.4370,0.5643,0.0891,0.000000,0.578311,-0.562971,0.564505,-0.592117,0.575243,-0.559903
4.4817,0.016849,0.000000,-0.042040,0.042040,0.0000,0.0000,0.0000,-0.002374,-0.039884,0.035282,0.4250,0.5077,0.1491,0.000000,0.578311,-0.562971,0.564505,-0.590583,0.575243,-0.559903
4.4985,0.016745,0.000000,-0.043501,0.043501,0.0000,0.0000,0.0000,-0.002361,-0.038350,0.038350,0.4370,0.5643,0.0891,0.000000,0.578311,-0.562971,0.564505,-0.592117,0.575243,-0.559903
4.5153,0.016768,0.000000,-0.044964,0.044964,0.0000,0.0000,0.0000,-0.002351,-0.038350,0.038350,0.4856,0.5428,0.1492,0.000000,0.579845,-0.562971,0.564505,-0.592117,0.575243,-0.559903
4.5320,0.016744,0.000000,-0.046425,0.046425,0.0000,0.0000,0.0000,-0.002351,-0.038350,0.038350,0.4856,0.5428,0.1492,0.000000,0.579845,-0.562971,0.564505,-0.592117,0.575243,-0.559903
4.5487,0.016749,0.000000,-0.047887,0.047887,0.0000,0.0000,0.0000,-0.002364,-0.042951,0.038350,0.4307,0.5606,0.0891,0.000000,0.578311,-0.562971,0.564505,-0.592117,0.575243,-0.559903
4.5655,0.016749,0.000000,-0.049348,0.049348,0.0000,0.0000,0.0000,-0.002362,-0.047553,0.042951,0.4755,0.4924,0.2029,0.000000,0.579845,-0.562971,0.564505,-0.590583,0.575243,-0.559903
4.5823,0.016779,0.000000,-0.050813,0.050813,0.0000,0.0000,0.0000,-0.002362,-0.046019,0.042951,0.4708,0.4996,0.1911,0.000000,0.579845,-0.562971,0.564505,-0.590583,0.575243,-0.559903
4.5990,0.016744,0.000000,-0.052274,0.052274,0.0000,0.0000,0.0000,-0.002362,-0.042951,0.042951,0.4708,0.4996,0.1911,0.000000,0.579845,-0.562971,0.564505,-0.590583,0.575243,-0.559903
4.6158,0.016780,0.000000,-0.053738,0.053738,0.0000,0.0000,0.0000,-0.002374,-0.047553,0.047553,0.4215,0.5144,0.1385,0.000000,0.578311,-0.562971,0.564505,-0.590583,0.575243,-0.559903
4.6325,0.016745,0.000000,-0.055200,0.055200,0.0000,0.0000,0.0000,-0.002374,-0.047553,0.047553,0.4215,0.5144,0.1385,0.000000,0.578311,-0.562971,0.564505,-0.590583,0.575243,-0.559903
4.6493,0.016750,0.000000,-0.056661,0.056661,0.0000,0.0000,0.0000,-0.002362,-0.055223,0.049087,0.4480,0.5836,0.1972,0.000000,0.579845,-0.561437,0.564505,-0.592117,0.575243,-0.559903
4.6660,0.016744,0.000000,-0.058122,0.058122,0.0000,0.0000,0.0000,-0.002374,-0.053689,0.049087,0.4239,0.5056,0.1378,0.000000,0.578311,-0.562971,0.564505,-0.590583,0.575243,-0.559903
4.6828,0.016757,0.000000,-0.059585,0.059585,0.0000,0.0000,0.0000,-0.002373,-0.049087,0.052155,0.4264,0.5137,0.1440,0.000000,0.578311,-0.562971,0.564505,-0.590583,0.575243,-0.559903
4.6995,0.016752,0.000000,-0.061047,0.061047,0.0000,0.0000,0.0000,-0.002373,-0.056757,0.053689,0.4261,0.5126,0.1432,0.000000,0.578311,-0.562971,0.564505,-0.590583,0.575243,-0.559903
4.7163,0.016787,0.000000,-0.062512,0.062512,0.0000,0.0000,0.0000,-0.002361,-0.058291,0.053689,0.4369,0.5638,0.0897,0.000000,0.578311,-0.562971,0.564505,-0.592117,0.575243,-0.559903
4.7331,0.016751,0.000000,-0.063973,0.063973,0.0000,0.0000,0.0000,-0.002361,-0.058291,0.053689,0.4369,0.5638,0.0897,0.000000,0.578311,-0.562971,0.564505,-0.592117,0.575243,-0.559903
4.7498,0.016753,0.000000,-0.065435,0.065435,0.0000,0.0000,0.0000,-0.002362,-0.055223,0.056757,0.4748,0.4921,0.2029,0.000000,0.579845,-0.562971,0.564505,-0.590583,0.575243,-0.559903
4.7666,0.016752,0.000000,-0.066897,0.066897,0.0000,0.0000,0.0000,-0.002362,-0.055223,0.059825,0.4709,0.4996,0.1911,0.000000,0.579845,-0.562971,0.564505,-0.590583,0.575243,-0.559903
4.7833,0.016760,0.000000,-0.068360,0.068360,0.0000,0.0000,0.0000,-0.002374,-0.064427,0.059825,0.4215,0.5144,0.1385,0.000000,0.578311,-0.562971,0.564505,-0.590583,0.575243,-0.559903
4.8001,0.016747,0.000000,-0.069821,0.069821,0.0000,0.0000,0.0000,-0.002373,-0.067495,0.061359,0.4267,0.5128,0.1440,0.000000,0.578311,-0.562971,0.564505,-0.590583,0.575243,-0.559903
4.8170,0.016902,0.000000,-0.071296,0.071296,0.0000,0.0000,0.0000,-0.002361,-0.065961,0.065961,0.4368,0.5638,0.0897,0.000000,0.578311,-0.562971,0.564505,-0.592117,0.575243,-0.559903
4.8337,0.016750,0.000000,-0.072758,0.072758,0.0000,0.0000,0.0000,-0.002361,-0.065961,0.065961,0.4368,0.5638,0.0897,0.000000,0.578311,-0.562971,0.564505,-0.592117,0.575243,-0.559903
4.8505,0.016748,0.000000,-0.074219,0.074219,0.0000,0.0000,0.0000,-0.002362,-0.069029,0.065961,0.4748,0.4921,0.2029,0.000000,0.579845,-0.562971,0.564505,-0.590583,0.575243,-0.559903
4.8672,0.016744,0.000000,-0.075681,0.075681,0.0000,0.0000,0.0000,-0.002362,-0.073631,0.070563,0.4709,0.4996,0.1911,0.000000,0.579845,-0.562971,0.564505,-0.590583,0.575243,-0.559903
4.8840,0.016752,0.000000,-0.077142,0.077142,0.0000,0.0000,0.0000,-0.002362,-0.073631,0.070563,0.4709,0.4996,0.1911,0.000000,0.579845,-0.562971,0.564505,-0.590583,0.575243,-0.559903
4.9007,0.016745,0.000000,-0.078604,0.078604,0.0000,0.0000,0.0000,-0.002374,-0.072097,0.073631,0.4215,0.5144,0.1385,0.000000,0.578311,-0.562971,0.564505,-0.590583,0.575243,-0.559903
4.9175,0.016767,0.000000,-0.080067,0.080067,0.0000,0.0000,0.0000,-0.002374,-0.078233,0.076699,0.4215,0.5144,0.1385,0.000000,0.578311,-0.562971,0.564505,-0.592117,0.575243,-0.559903
4.9342,0.016749,0.000000,-0.081529,0.081529,0.0000,0.0000,0.0000,-0.002361,-0.078233,0.076699,0.4374,0.5636,0.0902,0.000000,0.578311,-0.562971,0.564505,-0.592117,0.575243,-0.559903
4.9510,0.016747,0.000000,-0.082990,0.082990,0.0000,0.0000,0.0000,-0.002374,-0.081301,0.075165,0.4250,0.5077,0.1490,0.000000,0.578311,-0.562971,0.564505,-0.590583,0.575243,-0.559903
4.9677,0.016742,0.000000,-0.084451,0.084451,0.0000,0.0000,0.0000,-0.002361,-0.076699,0.078233,0.4370,0.5643,0.0891,0.000000,0.578311,-0.562971,0.564505,-0.592117,0.575243,-0.559903
4.9845,0.016743,0.000000,-0.085912,0.085912,0.0000,0.0000,0.0000,-0.002363,-0.078233,0.079767,0.4358,0.5584,0.0954,0.000000,0.578311,-0.562971,0.564505,-0.592117,0.575243,-0.559903
5.0012,0.016744,0.000000,-0.087373,0.087373,0.0000,0.0000,0.0000,-0.002374,-0.085903,0.081301,0.4252,0.5083,0.1485,0.000000,0.578311,-0.562971,0.564505,-0.590583,0.575243,-0.559903
5.0180,0.016753,0.000000,-0.088835,0.088835,0.0000,0.0000,0.0000,-0.002374,-0.085903,0.081301,0.4252,0.5083,0.1485,0.000000,0.578311,-0.562971,0.564505,-0.590583,0.575243,-0.559903
5.0347,0.016747,0.000000,-0.090297,0.090297,0.0000,0.0000,0.0000,-0.002361,-0.087437,0.084369,0.4370,0.5643,0.0892,0.000000,0.578311,-0.562971,0.564505,-0.592117,0.575243,-0.559903
5.0515,0.016747,0.000000,-0.091758,0.091758,0.0000,0.0000,0.0000,-0.002351,-0.085903,0.085903,0.4856,0.5428,0.1492,0.000000,0.579845,-0.562971,0.564505,-0.592117,0.575243,-0.559903
5.0682,0.016741,0.000000,-0.093219,0.093219,0.0000,0.0000,0.0000,-0.002352,-0.087437,0.085903,0.4805,0.5451,0.1429,0.000000,0.579845,-0.562971,0.564505,-0.592117,0.575243,-0.559903
5.0850,0.016749,0.000000,-0.094681,0.094681,0.0000,0.0000,0.0000,-0.002363,-0.090505,0.090505,0.4703,0.4941,0.1973,0.000000,0.579845,-0.562971,0.564505,-0.590583,0.575243,-0.559903
5.1018,0.016822,0.000000,-0.096149,0.096149,0.0000,0.0000,0.0000,-0.002351,-0.090505,0.092039,0.4821,0.5502,0.1379,0.000000,0.579845,-0.562971,0.564505,-0.592117,0.575243,-0.559903
5.1185,0.016740,0.000000,-0.097610,0.097610,0.0000,0.0000,0.0000,-0.002351,-0.090505,0.092039,0.4821,0.5502,0.1379,0.000000,0.579845,-0.562971,0.564505,-0.592117,0.575243,-0.559903
5.1353,0.016746,0.000000,-0.099071,0.099071,0.0000,0.0000,0.0000,-0.002364,-0.092039,0.090505,0.4311,0.5599,0.0903,0.000000,0.578311,-0.562971,0.564505,-0.592117,0.575243,-0.559903
5.1520,0.016755,0.000000,-0.100533,0.100533,0.0000,0.0000,0.0000,-0.002362,-0.095107,0.095107,0.4754,0.4925,0.2028,0.000000,0.579845,-0.562971,0.564505,-0.590583,0.575243,-0.559903
5.1688,0.016745,0.000000,-0.101995,0.101995,0.0000,0.0000,0.0000,-0.002374,-0.096641,0.096641,0.4210,0.5151,0.1373,0.000000,0.578311,-0.562971,0.564505,-0.590583,0.575243,-0.559903
5.1855,0.016742,0.000000,-0.103456,0.103456,0.0000,0.0000,0.0000,-0.002350,-0.101243,0.098175,0.4873,0.5480,0.1442,0.000000,0.579845,-0.562971,0.564505,-0.592117,0.575243,-0.559903
5.2027,0.017229,0.000000,-0.104959,0.104959,0.0000,0.0000,0.0000,-0.002364,-0.104311,0.099709,0.4696,0.4938,0.1972,0.000000,0.579845,-0.562971,0.564505,-0.590583,0.575243,-0.559903
5.2209,0.018154,0.000000,-0.106543,0.106543,0.0000,0.0000,0.0000,-0.002362,-0.104311,0.099709,0.4324,0.5658,0.0841,0.000000,0.578311,-0.562971,0.564505,-0.592117,0.575243,-0.559903
5.2377,0.016762,0.000000,-0.108006,0.108006,0.0000,0.0000,0.0000,-0.002362,-0.104311,0.099709,0.4324,0.5658,0.0841,0.000000,0.578311,-0.562971,0.564505,-0.592117,0.575243,-0.559903
5.2544,0.016747,0.000000,-0.109468,0.109468,0.0000,0.0000,0.0000,-0.002362,-0.105845,0.101243,0.4753,0.4919,0.2034,0.000000,0.579845,-0.562971,0.564505,-0.590583,0.575243,-0.559903
5.2712,0.016744,0.000000,-0.110929,0.110929,0.0000,0.0000,0.0000,-0.002362,-0.108913,0.104311,0.4708,0.4996,0.1910,0.000000,0.579845,-0.562971,0.564505,-0.590583,0.575243,-0.559903
5.2879,0.016744,0.000000,-0.112390,0.112390,0.0000,0.0000,0.0000,-0.002362,-0.108913,0.107379,0.4715,0.4985,0.1927,0.000000,0.579845,-0.562971,0.564505,-0.590583,0.575243,-0.559903
5.3052,0.017280,0.000000,-0.113898,0.113898,0.0000,0.0000,0.0000,-0.002375,-0.110447,0.107379,0.4320,0.5345,0.2453,0.000000,0.579845,-0.561437,0.564505,-0.590583,0.575243,-0.559903
5.3219,0.016747,0.000000,-0.115359,0.115359,0.0000,0.0000,0.0000,-0.002375,-0.110447,0.107379,0.4320,0.5345,0.2453,0.000000,0.579845,-0.561437,0.564505,-0.590583,0.575243,-0.559903
5.3387,0.016745,0.000000,-0.116821,0.116821,0.0000,0.0000,0.0000,-0.002361,-0.113515,0.108913,0.4363,0.5615,0.0791,0.000000,0.578311,-0.562971,0.564505,-0.592117,0.575243,-0.559903
5.3554,0.016744,0.000000,-0.118282,0.118282,0.0000,0.0000,0.0000,-0.002362,-0.113515,0.113515,0.4749,0.4924,0.2040,0.000000,0.579845,-0.562971,0.564505,-0.590583,0.575243,-0.559903
5.3722,0.016747,0.000000,-0.119743,0.119743,0.0000,0.0000,0.0000,-0.002362,-0.115049,0.113515,0.4709,0.4996,0.1910,0.000000,0.579845,-0.562971,0.564505,-0.590583,0.575243,-0.559903
5.3889,0.016746,0.000000,-0.121205,0.121205,0.0000,0.0000,0.0000,-0.002362,-0.119651,0.116583,0.4714,0.4986,0.1928,0.000000,0.579845,-0.562971,0.564505,-0.590583,0.575243,-0.559903
5.4057,0.016832,0.000000,-0.122674,0.122674,0.0000,0.0000,0.0000,-0.002362,-0.122718,0.119651,0.4714,0.4986,0.1928,0.000000,0.579845,-0.562971,0.564505,-0.592117,0.575243,-0.559903
5.4225,0.016746,0.000000,-0.124135,0.124135,0.0000,0.0000,0.0000,-0.002351,-0.122718,0.119651,0.4820,0.5497,0.1384,0.000000,0.579845,-0.562971,0.564505,-0.592117,0.575243,-0.559903
5.4393,0.016768,0.000000,-0.125598,0.125598,0.0000,0.0000,0.0000,-0.002364,-0.122718,0.118117,0.4701,0.4936,0.1978,0.000000,0.579845,-0.562971,0.564505,-0.590583,0.575243,-0.559903
5.4560,0.016743,0.000000,-0.127059,0.127059,0.0000,0.0000,0.0000,-0.002362,-0.122718,0.121184,0.4323,0.5658,0.0841,0.000000,0.578311,-0.562971,0.564505,-0.592117,0.575243,-0.559903
5.4728,0.016759,0.000000,-0.128522,0.128522,0.0000,0.0000,0.0000,-0.002362,-0.124252,0.121184,0.4363,0.5583,0.0959,0.000000,0.578311,-0.562971,0.564505,-0.592117,0.575243,-0.559903
5.4895,0.016742,0.000000,-0.129983,0.129983,0.0000,0.0000,0.0000,-0.002351,-0.127320,0.121184,0.4857,0.5435,0.1485,0.000000,0.579845,-0.562971,0.564505,-0.592117,0.575243,-0.559903
