t,loop_dt,cmd_z,cmd_ant_l,cmd_ant_r,cmd_roll,cmd_pitch,cmd_yaw,pres_z,pres_ant_l,pres_ant_r,pres_roll,pres_pitch,pres_yaw,pres_j0,pres_j1,pres_j2,pres_j3,pres_j4,pres_j5,pres_j6
0.0000,0.000001,0.000000,-0.174533,0.174533,0.0000,0.0000,0.0000,-0.002462,-0.003068,-0.001534,0.4197,0.6318,0.1372,0.000000,0.572175,-0.562971,0.564505,-0.590583,0.575243,-0.553767
0.0168,0.016765,0.000000,-0.173655,0.173655,0.0000,0.0000,0.0000,-0.002462,-0.003068,-0.001534,0.4197,0.6318,0.1372,0.000000,0.572175,-0.562971,0.564505,-0.590583,0.575243,-0.553767
0.0335,0.016774,0.000000,-0.172777,0.172777,0.0000,0.0000,0.0000,-0.002463,-0.004602,-0.001534,0.4259,0.6334,0.1428,0.000000,0.572175,-0.562971,0.564505,-0.590583,0.575243,-0.553767
0.0503,0.016748,0.000000,-0.171900,0.171900,0.0000,0.0000,0.0000,-0.002463,0.001534,-0.001534,0.4259,0.6334,0.1428,0.000000,0.572175,-0.562971,0.564505,-0.590583,0.575243,-0.553767
0.0670,0.016762,0.000000,-0.171022,0.171022,0.0000,0.0000,0.0000,-0.002463,-0.027612,0.027612,0.4259,0.6334,0.1428,0.000000,0.572175,-0.562971,0.564505,-0.590583,0.575243,-0.553767
0.0838,0.016749,0.000000,-0.170145,0.170145,0.0000,0.0000,0.0000,-0.002463,-0.093573,0.096641,0.4259,0.6334,0.1428,0.000000,0.572175,-0.562971,0.564505,-0.590583,0.575243,-0.553767
0.1012,0.017434,0.000000,-0.169232,0.169232,0.0000,0.0000,0.0000,-0.002463,-0.165670,0.171806,0.4259,0.6334,0.1428,0.000000,0.572175,-0.562971,0.564505,-0.590583,0.575243,-0.553767
0.1180,0.016766,0.000000,-0.168355,0.168355,0.0000,0.0000,0.0000,-0.002463,-0.165670,0.171806,0.4259,0.6334,0.1428,0.000000,0.572175,-0.562971,0.564505,-0.590583,0.575243,-0.553767
0.1348,0.016770,0.000000,-0.167476,0.167476,0.0000,0.0000,0.0000,-0.002437,-0.202485,0.200951,0.3258,0.5981,0.0354,0.000000,0.572175,-0.562971,0.564505,-0.590583,0.575243,-0.556835
0.1515,0.016749,0.000000,-0.166599,0.166599,0.0000,0.0000,0.0000,-0.002439,-0.200951,0.197884,0.3363,0.6018,0.0466,0.000000,0.572175,-0.562971,0.564505,-0.590583,0.575243,-0.556835
0.1684,0.016878,0.000000,-0.165716,0.165716,0.0000,0.0000,0.0000,-0.002439,-0.179476,0.185612,0.3348,0.6013,0.0451,0.000000,0.572175,-0.562971,0.564505,-0.590583,0.575243,-0.556835
0.1851,0.016751,0.000000,-0.164839,0.164839,0.0000,0.0000,0.0000,-0.002439,-0.170272,0.174874,0.3348,0.6013,0.0451,0.000000,0.572175,-0.562971,0.564505,-0.590583,0.575243,-0.556835
0.2028,0.017613,0.000000,-0.163916,0.163916,0.0000,0.0000,0.0000,-0.002426,-0.162602,0.164136,0.2857,0.5840,-0.0078,0.000000,0.572175,-0.562971,0.564505,-0.590583,0.575243,-0.558369
0.2195,0.016757,0.000000,-0.163039,0.163039,0.0000,0.0000,0.0000,-0.002426,-0.162602,0.164136,0.2857,0.5840,-0.0078,0.000000,0.572175,-0.562971,0.564505,-0.590583,0.575243,-0.558369
0.2363,0.016760,0.000000,-0.162162,0.162162,0.0000,0.0000,0.0000,-0.002403,-0.168738,0.165670,0.2912,0.5526,-0.0020,0.000000,0.573709,-0.562971,0.564505,-0.590583,0.575243,-0.559903
0.2530,0.016750,0.000000,-0.161284,0.161284,0.0000,0.0000,0.0000,-0.002393,-0.170272,0.167204,0.3405,0.5401,0.0511,0.000000,0.575243,-0.562971,0.564505,-0.590583,0.575243,-0.559903
0.2698,0.016766,0.000000,-0.160407,0.160407,0.0000,0.0000,0.0000,-0.002358,-0.164136,0.165670,0.3464,0.5590,-0.0958,-0.001534,0.576777,-0.562971,0.564505,-0.592117,0.575243,-0.561437
0.2865,0.016753,0.000000,-0.159529,0.159529,0.0000,0.0000,0.0000,-0.002361,-0.162602,0.164136,0.3849,0.4906,0.1058,0.000000,0.578311,-0.562971,0.564505,-0.590583,0.575243,-0.561437
0.3033,0.016757,0.000000,-0.158652,0.158652,0.0000,0.0000,0.0000,-0.002361,-0.164136,0.162602,0.3809,0.4977,0.0939,0.000000,0.578311,-0.562971,0.564505,-0.590583,0.575243,-0.561437
0.3201,0.016752,0.000000,-0.157775,0.157775,0.0000,0.0000,0.0000,-0.002361,-0.164136,0.162602,0.3809,0.4977,0.0939,0.000000,0.578311,-0.562971,0.564505,-0.590583,0.575243,-0.561437
0.3368,0.016752,0.000000,-0.156898,0.156898,0.0000,0.0000,0.0000,-0.002349,-0.162602,0.159534,0.4311,0.4813,0.1490,0.000000,0.579845,-0.562971,0.564505,-0.590583,0.575243,-0.561437
0.3536,0.016751,0.000000,-0.156021,0.156021,0.0000,0.0000,0.0000,-0.002351,-0.161068,0.158000,0.4259,0.4831,0.1432,0.000000,0.579845,-0.562971,0.564505,-0.590583,0.575243,-0.561437
0.3703,0.016764,0.000000,-0.155143,0.155143,0.0000,0.0000,0.0000,-0.002351,-0.161068,0.159534,0.4259,0.4831,0.1432,0.000000,0.579845,-0.562971,0.564505,-0.590583,0.575243,-0.561437
0.3871,0.016751,0.000000,-0.154266,0.154266,0.0000,0.0000,0.0000,-0.002351,-0.159534,0.158000,0.4259,0.4831,0.1432,0.000000,0.579845,-0.562971,0.564505,-0.590583,0.575243,-0.561437
0.4038,0.016761,0.000000,-0.153388,0.153388,0.0000,0.0000,0.0000,-0.002362,-0.159534,0.158000,0.3767,0.4985,0.0900,0.000000,0.578311,-0.562971,0.564505,-0.590583,0.575243,-0.561437
0.4207,0.016817,0.000000,-0.152508,0.152508,0.0000,0.0000,0.0000,-0.002362,-0.159534,0.158000,0.3767,0.4985,0.0900,0.000000,0.578311,-0.562971,0.564505,-0.590583,0.575243,-0.561437
0.4375,0.016820,0.000000,-0.151627,0.151627,0.0000,0.0000,0.0000,-0.002349,-0.158000,0.158000,0.4316,0.4813,0.1494,0.000000,0.579845,-0.562971,0.564505,-0.590583,0.575243,-0.561437
0.4542,0.016756,0.000000,-0.150750,0.150750,0.0000,0.0000,0.0000,-0.002351,-0.158000,0.158000,0.4258,0.4831,0.1432,0.000000,0.579845,-0.562971,0.564505,-0.590583,0.575243,-0.561437
0.4710,0.016758,0.000000,-0.149872,0.149872,0.0000,0.0000,0.0000,-0.002351,-0.154932,0.158000,0.4258,0.4831,0.1432,0.000000,0.579845,-0.562971,0.564505,-0.590583,0.575243,-0.561437
0.4877,0.016756,0.000000,-0.148995,0.148995,0.0000,0.0000,0.0000,-0.002351,-0.153398,0.158000,0.4258,0.4831,0.1432,0.000000,0.579845,-0.562971,0.564505,-0.590583,0.575243,-0.561437
0.5045,0.016767,0.000000,-0.148117,0.148117,0.0000,0.0000,0.0000,-0.002351,-0.153398,0.158000,0.4258,0.4831,0.1432,0.000000,0.579845,-0.562971,0.564505,-0.590583,0.575243,-0.561437
0.5213,0.016751,0.000000,-0.147240,0.147240,0.0000,0.0000,0.0000,-0.002351,-0.153398,0.158000,0.4258,0.4831,0.1432,0.000000,0.579845,-0.562971,0.564505,-0.590583,0.575243,-0.561437
0.5380,0.016760,0.000000,-0.146362,0.146362,0.0000,0.0000,0.0000,-0.002351,-0.153398,0.158000,0.4258,0.4831,0.1432,0.000000,0.579845,-0.562971,0.564505,-0.590583,0.575243,-0.561437
0.5549,0.016915,0.000000,-0.145477,0.145477,0.0000,0.0000,0.0000,-0.002351,-0.151864,0.158000,0.4258,0.4831,0.1432,0.000000,0.579845,-0.562971,0.564505,-0.590583,0.575243,-0.561437
0.5717,0.016765,0.000000,-0.144599,0.144599,0.0000,0.0000,0.0000,-0.002351,-0.151864,0.156466,0.4258,0.4831,0.1432,0.000000,0.579845,-0.562971,0.564505,-0.590583,0.575243,-0.561437
0.5885,0.016767,0.000000,-0.143721,0.143721,0.0000,0.0000,0.0000,-0.002351,-0.151864,0.156466,0.4258,0.4831,0.1432,0.000000,0.579845,-0.562971,0.564505,-0.590583,0.575243,-0.561437
0.6052,0.016779,0.000000,-0.142842,0.142842,0.0000,0.0000,0.0000,-0.002364,-0.148796,0.151864,0.4760,0.5005,0.1973,0.000000,0.579845,-0.562971,0.564505,-0.590583,0.575243,-0.559903
0.6220,0.016757,0.000000,-0.141965,0.141965,0.0000,0.0000,0.0000,-0.002364,-0.148796,0.151864,0.4760,0.5005,0.1973,0.000000,0.579845,-0.562971,0.564505,-0.590583,0.575243,-0.559903
0.6388,0.016753,0.000000,-0.141088,0.141088,0.0000,0.0000,0.0000,-0.002349,-0.148796,0.147262,0.4212,0.4810,0.1382,0.000000,0.579845,-0.562971,0.564505,-0.590583,0.575243,-0.561437
0.6556,0.016862,0.000000,-0.140205,0.140205,0.0000,0.0000,0.0000,-0.002351,-0.147262,0.144194,0.4269,0.4831,0.1443,0.000000,0.579845,-0.562971,0.564505,-0.590583,0.575243,-0.561437
0.6724,0.016771,0.000000,-0.139327,0.139327,0.0000,0.0000,0.0000,-0.002364,-0.148796,0.144194,0.4759,0.5005,0.1972,0.000000,0.579845,-0.562971,0.564505,-0.590583,0.575243,-0.559903
0.6892,0.016762,0.000000,-0.138449,0.138449,0.0000,0.0000,0.0000,-0.002349,-0.147262,0.144194,0.4212,0.4810,0.1382,0.000000,0.579845,-0.562971,0.564505,-0.590583,0.575243,-0.561437
0.7059,0.016767,0.000000,-0.137571,0.137571,0.0000,0.0000,0.0000,-0.002349,-0.147262,0.144194,0.4212,0.4810,0.1382,0.000000,0.579845,-0.562971,0.564505,-0.590583,0.575243,-0.561437
0.7227,0.016763,0.000000,-0.136693,0.136693,0.0000,0.0000,0.0000,-0.002351,-0.147262,0.144194,0.4269,0.4831,0.1443,0.000000,0.579845,-0.562971,0.564505,-0.590583,0.575243,-0.561437
0.7394,0.016757,0.000000,-0.135816,0.135816,0.0000,0.0000,0.0000,-0.002351,-0.147262,0.144194,0.4269,0.4831,0.1443,0.000000,0.579845,-0.562971,0.564505,-0.590583,0.575243,-0.561437
0.7562,0.016762,0.000000,-0.134938,0.134938,0.0000,0.0000,0.0000,-0.002351,-0.147262,0.144194,0.4269,0.4831,0.1443,0.000000,0.579845,-0.562971,0.564505,-0.590583,0.575243,-0.561437
0.7730,0.016755,0.000000,-0.134061,0.134061,0.0000,0.0000,0.0000,-0.002351,-0.147262,0.144194,0.4269,0.4831,0.1443,0.000000,0.579845,-0.562971,0.564505,-0.590583,0.575243,-0.561437
0.7897,0.016749,0.000000,-0.133184,0.133184,0.0000,0.0000,0.0000,-0.002351,-0.147262,0.144194,0.4269,0.4831,0.1443,0.000000,0.579845,-0.562971,0.564505,-0.590583,0.575243,-0.561437
0.8065,0.016784,0.000000,-0.132305,0.132305,0.0000,0.0000,0.0000,-0.002351,-0.147262,0.144194,0.4269,0.4831,0.1443,0.000000,0.579845,-0.562971,0.564505,-0.590583,0.575243,-0.561437
0.8232,0.016757,0.000000,-0.131428,0.131428,0.0000,0.0000,0.0000,-0.002364,-0.144194,0.142660,0.4759,0.5005,0.1972,0.000000,0.579845,-0.562971,0.564505,-0.590583,0.575243,-0.559903
0.8400,0.016757,0.000000,-0.130551,0.130551,0.0000,0.0000,0.0000,-0.002362,-0.144194,0.142660,0.4708,0.4987,0.1917,0.000000,0.579845,-0.562971,0.564505,-0.590583,0.575243,-0.559903
0.8568,0.016754,0.000000,-0.129673,0.129673,0.0000,0.0000,0.0000,-0.002362,-0.139592,0.141126,0.3825,0.5167,0.1919,0.000000,0.579845,-0.561437,0.564505,-0.590583,0.575243,-0.561437
0.8735,0.016755,0.000000,-0.128796,0.128796,0.0000,0.0000,0.0000,-0.002338,-0.133456,0.138058,0.4418,0.5302,0.0850,0.000000,0.579845,-0.562971,0.564505,-0.592117,0.575243,-0.561437
0.8903,0.016749,0.000000,-0.127919,0.127919,0.0000,0.0000,0.0000,-0.002352,-0.133456,0.133456,0.4248,0.4780,0.1499,0.000000,0.579845,-0.562971,0.564505,-0.590583,0.575243,-0.561437
0.9070,0.016745,0.000000,-0.127042,0.127042,0.0000,0.0000,0.0000,-0.002352,-0.133456,0.133456,0.4248,0.4780,0.1499,0.000000,0.579845,-0.562971,0.564505,-0.590583,0.575243,-0.561437
0.9238,0.016756,0.000000,-0.126165,0.126165,0.0000,0.0000,0.0000,-0.002350,-0.131922,0.128854,0.4266,0.4834,0.1431,0.000000,0.579845,-0.562971,0.564505,-0.590583,0.575243,-0.561437
0.9405,0.016750,0.000000,-0.125288,0.125288,0.0000,0.0000,0.0000,-0.002350,-0.130388,0.127320,0.4266,0.4834,0.1431,0.000000,0.579845,-0.562971,0.564505,-0.590583,0.575243,-0.561437
0.9572,0.016712,0.000000,-0.124413,0.124413,0.0000,0.0000,0.0000,-0.002350,-0.128854,0.127320,0.4266,0.4834,0.1431,0.000000,0.579845,-0.562971,0.564505,-0.590583,0.575243,-0.561437
0.9740,0.016756,0.000000,-0.123535,0.123535,0.0000,0.0000,0.0000,-0.002364,-0.127320,0.125786,0.4759,0.5005,0.1973,0.000000,0.579845,-0.562971,0.564505,-0.590583,0.575243,-0.559903
0.9907,0.016760,0.000000,-0.122658,0.122658,0.0000,0.0000,0.0000,-0.002364,-0.127320,0.125786,0.4759,0.5005,0.1973,0.000000,0.579845,-0.562971,0.564505,-0.590583,0.575243,-0.559903
1.0075,0.016759,0.000000,-0.121780,0.121780,0.0000,0.0000,0.0000,-0.002338,-0.127320,0.124252,0.4320,0.5318,0.0844,0.000000,0.579845,-0.562971,0.564505,-0.592117,0.575243,-0.561437
1.0243,0.016757,0.000000,-0.120903,0.120903,0.0000,0.0000,0.0000,-0.002352,-0.127320,0.124252,0.4258,0.4778,0.1499,0.000000,0.579845,-0.562971,0.564505,-0.590583,0.575243,-0.561437
1.0411,0.016822,0.000000,-0.120022,0.120022,0.0000,0.0000,0.0000,-0.002363,-0.125786,0.124252,0.4760,0.5011,0.1966,0.000000,0.579845,-0.562971,0.564505,-0.590583,0.575243,-0.559903
1.0578,0.016750,0.000000,-0.119145,0.119145,0.0000,0.0000,0.0000,-0.002362,-0.124252,0.122718,0.4708,0.4987,0.1917,0.000000,0.579845,-0.562971,0.564505,-0.590583,0.575243,-0.559903
1.0746,0.016770,0.000000,-0.118267,0.118267,0.0000,0.0000,0.0000,-0.002362,-0.124252,0.122718,0.4708,0.4987,0.1917,0.000000,0.579845,-0.562971,0.564505,-0.590583,0.575243,-0.559903
1.0914,0.016759,0.000000,-0.117390,0.117390,0.0000,0.0000,0.0000,-0.002349,-0.122718,0.122718,0.4218,0.4812,0.1388,0.000000,0.579845,-0.562971,0.564505,-0.590583,0.575243,-0.561437
1.1081,0.016754,0.000000,-0.116512,0.116512,0.0000,0.0000,0.0000,-0.002351,-0.122718,0.121184,0.4269,0.4831,0.1443,0.000000,0.579845,-0.562971,0.564505,-0.590583,0.575243,-0.561437
1.1249,0.016751,0.000000,-0.115635,0.115635,0.0000,0.0000,0.0000,-0.002351,-0.121184,0.121184,0.4269,0.4831,0.1443,0.000000,0.579845,-0.562971,0.564505,-0.590583,0.575243,-0.561437
1.1416,0.016758,0.000000,-0.114758,0.114758,0.0000,0.0000,0.0000,-0.002364,-0.121184,0.119651,0.4759,0.5005,0.1972,0.000000,0.579845,-0.562971,0.564505,-0.590583,0.575243,-0.559903
1.1585,0.016858,0.000000,-0.113875,0.113875,0.0000,0.0000,0.0000,-0.002349,-0.121184,0.118117,0.4212,0.4810,0.1382,0.000000,0.579845,-0.562971,0.564505,-0.590583,0.575243,-0.561437
1.1752,0.016765,0.000000,-0.112997,0.112997,0.0000,0.0000,0.0000,-0.002349,-0.121184,0.118117,0.4212,0.4810,0.1382,0.000000,0.579845,-0.562971,0.564505,-0.590583,0.575243,-0.561437
1.1920,0.016753,0.000000,-0.112120,0.112120,0.0000,0.0000,0.0000,-0.002364,-0.121184,0.118117,0.4765,0.5007,0.1978,0.000000,0.579845,-0.562971,0.564505,-0.590583,0.575243,-0.559903
1.2088,0.016755,0.000000,-0.111243,0.111243,0.0000,0.0000,0.0000,-0.002349,-0.121184,0.118117,0.4212,0.4810,0.1381,0.000000,0.579845,-0.562971,0.564505,-0.590583,0.575243,-0.561437
1.2255,0.016754,0.000000,-0.110366,0.110366,0.0000,0.0000,0.0000,-0.002351,-0.119651,0.118117,0.4269,0.4831,0.1443,0.000000,0.579845,-0.562971,0.564505,-0.590583,0.575243,-0.561437
1.2423,0.016754,0.000000,-0.109488,0.109488,0.0000,0.0000,0.0000,-0.002339,-0.121184,0.118117,0.4371,0.5337,0.0900,0.000000,0.579845,-0.562971,0.564505,-0.592117,0.575243,-0.561437
1.2590,0.016765,0.000000,-0.108611,0.108611,0.0000,0.0000,0.0000,-0.002365,-0.121184,0.118117,0.4748,0.4953,0.2028,0.000000,0.579845,-0.562971,0.564505,-0.590583,0.575243,-0.559903
1.2778,0.018739,0.000000,-0.107629,0.107629,0.0000,0.0000,0.0000,-0.002365,-0.121184,0.118117,0.4748,0.4953,0.2028,0.000000,0.579845,-0.562971,0.564505,-0.590583,0.575243,-0.559903
1.2945,0.016750,0.000000,-0.106752,0.106752,0.0000,0.0000,0.0000,-0.002349,-0.119651,0.116583,0.4213,0.4816,0.1376,0.000000,0.579845,-0.562971,0.564505,-0.590583,0.575243,-0.561437
1.3112,0.016707,0.000000,-0.105878,0.105878,0.0000,0.0000,0.0000,-0.002351,-0.118117,0.116583,0.4269,0.4830,0.1444,0.000000,0.579845,-0.562971,0.564505,-0.590583,0.575243,-0.561437
1.3280,0.016749,0.000000,-0.105001,0.105001,0.0000,0.0000,0.0000,-0.002351,-0.113515,0.116583,0.4269,0.4830,0.1444,0.000000,0.579845,-0.562971,0.564505,-0.590583,0.575243,-0.561437
1.3447,0.016772,0.000000,-0.104122,0.104122,0.0000,0.0000,0.0000,-0.002364,-0.108913,0.115049,0.4759,0.5005,0.1972,0.000000,0.579845,-0.562971,0.564505,-0.590583,0.575243,-0.559903
1.3615,0.016750,0.000000,-0.103245,0.103245,0.0000,0.0000,0.0000,-0.002349,-0.107379,0.113515,0.4212,0.4810,0.1382,0.000000,0.579845,-0.562971,0.564505,-0.590583,0.575243,-0.561437
1.3783,0.016768,0.000000,-0.102367,0.102367,0.0000,0.0000,0.0000,-0.002351,-0.108913,0.111981,0.4269,0.4831,0.1443,0.000000,0.579845,-0.562971,0.564505,-0.590583,0.575243,-0.561437
1.3950,0.016752,0.000000,-0.101490,0.101490,0.0000,0.0000,0.0000,-0.002351,-0.108913,0.111981,0.4269,0.4831,0.1443,0.000000,0.579845,-0.562971,0.564505,-0.590583,0.575243,-0.561437
1.4118,0.016752,0.000000,-0.100613,0.100613,0.0000,0.0000,0.0000,-0.002351,-0.105845,0.107379,0.4269,0.4831,0.1443,0.000000,0.579845,-0.562971,0.564505,-0.590583,0.575243,-0.561437
1.4285,0.016752,0.000000,-0.099736,0.099736,0.0000,0.0000,0.0000,-0.002351,-0.105845,0.102777,0.4269,0.4831,0.1443,0.000000,0.579845,-0.562971,0.564505,-0.590583,0.575243,-0.561437
1.4453,0.016764,0.000000,-0.098858,0.098858,0.0000,0.0000,0.0000,-0.002351,-0.105845,0.101243,0.4269,0.4831,0.1443,0.000000,0.579845,-0.562971,0.564505,-0.590583,0.575243,-0.561437
1.4620,0.016757,0.000000,-0.097981,0.097981,0.0000,0.0000,0.0000,-0.002351,-0.102777,0.099709,0.4269,0.4831,0.1443,0.000000,0.579845,-0.562971,0.564505,-0.590583,0.575243,-0.561437
1.4788,0.016771,0.000000,-0.097103,0.097103,0.0000,0.0000,0.0000,-0.002351,-0.102777,0.099709,0.4269,0.4831,0.1443,0.000000,0.579845,-0.562971,0.564505,-0.590583,0.575243,-0.561437
1.4956,0.016754,0.000000,-0.096226,0.096226,0.0000,0.0000,0.0000,-0.002364,-0.102777,0.099709,0.4759,0.5005,0.1972,0.000000,0.579845,-0.562971,0.564505,-0.590583,0.575243,-0.559903
1.5123,0.016756,0.000000,-0.095348,0.095348,0.0000,0.0000,0.0000,-0.002349,-0.101243,0.098175,0.4212,0.4810,0.1382,0.000000,0.579845,-0.562971,0.564505,-0.590583,0.575243,-0.561437
1.5291,0.016750,0.000000,-0.094471,0.094471,0.0000,0.0000,0.0000,-0.002351,-0.099709,0.096641,0.4269,0.4831,0.1443,0.000000,0.579845,-0.562971,0.564505,-0.590583,0.575243,-0.561437
1.5458,0.016759,0.000000,-0.093594,0.093594,0.0000,0.0000,0.0000,-0.002351,-0.099709,0.096641,0.4269,0.4831,0.1443,0.000000,0.579845,-0.562971,0.564505,-0.590583,0.575243,-0.561437
1.5626,0.016748,0.000000,-0.092717,0.092717,0.0000,0.0000,0.0000,-0.002351,-0.099709,0.096641,0.4269,0.4831,0.1443,0.000000,0.579845,-0.562971,0.564505,-0.590583,0.575243,-0.561437
1.5793,0.016770,0.000000,-0.091839,0.091839,0.0000,0.0000,0.0000,-0.002351,-0.096641,0.093573,0.4269,0.4831,0.1443,0.000000,0.579845,-0.562971,0.564505,-0.590583,0.575243,-0.561437
1.5961,0.016754,0.000000,-0.090961,0.090961,0.0000,0.0000,0.0000,-0.002351,-0.096641,0.093573,0.4269,0.4831,0.1443,0.000000,0.579845,-0.562971,0.564505,-0.590583,0.575243,-0.561437
1.6129,0.016760,0.000000,-0.090084,0.090084,0.0000,0.0000,0.0000,-0.002351,-0.095107,0.093573,0.4269,0.4831,0.1443,0.000000,0.579845,-0.562971,0.564505,-0.590583,0.575243,-0.561437
1.6296,0.016751,0.000000,-0.089207,0.089207,0.0000,0.0000,0.0000,-0.002364,-0.093573,0.093573,0.4759,0.5005,0.1972,0.000000,0.579845,-0.562971,0.564505,-0.590583,0.575243,-0.559903
1.6464,0.016767,0.000000,-0.088329,0.088329,0.0000,0.0000,0.0000,-0.002349,-0.093573,0.090505,0.4212,0.4810,0.1382,0.000000,0.579845,-0.562971,0.564505,-0.590583,0.575243,-0.561437
1.6631,0.016756,0.000000,-0.087452,0.087452,0.0000,0.0000,0.0000,-0.002351,-0.093573,0.090505,0.4269,0.4831,0.1443,0.000000,0.579845,-0.562971,0.564505,-0.590583,0.575243,-0.561437
1.6799,0.016774,0.000000,-0.086573,0.086573,0.0000,0.0000,0.0000,-0.002351,-0.093573,0.090505,0.4269,0.4831,0.1443,0.000000,0.579845,-0.562971,0.564505,-0.590583,0.575243,-0.561437
1.6967,0.016756,0.000000,-0.085696,0.085696,0.0000,0.0000,0.0000,-0.002351,-0.093573,0.090505,0.4269,0.4831,0.1443,0.000000,0.579845,-0.562971,0.564505,-0.590583,0.575243,-0.561437
1.7134,0.016761,0.000000,-0.084818,0.084818,0.0000,0.0000,0.0000,-0.002364,-0.093573,0.090505,0.4759,0.5005,0.1972,0.000000,0.579845,-0.562971,0.564505,-0.590583,0.575243,-0.559903
1.7302,0.016751,0.000000,-0.083941,0.083941,0.0000,0.0000,0.0000,-0.002349,-0.093573,0.090505,0.4212,0.4810,0.1382,0.000000,0.579845,-0.562971,0.564505,-0.590583,0.575243,-0.561437
1.7469,0.016756,0.000000,-0.083064,0.083064,0.0000,0.0000,0.0000,-0.002351,-0.092039,0.090505,0.4269,0.4831,0.1443,0.000000,0.579845,-0.562971,0.564505,-0.590583,0.575243,-0.561437
1.7638,0.016899,0.000000,-0.082179,0.082179,0.0000,0.0000,0.0000,-0.002351,-0.092039,0.088971,0.4269,0.4831,0.1443,0.000000,0.579845,-0.562971,0.564505,-0.590583,0.575243,-0.561437
1.7806,0.016751,0.000000,-0.081302,0.081302,0.0000,0.0000,0.0000,-0.002351,-0.092039,0.088971,0.4269,0.4831,0.1443,0.000000,0.579845,-0.562971,0.564505,-0.590583,0.575243,-0.561437
1.7973,0.016760,0.000000,-0.080424,0.080424,0.0000,0.0000,0.0000,-0.002364,-0.088971,0.087437,0.4759,0.5005,0.1972,0.000000,0.579845,-0.562971,0.564505,-0.590583,0.575243,-0.559903
1.8141,0.016753,0.000000,-0.079547,0.079547,0.0000,0.0000,0.0000,-0.002362,-0.081301,0.085903,0.4708,0.4987,0.1917,0.000000,0.579845,-0.562971,0.564505,-0.590583,0.575243,-0.559903
1.8309,0.016761,0.000000,-0.078670,0.078670,0.0000,0.0000,0.0000,-0.002349,-0.079767,0.085903,0.4218,0.4812,0.1388,0.000000,0.579845,-0.562971,0.564505,-0.590583,0.575243,-0.561437
1.8476,0.016749,0.000000,-0.077793,0.077793,0.0000,0.0000,0.0000,-0.002364,-0.082835,0.082835,0.4764,0.5007,0.1977,0.000000,0.579845,-0.562971,0.564505,-0.590583,0.575243,-0.559903
1.8644,0.016766,0.000000,-0.076915,0.076915,0.0000,0.0000,0.0000,-0.002364,-0.079767,0.076699,0.4764,0.5007,0.1977,0.000000,0.579845,-0.562971,0.564505,-0.590583,0.575243,-0.561437
1.8811,0.016750,0.000000,-0.076038,0.076038,0.0000,0.0000,0.0000,-0.002349,-0.079767,0.076699,0.4212,0.4810,0.1381,0.000000,0.579845,-0.562971,0.564505,-0.590583,0.575243,-0.561437
1.8979,0.016821,0.000000,-0.075157,0.075157,0.0000,0.0000,0.0000,-0.002351,-0.076699,0.076699,0.4269,0.4831,0.1443,0.000000,0.579845,-0.562971,0.564505,-0.590583,0.575243,-0.561437
1.9147,0.016750,0.000000,-0.074280,0.074280,0.0000,0.0000,0.0000,-0.002364,-0.079767,0.076699,0.4759,0.5005,0.1972,0.000000,0.579845,-0.562971,0.564505,-0.590583,0.575243,-0.559903
1.9315,0.016766,0.000000,-0.073402,0.073402,0.0000,0.0000,0.0000,-0.002349,-0.078233,0.076699,0.4212,0.4810,0.1382,0.000000,0.579845,-0.562971,0.564505,-0.590583,0.575243,-0.561437
1.9482,0.016746,0.000000,-0.072525,0.072525,0.0000,0.0000,0.0000,-0.002351,-0.076699,0.076699,0.4269,0.4831,0.1443,0.000000,0.579845,-0.562971,0.564505,-0.590583,0.575243,-0.561437
1.9651,0.016850,0.000000,-0.071643,0.071643,0.0000,0.0000,0.0000,-0.002364,-0.075165,0.075165,0.4759,0.5005,0.1972,0.000000,0.579845,-0.562971,0.564505,-0.590583,0.575243,-0.559903
1.9818,0.016750,0.000000,-0.070766,0.070766,0.0000,0.0000,0.0000,-0.002364,-0.075165,0.075165,0.4759,0.5005,0.1972,0.000000,0.579845,-0.562971,0.564505,-0.590583,0.575243,-0.559903
1.9986,0.016771,0.000000,-0.069888,0.069888,0.0000,0.0000,0.0000,-0.002338,-0.073631,0.072097,0.4320,0.5318,0.0844,0.000000,0.579845,-0.562971,0.564505,-0.592117,0.575243,-0.561437
2.0153,0.016751,0.000000,-0.069011,0.069011,0.0000,0.0000,0.0000,-0.002352,-0.073631,0.070563,0.4258,0.4778,0.1499,0.000000,0.579845,-0.562971,0.564505,-0.590583,0.575243,-0.561437
2.0321,0.016783,0.000000,-0.068132,0.068132,0.0000,0.0000,0.0000,-0.002352,-0.073631,0.070563,0.4258,0.4778,0.1499,0.000000,0.579845,-0.562971,0.564505,-0.590583,0.575243,-0.561437
2.0489,0.016753,0.000000,-0.067255,0.067255,0.0000,0.0000,0.0000,-0.002350,-0.072097,0.070563,0.4265,0.4834,0.1431,0.000000,0.579845,-0.562971,0.564505,-0.590583,0.575243,-0.561437
2.0656,0.016754,0.000000,-0.066378,0.066378,0.0000,0.0000,0.0000,-0.002350,-0.070563,0.069029,0.4265,0.4834,0.1431,0.000000,0.579845,-0.562971,0.564505,-0.590583,0.575243,-0.561437
2.0824,0.016748,0.000000,-0.065501,0.065501,0.0000,0.0000,0.0000,-0.002350,-0.069029,0.067495,0.4265,0.4834,0.1431,0.000000,0.579845,-0.562971,0.564505,-0.590583,0.575243,-0.561437
2.0991,0.016772,0.000000,-0.064622,0.064622,0.0000,0.0000,0.0000,-0.002364,-0.069029,0.067495,0.4759,0.5005,0.1973,0.000000,0.579845,-0.562971,0.564505,-0.590583,0.575243,-0.559903
2.1159,0.016751,0.000000,-0.063745,0.063745,0.0000,0.0000,0.0000,-0.002349,-0.069029,0.067495,0.4212,0.4810,0.1382,0.000000,0.579845,-0.562971,0.564505,-0.590583,0.575243,-0.561437
2.1327,0.016779,0.000000,-0.062867,0.062867,0.0000,0.0000,0.0000,-0.002349,-0.069029,0.067495,0.4212,0.4810,0.1382,0.000000,0.579845,-0.562971,0.564505,-0.590583,0.575243,-0.561437
2.1494,0.016752,0.000000,-0.061990,0.061990,0.0000,0.0000,0.0000,-0.002339,-0.069029,0.065961,0.4377,0.5339,0.0906,0.000000,0.579845,-0.562971,0.564505,-0.592117,0.575243,-0.561437
2.1662,0.016768,0.000000,-0.061112,0.061112,0.0000,0.0000,0.0000,-0.002365,-0.069029,0.065961,0.4747,0.4952,0.2028,0.000000,0.579845,-0.562971,0.564505,-0.590583,0.575243,-0.559903
2.1830,0.016770,0.000000,-0.060234,0.060234,0.0000,0.0000,0.0000,-0.002349,-0.067495,0.064427,0.4213,0.4816,0.1376,0.000000,0.579845,-0.562971,0.564505,-0.590583,0.575243,-0.561437
2.1997,0.016770,0.000000,-0.059356,0.059356,0.0000,0.0000,0.0000,-0.002339,-0.067495,0.064427,0.4377,0.5338,0.0907,0.000000,0.579845,-0.562971,0.564505,-0.592117,0.575243,-0.561437
2.2166,0.016867,0.000000,-0.058472,0.058472,0.0000,0.0000,0.0000,-0.002352,-0.065961,0.064427,0.4252,0.4776,0.1493,0.000000,0.579845,-0.562971,0.564505,-0.590583,0.575243,-0.561437
2.2334,0.016765,0.000000,-0.057595,0.057595,0.0000,0.0000,0.0000,-0.002352,-0.059825,0.064427,0.4252,0.4776,0.1493,0.000000,0.579845,-0.562971,0.564505,-0.592117,0.575243,-0.561437
2.2501,0.016751,0.000000,-0.056718,0.056718,0.0000,0.0000,0.0000,-0.002339,-0.059825,0.064427,0.4373,0.5342,0.0894,0.000000,0.579845,-0.562971,0.564505,-0.592117,0.575243,-0.561437
2.2669,0.016768,0.000000,-0.055840,0.055840,0.0000,0.0000,0.0000,-0.002352,-0.055223,0.062893,0.4252,0.4776,0.1494,0.000000,0.579845,-0.562971,0.564505,-0.590583,0.575243,-0.561437
2.2836,0.016749,0.000000,-0.054963,0.054963,0.0000,0.0000,0.0000,-0.002363,-0.056757,0.062893,0.4760,0.5011,0.1966,0.000000,0.579845,-0.562971,0.564505,-0.590583,0.575243,-0.559903
2.3004,0.016774,0.000000,-0.054084,0.054084,0.0000,0.0000,0.0000,-0.002349,-0.059825,0.062893,0.4212,0.4810,0.1382,0.000000,0.579845,-0.562971,0.564505,-0.590583,0.575243,-0.561437
2.3171,0.016749,0.000000,-0.053207,0.053207,0.0000,0.0000,0.0000,-0.002364,-0.056757,0.062893,0.4765,0.5007,0.1978,0.000000,0.579845,-0.562971,0.564505,-0.590583,0.575243,-0.559903
2.3339,0.016782,0.000000,-0.052329,0.052329,0.0000,0.0000,0.0000,-0.002349,-0.050621,0.059825,0.4212,0.4810,0.1381,0.000000,0.579845,-0.562971,0.564505,-0.590583,0.575243,-0.561437
2.3507,0.016747,0.000000,-0.051452,0.051452,0.0000,0.0000,0.0000,-0.002349,-0.050621,0.059825,0.4212,0.4810,0.1381,0.000000,0.579845,-0.562971,0.564505,-0.590583,0.575243,-0.561437
2.3674,0.016764,0.000000,-0.050574,0.050574,0.0000,0.0000,0.0000,-0.002351,-0.053689,0.058291,0.4269,0.4831,0.1443,0.000000,0.579845,-0.562971,0.564505,-0.590583,0.575243,-0.561437
2.3842,0.016751,0.000000,-0.049697,0.049697,0.0000,0.0000,0.0000,-0.002364,-0.056757,0.053689,0.4759,0.5005,0.1972,0.000000,0.579845,-0.562971,0.564505,-0.590583,0.575243,-0.559903
2.4010,0.016761,0.000000,-0.048819,0.048819,0.0000,0.0000,0.0000,-0.002362,-0.050621,0.050621,0.4708,0.4987,0.1917,0.000000,0.579845,-0.562971,0.564505,-0.590583,0.575243,-0.559903
2.4177,0.016750,0.000000,-0.047942,0.047942,0.0000,0.0000,0.0000,-0.002362,-0.047553,0.049087,0.4708,0.4987,0.1917,0.000000,0.579845,-0.562971,0.564505,-0.590583,0.575243,-0.559903
2.4345,0.016760,0.000000,-0.047065,0.047065,0.0000,0.0000,0.0000,-0.002362,-0.047553,0.049087,0.4708,0.4987,0.1917,0.000000,0.579845,-0.562971,0.564505,-0.590583,0.575243,-0.559903
2.4512,0.016752,0.000000,-0.046188,0.046188,0.0000,0.0000,0.0000,-0.002349,-0.053689,0.049087,0.4218,0.4812,0.1388,0.000000,0.579845,-0.562971,0.564505,-0.590583,0.575243,-0.561437
2.4680,0.016831,0.000000,-0.045306,0.045306,0.0000,0.0000,0.0000,-0.002339,-0.052155,0.049087,0.4376,0.5339,0.0905,0.000000,0.579845,-0.562971,0.564505,-0.592117,0.575243,-0.561437
2.4848,0.016770,0.000000,-0.044428,0.044428,0.0000,0.0000,0.0000,-0.002352,-0.044485,0.047553,0.4252,0.4776,0.1493,0.000000,0.579845,-0.562971,0.564505,-0.590583,0.575243,-0.561437
2.5016,0.016773,0.000000,-0.043550,0.043550,0.0000,0.0000,0.0000,-0.002350,-0.044485,0.046019,0.4265,0.4834,0.1432,0.000000,0.579845,-0.562971,0.564505,-0.590583,0.575243,-0.561437
2.5183,0.016748,0.000000,-0.042673,0.042673,0.0000,0.0000,0.0000,-0.002350,-0.049087,0.044485,0.4265,0.4834,0.1432,0.000000,0.579845,-0.562971,0.564505,-0.590583,0.575243,-0.561437
2.5351,0.016767,0.000000,-0.041795,0.041795,0.0000,0.0000,0.0000,-0.002350,-0.049087,0.044485,0.4265,0.4834,0.1432,0.000000,0.579845,-0.562971,0.564505,-0.590583,0.575243,-0.561437
2.5519,0.016745,0.000000,-0.040918,0.040918,0.0000,0.0000,0.0000,-0.002350,-0.046019,0.042951,0.4265,0.4834,0.1432,0.000000,0.579845,-0.562971,0.564505,-0.590583,0.575243,-0.561437
2.5710,0.019151,0.000000,-0.039916,0.039916,0.0000,0.0000,0.0000,-0.002350,-0.039884,0.042951,0.4265,0.4834,0.1432,0.000000,0.579845,-0.562971,0.564505,-0.590583,0.575243,-0.561437
2.5878,0.016758,0.000000,-0.039038,0.039038,0.0000,0.0000,0.0000,-0.002350,-0.041417,0.041417,0.4265,0.4834,0.1432,0.000000,0.579845,-0.562971,0.564505,-0.590583,0.575243,-0.561437
2.6045,0.016763,0.000000,-0.038160,0.038160,0.0000,0.0000,0.0000,-0.002350,-0.046019,0.041417,0.4265,0.4834,0.1432,0.000000,0.579845,-0.562971,0.564505,-0.590583,0.575243,-0.561437
2.6213,0.016760,0.000000,-0.037283,0.037283,0.0000,0.0000,0.0000,-0.002350,-0.042951,0.039884,0.4265,0.4834,0.1432,0.000000,0.579845,-0.562971,0.564505,-0.590583,0.575243,-0.561437
2.6380,0.016761,0.000000,-0.036405,0.036405,0.0000,0.0000,0.0000,-0.002364,-0.036816,0.038350,0.4759,0.5005,0.1973,0.000000,0.579845,-0.562971,0.564505,-0.590583,0.575243,-0.559903
2.6548,0.016753,0.000000,-0.035528,0.035528,0.0000,0.0000,0.0000,-0.002364,-0.036816,0.038350,0.4759,0.5005,0.1973,0.000000,0.579845,-0.562971,0.564505,-0.590583,0.575243,-0.559903
2.6715,0.016750,0.000000,-0.034651,0.034651,0.0000,0.0000,0.0000,-0.002362,-0.036816,0.036816,0.4708,0.4987,0.1916,0.000000,0.579845,-0.562971,0.564505,-0.590583,0.575243,-0.559903
2.6883,0.016763,0.000000,-0.033773,0.033773,0.0000,0.0000,0.0000,-0.002338,-0.039884,0.036816,0.4325,0.5320,-0.0029,-0.001534,0.579845,-0.562971,0.564505,-0.592117,0.575243,-0.561437
2.7051,0.016757,0.000000,-0.032896,0.032896,0.0000,0.0000,0.0000,-0.002352,-0.039884,0.036816,0.4257,0.4778,0.1499,0.000000,0.579845,-0.562971,0.564505,-0.590583,0.575243,-0.561437
2.7218,0.016752,0.000000,-0.032019,0.032019,0.0000,0.0000,0.0000,-0.002350,-0.036816,0.036816,0.4265,0.4834,0.1431,0.000000,0.579845,-0.562971,0.564505,-0.590583,0.575243,-0.561437
2.7386,0.016772,0.000000,-0.031141,0.031141,0.0000,0.0000,0.0000,-0.002350,-0.036816,0.036816,0.4265,0.4834,0.1431,0.000000,0.579845,-0.562971,0.564505,-0.590583,0.575243,-0.561437
2.7553,0.016759,0.000000,-0.030263,0.030263,0.0000,0.0000,0.0000,-0.002364,-0.033748,0.036816,0.4759,0.5005,0.1973,0.000000,0.579845,-0.562971,0.564505,-0.590583,0.575243,-0.559903
2.7721,0.016757,0.000000,-0.029386,0.029386,0.0000,0.0000,0.0000,-0.002349,-0.030680,0.036816,0.4212,0.4810,0.1382,0.000000,0.579845,-0.562971,0.564505,-0.590583,0.575243,-0.561437
2.7889,0.016752,0.000000,-0.028509,0.028509,0.0000,0.0000,0.0000,-0.002351,-0.030680,0.035282,0.4269,0.4831,0.1443,0.000000,0.579845,-0.562971,0.564505,-0.590583,0.575243,-0.561437
2.8056,0.016764,0.000000,-0.027631,0.027631,0.0000,0.0000,0.0000,-0.002364,-0.032214,0.035282,0.4759,0.5005,0.1972,0.000000,0.579845,-0.562971,0.564505,-0.590583,0.575243,-0.559903
2.8224,0.016754,0.000000,-0.026754,0.026754,0.0000,0.0000,0.0000,-0.002349,-0.030680,0.035282,0.4212,0.4810,0.1382,0.000000,0.579845,-0.562971,0.564505,-0.590583,0.575243,-0.561437
2.8391,0.016771,0.000000,-0.025876,0.025876,0.0000,0.0000,0.0000,-0.002349,-0.026078,0.033748,0.4212,0.4810,0.1382,0.000000,0.579845,-0.562971,0.564505,-0.590583,0.575243,-0.559903
2.8559,0.016750,0.000000,-0.024999,0.024999,0.0000,0.0000,0.0000,-0.002364,-0.026078,0.033748,0.4765,0.5007,0.1978,0.000000,0.579845,-0.562971,0.564505,-0.590583,0.575243,-0.559903
2.8727,0.016758,0.000000,-0.024121,0.024121,0.0000,0.0000,0.0000,-0.002349,-0.026078,0.032214,0.4212,0.4810,0.1381,0.000000,0.579845,-0.562971,0.564505,-0.590583,0.575243,-0.561437
2.8894,0.016750,0.000000,-0.023244,0.023244,0.0000,0.0000,0.0000,-0.002352,-0.029146,0.029146,0.4872,0.5515,0.1441,0.000000,0.579845,-0.562971,0.564505,-0.592117,0.575243,-0.559903
2.9062,0.016755,0.000000,-0.022367,0.022367,0.0000,0.0000,0.0000,-0.002350,-0.027612,0.026078,0.4200,0.4757,0.1437,0.000000,0.579845,-0.562971,0.564505,-0.590583,0.575243,-0.561437
2.9229,0.016751,0.000000,-0.021490,0.021490,0.0000,0.0000,0.0000,-0.002364,-0.023010,0.021476,0.4766,0.5013,0.1972,0.000000,0.579845,-0.562971,0.564505,-0.590583,0.575243,-0.559903
2.9397,0.016767,0.000000,-0.020612,0.020612,0.0000,0.0000,0.0000,-0.002364,-0.023010,0.021476,0.4766,0.5013,0.1972,0.000000,0.579845,-0.562971,0.564505,-0.590583,0.575243,-0.559903
2.9564,0.016755,0.000000,-0.019734,0.019734,0.0000,0.0000,0.0000,-0.002362,-0.021476,0.021476,0.4707,0.4986,0.1917,0.000000,0.579845,-0.562971,0.564505,-0.590583,0.575243,-0.559903
2.9732,0.016753,0.000000,-0.018857,0.018857,0.0000,0.0000,0.0000,-0.002338,-0.026078,0.023010,0.4325,0.5320,0.0850,0.000000,0.579845,-0.562971,0.564505,-0.592117,0.575243,-0.561437
2.9899,0.016753,0.000000,-0.017980,0.017980,0.0000,0.0000,0.0000,-0.002352,-0.026078,0.021476,0.4257,0.4778,0.1499,0.000000,0.579845,-0.562971,0.564505,-0.590583,0.575243,-0.561437
3.0067,0.016768,0.000000,-0.017102,0.017102,0.0000,0.0000,0.0000,-0.002350,-0.021476,0.021476,0.4265,0.4834,0.1431,0.000000,0.579845,-0.562971,0.564505,-0.590583,0.575243,-0.561437
3.0235,0.016764,0.000000,-0.016224,0.016224,0.0000,0.0000,0.0000,-0.002350,-0.016874,0.021476,0.4265,0.4834,0.1431,0.000000,0.579845,-0.562971,0.564505,-0.590583,0.575243,-0.559903
3.0402,0.016761,0.000000,-0.015347,0.015347,0.0000,0.0000,0.0000,-0.002364,-0.016874,0.021476,0.4759,0.5005,0.1973,0.000000,0.579845,-0.562971,0.564505,-0.590583,0.575243,-0.559903
3.0570,0.016760,0.000000,-0.014469,0.014469,0.0000,0.0000,0.0000,-0.002349,-0.018408,0.018408,0.4212,0.4810,0.1382,0.000000,0.579845,-0.562971,0.564505,-0.590583,0.575243,-0.561437
3.0737,0.016751,0.000000,-0.013592,0.013592,0.0000,0.0000,0.0000,-0.002364,-0.019942,0.016874,0.4765,0.5007,0.1978,0.000000,0.579845,-0.562971,0.564505,-0.590583,0.575243,-0.559903
3.0905,0.016762,0.000000,-0.012714,0.012714,0.0000,0.0000,0.0000,-0.002362,-0.016874,0.016874,0.4707,0.4987,0.1916,0.000000,0.579845,-0.562971,0.564505,-0.590583,0.575243,-0.559903
3.1073,0.016760,0.000000,-0.011837,0.011837,0.0000,0.0000,0.0000,-0.002349,-0.012272,0.015340,0.4218,0.4812,0.1388,0.000000,0.579845,-0.562971,0.564505,-0.590583,0.575243,-0.561437
3.1240,0.016762,0.000000,-0.010959,0.010959,0.0000,0.0000,0.0000,-0.002351,-0.015340,0.012272,0.4269,0.4831,0.1443,0.000000,0.579845,-0.562971,0.564505,-0.590583,0.575243,-0.561437
3.1408,0.016757,0.000000,-0.010082,0.010082,0.0000,0.0000,0.0000,-0.002351,-0.015340,0.012272,0.4269,0.4831,0.1443,0.000000,0.579845,-0.562971,0.564505,-0.590583,0.575243,-0.561437
3.1575,0.016759,0.000000,-0.009204,0.009204,0.0000,0.0000,0.0000,-0.002351,-0.016874,0.012272,0.4269,0.4831,0.1443,0.000000,0.579845,-0.562971,0.564505,-0.590583,0.575243,-0.561437
3.1743,0.016751,0.000000,-0.008327,0.008327,0.0000,0.0000,0.0000,-0.002351,-0.012272,0.010738,0.4269,0.4831,0.1443,0.000000,0.579845,-0.562971,0.564505,-0.590583,0.575243,-0.561437
3.1911,0.016764,0.000000,-0.007450,0.007450,0.0000,0.0000,0.0000,-0.002352,-0.010738,0.010738,0.4866,0.5513,0.1435,0.000000,0.579845,-0.562971,0.564505,-0.592117,0.575243,-0.559903
3.2078,0.016759,0.000000,-0.006572,0.006572,0.0000,0.0000,0.0000,-0.002350,-0.012272,0.010738,0.4201,0.4758,0.1438,0.000000,0.579845,-0.562971,0.564505,-0.590583,0.575243,-0.561437
3.2246,0.016763,0.000000,-0.005694,0.005694,0.0000,0.0000,0.0000,-0.002350,-0.013806,0.009204,0.4270,0.4836,0.1438,0.000000,0.579845,-0.562971,0.564505,-0.590583,0.575243,-0.561437
3.2413,0.016754,0.000000,-0.004817,0.004817,0.0000,0.0000,0.0000,-0.002350,-0.013806,0.009204,0.4270,0.4836,0.1438,0.000000,0.579845,-0.562971,0.564505,-0.590583,0.575243,-0.561437
3.2581,0.016753,0.000000,-0.003940,0.003940,0.0000,0.0000,0.0000,-0.002364,-0.010738,0.007670,0.4759,0.5005,0.1972,0.000000,0.579845,-0.562971,0.564505,-0.590583,0.575243,-0.559903
3.2748,0.016758,0.000000,-0.003062,0.003062,0.0000,0.0000,0.0000,-0.002362,-0.004602,0.007670,0.4708,0.4987,0.1917,0.000000,0.579845,-0.562971,0.564505,-0.590583,0.575243,-0.559903
3.2916,0.016762,0.000000,-0.002185,0.002185,0.0000,0.0000,0.0000,-0.002351,-0.001534,0.006136,0.4821,0.5497,0.1385,0.000000,0.579845,-0.562971,0.564505,-0.592117,0.575243,-0.559903
3.3084,0.016751,0.000000,-0.001308,0.001308,0.0000,0.0000,0.0000,-0.002350,-0.003068,0.004602,0.4206,0.4759,0.1443,0.000000,0.579845,-0.562971,0.564505,-0.590583,0.575243,-0.561437
3.3251,0.016764,0.000000,-0.000430,0.000430,0.0000,0.0000,0.0000,-0.002339,-0.003068,0.004602,0.4378,0.5344,0.0900,0.000000,0.579845,-0.562971,0.564505,-0.592117,0.575243,-0.561437
3.3419,0.016747,0.000000,0.000447,-0.000447,0.0000,0.0000,0.0000,-0.002339,-0.003068,0.004602,0.4378,0.5344,0.0900,0.000000,0.579845,-0.562971,0.564505,-0.592117,0.575243,-0.561437
3.3586,0.016751,0.000000,0.001324,-0.001324,0.0000,0.0000,0.0000,-0.002352,-0.003068,0.001534,0.4252,0.4775,0.1494,0.000000,0.579845,-0.562971,0.564505,-0.590583,0.575243,-0.561437
3.3755,0.016900,0.000000,0.002209,-0.002209,0.0000,0.0000,0.0000,-0.002350,-0.003068,0.000000,0.4265,0.4835,0.1432,0.000000,0.579845,-0.562971,0.564505,-0.590583,0.575243,-0.561437
3.3923,0.016753,0.000000,0.003086,-0.003086,0.0000,0.0000,0.0000,-0.002350,-0.003068,0.000000,0.4265,0.4835,0.1432,0.000000,0.579845,-0.562971,0.564505,-0.590583,0.575243,-0.561437
3.4090,0.016755,0.000000,0.003963,-0.003963,0.0000,0.0000,0.0000,-0.002350,-0.003068,-0.001534,0.4265,0.4835,0.1432,0.000000,0.579845,-0.562971,0.564505,-0.590583,0.575243,-0.561437
3.4258,0.016764,0.000000,0.004841,-0.004841,0.0000,0.0000,0.0000,-0.002350,0.000000,-0.001534,0.4265,0.4835,0.1432,0.000000,0.579845,-0.562971,0.564505,-0.590583,0.575243,-0.561437
3.4425,0.016750,0.000000,0.005718,-0.005718,0.0000,0.0000,0.0000,-0.002350,0.000000,-0.001534,0.4265,0.4835,0.1432,0.000000,0.579845,-0.562971,0.564505,-0.590583,0.575243,-0.561437
3.4593,0.016753,0.000000,0.006595,-0.006595,0.0000,0.0000,0.0000,-0.002350,0.004602,-0.003068,0.4265,0.4835,0.1432,0.000000,0.579845,-0.562971,0.564505,-0.590583,0.575243,-0.561437
3.4761,0.016831,0.000000,0.007477,-0.007477,0.0000,0.0000,0.0000,-0.002350,0.003068,-0.003068,0.4265,0.4835,0.1432,0.000000,0.579845,-0.562971,0.564505,-0.590583,0.575243,-0.561437
3.4929,0.016747,0.000000,0.008353,-0.008353,0.0000,0.0000,0.0000,-0.002352,0.000000,-0.003068,0.4867,0.5513,0.1436,0.000000,0.579845,-0.562971,0.564505,-0.592117,0.575243,-0.559903
3.5096,0.016752,0.000000,0.009231,-0.009231,0.0000,0.0000,0.0000,-0.002363,0.003068,-0.003068,0.4696,0.4934,0.1972,0.000000,0.579845,-0.562971,0.564505,-0.590583,0.575243,-0.559903
3.5264,0.016752,0.000000,0.010108,-0.010108,0.0000,0.0000,0.0000,-0.002363,0.009204,-0.004602,0.4696,0.4934,0.1972,0.000000,0.579845,-0.562971,0.564505,-0.590583,0.575243,-0.559903
3.5431,0.016753,0.000000,0.010985,-0.010985,0.0000,0.0000,0.0000,-0.002362,0.009204,-0.004602,0.4714,0.4995,0.1917,0.000000,0.579845,-0.562971,0.564505,-0.590583,0.575243,-0.559903
3.5599,0.016750,0.000000,0.011862,-0.011862,0.0000,0.0000,0.0000,-0.002349,0.007670,-0.007670,0.4217,0.4812,0.1388,0.000000,0.579845,-0.562971,0.564505,-0.590583,0.575243,-0.561437
3.5766,0.016754,0.000000,0.012739,-0.012739,0.0000,0.0000,0.0000,-0.002351,0.003068,-0.009204,0.4269,0.4831,0.1443,0.000000,0.579845,-0.562971,0.564505,-0.590583,0.575243,-0.561437
3.5934,0.016759,0.000000,0.013617,-0.013617,0.0000,0.0000,0.0000,-0.002351,0.012272,-0.010738,0.4269,0.4831,0.1443,0.000000,0.579845,-0.562971,0.564505,-0.590583,0.575243,-0.561437
3.6101,0.016720,0.000000,0.014492,-0.014492,0.0000,0.0000,0.0000,-0.002351,0.010738,-0.010738,0.4269,0.4831,0.1443,0.000000,0.579845,-0.562971,0.564505,-0.590583,0.575243,-0.561437
3.6269,0.016769,0.000000,0.015370,-0.015370,0.0000,0.0000,0.0000,-0.002351,0.010738,-0.010738,0.4269,0.4831,0.1443,0.000000,0.579845,-0.562971,0.564505,-0.590583,0.575243,-0.561437
3.6436,0.016760,0.000000,0.016248,-0.016248,0.0000,0.0000,0.0000,-0.002364,0.007670,-0.012272,0.4759,0.5005,0.1972,0.000000,0.579845,-0.562971,0.564505,-0.590583,0.575243,-0.559903
3.6604,0.016752,0.000000,0.017125,-0.017125,0.0000,0.0000,0.0000,-0.002349,0.012272,-0.012272,0.4212,0.4810,0.1382,0.000000,0.579845,-0.562971,0.564505,-0.590583,0.575243,-0.561437
3.6775,0.017059,0.000000,0.018018,-0.018018,0.0000,0.0000,0.0000,-0.002351,0.016874,-0.013806,0.4269,0.4831,0.1443,0.000000,0.579845,-0.562971,0.564505,-0.590583,0.575243,-0.561437
3.6942,0.016753,0.000000,0.018895,-0.018895,0.0000,0.0000,0.0000,-0.002364,0.013806,-0.016874,0.4759,0.5005,0.1972,0.000000,0.579845,-0.562971,0.564505,-0.590583,0.575243,-0.559903
3.7112,0.017027,0.000000,0.019787,-0.019787,0.0000,0.0000,0.0000,-0.002362,0.010738,-0.016874,0.4708,0.4987,0.1917,0.000000,0.579845,-0.562971,0.564505,-0.590583,0.575243,-0.559903
3.7280,0.016752,0.000000,0.020664,-0.020664,0.0000,0.0000,0.0000,-0.002362,0.010738,-0.016874,0.4708,0.4987,0.1917,0.000000,0.579845,-0.562971,0.564505,-0.590583,0.575243,-0.559903
3.7447,0.016764,0.000000,0.021542,-0.021542,0.0000,0.0000,0.0000,-0.002349,0.015340,-0.016874,0.4218,0.4812,0.1388,0.000000,0.579845,-0.562971,0.564505,-0.590583,0.575243,-0.561437
3.7615,0.016750,0.000000,0.022419,-0.022419,0.0000,0.0000,0.0000,-0.002339,0.019942,-0.016874,0.4376,0.5339,0.0905,0.000000,0.579845,-0.562971,0.564505,-0.592117,0.575243,-0.561437
3.7787,0.017153,0.000000,0.023317,-0.023317,0.0000,0.0000,0.0000,-0.002365,0.016874,-0.016874,0.4357,0.5616,0.0952,0.000000,0.578311,-0.562971,0.564505,-0.592117,0.575243,-0.559903
3.7954,0.016755,0.000000,0.024194,-0.024194,0.0000,0.0000,0.0000,-0.002349,0.013806,-0.016874,0.4254,0.4747,0.1488,0.000000,0.579845,-0.562971,0.564505,-0.590583,0.575243,-0.561437
3.8122,0.016770,0.000000,0.025072,-0.025072,0.0000,0.0000,0.0000,-0.002349,0.016874,-0.018408,0.4254,0.4747,0.1488,0.000000,0.579845,-0.562971,0.564505,-0.590583,0.575243,-0.561437
3.8289,0.016760,0.000000,0.025950,-0.025950,0.0000,0.0000,0.0000,-0.002351,0.016874,-0.018408,0.4265,0.4837,0.1432,0.000000,0.579845,-0.562971,0.564505,-0.590583,0.575243,-0.561437
3.8457,0.016758,0.000000,0.026827,-0.026827,0.0000,0.0000,0.0000,-0.002350,0.023010,-0.019942,0.4263,0.4825,0.1440,0.000000,0.579845,-0.562971,0.564505,-0.590583,0.575243,-0.561437
3.8625,0.016754,0.000000,0.027704,-0.027704,0.0000,0.0000,0.0000,-0.002339,0.027612,-0.023010,0.4372,0.5337,0.0900,0.000000,0.579845,-0.562971,0.564505,-0.592117,0.575243,-0.561437
3.8792,0.016764,0.000000,0.028582,-0.028582,0.0000,0.0000,0.0000,-0.002376,0.026078,-0.026078,0.4250,0.5108,0.1490,0.000000,0.578311,-0.562971,0.564505,-0.590583,0.575243,-0.559903
3.8960,0.016757,0.000000,0.029460,-0.029460,0.0000,0.0000,0.0000,-0.002361,0.023010,-0.026078,0.4761,0.4976,0.1967,0.000000,0.579845,-0.562971,0.564505,-0.590583,0.575243,-0.559903
3.9127,0.016768,0.000000,0.030338,-0.030338,0.0000,0.0000,0.0000,-0.002362,0.027612,-0.027612,0.4708,0.4990,0.1917,0.000000,0.579845,-0.562971,0.564505,-0.590583,0.575243,-0.559903
3.9295,0.016753,0.000000,0.031215,-0.031215,0.0000,0.0000,0.0000,-0.002362,0.027612,-0.027612,0.4708,0.4990,0.1917,0.000000,0.579845,-0.562971,0.564505,-0.590583,0.575243,-0.559903
3.9462,0.016756,0.000000,0.032092,-0.032092,0.0000,0.0000,0.0000,-0.002349,0.032214,-0.029146,0.4218,0.4812,0.1388,0.000000,0.579845,-0.562971,0.564505,-0.590583,0.575243,-0.561437
3.9630,0.016742,0.000000,0.032969,-0.032969,0.0000,0.0000,0.0000,-0.002351,0.029146,-0.029146,0.4269,0.4831,0.1443,0.000000,0.579845,-0.562971,0.564505,-0.590583,0.575243,-0.561437
3.9797,0.016754,0.000000,0.033846,-0.033846,0.0000,0.0000,0.0000,-0.002339,0.026078,-0.029146,0.4371,0.5337,0.0900,0.000000,0.579845,-0.562971,0.564505,-0.592117,0.575243,-0.561437
3.9965,0.016757,0.000000,0.034723,-0.034723,0.0000,0.0000,0.0000,-0.002352,0.029146,-0.030680,0.4253,0.4776,0.1494,0.000000,0.579845,-0.562971,0.564505,-0.590583,0.575243,-0.561437
4.0133,0.016760,0.000000,0.035601,-0.035601,0.0000,0.0000,0.0000,-0.002363,0.036816,-0.032214,0.4760,0.5011,0.1966,0.000000,0.579845,-0.562971,0.564505,-0.590583,0.575243,-0.559903
4.0300,0.016762,0.000000,0.036479,-0.036479,0.0000,0.0000,0.0000,-0.002363,0.036816,-0.032214,0.4760,0.5011,0.1966,0.000000,0.579845,-0.562971,0.564505,-0.590583,0.575243,-0.559903
4.0468,0.016752,0.000000,0.037356,-0.037356,0.0000,0.0000,0.0000,-0.002349,0.033748,-0.033748,0.4212,0.4810,0.1382,0.000000,0.579845,-0.562971,0.564505,-0.590583,0.575243,-0.561437
4.0635,0.016766,0.000000,0.038234,-0.038234,0.0000,0.0000,0.0000,-0.002364,0.027612,-0.033748,0.4765,0.5007,0.1978,0.000000,0.579845,-0.562971,0.564505,-0.590583,0.575243,-0.559903
4.0803,0.016749,0.000000,0.039111,-0.039111,0.0000,0.0000,0.0000,-0.002349,0.032214,-0.035282,0.4212,0.4810,0.1381,0.000000,0.579845,-0.562971,0.564505,-0.590583,0.575243,-0.561437
4.0971,0.016768,0.000000,0.039989,-0.039989,0.0000,0.0000,0.0000,-0.002351,0.041417,-0.036816,0.4269,0.4831,0.1443,0.000000,0.579845,-0.562971,0.564505,-0.590583,0.575243,-0.561437
4.1138,0.016753,0.000000,0.040866,-0.040866,0.0000,0.0000,0.0000,-0.002351,0.041417,-0.036816,0.4269,0.4831,0.1443,0.000000,0.579845,-0.562971,0.564505,-0.590583,0.575243,-0.561437
4.1306,0.016770,0.000000,0.041744,-0.041744,0.0000,0.0000,0.0000,-0.002351,0.038350,-0.036816,0.4269,0.4831,0.1443,0.000000,0.579845,-0.562971,0.564505,-0.590583,0.575243,-0.561437
4.1473,0.016750,0.000000,0.042621,-0.042621,0.0000,0.0000,0.0000,-0.002351,0.032214,-0.038350,0.4269,0.4831,0.1443,0.000000,0.579845,-0.562971,0.564505,-0.590583,0.575243,-0.561437
4.1641,0.016759,0.000000,0.043498,-0.043498,0.0000,0.0000,0.0000,-0.002351,0.036816,-0.039884,0.4269,0.4831,0.1443,0.000000,0.579845,-0.562971,0.564505,-0.590583,0.575243,-0.561437
4.1808,0.016748,0.000000,0.044375,-0.044375,0.0000,0.0000,0.0000,-0.002351,0.046019,-0.041417,0.4269,0.4831,0.1443,0.000000,0.579845,-0.562971,0.564505,-0.590583,0.575243,-0.561437
4.1976,0.016767,0.000000,0.045253,-0.045253,0.0000,0.0000,0.0000,-0.002351,0.042951,-0.041417,0.4269,0.4831,0.1443,0.000000,0.579845,-0.562971,0.564505,-0.592117,0.575243,-0.561437
4.2144,0.016756,0.000000,0.046130,-0.046130,0.0000,0.0000,0.0000,-0.002339,0.042951,-0.041417,0.4371,0.5337,0.0900,0.000000,0.579845,-0.562971,0.564505,-0.592117,0.575243,-0.561437
4.2311,0.016752,0.000000,0.047008,-0.047008,0.0000,0.0000,0.0000,-0.002365,0.036816,-0.042951,0.4748,0.4953,0.2028,0.000000,0.579845,-0.562971,0.564505,-0.590583,0.575243,-0.559903
4.2479,0.016748,0.000000,0.047884,-0.047884,0.0000,0.0000,0.0000,-0.002349,0.039884,-0.042951,0.4213,0.4816,0.1376,0.000000,0.579845,-0.562971,0.564505,-0.590583,0.575243,-0.561437
4.2646,0.016764,0.000000,0.048762,-0.048762,0.0000,0.0000,0.0000,-0.002351,0.047553,-0.044485,0.4269,0.4830,0.1444,0.000000,0.579845,-0.562971,0.564505,-0.590583,0.575243,-0.561437
4.2814,0.016753,0.000000,0.049639,-0.049639,0.0000,0.0000,0.0000,-0.002351,0.046019,-0.046019,0.4269,0.4830,0.1444,0.000000,0.579845,-0.562971,0.564505,-0.590583,0.575243,-0.561437
4.2981,0.016770,0.000000,0.050518,-0.050518,0.0000,0.0000,0.0000,-0.002351,0.041417,-0.046019,0.4269,0.4830,0.1444,0.000000,0.579845,-0.562971,0.564505,-0.592117,0.575243,-0.561437
4.3149,0.016756,0.000000,0.051395,-0.051395,0.0000,0.0000,0.0000,-0.002339,0.041417,-0.046019,0.4371,0.5337,0.0900,0.000000,0.579845,-0.562971,0.564505,-0.592117,0.575243,-0.561437
4.3317,0.016756,0.000000,0.052272,-0.052272,0.0000,0.0000,0.0000,-0.002352,0.044485,-0.047553,0.4253,0.4776,0.1494,0.000000,0.579845,-0.562971,0.564505,-0.590583,0.575243,-0.561437
4.3484,0.016753,0.000000,0.053149,-0.053149,0.0000,0.0000,0.0000,-0.002350,0.050621,-0.047553,0.4265,0.4834,0.1432,0.000000,0.579845,-0.562971,0.564505,-0.590583,0.575243,-0.561437
4.3652,0.016777,0.000000,0.054028,-0.054028,0.0000,0.0000,0.0000,-0.002350,0.049087,-0.049087,0.4265,0.4834,0.1432,0.000000,0.579845,-0.562971,0.564505,-0.590583,0.575243,-0.561437
4.3821,0.016958,0.000000,0.054916,-0.054916,0.0000,0.0000,0.0000,-0.002352,0.044485,-0.050621,0.4867,0.5513,0.1436,0.000000,0.579845,-0.562971,0.564505,-0.592117,0.575243,-0.559903
4.3989,0.016783,0.000000,0.055795,-0.055795,0.0000,0.0000,0.0000,-0.002352,0.050621,-0.052155,0.4867,0.5513,0.1436,0.000000,0.579845,-0.562971,0.564505,-0.592117,0.575243,-0.559903
4.4157,0.016757,0.000000,0.056672,-0.056672,0.0000,0.0000,0.0000,-0.002352,0.050621,-0.052155,0.4804,0.5442,0.1435,0.000000,0.579845,-0.562971,0.564505,-0.592117,0.575243,-0.559903
4.4325,0.016773,0.000000,0.057550,-0.057550,0.0000,0.0000,0.0000,-0.002350,0.059825,-0.053689,0.4208,0.4765,0.1438,0.000000,0.579845,-0.562971,0.564505,-0.590583,0.575243,-0.561437
4.4492,0.016751,0.000000,0.058427,-0.058427,0.0000,0.0000,0.0000,-0.002350,0.058291,-0.053689,0.4270,0.4836,0.1438,0.000000,0.579845,-0.562971,0.564505,-0.590583,0.575243,-0.561437
4.4670,0.017779,0.000000,0.059358,-0.059358,0.0000,0.0000,0.0000,-0.002350,0.050621,-0.055223,0.4270,0.4836,0.1438,0.000000,0.579845,-0.562971,0.564505,-0.590583,0.575243,-0.561437
4.4837,0.016757,0.000000,0.060236,-0.060236,0.0000,0.0000,0.0000,-0.002350,0.053689,-0.056757,0.4270,0.4836,0.1438,0.000000,0.579845,-0.562971,0.564505,-0.590583,0.575243,-0.561437
4.5005,0.016732,0.000000,0.061112,-0.061112,0.0000,0.0000,0.0000,-0.002350,0.062893,-0.058291,0.4270,0.4836,0.1438,0.000000,0.579845,-0.562971,0.564505,-0.590583,0.575243,-0.561437
4.5172,0.016757,0.000000,0.061989,-0.061989,0.0000,0.0000,0.0000,-0.002350,0.062893,-0.058291,0.4270,0.4836,0.1438,0.000000,0.579845,-0.562971,0.564505,-0.590583,0.575243,-0.561437
4.5340,0.016758,0.000000,0.062866,-0.062866,0.0000,0.0000,0.0000,-0.002350,0.059825,-0.058291,0.4270,0.4836,0.1438,0.000000,0.579845,-0.562971,0.564505,-0.590583,0.575243,-0.561437
4.5508,0.016763,0.000000,0.063744,-0.063744,0.0000,0.0000,0.0000,-0.002350,0.053689,-0.059825,0.4270,0.4836,0.1438,0.000000,0.579845,-0.562971,0.564505,-0.590583,0.575243,-0.561437
4.5675,0.016754,0.000000,0.064621,-0.064621,0.0000,0.0000,0.0000,-0.002350,0.056757,-0.059825,0.4270,0.4836,0.1438,0.000000,0.579845,-0.562971,0.564505,-0.590583,0.575243,-0.561437
4.5843,0.016755,0.000000,0.065499,-0.065499,0.0000,0.0000,0.0000,-0.002350,0.064427,-0.059825,0.4270,0.4836,0.1438,0.000000,0.579845,-0.562971,0.564505,-0.590583,0.575243,-0.561437
4.6011,0.016791,0.000000,0.066378,-0.066378,0.0000,0.0000,0.0000,-0.002350,0.062893,-0.059825,0.4270,0.4836,0.1438,0.000000,0.579845,-0.562971,0.564505,-0.590583,0.575243,-0.561437
4.6178,0.016752,0.000000,0.067255,-0.067255,0.0000,0.0000,0.0000,-0.002350,0.062893,-0.059825,0.4270,0.4836,0.1438,0.000000,0.579845,-0.562971,0.564505,-0.590583,0.575243,-0.561437
4.6346,0.016768,0.000000,0.068133,-0.068133,0.0000,0.0000,0.0000,-0.002364,0.058291,-0.061359,0.4759,0.5005,0.1972,0.000000,0.579845,-0.562971,0.564505,-0.590583,0.575243,-0.559903
4.6513,0.016759,0.000000,0.069010,-0.069010,0.0000,0.0000,0.0000,-0.002349,0.061359,-0.064427,0.4212,0.4810,0.1382,0.000000,0.579845,-0.562971,0.564505,-0.590583,0.575243,-0.561437
4.6682,0.016900,0.000000,0.069895,-0.069895,0.0000,0.0000,0.0000,-0.002351,0.070563,-0.065961,0.4269,0.4831,0.1443,0.000000,0.579845,-0.562971,0.564505,-0.590583,0.575243,-0.561437
4.6850,0.016753,0.000000,0.070773,-0.070773,0.0000,0.0000,0.0000,-0.002351,0.065961,-0.067495,0.4269,0.4831,0.1443,0.000000,0.579845,-0.562971,0.564505,-0.590583,0.575243,-0.561437
4.7018,0.016769,0.000000,0.071651,-0.071651,0.0000,0.0000,0.0000,-0.002351,0.061359,-0.067495,0.4269,0.4831,0.1443,0.000000,0.579845,-0.562971,0.564505,-0.590583,0.575243,-0.561437
4.7185,0.016747,0.000000,0.072527,-0.072527,0.0000,0.0000,0.0000,-0.002351,0.061359,-0.067495,0.4269,0.4831,0.1443,0.000000,0.579845,-0.562971,0.564505,-0.590583,0.575243,-0.561437
4.7356,0.017080,0.000000,0.073422,-0.073422,0.0000,0.0000,0.0000,-0.002364,0.064427,-0.067495,0.4759,0.5005,0.1972,0.000000,0.579845,-0.562971,0.564505,-0.590583,0.575243,-0.559903
4.7524,0.016820,0.000000,0.074302,-0.074302,0.0000,0.0000,0.0000,-0.002349,0.073631,-0.069029,0.4212,0.4810,0.1382,0.000000,0.579845,-0.562971,0.564505,-0.590583,0.575243,-0.561437
4.7692,0.016755,0.000000,0.075180,-0.075180,0.0000,0.0000,0.0000,-0.002351,0.072097,-0.070563,0.4269,0.4831,0.1443,0.000000,0.579845,-0.562971,0.564505,-0.590583,0.575243,-0.561437
4.7863,0.017094,0.000000,0.076075,-0.076075,0.0000,0.0000,0.0000,-0.002339,0.064427,-0.070563,0.4371,0.5337,0.0900,0.000000,0.579845,-0.562971,0.564505,-0.592117,0.575243,-0.561437
4.8030,0.016777,0.000000,0.076953,-0.076953,0.0000,0.0000,0.0000,-0.002339,0.064427,-0.070563,0.4371,0.5337,0.0900,0.000000,0.579845,-0.562971,0.564505,-0.592117,0.575243,-0.561437
4.8198,0.016760,0.000000,0.077831,-0.077831,0.0000,0.0000,0.0000,-0.002352,0.069029,-0.072097,0.4253,0.4776,0.1494,0.000000,0.579845,-0.562971,0.564505,-0.590583,0.575243,-0.561437
4.8365,0.016755,0.000000,0.078708,-0.078708,0.0000,0.0000,0.0000,-0.002363,0.078233,-0.073631,0.4760,0.5011,0.1966,0.000000,0.579845,-0.562971,0.564505,-0.590583,0.575243,-0.559903
4.8533,0.016761,0.000000,0.079586,-0.079586,0.0000,0.0000,0.0000,-0.002349,0.075165,-0.073631,0.4212,0.4810,0.1382,0.000000,0.579845,-0.562971,0.564505,-0.590583,0.575243,-0.561437
4.8701,0.016757,0.000000,0.080463,-0.080463,0.0000,0.0000,0.0000,-0.002351,0.070563,-0.073631,0.4269,0.4831,0.1443,0.000000,0.579845,-0.562971,0.564505,-0.590583,0.575243,-0.561437
4.8868,0.016771,0.000000,0.081341,-0.081341,0.0000,0.0000,0.0000,-0.002351,0.072097,-0.073631,0.4269,0.4831,0.1443,0.000000,0.579845,-0.562971,0.564505,-0.590583,0.575243,-0.561437
4.9036,0.016764,0.000000,0.082219,-0.082219,0.0000,0.0000,0.0000,-0.002351,0.072097,-0.073631,0.4269,0.4831,0.1443,0.000000,0.579845,-0.562971,0.564505,-0.590583,0.575243,-0.561437
4.9204,0.016753,0.000000,0.083096,-0.083096,0.0000,0.0000,0.0000,-0.002351,0.079767,-0.073631,0.4269,0.4831,0.1443,0.000000,0.579845,-0.562971,0.564505,-0.590583,0.575243,-0.561437
4.9371,0.016755,0.000000,0.083973,-0.083973,0.0000,0.0000,0.0000,-0.002351,0.082835,-0.073631,0.4269,0.4831,0.1443,0.000000,0.579845,-0.562971,0.564505,-0.590583,0.575243,-0.561437
4.9540,0.016929,0.000000,0.084860,-0.084860,0.0000,0.0000,0.0000,-0.002351,0.079767,-0.073631,0.4269,0.4831,0.1443,0.000000,0.579845,-0.562971,0.564505,-0.590583,0.575243,-0.561437
4.9708,0.016763,0.000000,0.085738,-0.085738,0.0000,0.0000,0.0000,-0.002351,0.079767,-0.073631,0.4269,0.4831,0.1443,0.000000,0.579845,-0.562971,0.564505,-0.590583,0.575243,-0.561437
4.9878,0.017019,0.000000,0.086629,-0.086629,0.0000,0.0000,0.0000,-0.002351,0.085903,-0.075165,0.4269,0.4831,0.1443,0.000000,0.579845,-0.562971,0.564505,-0.590583,0.575243,-0.561437
5.0046,0.016767,0.000000,0.087507,-0.087507,0.0000,0.0000,0.0000,-0.002351,0.085903,-0.075165,0.4269,0.4831,0.1443,0.000000,0.579845,-0.562971,0.564505,-0.590583,0.575243,-0.561437
5.0213,0.016762,0.000000,0.088384,-0.088384,0.0000,0.0000,0.0000,-0.002351,0.085903,-0.075165,0.4269,0.4831,0.1443,0.000000,0.579845,-0.562971,0.564505,-0.590583,0.575243,-0.561437
5.0381,0.016762,0.000000,0.089262,-0.089262,0.0000,0.0000,0.0000,-0.002351,0.079767,-0.075165,0.4269,0.4831,0.1443,0.000000,0.579845,-0.562971,0.564505,-0.590583,0.575243,-0.561437
5.0549,0.016770,0.000000,0.090140,-0.090140,0.0000,0.0000,0.0000,-0.002351,0.092039,-0.078233,0.4269,0.4831,0.1443,0.000000,0.579845,-0.562971,0.564505,-0.590583,0.575243,-0.561437
5.0718,0.016880,0.000000,0.091024,-0.091024,0.0000,0.0000,0.0000,-0.002351,0.088971,-0.081301,0.4269,0.4831,0.1443,0.000000,0.579845,-0.562971,0.564505,-0.590583,0.575243,-0.561437
5.0885,0.016753,0.000000,0.091901,-0.091901,0.0000,0.0000,0.0000,-0.002351,0.082835,-0.085903,0.4269,0.4831,0.1443,0.000000,0.579845,-0.562971,0.564505,-0.590583,0.575243,-0.561437
5.1053,0.016756,0.000000,0.092778,-0.092778,0.0000,0.0000,0.0000,-0.002351,0.082835,-0.085903,0.4269,0.4831,0.1443,0.000000,0.579845,-0.562971,0.564505,-0.590583,0.575243,-0.561437
5.1220,0.016751,0.000000,0.093655,-0.093655,0.0000,0.0000,0.0000,-0.002351,0.087437,-0.090505,0.4269,0.4831,0.1443,0.000000,0.579845,-0.562971,0.564505,-0.590583,0.575243,-0.561437
5.1388,0.016751,0.000000,0.094532,-0.094532,0.0000,0.0000,0.0000,-0.002351,0.093573,-0.090505,0.4269,0.4831,0.1443,0.000000,0.579845,-0.562971,0.564505,-0.590583,0.575243,-0.561437
5.1555,0.016768,0.000000,0.095410,-0.095410,0.0000,0.0000,0.0000,-0.002351,0.093573,-0.090505,0.4269,0.4831,0.1443,0.000000,0.579845,-0.562971,0.564505,-0.590583,0.575243,-0.561437
5.1723,0.016755,0.000000,0.096288,-0.096288,0.0000,0.0000,0.0000,-0.002351,0.088971,-0.093573,0.4269,0.4831,0.1443,0.000000,0.579845,-0.562971,0.564505,-0.590583,0.575243,-0.561437
5.1891,0.016763,0.000000,0.097165,-0.097165,0.0000,0.0000,0.0000,-0.002351,0.088971,-0.093573,0.4269,0.4831,0.1443,0.000000,0.579845,-0.562971,0.564505,-0.590583,0.575243,-0.561437
5.2058,0.016754,0.000000,0.098043,-0.098043,0.0000,0.0000,0.0000,-0.002351,0.095107,-0.095107,0.4269,0.4831,0.1443,0.000000,0.579845,-0.562971,0.564505,-0.590583,0.575243,-0.561437
5.2226,0.016755,0.000000,0.098920,-0.098920,0.0000,0.0000,0.0000,-0.002351,0.099709,-0.095107,0.4269,0.4831,0.1443,0.000000,0.579845,-0.562971,0.564505,-0.590583,0.575243,-0.561437
5.2393,0.016753,0.000000,0.099797,-0.099797,0.0000,0.0000,0.0000,-0.002362,0.095107,-0.095107,0.3766,0.4985,0.0899,0.000000,0.578311,-0.562971,0.564505,-0.590583,0.575243,-0.561437
5.2561,0.016755,0.000000,0.100674,-0.100674,0.0000,0.0000,0.0000,-0.002351,0.092039,-0.096641,0.4919,0.5497,0.1491,0.000000,0.579845,-0.562971,0.564505,-0.592117,0.575243,-0.559903
5.2728,0.016754,0.000000,0.101552,-0.101552,0.0000,0.0000,0.0000,-0.002339,0.098175,-0.098175,0.4303,0.5267,0.0895,0.000000,0.579845,-0.562971,0.564505,-0.592117,0.575243,-0.561437
5.2896,0.016772,0.000000,0.102430,-0.102430,0.0000,0.0000,0.0000,-0.002339,0.102777,-0.099709,0.4303,0.5267,0.0895,0.000000,0.579845,-0.562971,0.564505,-0.590583,0.575243,-0.559903
5.3064,0.016758,0.000000,0.103307,-0.103307,0.0000,0.0000,0.0000,-0.002365,0.102777,-0.099709,0.4755,0.4960,0.2029,0.000000,0.579845,-0.562971,0.564505,-0.590583,0.575243,-0.559903
5.3231,0.016769,0.000000,0.104185,-0.104185,0.0000,0.0000,0.0000,-0.002349,0.098175,-0.101243,0.4213,0.4815,0.1376,0.000000,0.579845,-0.562971,0.564505,-0.590583,0.575243,-0.561437
5.3399,0.016761,0.000000,0.105063,-0.105063,0.0000,0.0000,0.0000,-0.002351,0.096641,-0.101243,0.4269,0.4830,0.1444,0.000000,0.579845,-0.562971,0.564505,-0.590583,0.575243,-0.561437
5.3566,0.016757,0.000000,0.105940,-0.105940,0.0000,0.0000,0.0000,-0.002351,0.104311,-0.101243,0.4269,0.4830,0.1444,0.000000,0.579845,-0.562971,0.564505,-0.590583,0.575243,-0.561437
5.3734,0.016762,0.000000,0.106818,-0.106818,0.0000,0.0000,0.0000,-0.002351,0.104311,-0.101243,0.4269,0.4830,0.1444,0.000000,0.579845,-0.562971,0.564505,-0.590583,0.575243,-0.561437
5.3902,0.016779,0.000000,0.107696,-0.107696,0.0000,0.0000,0.0000,-0.002351,0.104311,-0.101243,0.4269,0.4830,0.1444,0.000000,0.579845,-0.562971,0.564505,-0.590583,0.575243,-0.561437
5.4070,0.016790,0.000000,0.108576,-0.108576,0.0000,0.0000,0.0000,-0.002351,0.099709,-0.101243,0.4269,0.4830,0.1444,0.000000,0.579845,-0.562971,0.564505,-0.590583,0.575243,-0.561437
5.4237,0.016758,0.000000,0.109453,-0.109453,0.0000,0.0000,0.0000,-0.002351,0.102777,-0.102777,0.4269,0.4830,0.1444,0.000000,0.579845,-0.562971,0.564505,-0.590583,0.575243,-0.561437
5.4405,0.016723,0.000000,0.110329,-0.110329,0.0000,0.0000,0.0000,-0.002364,0.111981,-0.102777,0.4759,0.5005,0.1972,0.000000,0.579845,-0.562971,0.564505,-0.590583,0.575243,-0.559903
5.4572,0.016754,0.000000,0.111206,-0.111206,0.0000,0.0000,0.0000,-0.002349,0.110447,-0.102777,0.4212,0.4810,0.1382,0.000000,0.579845,-0.562971,0.564505,-0.590583,0.575243,-0.561437
5.4740,0.016772,0.000000,0.112084,-0.112084,0.0000,0.0000,0.0000,-0.002339,0.104311,-0.104311,0.4377,0.5339,0.0906,0.000000,0.579845,-0.562971,0.564505,-0.592117,0.575243,-0.561437
5.4907,0.016752,0.000000,0.112961,-0.112961,0.0000,0.0000,0.0000,-0.002339,0.104311,-0.104311,0.4377,0.5339,0.0906,0.000000,0.579845,-0.562971,0.564505,-0.592117,0.575243,-0.561437
