t,loop_dt,cmd_z,cmd_ant_l,cmd_ant_r,cmd_roll,cmd_pitch,cmd_yaw,pres_z,pres_ant_l,pres_ant_r,pres_roll,pres_pitch,pres_yaw,pres_j0,pres_j1,pres_j2,pres_j3,pres_j4,pres_j5,pres_j6
0.0000,0.000001,0.000000,-0.174533,0.174533,0.0000,0.0000,0.0000,-0.002461,0.010738,-0.009204,0.4243,0.6282,0.1323,0.000000,0.572175,-0.562971,0.564505,-0.590583,0.575243,-0.553767
0.0168,0.016760,0.000000,-0.168682,0.168682,0.0000,0.0000,0.0000,-0.002463,0.003068,-0.009204,0.4254,0.6338,0.1433,0.000000,0.572175,-0.562971,0.564505,-0.590583,0.575243,-0.553767
0.0335,0.016767,0.000000,-0.162829,0.162829,0.0000,0.0000,0.0000,-0.002463,0.003068,-0.009204,0.4254,0.6338,0.1433,0.000000,0.572175,-0.562971,0.564505,-0.590583,0.575243,-0.553767
0.0503,0.016757,0.000000,-0.156980,0.156980,0.0000,0.0000,0.0000,-0.002463,0.001534,-0.007670,0.4254,0.6338,0.1433,0.000000,0.572175,-0.562971,0.564505,-0.590583,0.575243,-0.553767
0.0672,0.016950,0.000000,-0.151063,0.151063,0.0000,0.0000,0.0000,-0.002463,-0.053689,0.067495,0.4254,0.6338,0.1433,0.000000,0.572175,-0.562971,0.564505,-0.590583,0.575243,-0.553767
0.0840,0.016790,0.000000,-0.145202,0.145202,0.0000,0.0000,0.0000,-0.002463,-0.127320,0.142660,0.4254,0.6338,0.1433,0.000000,0.572175,-0.562971,0.564505,-0.590583,0.575243,-0.553767
0.1008,0.016768,0.000000,-0.139349,0.139349,0.0000,0.0000,0.0000,-0.002463,-0.127320,0.142660,0.4254,0.6338,0.1433,0.000000,0.572175,-0.562971,0.564505,-0.590583,0.575243,-0.553767
0.1176,0.016768,0.000000,-0.133496,0.133496,0.0000,0.0000,0.0000,-0.002450,-0.177942,0.184078,0.3756,0.6156,0.0888,0.000000,0.572175,-0.562971,0.564505,-0.590583,0.575243,-0.555301
0.1343,0.016772,0.000000,-0.127642,0.127642,0.0000,0.0000,0.0000,-0.002427,-0.184078,0.181010,0.3417,0.6507,-0.0127,0.000000,0.572175,-0.562971,0.564505,-0.592117,0.575243,-0.556835
0.1511,0.016754,0.000000,-0.121793,0.121793,0.0000,0.0000,0.0000,-0.002429,-0.162602,0.164136,0.3452,0.6471,-0.0021,0.000000,0.572175,-0.562971,0.564505,-0.592117,0.575243,-0.556835
0.1678,0.016763,0.000000,-0.115942,0.115942,0.0000,0.0000,0.0000,-0.002440,-0.144194,0.144194,0.3343,0.5967,0.0505,0.000000,0.572175,-0.562971,0.564505,-0.590583,0.575243,-0.556835
0.1846,0.016758,0.000000,-0.110092,0.110092,0.0000,0.0000,0.0000,-0.002426,-0.125786,0.127320,0.2858,0.5845,-0.0084,0.000000,0.572175,-0.562971,0.564505,-0.590583,0.575243,-0.558369
0.2014,0.016758,0.000000,-0.104243,0.104243,0.0000,0.0000,0.0000,-0.002426,-0.125786,0.127320,0.2858,0.5845,-0.0084,0.000000,0.572175,-0.562971,0.564505,-0.590583,0.575243,-0.558369
0.2181,0.016749,0.000000,-0.098396,0.098396,0.0000,0.0000,0.0000,-0.002391,-0.118117,0.116583,0.3019,0.6033,-0.0558,0.000000,0.573709,-0.562971,0.564505,-0.592117,0.575243,-0.559903
0.2349,0.016753,0.000000,-0.092548,0.092548,0.0000,0.0000,0.0000,-0.002370,-0.118117,0.111981,0.3006,0.5681,-0.0506,0.000000,0.575243,-0.562971,0.564505,-0.592117,0.575243,-0.561437
0.2516,0.016753,0.000000,-0.086701,0.086701,0.0000,0.0000,0.0000,-0.002360,-0.116583,0.110447,0.3506,0.5560,0.0027,0.000000,0.576777,-0.562971,0.564505,-0.592117,0.575243,-0.561437
0.2684,0.016760,0.000000,-0.080850,0.080850,0.0000,0.0000,0.0000,-0.002373,-0.110447,0.104311,0.3347,0.5066,0.0509,0.000000,0.576777,-0.562971,0.564505,-0.590583,0.575243,-0.561437
0.2851,0.016760,0.000000,-0.075000,0.075000,0.0000,0.0000,0.0000,-0.002360,-0.096641,0.093573,0.3862,0.4960,0.0996,0.000000,0.578311,-0.562971,0.564505,-0.590583,0.575243,-0.561437
0.3019,0.016759,0.000000,-0.069150,0.069150,0.0000,0.0000,0.0000,-0.002360,-0.096641,0.093573,0.3862,0.4960,0.0996,0.000000,0.578311,-0.562971,0.564505,-0.590583,0.575243,-0.561437
0.3186,0.016749,0.000000,-0.063303,0.063303,0.0000,0.0000,0.0000,-0.002374,-0.085903,0.084369,0.4303,0.5147,0.1480,0.000000,0.578311,-0.562971,0.564505,-0.590583,0.575243,-0.559903
0.3354,0.016769,0.000000,-0.057450,0.057450,0.0000,0.0000,0.0000,-0.002360,-0.076699,0.076699,0.3762,0.4952,0.0895,0.000000,0.578311,-0.562971,0.564505,-0.590583,0.575243,-0.561437
0.3522,0.016736,0.000000,-0.051608,0.051608,0.0000,0.0000,0.0000,-0.002350,-0.070563,0.070563,0.3926,0.5480,0.0419,0.000000,0.578311,-0.562971,0.564505,-0.592117,0.575243,-0.561437
0.3689,0.016771,0.000000,-0.045754,0.045754,0.0000,0.0000,0.0000,-0.002350,-0.070563,0.070563,0.3926,0.5480,0.0419,0.000000,0.578311,-0.562971,0.564505,-0.592117,0.575243,-0.561437
0.3857,0.016755,0.000000,-0.039905,0.039905,0.0000,0.0000,0.0000,-0.002362,-0.067495,0.061359,0.3801,0.4917,0.1006,0.000000,0.578311,-0.562971,0.564505,-0.590583,0.575243,-0.561437
0.4024,0.016761,0.000000,-0.034055,0.034055,0.0000,0.0000,0.0000,-0.002361,-0.062893,0.056757,0.3814,0.4976,0.0944,0.000000,0.578311,-0.562971,0.564505,-0.590583,0.575243,-0.561437
0.4192,0.016751,0.000000,-0.028207,0.028207,0.0000,0.0000,0.0000,-0.002350,-0.052155,0.050621,0.3920,0.5478,0.0413,0.000000,0.578311,-0.562971,0.564505,-0.592117,0.575243,-0.561437
0.4360,0.016777,0.000000,-0.022351,0.022351,0.0000,0.0000,0.0000,-0.002362,-0.041417,0.044485,0.3802,0.4918,0.1006,0.000000,0.578311,-0.562971,0.564505,-0.590583,0.575243,-0.561437
0.4528,0.016811,0.000000,-0.016483,0.016483,0.0000,0.0000,0.0000,-0.002349,-0.035282,0.036816,0.3922,0.5484,0.0407,0.000000,0.578311,-0.562971,0.564505,-0.592117,0.575243,-0.561437
0.4696,0.016775,0.000000,-0.010627,0.010627,0.0000,0.0000,0.0000,-0.002349,-0.035282,0.036816,0.3922,0.5484,0.0407,0.000000,0.578311,-0.562971,0.564505,-0.592117,0.575243,-0.561437
0.4863,0.016753,0.000000,-0.004779,0.004779,0.0000,0.0000,0.0000,-0.002351,-0.027612,0.032214,0.3909,0.5425,0.0469,0.000000,0.578311,-0.562971,0.564505,-0.592117,0.575243,-0.561437
0.5031,0.016757,0.000000,0.001070,-0.001070,0.0000,0.0000,0.0000,-0.002362,-0.021476,0.026078,0.3803,0.4923,0.1000,0.000000,0.578311,-0.562971,0.564505,-0.590583,0.575243,-0.561437
0.5198,0.016749,0.000000,0.006916,-0.006916,0.0000,0.0000,0.0000,-0.002349,-0.018408,0.016874,0.3921,0.5483,0.0408,0.000000,0.578311,-0.562971,0.564505,-0.592117,0.575243,-0.561437
0.5370,0.017140,0.000000,0.012899,-0.012899,0.0000,0.0000,0.0000,-0.002351,-0.012272,0.009204,0.3909,0.5425,0.0469,0.000000,0.578311,-0.562971,0.564505,-0.592117,0.575243,-0.561437
0.5537,0.016749,0.000000,0.018746,-0.018746,0.0000,0.0000,0.0000,-0.002351,-0.004602,0.000000,0.3909,0.5425,0.0469,0.000000,0.578311,-0.562971,0.564505,-0.592117,0.575243,-0.561437
0.5716,0.017859,0.000000,0.024980,-0.024980,0.0000,0.0000,0.0000,-0.002351,-0.004602,0.000000,0.3909,0.5425,0.0469,0.000000,0.578311,-0.562971,0.564505,-0.592117,0.575243,-0.561437
0.5883,0.016769,0.000000,0.030833,-0.030833,0.0000,0.0000,0.0000,-0.002351,0.007670,-0.004602,0.3909,0.5425,0.0469,0.000000,0.578311,-0.562971,0.564505,-0.592117,0.575243,-0.561437
0.6051,0.016754,0.000000,0.036681,-0.036681,0.0000,0.0000,0.0000,-0.002351,0.015340,-0.015340,0.3909,0.5425,0.0469,0.000000,0.578311,-0.562971,0.564505,-0.592117,0.575243,-0.561437
0.6218,0.016752,0.000000,0.042529,-0.042529,0.0000,0.0000,0.0000,-0.002362,0.018408,-0.019942,0.3803,0.4923,0.1000,0.000000,0.578311,-0.562971,0.564505,-0.590583,0.575243,-0.561437
0.6386,0.016760,0.000000,0.048379,-0.048379,0.0000,0.0000,0.0000,-0.002361,0.015340,-0.021476,0.3814,0.4975,0.0945,0.000000,0.578311,-0.562971,0.564505,-0.590583,0.575243,-0.561437
0.6554,0.016759,0.000000,0.054229,-0.054229,0.0000,0.0000,0.0000,-0.002361,0.021476,-0.027612,0.3814,0.4975,0.0945,0.000000,0.578311,-0.562971,0.564505,-0.590583,0.575243,-0.561437
0.6721,0.016761,0.000000,0.060080,-0.060080,0.0000,0.0000,0.0000,-0.002361,0.036816,-0.036816,0.3814,0.4975,0.0945,0.000000,0.578311,-0.562971,0.564505,-0.592117,0.575243,-0.561437
0.6889,0.016755,0.000000,0.065928,-0.065928,0.0000,0.0000,0.0000,-0.002350,0.036816,-0.036816,0.3920,0.5478,0.0413,0.000000,0.578311,-0.562971,0.564505,-0.592117,0.575243,-0.561437
0.7056,0.016754,0.000000,0.071776,-0.071776,0.0000,0.0000,0.0000,-0.002364,0.050621,-0.049087,0.4404,0.5601,0.1004,0.000000,0.578311,-0.562971,0.564505,-0.592117,0.575243,-0.559903
0.7224,0.016753,0.000000,0.077624,-0.077624,0.0000,0.0000,0.0000,-0.002349,0.055223,-0.056757,0.4249,0.4749,0.1483,0.000000,0.579845,-0.562971,0.564505,-0.590583,0.575243,-0.561437
0.7391,0.016762,0.000000,0.083476,-0.083476,0.0000,0.0000,0.0000,-0.002362,0.055223,-0.059825,0.3768,0.4993,0.0895,0.000000,0.578311,-0.562971,0.564505,-0.590583,0.575243,-0.561437
0.7559,0.016752,0.000000,0.089323,-0.089323,0.0000,0.0000,0.0000,-0.002361,0.061359,-0.065961,0.3818,0.4968,0.0956,0.000000,0.578311,-0.562971,0.564505,-0.590583,0.575243,-0.561437
0.7727,0.016763,0.000000,0.095175,-0.095175,0.0000,0.0000,0.0000,-0.002361,0.061359,-0.065961,0.3818,0.4968,0.0956,0.000000,0.578311,-0.562971,0.564505,-0.590583,0.575243,-0.561437
0.7894,0.016769,0.000000,0.101028,-0.101028,0.0000,0.0000,0.0000,-0.002350,0.075165,-0.073631,0.3920,0.5479,0.0412,0.000000,0.578311,-0.562971,0.564505,-0.592117,0.575243,-0.561437
0.8062,0.016750,0.000000,0.106875,-0.106875,0.0000,0.0000,0.0000,-0.002351,0.087437,-0.079767,0.3909,0.5425,0.0469,0.000000,0.578311,-0.562971,0.564505,-0.592117,0.575243,-0.561437
0.8229,0.016768,0.000000,0.112728,-0.112728,0.0000,0.0000,0.0000,-0.002362,0.090505,-0.084369,0.3803,0.4923,0.1000,0.000000,0.578311,-0.562971,0.564505,-0.590583,0.575243,-0.561437
0.8397,0.016762,0.000000,0.118579,-0.118579,0.0000,0.0000,0.0000,-0.002338,0.088971,-0.090505,0.4420,0.5327,0.0946,0.000000,0.579845,-0.562971,0.564505,-0.592117,0.575243,-0.561437
0.8565,0.016755,0.000000,0.124428,-0.124428,0.0000,0.0000,0.0000,-0.002365,0.095107,-0.098175,0.4352,0.5617,0.0948,0.000000,0.578311,-0.562971,0.564505,-0.592117,0.575243,-0.559903
0.8732,0.016771,0.000000,0.130282,-0.130282,0.0000,0.0000,0.0000,-0.002365,0.095107,-0.098175,0.4352,0.5617,0.0948,0.000000,0.578311,-0.562971,0.564505,-0.592117,0.575243,-0.559903
0.8900,0.016755,0.000000,0.136130,-0.136130,0.0000,0.0000,0.0000,-0.002361,0.110447,-0.107379,0.3757,0.4903,0.0950,0.000000,0.578311,-0.562971,0.564505,-0.590583,0.575243,-0.561437
0.9067,0.016747,0.000000,0.141976,-0.141976,0.0000,0.0000,0.0000,-0.002363,0.124252,-0.116583,0.4421,0.5661,0.0948,0.000000,0.578311,-0.562971,0.564505,-0.592117,0.575243,-0.559903
0.9235,0.016753,0.000000,0.147824,-0.147824,0.0000,0.0000,0.0000,-0.002361,0.125786,-0.124252,0.3749,0.4898,0.0950,0.000000,0.578311,-0.562971,0.564505,-0.590583,0.575243,-0.561437
0.9402,0.016758,0.000000,0.153673,-0.153673,0.0000,0.0000,0.0000,-0.002338,0.122718,-0.131922,0.4425,0.5330,0.0951,0.000000,0.579845,-0.562971,0.564505,-0.592117,0.575243,-0.561437
0.9570,0.016755,0.000000,0.159522,-0.159522,0.0000,0.0000,0.0000,-0.002352,0.127320,-0.133456,0.4247,0.4777,0.1488,0.000000,0.579845,-0.562971,0.564505,-0.590583,0.575243,-0.561437
0.9738,0.016758,0.000000,0.165372,-0.165372,0.0000,0.0000,0.0000,-0.002352,0.127320,-0.133456,0.4247,0.4777,0.1488,0.000000,0.579845,-0.562971,0.564505,-0.590583,0.575243,-0.561437
0.9905,0.016751,0.000000,0.171219,-0.171219,0.0000,0.0000,0.0000,-0.002351,0.141126,-0.139592,0.3875,0.5498,0.0357,0.000000,0.578311,-0.562971,0.564505,-0.592117,0.575243,-0.561437
1.0073,0.016755,0.000000,0.171998,-0.171998,0.0000,0.0000,0.0000,-0.002362,0.158000,-0.150330,0.3806,0.4916,0.1012,0.000000,0.578311,-0.562971,0.564505,-0.590583,0.575243,-0.561437
1.0240,0.016769,0.000000,0.166145,-0.166145,0.0000,0.0000,0.0000,-0.002349,0.159534,-0.161068,0.3921,0.5484,0.0406,0.000000,0.578311,-0.562971,0.564505,-0.592117,0.575243,-0.561437
1.0408,0.016760,0.000000,0.160294,-0.160294,0.0000,0.0000,0.0000,-0.002339,0.156466,-0.167204,0.4407,0.5268,0.1008,0.000000,0.579845,-0.562971,0.564505,-0.592117,0.575243,-0.561437
1.0575,0.016739,0.000000,0.154451,-0.154451,0.0000,0.0000,0.0000,-0.002352,0.164136,-0.173340,0.4249,0.4783,0.1482,0.000000,0.579845,-0.562971,0.564505,-0.590583,0.575243,-0.561437
1.0743,0.016752,0.000000,0.148604,-0.148604,0.0000,0.0000,0.0000,-0.002352,0.164136,-0.173340,0.4249,0.4783,0.1482,0.000000,0.579845,-0.562971,0.564505,-0.590583,0.575243,-0.561437
1.0910,0.016763,0.000000,0.142752,-0.142752,0.0000,0.0000,0.0000,-0.002350,0.174874,-0.174874,0.4265,0.4834,0.1433,0.000000,0.579845,-0.562971,0.564505,-0.590583,0.575243,-0.561437
1.1078,0.016754,0.000000,0.136904,-0.136904,0.0000,0.0000,0.0000,-0.002362,0.170272,-0.170272,0.3766,0.4984,0.0900,0.000000,0.578311,-0.562971,0.564505,-0.590583,0.575243,-0.561437
1.1246,0.016765,0.000000,0.131052,-0.131052,0.0000,0.0000,0.0000,-0.002338,0.159534,-0.162602,0.4424,0.5321,0.0956,0.000000,0.579845,-0.562971,0.564505,-0.592117,0.575243,-0.561437
1.1413,0.016752,0.000000,0.125204,-0.125204,0.0000,0.0000,0.0000,-0.002363,0.151864,-0.153398,0.3749,0.4934,0.0950,0.000000,0.578311,-0.562971,0.564505,-0.590583,0.575243,-0.561437
1.1581,0.016760,0.000000,0.119354,-0.119354,0.0000,0.0000,0.0000,-0.002363,0.151864,-0.153398,0.3749,0.4934,0.0950,0.000000,0.578311,-0.562971,0.564505,-0.590583,0.575243,-0.561437
1.1748,0.016754,0.000000,0.113506,-0.113506,0.0000,0.0000,0.0000,-0.002361,0.141126,-0.144194,0.3820,0.4974,0.0950,0.000000,0.578311,-0.562971,0.564505,-0.590583,0.575243,-0.561437
1.1916,0.016754,0.000000,0.107658,-0.107658,0.0000,0.0000,0.0000,-0.002361,0.128854,-0.136524,0.3810,0.4969,0.0950,0.000000,0.578311,-0.562971,0.564505,-0.590583,0.575243,-0.561437
1.2085,0.016889,0.000000,0.101762,-0.101762,0.0000,0.0000,0.0000,-0.002350,0.125786,-0.128854,0.3921,0.5478,0.0413,0.000000,0.578311,-0.562971,0.564505,-0.592117,0.575243,-0.561437
1.2252,0.016761,0.000000,0.095911,-0.095911,0.0000,0.0000,0.0000,-0.002339,0.121184,-0.122718,0.4408,0.5269,0.1007,0.000000,0.579845,-0.562971,0.564505,-0.592117,0.575243,-0.561437
1.2420,0.016756,0.000000,0.090062,-0.090062,0.0000,0.0000,0.0000,-0.002352,0.115049,-0.118117,0.4249,0.4783,0.1482,0.000000,0.579845,-0.562971,0.564505,-0.590583,0.575243,-0.561437
1.2588,0.016762,0.000000,0.084211,-0.084211,0.0000,0.0000,0.0000,-0.002352,0.105845,-0.115049,0.4249,0.4783,0.1482,0.000000,0.578311,-0.562971,0.564505,-0.592117,0.575243,-0.561437
1.2755,0.016750,0.000000,0.078365,-0.078365,0.0000,0.0000,0.0000,-0.002351,0.105845,-0.115049,0.3875,0.5498,0.0357,0.000000,0.578311,-0.562971,0.564505,-0.592117,0.575243,-0.561437
1.2923,0.016763,0.000000,0.072513,-0.072513,0.0000,0.0000,0.0000,-0.002350,0.095107,-0.104311,0.4304,0.4759,0.1550,0.000000,0.579845,-0.562971,0.564505,-0.590583,0.575243,-0.561437
1.3090,0.016752,0.000000,0.066665,-0.066665,0.0000,0.0000,0.0000,-0.002350,0.085903,-0.093573,0.4260,0.4836,0.1426,0.000000,0.579845,-0.562971,0.564505,-0.590583,0.575243,-0.561437
1.3258,0.016758,0.000000,0.060816,-0.060816,0.0000,0.0000,0.0000,-0.002362,0.082835,-0.084369,0.3767,0.4984,0.0901,0.000000,0.578311,-0.562971,0.564505,-0.590583,0.575243,-0.561437
1.3425,0.016754,0.000000,0.054968,-0.054968,0.0000,0.0000,0.0000,-0.002338,0.082835,-0.076699,0.4424,0.5321,0.0956,0.000000,0.579845,-0.562971,0.564505,-0.592117,0.575243,-0.561437
1.3593,0.016769,0.000000,0.049114,-0.049114,0.0000,0.0000,0.0000,-0.002363,0.078233,-0.067495,0.3749,0.4934,0.0950,0.000000,0.578311,-0.562971,0.564505,-0.590583,0.575243,-0.561437
1.3761,0.016763,0.000000,0.043263,-0.043263,0.0000,0.0000,0.0000,-0.002363,0.078233,-0.067495,0.3749,0.4934,0.0950,0.000000,0.578311,-0.562971,0.564505,-0.590583,0.575243,-0.561437
1.3928,0.016758,0.000000,0.037413,-0.037413,0.0000,0.0000,0.0000,-0.002349,0.065961,-0.061359,0.3927,0.5482,0.0413,0.000000,0.578311,-0.562971,0.564505,-0.592117,0.575243,-0.561437
1.4096,0.016758,0.000000,0.031564,-0.031564,0.0000,0.0000,0.0000,-0.002362,0.047553,-0.053689,0.3801,0.4917,0.1006,0.000000,0.578311,-0.562971,0.564505,-0.590583,0.575243,-0.561437
1.4263,0.016760,0.000000,0.025713,-0.025713,0.0000,0.0000,0.0000,-0.002338,0.042951,-0.044485,0.4420,0.5328,0.0945,0.000000,0.579845,-0.562971,0.564505,-0.592117,0.575243,-0.561437
1.4431,0.016762,0.000000,0.019862,-0.019862,0.0000,0.0000,0.0000,-0.002363,0.038350,-0.032214,0.3750,0.4933,0.0951,0.000000,0.578311,-0.562971,0.564505,-0.590583,0.575243,-0.561437
1.4599,0.016767,0.000000,0.014009,-0.014009,0.0000,0.0000,0.0000,-0.002363,0.027612,-0.024544,0.3750,0.4933,0.0951,0.000000,0.578311,-0.562971,0.564505,-0.590583,0.575243,-0.561437
1.4766,0.016757,0.000000,0.008160,-0.008160,0.0000,0.0000,0.0000,-0.002361,0.027612,-0.024544,0.3820,0.4974,0.0950,0.000000,0.578311,-0.562971,0.564505,-0.590583,0.575243,-0.561437
1.4934,0.016750,0.000000,0.002313,-0.002313,0.0000,0.0000,0.0000,-0.002350,0.018408,-0.021476,0.3920,0.5478,0.0413,0.000000,0.578311,-0.562971,0.564505,-0.592117,0.575243,-0.561437
1.5101,0.016755,0.000000,-0.003536,0.003536,0.0000,0.0000,0.0000,-0.002351,0.013806,-0.016874,0.4300,0.4761,0.1544,0.000000,0.579845,-0.562971,0.564505,-0.590583,0.575243,-0.561437
1.5270,0.016876,0.000000,-0.009426,0.009426,0.0000,0.0000,0.0000,-0.002350,0.009204,-0.010738,0.4260,0.4836,0.1426,0.000000,0.579845,-0.562971,0.564505,-0.590583,0.575243,-0.561437
1.5438,0.016751,0.000000,-0.015274,0.015274,0.0000,0.0000,0.0000,-0.002350,0.003068,-0.004602,0.4260,0.4836,0.1426,0.000000,0.579845,-0.562971,0.564505,-0.590583,0.575243,-0.561437
1.5605,0.016751,0.000000,-0.021121,0.021121,0.0000,0.0000,0.0000,-0.002350,0.003068,-0.004602,0.4260,0.4836,0.1426,0.000000,0.579845,-0.562971,0.564505,-0.590583,0.575243,-0.561437
1.5773,0.016753,0.000000,-0.026969,0.026969,0.0000,0.0000,0.0000,-0.002362,-0.006136,0.004602,0.3766,0.4984,0.0901,0.000000,0.578311,-0.562971,0.564505,-0.590583,0.575243,-0.561437
1.5940,0.016752,0.000000,-0.032816,0.032816,0.0000,0.0000,0.0000,-0.002338,-0.015340,0.016874,0.4424,0.5321,0.0956,0.000000,0.579845,-0.562971,0.564505,-0.592117,0.575243,-0.561437
1.6109,0.016867,0.000000,-0.038704,0.038704,0.0000,0.0000,0.0000,-0.002340,-0.015340,0.016874,0.4355,0.5286,0.0950,0.000000,0.579845,-0.562971,0.564505,-0.592117,0.575243,-0.561437
1.6276,0.016748,0.000000,-0.044550,0.044550,0.0000,0.0000,0.0000,-0.002363,-0.021476,0.016874,0.3757,0.4938,0.0950,0.000000,0.578311,-0.562971,0.564505,-0.590583,0.575243,-0.561437
1.6447,0.017099,0.000000,-0.050519,0.050519,0.0000,0.0000,0.0000,-0.002349,-0.027612,0.027612,0.4317,0.4817,0.1488,0.000000,0.579845,-0.562971,0.564505,-0.590583,0.575243,-0.561437
1.6615,0.016760,0.000000,-0.056369,0.056369,0.0000,0.0000,0.0000,-0.002349,-0.027612,0.027612,0.4317,0.4817,0.1488,0.000000,0.579845,-0.562971,0.564505,-0.590583,0.575243,-0.561437
1.6782,0.016758,0.000000,-0.062219,0.062219,0.0000,0.0000,0.0000,-0.002339,-0.036816,0.041417,0.4366,0.5338,0.0895,0.000000,0.579845,-0.562971,0.564505,-0.592117,0.575243,-0.561437
1.6950,0.016753,0.000000,-0.068067,0.068067,0.0000,0.0000,0.0000,-0.002352,-0.050621,0.050621,0.3863,0.5440,0.0419,0.000000,0.578311,-0.562971,0.564505,-0.592117,0.575243,-0.561437
1.7118,0.016767,0.000000,-0.073920,0.073920,0.0000,0.0000,0.0000,-0.002339,-0.058291,0.049087,0.4414,0.5273,0.1006,0.000000,0.579845,-0.562971,0.564505,-0.592117,0.575243,-0.561437
1.7285,0.016750,0.000000,-0.079766,0.079766,0.0000,0.0000,0.0000,-0.002353,-0.055223,0.049087,0.4851,0.5467,0.1480,0.000000,0.579845,-0.562971,0.564505,-0.592117,0.575243,-0.559903
1.7453,0.016816,0.000000,-0.085636,0.085636,0.0000,0.0000,0.0000,-0.002350,-0.058291,0.059825,0.4203,0.4762,0.1433,0.000000,0.579845,-0.562971,0.564505,-0.590583,0.575243,-0.561437
1.7621,0.016758,0.000000,-0.091486,0.091486,0.0000,0.0000,0.0000,-0.002350,-0.058291,0.059825,0.4203,0.4762,0.1433,0.000000,0.579845,-0.562971,0.564505,-0.590583,0.575243,-0.561437
1.7788,0.016754,0.000000,-0.097334,0.097334,0.0000,0.0000,0.0000,-0.002362,-0.072097,0.076699,0.3772,0.4992,0.0900,0.000000,0.578311,-0.562971,0.564505,-0.590583,0.575243,-0.561437
1.7956,0.016752,0.000000,-0.103181,0.103181,0.0000,0.0000,0.0000,-0.002349,-0.087437,0.082835,0.4315,0.4812,0.1494,0.000000,0.579845,-0.562971,0.564505,-0.590583,0.575243,-0.561437
1.8124,0.016766,0.000000,-0.109034,0.109034,0.0000,0.0000,0.0000,-0.002351,-0.088971,0.082835,0.4259,0.4831,0.1432,0.000000,0.579845,-0.562971,0.564505,-0.590583,0.575243,-0.561437
1.8291,0.016751,0.000000,-0.114881,0.114881,0.0000,0.0000,0.0000,-0.002351,-0.090505,0.090505,0.4259,0.4831,0.1432,0.000000,0.579845,-0.562971,0.564505,-0.590583,0.575243,-0.561437
1.8459,0.016774,0.000000,-0.120736,0.120736,0.0000,0.0000,0.0000,-0.002351,-0.105845,0.107379,0.4259,0.4831,0.1432,0.000000,0.579845,-0.562971,0.564505,-0.590583,0.575243,-0.561437
1.8626,0.016755,0.000000,-0.126585,0.126585,0.0000,0.0000,0.0000,-0.002351,-0.105845,0.107379,0.4259,0.4831,0.1432,0.000000,0.579845,-0.562971,0.564505,-0.590583,0.575243,-0.561437
1.8794,0.016778,0.000000,-0.132441,0.132441,0.0000,0.0000,0.0000,-0.002351,-0.118117,0.113515,0.4259,0.4831,0.1432,0.000000,0.579845,-0.562971,0.564505,-0.590583,0.575243,-0.561437
1.8962,0.016753,0.000000,-0.138289,0.138289,0.0000,0.0000,0.0000,-0.002351,-0.119651,0.113515,0.4259,0.4831,0.1432,0.000000,0.579845,-0.562971,0.564505,-0.590583,0.575243,-0.561437
1.9129,0.016766,0.000000,-0.144142,0.144142,0.0000,0.0000,0.0000,-0.002351,-0.121184,0.118117,0.4259,0.4831,0.1432,0.000000,0.579845,-0.562971,0.564505,-0.590583,0.575243,-0.561437
1.9297,0.016753,0.000000,-0.149989,0.149989,0.0000,0.0000,0.0000,-0.002351,-0.131922,0.131922,0.4259,0.4831,0.1432,0.000000,0.579845,-0.562971,0.564505,-0.590583,0.575243,-0.561437
1.9465,0.016765,0.000000,-0.155841,0.155841,0.0000,0.0000,0.0000,-0.002351,-0.131922,0.131922,0.4259,0.4831,0.1432,0.000000,0.579845,-0.562971,0.564505,-0.590583,0.575243,-0.561437
1.9632,0.016750,0.000000,-0.161688,0.161688,0.0000,0.0000,0.0000,-0.002362,-0.147262,0.144194,0.3767,0.4985,0.0900,0.000000,0.578311,-0.562971,0.564505,-0.590583,0.575243,-0.561437
1.9800,0.016767,0.000000,-0.167541,0.167541,0.0000,0.0000,0.0000,-0.002338,-0.150330,0.145728,0.4424,0.5321,0.0956,0.000000,0.579845,-0.562971,0.564505,-0.592117,0.575243,-0.561437
1.9967,0.016768,0.000000,-0.173394,0.173394,0.0000,0.0000,0.0000,-0.002352,-0.148796,0.148796,0.4247,0.4778,0.1488,0.000000,0.579845,-0.562971,0.564505,-0.590583,0.575243,-0.561437
2.0135,0.016757,0.000000,-0.169822,0.169822,0.0000,0.0000,0.0000,-0.002362,-0.154932,0.158000,0.3768,0.4990,0.0894,0.000000,0.578311,-0.562971,0.564505,-0.590583,0.575243,-0.561437
2.0303,0.016768,0.000000,-0.163969,0.163969,0.0000,0.0000,0.0000,-0.002349,-0.167204,0.167204,0.3925,0.5476,0.0419,0.000000,0.578311,-0.562971,0.564505,-0.592117,0.575243,-0.561437
2.0470,0.016760,0.000000,-0.158119,0.158119,0.0000,0.0000,0.0000,-0.002349,-0.167204,0.167204,0.3925,0.5476,0.0419,0.000000,0.578311,-0.562971,0.564505,-0.592117,0.575243,-0.561437
2.0638,0.016753,0.000000,-0.152271,0.152271,0.0000,0.0000,0.0000,-0.002351,-0.179476,0.177942,0.4299,0.4762,0.1544,0.000000,0.579845,-0.562971,0.564505,-0.590583,0.575243,-0.561437
2.0805,0.016757,0.000000,-0.146421,0.146421,0.0000,0.0000,0.0000,-0.002339,-0.179476,0.176408,0.4368,0.5344,0.0889,0.000000,0.579845,-0.562971,0.564505,-0.592117,0.575243,-0.561437
2.0973,0.016785,0.000000,-0.140562,0.140562,0.0000,0.0000,0.0000,-0.002363,-0.170272,0.168738,0.3755,0.4932,0.0957,0.000000,0.578311,-0.562971,0.564505,-0.590583,0.575243,-0.561437
2.1141,0.016754,0.000000,-0.134714,0.134714,0.0000,0.0000,0.0000,-0.002351,-0.161068,0.161068,0.4920,0.5502,0.1485,0.000000,0.579845,-0.562971,0.564505,-0.592117,0.575243,-0.559903
2.1308,0.016771,0.000000,-0.128859,0.128859,0.0000,0.0000,0.0000,-0.002351,-0.161068,0.161068,0.4920,0.5502,0.1485,0.000000,0.579845,-0.562971,0.564505,-0.592117,0.575243,-0.559903
2.1476,0.016757,0.000000,-0.123010,0.123010,0.0000,0.0000,0.0000,-0.002352,-0.148796,0.151864,0.4798,0.5443,0.1430,0.000000,0.579845,-0.562971,0.564505,-0.592117,0.575243,-0.559903
2.1644,0.016842,0.000000,-0.117131,0.117131,0.0000,0.0000,0.0000,-0.002339,-0.139592,0.142660,0.4316,0.5273,0.0901,0.000000,0.579845,-0.562971,0.564505,-0.592117,0.575243,-0.561437
2.1812,0.016758,0.000000,-0.111282,0.111282,0.0000,0.0000,0.0000,-0.002340,-0.134990,0.136524,0.4366,0.5291,0.0956,0.000000,0.579845,-0.562971,0.564505,-0.592117,0.575243,-0.561437
2.1980,0.016815,0.000000,-0.105412,0.105412,0.0000,0.0000,0.0000,-0.002363,-0.130388,0.130388,0.3755,0.4937,0.0950,0.000000,0.578311,-0.562971,0.564505,-0.590583,0.575243,-0.561437
2.2149,0.016850,0.000000,-0.099530,0.099530,0.0000,0.0000,0.0000,-0.002349,-0.125786,0.122718,0.4317,0.4818,0.1488,0.000000,0.579845,-0.562971,0.564505,-0.590583,0.575243,-0.561437
2.2317,0.016794,0.000000,-0.093668,0.093668,0.0000,0.0000,0.0000,-0.002349,-0.125786,0.122718,0.4317,0.4818,0.1488,0.000000,0.579845,-0.562971,0.564505,-0.590583,0.575243,-0.561437
2.2484,0.016761,0.000000,-0.087818,0.087818,0.0000,0.0000,0.0000,-0.002339,-0.118117,0.115049,0.4366,0.5338,0.0895,0.000000,0.579845,-0.562971,0.564505,-0.592117,0.575243,-0.561437
2.2652,0.016756,0.000000,-0.081969,0.081969,0.0000,0.0000,0.0000,-0.002340,-0.108913,0.108913,0.4361,0.5284,0.0957,0.000000,0.579845,-0.562971,0.564505,-0.592117,0.575243,-0.561437
2.2819,0.016758,0.000000,-0.076119,0.076119,0.0000,0.0000,0.0000,-0.002352,-0.101243,0.101243,0.4254,0.4782,0.1488,0.000000,0.579845,-0.562971,0.564505,-0.590583,0.575243,-0.561437
2.2987,0.016761,0.000000,-0.070268,0.070268,0.0000,0.0000,0.0000,-0.002350,-0.093573,0.092039,0.4265,0.4834,0.1432,0.000000,0.579845,-0.562971,0.564505,-0.590583,0.575243,-0.561437
2.3155,0.016764,0.000000,-0.064416,0.064416,0.0000,0.0000,0.0000,-0.002350,-0.090505,0.085903,0.4265,0.4834,0.1432,0.000000,0.578311,-0.562971,0.564505,-0.590583,0.575243,-0.561437
2.3322,0.016737,0.000000,-0.058574,0.058574,0.0000,0.0000,0.0000,-0.002362,-0.090505,0.085903,0.3766,0.4984,0.0900,0.000000,0.578311,-0.562971,0.564505,-0.590583,0.575243,-0.561437
2.3490,0.016765,0.000000,-0.052722,0.052722,0.0000,0.0000,0.0000,-0.002349,-0.081301,0.079767,0.4316,0.4813,0.1494,0.000000,0.579845,-0.562971,0.564505,-0.590583,0.575243,-0.561437
2.3657,0.016767,0.000000,-0.046869,0.046869,0.0000,0.0000,0.0000,-0.002364,-0.070563,0.070563,0.4754,0.5007,0.1966,0.000000,0.579845,-0.562971,0.564505,-0.590583,0.575243,-0.559903
2.3825,0.016754,0.000000,-0.041021,0.041021,0.0000,0.0000,0.0000,-0.002338,-0.064427,0.064427,0.4320,0.5318,0.0845,0.000000,0.579845,-0.562971,0.564505,-0.592117,0.575243,-0.561437
2.3993,0.016772,0.000000,-0.035167,0.035167,0.0000,0.0000,0.0000,-0.002340,-0.056757,0.058291,0.4366,0.5286,0.0962,0.000000,0.579845,-0.562971,0.564505,-0.592117,0.575243,-0.561437
2.4160,0.016757,0.000000,-0.029317,0.029317,0.0000,0.0000,0.0000,-0.002352,-0.047553,0.050621,0.4253,0.4781,0.1487,0.000000,0.579845,-0.562971,0.564505,-0.590583,0.575243,-0.561437
2.4328,0.016764,0.000000,-0.023465,0.023465,0.0000,0.0000,0.0000,-0.002352,-0.042951,0.046019,0.4253,0.4781,0.1487,0.000000,0.579845,-0.562971,0.564505,-0.592117,0.575243,-0.561437
2.4495,0.016754,0.000000,-0.017617,0.017617,0.0000,0.0000,0.0000,-0.002339,-0.042951,0.046019,0.4373,0.5342,0.0895,0.000000,0.579845,-0.562971,0.564505,-0.592117,0.575243,-0.561437
2.4663,0.016767,0.000000,-0.011764,0.011764,0.0000,0.0000,0.0000,-0.002352,-0.044485,0.039884,0.4252,0.4776,0.1494,0.000000,0.579845,-0.562971,0.564505,-0.590583,0.575243,-0.561437
2.4831,0.016753,0.000000,-0.005916,0.005916,0.0000,0.0000,0.0000,-0.002351,-0.039884,0.036816,0.3875,0.5498,0.0356,0.000000,0.578311,-0.562971,0.564505,-0.592117,0.575243,-0.561437
2.4998,0.016764,0.000000,-0.000065,0.000065,0.0000,0.0000,0.0000,-0.002339,-0.027612,0.029146,0.4412,0.5267,0.1013,0.000000,0.579845,-0.562971,0.564505,-0.592117,0.575243,-0.561437
2.5166,0.016760,0.000000,0.005786,-0.005786,0.0000,0.0000,0.0000,-0.002363,-0.015340,0.019942,0.3751,0.4940,0.0944,0.000000,0.578311,-0.562971,0.564505,-0.590583,0.575243,-0.561437
2.5333,0.016760,0.000000,0.011636,-0.011636,0.0000,0.0000,0.0000,-0.002363,-0.015340,0.019942,0.3751,0.4940,0.0944,0.000000,0.578311,-0.562971,0.564505,-0.590583,0.575243,-0.561437
2.5501,0.016752,0.000000,0.017484,-0.017484,0.0000,0.0000,0.0000,-0.002338,-0.001534,0.009204,0.4425,0.5325,0.0952,0.000000,0.579845,-0.562971,0.564505,-0.592117,0.575243,-0.561437
2.5668,0.016751,0.000000,0.023331,-0.023331,0.0000,0.0000,0.0000,-0.002363,0.001534,-0.001534,0.3749,0.4933,0.0950,0.000000,0.578311,-0.562971,0.564505,-0.590583,0.575243,-0.561437
2.5836,0.016753,0.000000,0.029179,-0.029179,0.0000,0.0000,0.0000,-0.002338,0.000000,-0.004602,0.4425,0.5326,0.0951,0.000000,0.579845,-0.562971,0.564505,-0.592117,0.575243,-0.561437
2.6004,0.016769,0.000000,0.035032,-0.035032,0.0000,0.0000,0.0000,-0.002353,0.003068,-0.009204,0.4850,0.5462,0.1486,0.000000,0.579845,-0.562971,0.564505,-0.592117,0.575243,-0.559903
2.6171,0.016751,0.000000,0.040879,-0.040879,0.0000,0.0000,0.0000,-0.002350,0.012272,-0.018408,0.4203,0.4763,0.1432,0.000000,0.579845,-0.562971,0.564505,-0.590583,0.575243,-0.561437
2.6339,0.016761,0.000000,0.046730,-0.046730,0.0000,0.0000,0.0000,-0.002350,0.012272,-0.018408,0.4203,0.4763,0.1432,0.000000,0.579845,-0.562971,0.564505,-0.590583,0.575243,-0.561437
2.6506,0.016755,0.000000,0.052579,-0.052579,0.0000,0.0000,0.0000,-0.002339,0.026078,-0.026078,0.4378,0.5344,0.0901,0.000000,0.579845,-0.562971,0.564505,-0.592117,0.575243,-0.561437
2.6674,0.016764,0.000000,0.058430,-0.058430,0.0000,0.0000,0.0000,-0.002352,0.038350,-0.035282,0.4252,0.4775,0.1493,0.000000,0.579845,-0.562971,0.564505,-0.590583,0.575243,-0.561437
2.6841,0.016755,0.000000,0.064279,-0.064279,0.0000,0.0000,0.0000,-0.002362,0.041417,-0.041417,0.3767,0.4991,0.0894,0.000000,0.578311,-0.562971,0.564505,-0.590583,0.575243,-0.561437
2.7012,0.017042,0.000000,0.070228,-0.070228,0.0000,0.0000,0.0000,-0.002338,0.038350,-0.044485,0.4424,0.5320,0.0957,0.000000,0.579845,-0.562971,0.564505,-0.592117,0.575243,-0.561437
2.7180,0.016769,0.000000,0.076081,-0.076081,0.0000,0.0000,0.0000,-0.002338,0.038350,-0.044485,0.4424,0.5320,0.0957,0.000000,0.579845,-0.562971,0.564505,-0.592117,0.575243,-0.561437
2.7347,0.016774,0.000000,0.081936,-0.081936,0.0000,0.0000,0.0000,-0.002352,0.046019,-0.049087,0.4247,0.4778,0.1488,0.000000,0.579845,-0.562971,0.564505,-0.590583,0.575243,-0.561437
2.7515,0.016757,0.000000,0.087786,-0.087786,0.0000,0.0000,0.0000,-0.002339,0.061359,-0.058291,0.4373,0.5342,0.0895,0.000000,0.579845,-0.562971,0.564505,-0.592117,0.575243,-0.561437
2.7683,0.016777,0.000000,0.093642,-0.093642,0.0000,0.0000,0.0000,-0.002340,0.073631,-0.069029,0.4360,0.5283,0.0957,0.000000,0.579845,-0.562971,0.564505,-0.592117,0.575243,-0.561437
2.7850,0.016751,0.000000,0.099489,-0.099489,0.0000,0.0000,0.0000,-0.002365,0.075165,-0.075165,0.4359,0.5622,0.0947,0.000000,0.578311,-0.562971,0.564505,-0.592117,0.575243,-0.559903
2.8018,0.016764,0.000000,0.105341,-0.105341,0.0000,0.0000,0.0000,-0.002349,0.072097,-0.078233,0.4254,0.4746,0.1489,0.000000,0.579845,-0.562971,0.564505,-0.590583,0.575243,-0.561437
2.8185,0.016762,0.000000,0.111192,-0.111192,0.0000,0.0000,0.0000,-0.002349,0.072097,-0.078233,0.4254,0.4746,0.1489,0.000000,0.579845,-0.562971,0.564505,-0.590583,0.575243,-0.561437
2.8353,0.016738,0.000000,0.117035,-0.117035,0.0000,0.0000,0.0000,-0.002351,0.079767,-0.081301,0.4265,0.4838,0.1432,0.000000,0.579845,-0.562971,0.564505,-0.590583,0.575243,-0.561437
2.8520,0.016712,0.000000,0.122868,-0.122868,0.0000,0.0000,0.0000,-0.002350,0.099709,-0.090505,0.4263,0.4825,0.1440,0.000000,0.579845,-0.562971,0.564505,-0.590583,0.575243,-0.561437
2.8689,0.016923,0.000000,0.128775,-0.128775,0.0000,0.0000,0.0000,-0.002362,0.107379,-0.098175,0.3766,0.4985,0.0899,0.000000,0.578311,-0.562971,0.564505,-0.590583,0.575243,-0.561437
2.8857,0.016757,0.000000,0.134625,-0.134625,0.0000,0.0000,0.0000,-0.002349,0.108913,-0.105845,0.4316,0.4812,0.1494,0.000000,0.579845,-0.562971,0.564505,-0.590583,0.575243,-0.561437
2.9024,0.016750,0.000000,0.140471,-0.140471,0.0000,0.0000,0.0000,-0.002339,0.108913,-0.113515,0.4366,0.5339,0.0894,0.000000,0.579845,-0.562971,0.564505,-0.592117,0.575243,-0.561437
2.9192,0.016768,0.000000,0.146325,-0.146325,0.0000,0.0000,0.0000,-0.002339,0.108913,-0.113515,0.4366,0.5339,0.0894,0.000000,0.579845,-0.562971,0.564505,-0.592117,0.575243,-0.561437
2.9360,0.016766,0.000000,0.152177,-0.152177,0.0000,0.0000,0.0000,-0.002352,0.121184,-0.122718,0.4253,0.4776,0.1494,0.000000,0.579845,-0.562971,0.564505,-0.590583,0.575243,-0.561437
2.9527,0.016751,0.000000,0.158024,-0.158024,0.0000,0.0000,0.0000,-0.002362,0.136524,-0.133456,0.3767,0.4991,0.0894,0.000000,0.578311,-0.562971,0.564505,-0.590583,0.575243,-0.561437
2.9697,0.016964,0.000000,0.163945,-0.163945,0.0000,0.0000,0.0000,-0.002361,0.138058,-0.138058,0.3818,0.4968,0.0956,0.000000,0.578311,-0.562971,0.564505,-0.590583,0.575243,-0.561437
2.9864,0.016748,0.000000,0.169792,-0.169792,0.0000,0.0000,0.0000,-0.002349,0.134990,-0.144194,0.4310,0.4814,0.1488,0.000000,0.579845,-0.562971,0.564505,-0.590583,0.575243,-0.561437
3.0032,0.016754,0.000000,0.173426,-0.173426,0.0000,0.0000,0.0000,-0.002339,0.144194,-0.151864,0.4367,0.5338,0.0895,0.000000,0.579845,-0.562971,0.564505,-0.592117,0.575243,-0.561437
3.0199,0.016773,0.000000,0.167571,-0.167571,0.0000,0.0000,0.0000,-0.002339,0.144194,-0.151864,0.4367,0.5338,0.0895,0.000000,0.579845,-0.562971,0.564505,-0.592117,0.575243,-0.561437
3.0367,0.016761,0.000000,0.161721,-0.161721,0.0000,0.0000,0.0000,-0.002352,0.173340,-0.168738,0.4253,0.4776,0.1494,0.000000,0.579845,-0.562971,0.564505,-0.590583,0.575243,-0.561437
3.0535,0.016750,0.000000,0.155874,-0.155874,0.0000,0.0000,0.0000,-0.002350,0.173340,-0.168738,0.4265,0.4834,0.1432,0.000000,0.579845,-0.562971,0.564505,-0.590583,0.575243,-0.561437
3.0702,0.016756,0.000000,0.150025,-0.150025,0.0000,0.0000,0.0000,-0.002362,0.173340,-0.174874,0.3766,0.4984,0.0900,0.000000,0.578311,-0.562971,0.564505,-0.590583,0.575243,-0.561437
3.0870,0.016753,0.000000,0.144177,-0.144177,0.0000,0.0000,0.0000,-0.002349,0.165670,-0.170272,0.4316,0.4813,0.1494,0.000000,0.579845,-0.562971,0.564505,-0.590583,0.575243,-0.561437
3.1038,0.016808,0.000000,0.138310,-0.138310,0.0000,0.0000,0.0000,-0.002364,0.159534,-0.162602,0.4754,0.5007,0.1966,0.000000,0.579845,-0.562971,0.564505,-0.590583,0.575243,-0.559903
3.1205,0.016764,0.000000,0.132458,-0.132458,0.0000,0.0000,0.0000,-0.002364,0.159534,-0.162602,0.4754,0.5007,0.1966,0.000000,0.579845,-0.562971,0.564505,-0.590583,0.575243,-0.559903
3.1373,0.016759,0.000000,0.126608,-0.126608,0.0000,0.0000,0.0000,-0.002349,0.148796,-0.153398,0.3822,0.5474,0.0307,0.000000,0.578311,-0.562971,0.564505,-0.592117,0.575243,-0.561437
3.1540,0.016752,0.000000,0.120760,-0.120760,0.0000,0.0000,0.0000,-0.002339,0.139592,-0.145728,0.4418,0.5269,0.1018,0.000000,0.579845,-0.562971,0.564505,-0.592117,0.575243,-0.561437
3.1709,0.016826,0.000000,0.114887,-0.114887,0.0000,0.0000,0.0000,-0.002352,0.131922,-0.139592,0.4248,0.4783,0.1481,0.000000,0.579845,-0.562971,0.564505,-0.590583,0.575243,-0.561437
3.1876,0.016755,0.000000,0.109038,-0.109038,0.0000,0.0000,0.0000,-0.002351,0.131922,-0.131922,0.3875,0.5498,0.0357,0.000000,0.578311,-0.562971,0.564505,-0.592117,0.575243,-0.561437
3.2044,0.016760,0.000000,0.103188,-0.103188,0.0000,0.0000,0.0000,-0.002362,0.124252,-0.122718,0.3806,0.4916,0.1012,0.000000,0.578311,-0.562971,0.564505,-0.590583,0.575243,-0.561437
3.2212,0.016764,0.000000,0.097336,-0.097336,0.0000,0.0000,0.0000,-0.002362,0.124252,-0.122718,0.3806,0.4916,0.1012,0.000000,0.578311,-0.562971,0.564505,-0.590583,0.575243,-0.561437
3.2379,0.016761,0.000000,0.091486,-0.091486,0.0000,0.0000,0.0000,-0.002349,0.110447,-0.115049,0.4312,0.4820,0.1482,0.000000,0.579845,-0.562971,0.564505,-0.590583,0.575243,-0.561437
3.2547,0.016757,0.000000,0.085636,-0.085636,0.0000,0.0000,0.0000,-0.002339,0.104311,-0.110447,0.4367,0.5338,0.0896,0.000000,0.579845,-0.562971,0.564505,-0.592117,0.575243,-0.561437
3.2714,0.016772,0.000000,0.079782,-0.079782,0.0000,0.0000,0.0000,-0.002365,0.101243,-0.102777,0.4748,0.4952,0.2029,0.000000,0.579845,-0.562971,0.564505,-0.590583,0.575243,-0.559903
3.2882,0.016788,0.000000,0.073922,-0.073922,0.0000,0.0000,0.0000,-0.002361,0.093573,-0.093573,0.3715,0.4972,0.0838,0.000000,0.578311,-0.562971,0.564505,-0.590583,0.575243,-0.561437
3.3050,0.016753,0.000000,0.068074,-0.068074,0.0000,0.0000,0.0000,-0.002350,0.084369,-0.084369,0.3931,0.5478,0.0424,0.000000,0.578311,-0.562971,0.564505,-0.592117,0.575243,-0.561437
3.3217,0.016759,0.000000,0.062224,-0.062224,0.0000,0.0000,0.0000,-0.002350,0.084369,-0.084369,0.3931,0.5478,0.0424,0.000000,0.578311,-0.562971,0.564505,-0.592117,0.575243,-0.561437
3.3385,0.016776,0.000000,0.056368,-0.056368,0.0000,0.0000,0.0000,-0.002351,0.076699,-0.075165,0.4299,0.4761,0.1543,0.000000,0.579845,-0.562971,0.564505,-0.590583,0.575243,-0.561437
3.3553,0.016754,0.000000,0.050520,-0.050520,0.0000,0.0000,0.0000,-0.002350,0.070563,-0.069029,0.4260,0.4836,0.1427,0.000000,0.579845,-0.562971,0.564505,-0.590583,0.575243,-0.561437
3.3720,0.016765,0.000000,0.044668,-0.044668,0.0000,0.0000,0.0000,-0.002350,0.064427,-0.069029,0.4260,0.4836,0.1427,0.000000,0.579845,-0.562971,0.564505,-0.590583,0.575243,-0.561437
3.3888,0.016760,0.000000,0.038817,-0.038817,0.0000,0.0000,0.0000,-0.002362,0.058291,-0.064427,0.3766,0.4984,0.0901,0.000000,0.578311,-0.562971,0.564505,-0.590583,0.575243,-0.561437
3.4056,0.016763,0.000000,0.032966,-0.032966,0.0000,0.0000,0.0000,-0.002362,0.058291,-0.064427,0.3766,0.4984,0.0901,0.000000,0.578311,-0.562971,0.564505,-0.590583,0.575243,-0.561437
3.4223,0.016725,0.000000,0.027128,-0.027128,0.0000,0.0000,0.0000,-0.002338,0.049087,-0.052155,0.4424,0.5321,0.0956,0.000000,0.579845,-0.562971,0.564505,-0.592117,0.575243,-0.561437
3.4390,0.016755,0.000000,0.021279,-0.021279,0.0000,0.0000,0.0000,-0.002376,0.041417,-0.039884,0.4245,0.5110,0.1484,0.000000,0.578311,-0.562971,0.564505,-0.590583,0.575243,-0.559903
3.4558,0.016762,0.000000,0.015428,-0.015428,0.0000,0.0000,0.0000,-0.002336,0.035282,-0.036816,0.4374,0.5308,0.0895,0.000000,0.579845,-0.562971,0.564505,-0.592117,0.575243,-0.561437
3.4726,0.016749,0.000000,0.009582,-0.009582,0.0000,0.0000,0.0000,-0.002352,0.030680,-0.033748,0.4252,0.4779,0.1494,0.000000,0.579845,-0.562971,0.564505,-0.590583,0.575243,-0.561437
3.4893,0.016766,0.000000,0.003729,-0.003729,0.0000,0.0000,0.0000,-0.002352,0.023010,-0.026078,0.4252,0.4779,0.1494,0.000000,0.578311,-0.562971,0.564505,-0.592117,0.575243,-0.561437
3.5061,0.016758,0.000000,-0.002121,0.002121,0.0000,0.0000,0.0000,-0.002350,0.023010,-0.026078,0.3875,0.5498,0.0356,0.000000,0.578311,-0.562971,0.564505,-0.592117,0.575243,-0.561437
3.5228,0.016766,0.000000,-0.007973,0.007973,0.0000,0.0000,0.0000,-0.002352,0.012272,-0.013806,0.4907,0.5443,0.1548,0.000000,0.579845,-0.562971,0.564505,-0.592117,0.575243,-0.559903
3.5396,0.016765,0.000000,-0.013825,0.013825,0.0000,0.0000,0.0000,-0.002350,0.003068,-0.004602,0.4197,0.4765,0.1426,0.000000,0.579845,-0.562971,0.564505,-0.590583,0.575243,-0.561437
3.5564,0.016785,0.000000,-0.019684,0.019684,0.0000,0.0000,0.0000,-0.002362,0.000000,-0.004602,0.3773,0.4992,0.0901,0.000000,0.578311,-0.562971,0.564505,-0.590583,0.575243,-0.561437
3.5731,0.016756,0.000000,-0.025533,0.025533,0.0000,0.0000,0.0000,-0.002349,0.000000,-0.003068,0.4315,0.4812,0.1494,0.000000,0.579845,-0.562971,0.564505,-0.590583,0.575243,-0.561437
3.5899,0.016771,0.000000,-0.031387,0.031387,0.0000,0.0000,0.0000,-0.002351,-0.006136,0.007670,0.4259,0.4831,0.1432,0.000000,0.579845,-0.562971,0.564505,-0.590583,0.575243,-0.561437
3.6067,0.016750,0.000000,-0.037234,0.037234,0.0000,0.0000,0.0000,-0.002351,-0.006136,0.007670,0.4259,0.4831,0.1432,0.000000,0.579845,-0.562971,0.564505,-0.590583,0.575243,-0.561437
3.6234,0.016754,0.000000,-0.043082,0.043082,0.0000,0.0000,0.0000,-0.002351,-0.018408,0.021476,0.4259,0.4831,0.1432,0.000000,0.579845,-0.562971,0.564505,-0.590583,0.575243,-0.561437
3.6402,0.016754,0.000000,-0.048931,0.048931,0.0000,0.0000,0.0000,-0.002351,-0.030680,0.026078,0.4259,0.4831,0.1432,0.000000,0.579845,-0.562971,0.564505,-0.590583,0.575243,-0.561437
3.6569,0.016759,0.000000,-0.054781,0.054781,0.0000,0.0000,0.0000,-0.002351,-0.033748,0.029146,0.4259,0.4831,0.1432,0.000000,0.579845,-0.562971,0.564505,-0.590583,0.575243,-0.561437
3.6738,0.016906,0.000000,-0.060682,0.060682,0.0000,0.0000,0.0000,-0.002351,-0.033748,0.036816,0.3874,0.5493,0.0363,0.000000,0.578311,-0.562971,0.564505,-0.592117,0.575243,-0.561437
3.6906,0.016768,0.000000,-0.066535,0.066535,0.0000,0.0000,0.0000,-0.002351,-0.033748,0.036816,0.3874,0.5493,0.0363,0.000000,0.578311,-0.562971,0.564505,-0.592117,0.575243,-0.561437
3.7074,0.016754,0.000000,-0.072383,0.072383,0.0000,0.0000,0.0000,-0.002350,-0.044485,0.049087,0.4304,0.4760,0.1550,0.000000,0.579845,-0.562971,0.564505,-0.590583,0.575243,-0.561437
3.7241,0.016754,0.000000,-0.078231,0.078231,0.0000,0.0000,0.0000,-0.002362,-0.058291,0.055223,0.3762,0.4992,0.0888,0.000000,0.578311,-0.562971,0.564505,-0.590583,0.575243,-0.561437
3.7409,0.016765,0.000000,-0.084083,0.084083,0.0000,0.0000,0.0000,-0.002338,-0.062893,0.059825,0.4424,0.5320,0.0958,0.000000,0.579845,-0.562971,0.564505,-0.592117,0.575243,-0.561437
3.7576,0.016760,0.000000,-0.089933,0.089933,0.0000,0.0000,0.0000,-0.002340,-0.061359,0.064427,0.4355,0.5286,0.0950,0.000000,0.579845,-0.562971,0.564505,-0.592117,0.575243,-0.561437
3.7746,0.016969,0.000000,-0.095856,0.095856,0.0000,0.0000,0.0000,-0.002363,-0.069029,0.075165,0.3757,0.4938,0.0950,0.000000,0.578311,-0.562971,0.564505,-0.590583,0.575243,-0.561437
3.7913,0.016717,0.000000,-0.101692,0.101692,0.0000,0.0000,0.0000,-0.002363,-0.069029,0.075165,0.3757,0.4938,0.0950,0.000000,0.578311,-0.562971,0.564505,-0.590583,0.575243,-0.561437
3.8081,0.016755,0.000000,-0.107541,0.107541,0.0000,0.0000,0.0000,-0.002361,-0.084369,0.085903,0.3819,0.4974,0.0950,0.000000,0.578311,-0.562971,0.564505,-0.590583,0.575243,-0.561437
3.8248,0.016767,0.000000,-0.113394,0.113394,0.0000,0.0000,0.0000,-0.002338,-0.095107,0.090505,0.4418,0.5322,0.0951,0.000000,0.579845,-0.562971,0.564505,-0.592117,0.575243,-0.561437
3.8417,0.016840,0.000000,-0.119272,0.119272,0.0000,0.0000,0.0000,-0.002365,-0.095107,0.093573,0.4743,0.4954,0.2023,0.000000,0.579845,-0.562971,0.564505,-0.590583,0.575243,-0.559903
3.8584,0.016759,0.000000,-0.125122,0.125122,0.0000,0.0000,0.0000,-0.002349,-0.099709,0.101243,0.4214,0.4816,0.1376,0.000000,0.579845,-0.562971,0.564505,-0.590583,0.575243,-0.561437
3.8752,0.016778,0.000000,-0.130979,0.130979,0.0000,0.0000,0.0000,-0.002349,-0.111981,0.111981,0.4214,0.4816,0.1376,0.000000,0.579845,-0.562971,0.564505,-0.590583,0.575243,-0.561437
3.8920,0.016749,0.000000,-0.136825,0.136825,0.0000,0.0000,0.0000,-0.002351,-0.111981,0.111981,0.4269,0.4830,0.1444,0.000000,0.579845,-0.562971,0.564505,-0.590583,0.575243,-0.561437
3.9087,0.016757,0.000000,-0.142674,0.142674,0.0000,0.0000,0.0000,-0.002362,-0.124252,0.121184,0.3766,0.4985,0.0899,0.000000,0.578311,-0.562971,0.564505,-0.590583,0.575243,-0.561437
3.9255,0.016752,0.000000,-0.148522,0.148522,0.0000,0.0000,0.0000,-0.002349,-0.127320,0.122718,0.4316,0.4813,0.1494,0.000000,0.579845,-0.562971,0.564505,-0.590583,0.575243,-0.561437
3.9422,0.016721,0.000000,-0.154359,0.154359,0.0000,0.0000,0.0000,-0.002351,-0.127320,0.124252,0.4258,0.4831,0.1432,0.000000,0.579845,-0.562971,0.564505,-0.590583,0.575243,-0.561437
3.9590,0.016759,0.000000,-0.160209,0.160209,0.0000,0.0000,0.0000,-0.002351,-0.134990,0.133456,0.4258,0.4831,0.1432,0.000000,0.579845,-0.562971,0.564505,-0.590583,0.575243,-0.561437
3.9757,0.016772,0.000000,-0.166063,0.166063,0.0000,0.0000,0.0000,-0.002351,-0.150330,0.147262,0.4258,0.4831,0.1432,0.000000,0.579845,-0.562971,0.564505,-0.592117,0.575243,-0.559903
3.9925,0.016754,0.000000,-0.171912,0.171912,0.0000,0.0000,0.0000,-0.002352,-0.150330,0.147262,0.4867,0.5513,0.1436,0.000000,0.579845,-0.562971,0.564505,-0.592117,0.575243,-0.559903
4.0092,0.016757,0.000000,-0.171305,0.171305,0.0000,0.0000,0.0000,-0.002339,-0.159534,0.156466,0.4309,0.5265,0.0900,0.000000,0.579845,-0.562971,0.564505,-0.592117,0.575243,-0.561437
4.0260,0.016754,0.000000,-0.165457,0.165457,0.0000,0.0000,0.0000,-0.002363,-0.161068,0.156466,0.3761,0.4940,0.0955,0.000000,0.578311,-0.562971,0.564505,-0.590583,0.575243,-0.561437
4.0428,0.016761,0.000000,-0.159606,0.159606,0.0000,0.0000,0.0000,-0.002349,-0.161068,0.159534,0.4316,0.4817,0.1488,0.000000,0.579845,-0.562971,0.564505,-0.590583,0.575243,-0.561437
4.0595,0.016755,0.000000,-0.153758,0.153758,0.0000,0.0000,0.0000,-0.002351,-0.168738,0.167204,0.4258,0.4830,0.1432,0.000000,0.579845,-0.562971,0.564505,-0.590583,0.575243,-0.561437
4.0764,0.016842,0.000000,-0.147879,0.147879,0.0000,0.0000,0.0000,-0.002351,-0.168738,0.167204,0.4258,0.4830,0.1432,0.000000,0.579845,-0.562971,0.564505,-0.590583,0.575243,-0.561437
4.0931,0.016750,0.000000,-0.142032,0.142032,0.0000,0.0000,0.0000,-0.002339,-0.171806,0.171806,0.4372,0.5337,0.0901,0.000000,0.579845,-0.562971,0.564505,-0.592117,0.575243,-0.561437
4.1099,0.016752,0.000000,-0.136184,0.136184,0.0000,0.0000,0.0000,-0.002340,-0.168738,0.170272,0.4360,0.5284,0.0956,0.000000,0.579845,-0.562971,0.564505,-0.592117,0.575243,-0.561437
4.1266,0.016749,0.000000,-0.130338,0.130338,0.0000,0.0000,0.0000,-0.002352,-0.159534,0.164136,0.3864,0.5445,0.0412,0.000000,0.578311,-0.562971,0.564505,-0.592117,0.575243,-0.561437
4.1434,0.016762,0.000000,-0.124487,0.124487,0.0000,0.0000,0.0000,-0.002363,-0.150330,0.156466,0.4801,0.4941,0.2079,0.000000,0.579845,-0.562971,0.564505,-0.590583,0.575243,-0.559903
4.1601,0.016753,0.000000,-0.118639,0.118639,0.0000,0.0000,0.0000,-0.002349,-0.144194,0.145728,0.4208,0.4817,0.1371,0.000000,0.579845,-0.562971,0.564505,-0.590583,0.575243,-0.561437
4.1768,0.016725,0.000000,-0.112801,0.112801,0.0000,0.0000,0.0000,-0.002349,-0.144194,0.145728,0.4208,0.4817,0.1371,0.000000,0.579845,-0.562971,0.564505,-0.590583,0.575243,-0.561437
4.1936,0.016749,0.000000,-0.106954,0.106954,0.0000,0.0000,0.0000,-0.002339,-0.133456,0.136524,0.4377,0.5338,0.0907,0.000000,0.579845,-0.562971,0.564505,-0.592117,0.575243,-0.561437
4.2104,0.016753,0.000000,-0.101106,0.101106,0.0000,0.0000,0.0000,-0.002340,-0.124252,0.127320,0.4360,0.5284,0.0956,0.000000,0.579845,-0.562971,0.564505,-0.592117,0.575243,-0.561437
4.2271,0.016710,0.000000,-0.095274,0.095274,0.0000,0.0000,0.0000,-0.002363,-0.122718,0.119651,0.3756,0.4938,0.0950,0.000000,0.578311,-0.562971,0.564505,-0.590583,0.575243,-0.561437
4.2438,0.016756,0.000000,-0.089425,0.089425,0.0000,0.0000,0.0000,-0.002349,-0.121184,0.115049,0.3926,0.5482,0.0413,0.000000,0.578311,-0.562971,0.564505,-0.592117,0.575243,-0.561437
4.2606,0.016824,0.000000,-0.083552,0.083552,0.0000,0.0000,0.0000,-0.002375,-0.116583,0.110447,0.4296,0.5093,0.1541,0.000000,0.578311,-0.562971,0.564505,-0.590583,0.575243,-0.559903
4.2774,0.016767,0.000000,-0.077700,0.077700,0.0000,0.0000,0.0000,-0.002375,-0.116583,0.110447,0.4296,0.5093,0.1541,0.000000,0.578311,-0.562971,0.564505,-0.590583,0.575243,-0.559903
4.2942,0.016751,0.000000,-0.071852,0.071852,0.0000,0.0000,0.0000,-0.002348,-0.107379,0.101243,0.4261,0.4801,0.1427,0.000000,0.579845,-0.562971,0.564505,-0.590583,0.575243,-0.561437
4.3109,0.016764,0.000000,-0.066001,0.066001,0.0000,0.0000,0.0000,-0.002339,-0.095107,0.092039,0.4372,0.5340,0.0901,0.000000,0.579845,-0.562971,0.564505,-0.592117,0.575243,-0.561437
4.3277,0.016809,0.000000,-0.060133,0.060133,0.0000,0.0000,0.0000,-0.002365,-0.087437,0.085903,0.4748,0.4952,0.2028,0.000000,0.579845,-0.562971,0.564505,-0.590583,0.575243,-0.559903
4.3445,0.016754,0.000000,-0.054285,0.054285,0.0000,0.0000,0.0000,-0.002338,-0.078233,0.079767,0.4321,0.5324,0.0839,0.000000,0.579845,-0.562971,0.564505,-0.592117,0.575243,-0.561437
4.3617,0.017228,0.000000,-0.048271,0.048271,0.0000,0.0000,0.0000,-0.002352,-0.072097,0.073631,0.4258,0.4778,0.1500,0.000000,0.579845,-0.562971,0.564505,-0.590583,0.575243,-0.561437
4.3788,0.017107,0.000000,-0.042300,0.042300,0.0000,0.0000,0.0000,-0.002352,-0.072097,0.073631,0.4258,0.4778,0.1500,0.000000,0.579845,-0.562971,0.564505,-0.590583,0.575243,-0.561437
4.3956,0.016750,0.000000,-0.036453,0.036453,0.0000,0.0000,0.0000,-0.002362,-0.069029,0.064427,0.3767,0.4990,0.0893,0.000000,0.578311,-0.562971,0.564505,-0.590583,0.575243,-0.561437
4.4123,0.016769,0.000000,-0.030599,0.030599,0.0000,0.0000,0.0000,-0.002338,-0.062893,0.059825,0.4424,0.5320,0.0957,0.000000,0.579845,-0.562971,0.564505,-0.592117,0.575243,-0.561437
4.4291,0.016754,0.000000,-0.024751,0.024751,0.0000,0.0000,0.0000,-0.002352,-0.039884,0.046019,0.4247,0.4778,0.1488,0.000000,0.579845,-0.562971,0.564505,-0.590583,0.575243,-0.561437
4.4459,0.016766,0.000000,-0.018899,0.018899,0.0000,0.0000,0.0000,-0.002352,-0.039884,0.046019,0.4247,0.4778,0.1488,0.000000,0.579845,-0.562971,0.564505,-0.590583,0.575243,-0.561437
4.4626,0.016754,0.000000,-0.013051,0.013051,0.0000,0.0000,0.0000,-0.002362,-0.038350,0.039884,0.3768,0.4990,0.0894,0.000000,0.578311,-0.562971,0.564505,-0.590583,0.575243,-0.561437
4.4794,0.016756,0.000000,-0.007201,0.007201,0.0000,0.0000,0.0000,-0.002338,-0.038350,0.033748,0.4423,0.5320,0.0957,0.000000,0.579845,-0.562971,0.564505,-0.592117,0.575243,-0.561437
4.4961,0.016751,0.000000,-0.001354,0.001354,0.0000,0.0000,0.0000,-0.002352,-0.027612,0.027612,0.4247,0.4778,0.1488,0.000000,0.579845,-0.562971,0.564505,-0.590583,0.575243,-0.561437
4.5129,0.016758,0.000000,0.004495,-0.004495,0.0000,0.0000,0.0000,-0.002350,-0.015340,0.021476,0.4266,0.4834,0.1432,0.000000,0.579845,-0.562971,0.564505,-0.590583,0.575243,-0.561437
4.5296,0.016753,0.000000,0.010343,-0.010343,0.0000,0.0000,0.0000,-0.002362,-0.007670,0.010738,0.3766,0.4984,0.0900,0.000000,0.578311,-0.562971,0.564505,-0.590583,0.575243,-0.561437
4.5464,0.016764,0.000000,0.016195,-0.016195,0.0000,0.0000,0.0000,-0.002362,-0.007670,0.010738,0.3766,0.4984,0.0900,0.000000,0.578311,-0.562971,0.564505,-0.590583,0.575243,-0.561437
4.5632,0.016765,0.000000,0.022047,-0.022047,0.0000,0.0000,0.0000,-0.002338,0.001534,0.000000,0.4424,0.5321,0.0956,0.000000,0.579845,-0.562971,0.564505,-0.592117,0.575243,-0.561437
4.5799,0.016754,0.000000,0.027896,-0.027896,0.0000,0.0000,0.0000,-0.002340,0.006136,-0.006136,0.4355,0.5286,0.0950,0.000000,0.579845,-0.562971,0.564505,-0.592117,0.575243,-0.561437
4.5967,0.016762,0.000000,0.033747,-0.033747,0.0000,0.0000,0.0000,-0.002340,0.004602,-0.012272,0.4355,0.5286,0.0950,0.000000,0.579845,-0.562971,0.564505,-0.592117,0.575243,-0.561437
4.6134,0.016755,0.000000,0.039595,-0.039595,0.0000,0.0000,0.0000,-0.002352,0.009204,-0.016874,0.4254,0.4782,0.1488,0.000000,0.579845,-0.562971,0.564505,-0.590583,0.575243,-0.561437
4.6302,0.016764,0.000000,0.045447,-0.045447,0.0000,0.0000,0.0000,-0.002350,0.019942,-0.023010,0.4265,0.4834,0.1432,0.000000,0.579845,-0.562971,0.564505,-0.590583,0.575243,-0.561437
4.6469,0.016751,0.000000,0.051294,-0.051294,0.0000,0.0000,0.0000,-0.002350,0.019942,-0.023010,0.4265,0.4834,0.1432,0.000000,0.579845,-0.562971,0.564505,-0.590583,0.575243,-0.561437
4.6637,0.016756,0.000000,0.057143,-0.057143,0.0000,0.0000,0.0000,-0.002364,0.033748,-0.032214,0.4369,0.5669,0.0897,0.000000,0.578311,-0.562971,0.564505,-0.592117,0.575243,-0.559903
4.6805,0.016752,0.000000,0.062991,-0.062991,0.0000,0.0000,0.0000,-0.002349,0.044485,-0.041417,0.4253,0.4742,0.1494,0.000000,0.579845,-0.562971,0.564505,-0.590583,0.575243,-0.561437
4.6972,0.016764,0.000000,0.068842,-0.068842,0.0000,0.0000,0.0000,-0.002362,0.046019,-0.047553,0.3767,0.4994,0.0894,0.000000,0.578311,-0.562971,0.564505,-0.590583,0.575243,-0.561437
4.7140,0.016751,0.000000,0.074690,-0.074690,0.0000,0.0000,0.0000,-0.002361,0.044485,-0.050621,0.3818,0.4968,0.0956,0.000000,0.578311,-0.562971,0.564505,-0.590583,0.575243,-0.561437
4.7307,0.016761,0.000000,0.080540,-0.080540,0.0000,0.0000,0.0000,-0.002361,0.044485,-0.050621,0.3818,0.4968,0.0956,0.000000,0.578311,-0.562971,0.564505,-0.590583,0.575243,-0.561437
4.7475,0.016758,0.000000,0.086390,-0.086390,0.0000,0.0000,0.0000,-0.002350,0.055223,-0.056757,0.3920,0.5479,0.0412,0.000000,0.578311,-0.562971,0.564505,-0.592117,0.575243,-0.561437
4.7643,0.016762,0.000000,0.092241,-0.092241,0.0000,0.0000,0.0000,-0.002362,0.070563,-0.067495,0.3802,0.4918,0.1006,0.000000,0.578311,-0.562971,0.564505,-0.590583,0.575243,-0.561437
4.7810,0.016756,0.000000,0.098090,-0.098090,0.0000,0.0000,0.0000,-0.002374,0.078233,-0.075165,0.4310,0.5152,0.1479,0.000000,0.578311,-0.562971,0.564505,-0.590583,0.575243,-0.559903
4.7978,0.016755,0.000000,0.103939,-0.103939,0.0000,0.0000,0.0000,-0.002360,0.076699,-0.076699,0.3761,0.4951,0.0895,0.000000,0.578311,-0.562971,0.564505,-0.590583,0.575243,-0.561437
4.8145,0.016771,0.000000,0.109793,-0.109793,0.0000,0.0000,0.0000,-0.002350,0.079767,-0.079767,0.4316,0.4816,0.1494,0.000000,0.579845,-0.562971,0.564505,-0.590583,0.575243,-0.561437
4.8313,0.016763,0.000000,0.115644,-0.115644,0.0000,0.0000,0.0000,-0.002350,0.079767,-0.079767,0.4316,0.4816,0.1494,0.000000,0.579845,-0.562971,0.564505,-0.590583,0.575243,-0.561437
4.8480,0.016752,0.000000,0.121492,-0.121492,0.0000,0.0000,0.0000,-0.002351,0.093573,-0.087437,0.4258,0.4830,0.1432,0.000000,0.579845,-0.562971,0.564505,-0.590583,0.575243,-0.561437
4.8648,0.016766,0.000000,0.127344,-0.127344,0.0000,0.0000,0.0000,-0.002339,0.107379,-0.098175,0.4372,0.5337,0.0901,0.000000,0.579845,-0.562971,0.564505,-0.592117,0.575243,-0.561437
4.8816,0.016759,0.000000,0.133194,-0.133194,0.0000,0.0000,0.0000,-0.002352,0.107379,-0.107379,0.3862,0.5440,0.0418,0.000000,0.578311,-0.562971,0.564505,-0.592117,0.575243,-0.561437
4.8983,0.016766,0.000000,0.139047,-0.139047,0.0000,0.0000,0.0000,-0.002351,0.110447,-0.116583,0.3915,0.5429,0.0468,0.000000,0.578311,-0.562971,0.564505,-0.592117,0.575243,-0.561437
4.9151,0.016764,0.000000,0.144899,-0.144899,0.0000,0.0000,0.0000,-0.002350,0.122718,-0.125786,0.4300,0.4766,0.1539,0.000000,0.579845,-0.562971,0.564505,-0.590583,0.575243,-0.561437
4.9322,0.017083,0.000000,0.150862,-0.150862,0.0000,0.0000,0.0000,-0.002350,0.122718,-0.125786,0.4300,0.4766,0.1539,0.000000,0.579845,-0.562971,0.564505,-0.590583,0.575243,-0.561437
4.9489,0.016755,0.000000,0.156710,-0.156710,0.0000,0.0000,0.0000,-0.002350,0.136524,-0.133456,0.4260,0.4835,0.1427,0.000000,0.579845,-0.562971,0.564505,-0.590583,0.575243,-0.561437
4.9657,0.016766,0.000000,0.162563,-0.162563,0.0000,0.0000,0.0000,-0.002339,0.138058,-0.138058,0.4372,0.5336,0.0901,0.000000,0.579845,-0.562971,0.564505,-0.592117,0.575243,-0.561437
4.9825,0.016758,0.000000,0.168412,-0.168412,0.0000,0.0000,0.0000,-0.002352,0.138058,-0.144194,0.4253,0.4776,0.1493,0.000000,0.579845,-0.562971,0.564505,-0.590583,0.575243,-0.561437
4.9992,0.016765,0.000000,0.174264,-0.174264,0.0000,0.0000,0.0000,-0.002350,0.147262,-0.153398,0.4265,0.4834,0.1432,0.000000,0.579845,-0.562971,0.564505,-0.590583,0.575243,-0.561437
5.0160,0.016762,0.000000,0.168950,-0.168950,0.0000,0.0000,0.0000,-0.002350,0.161068,-0.162602,0.4265,0.4834,0.1432,0.000000,0.579845,-0.562971,0.564505,-0.590583,0.575243,-0.561437
5.0328,0.016771,0.000000,0.163096,-0.163096,0.0000,0.0000,0.0000,-0.002350,0.161068,-0.162602,0.4265,0.4834,0.1432,0.000000,0.579845,-0.562971,0.564505,-0.590583,0.575243,-0.561437
5.0495,0.016755,0.000000,0.157248,-0.157248,0.0000,0.0000,0.0000,-0.002375,0.171806,-0.170272,0.4261,0.5161,0.1435,0.000000,0.578311,-0.562971,0.564505,-0.590583,0.575243,-0.559903
5.0666,0.017071,0.000000,0.151289,-0.151289,0.0000,0.0000,0.0000,-0.002348,0.168738,-0.174874,0.4264,0.4794,0.1438,0.000000,0.579845,-0.562971,0.564505,-0.590583,0.575243,-0.561437
5.0833,0.016747,0.000000,0.145443,-0.145443,0.0000,0.0000,0.0000,-0.002339,0.164136,-0.168738,0.4372,0.5341,0.0900,0.000000,0.579845,-0.562971,0.564505,-0.592117,0.575243,-0.561437
5.1001,0.016776,0.000000,0.139587,-0.139587,0.0000,0.0000,0.0000,-0.002339,0.164136,-0.168738,0.4372,0.5341,0.0900,0.000000,0.579845,-0.562971,0.564505,-0.592117,0.575243,-0.561437
5.1169,0.016753,0.000000,0.133739,-0.133739,0.0000,0.0000,0.0000,-0.002352,0.158000,-0.161068,0.3862,0.5439,0.0418,0.000000,0.578311,-0.562971,0.564505,-0.592117,0.575243,-0.561437
5.1339,0.017034,0.000000,0.127793,-0.127793,0.0000,0.0000,0.0000,-0.002351,0.158000,-0.161068,0.3915,0.5429,0.0468,0.000000,0.578311,-0.562971,0.564505,-0.592117,0.575243,-0.561437
5.1506,0.016749,0.000000,0.121947,-0.121947,0.0000,0.0000,0.0000,-0.002350,0.138058,-0.145728,0.4300,0.4766,0.1539,0.000000,0.579845,-0.562971,0.564505,-0.590583,0.575243,-0.561437
5.1682,0.017519,0.000000,0.115832,-0.115832,0.0000,0.0000,0.0000,-0.002339,0.134990,-0.139592,0.4368,0.5343,0.0890,0.000000,0.579845,-0.562971,0.564505,-0.592117,0.575243,-0.561437
5.1849,0.016754,0.000000,0.109983,-0.109983,0.0000,0.0000,0.0000,-0.002363,0.128854,-0.130388,0.3755,0.4932,0.0957,0.000000,0.578311,-0.562971,0.564505,-0.590583,0.575243,-0.561437
5.2022,0.017252,0.000000,0.103961,-0.103961,0.0000,0.0000,0.0000,-0.002363,0.119651,-0.121184,0.3755,0.4932,0.0957,0.000000,0.579845,-0.562971,0.564505,-0.590583,0.575243,-0.561437
5.2189,0.016747,0.000000,0.098115,-0.098115,0.0000,0.0000,0.0000,-0.002349,0.119651,-0.121184,0.4317,0.4818,0.1488,0.000000,0.579845,-0.562971,0.564505,-0.590583,0.575243,-0.561437
5.2357,0.016751,0.000000,0.092268,-0.092268,0.0000,0.0000,0.0000,-0.002362,0.108913,-0.115049,0.3761,0.4986,0.0894,0.000000,0.578311,-0.562971,0.564505,-0.590583,0.575243,-0.561437
5.2525,0.016845,0.000000,0.086388,-0.086388,0.0000,0.0000,0.0000,-0.002349,0.104311,-0.110447,0.4316,0.4812,0.1494,0.000000,0.579845,-0.562971,0.564505,-0.590583,0.575243,-0.561437
5.2693,0.016758,0.000000,0.080539,-0.080539,0.0000,0.0000,0.0000,-0.002351,0.101243,-0.102777,0.4258,0.4831,0.1432,0.000000,0.579845,-0.562971,0.564505,-0.590583,0.575243,-0.561437
5.2860,0.016749,0.000000,0.074692,-0.074692,0.0000,0.0000,0.0000,-0.002351,0.093573,-0.092039,0.4258,0.4831,0.1432,0.000000,0.579845,-0.562971,0.564505,-0.590583,0.575243,-0.561437
5.3028,0.016770,0.000000,0.068838,-0.068838,0.0000,0.0000,0.0000,-0.002351,0.093573,-0.092039,0.4258,0.4831,0.1432,0.000000,0.579845,-0.562971,0.564505,-0.590583,0.575243,-0.561437
5.3195,0.016753,0.000000,0.062990,-0.062990,0.0000,0.0000,0.0000,-0.002339,0.084369,-0.082835,0.4372,0.5337,0.0901,0.000000,0.579845,-0.562971,0.564505,-0.592117,0.575243,-0.561437
5.3363,0.016796,0.000000,0.057127,-0.057127,0.0000,0.0000,0.0000,-0.002353,0.075165,-0.075165,0.4855,0.5460,0.1491,0.000000,0.579845,-0.562971,0.564505,-0.592117,0.575243,-0.559903
5.3531,0.016762,0.000000,0.051276,-0.051276,0.0000,0.0000,0.0000,-0.002350,0.070563,-0.072097,0.4202,0.4763,0.1432,0.000000,0.579845,-0.562971,0.564505,-0.590583,0.575243,-0.561437
5.3699,0.016752,0.000000,0.045429,-0.045429,0.0000,0.0000,0.0000,-0.002351,0.061359,-0.067495,0.4270,0.4836,0.1438,0.000000,0.579845,-0.562971,0.564505,-0.590583,0.575243,-0.561437
5.3868,0.016900,0.000000,0.039530,-0.039530,0.0000,0.0000,0.0000,-0.002351,0.052155,-0.058291,0.4270,0.4836,0.1438,0.000000,0.579845,-0.562971,0.564505,-0.590583,0.575243,-0.561437
5.4035,0.016756,0.000000,0.033681,-0.033681,0.0000,0.0000,0.0000,-0.002351,0.052155,-0.058291,0.4270,0.4836,0.1438,0.000000,0.579845,-0.562971,0.564505,-0.590583,0.575243,-0.561437
5.4203,0.016755,0.000000,0.027832,-0.027832,0.0000,0.0000,0.0000,-0.002351,0.046019,-0.046019,0.4270,0.4836,0.1438,0.000000,0.579845,-0.562971,0.564505,-0.590583,0.575243,-0.561437
5.4370,0.016760,0.000000,0.021982,-0.021982,0.0000,0.0000,0.0000,-0.002351,0.042951,-0.039884,0.4270,0.4836,0.1438,0.000000,0.579845,-0.562971,0.564505,-0.590583,0.575243,-0.561437
5.4538,0.016757,0.000000,0.016132,-0.016132,0.0000,0.0000,0.0000,-0.002339,0.035282,-0.038350,0.4371,0.5336,0.0900,0.000000,0.579845,-0.562971,0.564505,-0.592117,0.575243,-0.561437
5.4707,0.016919,0.000000,0.010226,-0.010226,0.0000,0.0000,0.0000,-0.002340,0.027612,-0.036816,0.4361,0.5284,0.0956,0.000000,0.579845,-0.562971,0.564505,-0.592117,0.575243,-0.561437
5.4875,0.016759,0.000000,0.004376,-0.004376,0.0000,0.0000,0.0000,-0.002340,0.027612,-0.036816,0.4361,0.5284,0.0956,0.000000,0.579845,-0.562971,0.564505,-0.592117,0.575243,-0.561437
