t,loop_dt,cmd_z,cmd_ant_l,cmd_ant_r,cmd_roll,cmd_pitch,cmd_yaw,pres_z,pres_ant_l,pres_ant_r,pres_roll,pres_pitch,pres_yaw,pres_j0,pres_j1,pres_j2,pres_j3,pres_j4,pres_j5,pres_j6
0.0000,0.000001,0.000000,-0.174532,0.174532,0.0000,0.0000,0.0000,-0.002487,-0.001534,0.000000,0.5150,0.6656,0.2394,0.000000,0.572175,-0.562971,0.564505,-0.590583,0.575243,-0.550699
0.0168,0.016767,0.000000,-0.159900,0.159900,0.0000,0.0000,0.0000,-0.002487,-0.004602,0.000000,0.5150,0.6656,0.2394,0.000000,0.572175,-0.562971,0.564505,-0.590583,0.575243,-0.550699
0.0335,0.016753,0.000000,-0.145281,0.145281,0.0000,0.0000,0.0000,-0.002487,-0.004602,0.000000,0.5150,0.6656,0.2394,0.000000,0.572175,-0.562971,0.564505,-0.590583,0.575243,-0.550699
0.0503,0.016760,0.000000,-0.130655,0.130655,0.0000,0.0000,0.0000,-0.002476,-0.006136,0.010738,0.5259,0.7161,0.1851,0.000000,0.572175,-0.562971,0.564505,-0.592117,0.575243,-0.550699
0.0670,0.016753,0.000000,-0.116036,0.116036,0.0000,0.0000,0.0000,-0.002475,-0.049087,0.053689,0.4645,0.6423,0.1911,0.000000,0.572175,-0.562971,0.564505,-0.590583,0.575243,-0.552233
0.0838,0.016764,0.000000,-0.101406,0.101406,0.0000,0.0000,0.0000,-0.002462,-0.118117,0.128854,0.4212,0.6323,0.1372,0.000000,0.572175,-0.562971,0.564505,-0.590583,0.575243,-0.553767
0.1005,0.016750,0.000000,-0.086789,0.086789,0.0000,0.0000,0.0000,-0.002425,-0.158000,0.162602,0.3369,0.6490,-0.0178,0.000000,0.572175,-0.562971,0.564505,-0.592117,0.575243,-0.556835
0.1173,0.016789,0.000000,-0.072137,0.072137,0.0000,0.0000,0.0000,-0.002425,-0.154932,0.154932,0.3369,0.6490,-0.0178,0.000000,0.572175,-0.562971,0.564505,-0.592117,0.575243,-0.559903
0.1341,0.016749,0.000000,-0.057521,0.057521,0.0000,0.0000,0.0000,-0.002403,-0.154932,0.154932,0.2466,0.6123,-0.1085,0.000000,0.572175,-0.562971,0.564505,-0.592117,0.575243,-0.559903
0.1508,0.016764,0.000000,-0.042892,0.042892,0.0000,0.0000,0.0000,-0.002393,-0.128854,0.128854,0.3060,0.6004,-0.0453,0.000000,0.573709,-0.562971,0.564505,-0.592117,0.575243,-0.559903
0.1676,0.016766,0.000000,-0.028260,0.028260,0.0000,0.0000,0.0000,-0.002358,-0.101243,0.104311,0.3501,0.5527,0.0021,0.000000,0.576777,-0.562971,0.564505,-0.592117,0.575243,-0.561437
0.1846,0.016937,0.000000,-0.013480,0.013480,0.0000,0.0000,0.0000,-0.002373,-0.069029,0.073631,0.3347,0.5069,0.0509,0.000000,0.576777,-0.562971,0.564505,-0.590583,0.575243,-0.561437
0.2013,0.016775,0.000000,0.001159,-0.001159,0.0000,0.0000,0.0000,-0.002373,-0.069029,0.073631,0.3347,0.5069,0.0509,0.000000,0.576777,-0.562971,0.564505,-0.590583,0.575243,-0.561437
0.2181,0.016757,0.000000,0.015783,-0.015783,0.0000,0.0000,0.0000,-0.002360,-0.042951,0.047553,0.3862,0.4960,0.0996,0.000000,0.578311,-0.562971,0.564505,-0.590583,0.575243,-0.561437
0.2348,0.016759,0.000000,0.030407,-0.030407,0.0000,0.0000,0.0000,-0.002350,-0.021476,0.024544,0.4306,0.4815,0.1484,0.000000,0.579845,-0.562971,0.564505,-0.590583,0.575243,-0.561437
0.2524,0.017592,0.000000,0.045759,-0.045759,0.0000,0.0000,0.0000,-0.002339,-0.006136,0.009204,0.4367,0.5338,0.0895,0.000000,0.579845,-0.562971,0.564505,-0.592117,0.575243,-0.561437
0.2693,0.016896,0.000000,0.060504,-0.060504,0.0000,0.0000,0.0000,-0.002340,0.004602,-0.004602,0.4361,0.5284,0.0957,0.000000,0.579845,-0.562971,0.564505,-0.592117,0.575243,-0.561437
0.2861,0.016759,0.000000,0.075129,-0.075129,0.0000,0.0000,0.0000,-0.002365,0.013806,-0.021476,0.4749,0.4958,0.2022,0.000000,0.579845,-0.562971,0.564505,-0.590583,0.575243,-0.559903
0.3030,0.016870,0.000000,0.089850,-0.089850,0.0000,0.0000,0.0000,-0.002365,0.013806,-0.021476,0.4749,0.4958,0.2022,0.000000,0.579845,-0.562971,0.564505,-0.590583,0.575243,-0.559903
0.3197,0.016751,0.000000,0.104468,-0.104468,0.0000,0.0000,0.0000,-0.002349,0.032214,-0.039884,0.4213,0.4815,0.1377,0.000000,0.579845,-0.562971,0.564505,-0.590583,0.575243,-0.561437
0.3365,0.016754,0.000000,0.119089,-0.119089,0.0000,0.0000,0.0000,-0.002351,0.056757,-0.058291,0.4269,0.4830,0.1444,0.000000,0.579845,-0.562971,0.564505,-0.590583,0.575243,-0.561437
0.3532,0.016756,0.000000,0.133712,-0.133712,0.0000,0.0000,0.0000,-0.002351,0.075165,-0.073631,0.4269,0.4830,0.1444,0.000000,0.579845,-0.562971,0.564505,-0.590583,0.575243,-0.561437
0.3700,0.016755,0.000000,0.148333,-0.148333,0.0000,0.0000,0.0000,-0.002351,0.093573,-0.087437,0.4269,0.4830,0.1444,0.000000,0.579845,-0.562971,0.564505,-0.590583,0.575243,-0.561437
0.3868,0.016828,0.000000,0.163018,-0.163018,0.0000,0.0000,0.0000,-0.002339,0.110447,-0.104311,0.4371,0.5337,0.0900,0.000000,0.579845,-0.562971,0.564505,-0.592117,0.575243,-0.561437
0.4036,0.016762,0.000000,0.171420,-0.171420,0.0000,0.0000,0.0000,-0.002339,0.110447,-0.104311,0.4371,0.5337,0.0900,0.000000,0.579845,-0.562971,0.564505,-0.592117,0.575243,-0.561437
0.4203,0.016751,0.000000,0.156803,-0.156803,0.0000,0.0000,0.0000,-0.002352,0.127320,-0.122718,0.4253,0.4776,0.1494,0.000000,0.579845,-0.562971,0.564505,-0.590583,0.575243,-0.561437
0.4371,0.016755,0.000000,0.142181,-0.142181,0.0000,0.0000,0.0000,-0.002350,0.148796,-0.139592,0.4265,0.4834,0.1432,0.000000,0.579845,-0.562971,0.564505,-0.590583,0.575243,-0.561437
0.4538,0.016751,0.000000,0.127563,-0.127563,0.0000,0.0000,0.0000,-0.002350,0.170272,-0.159534,0.4265,0.4834,0.1432,0.000000,0.579845,-0.562971,0.564505,-0.590583,0.575243,-0.561437
0.4706,0.016756,0.000000,0.112941,-0.112941,0.0000,0.0000,0.0000,-0.002350,0.173340,-0.174874,0.4265,0.4834,0.1432,0.000000,0.579845,-0.562971,0.564505,-0.590583,0.575243,-0.561437
0.4877,0.017076,0.000000,0.098039,-0.098039,0.0000,0.0000,0.0000,-0.002350,0.164136,-0.171806,0.4265,0.4834,0.1432,0.000000,0.579845,-0.562971,0.564505,-0.590583,0.575243,-0.561437
0.5044,0.016771,0.000000,0.083404,-0.083404,0.0000,0.0000,0.0000,-0.002350,0.164136,-0.171806,0.4265,0.4834,0.1432,0.000000,0.579845,-0.562971,0.564505,-0.590583,0.575243,-0.561437
0.5212,0.016758,0.000000,0.068780,-0.068780,0.0000,0.0000,0.0000,-0.002350,0.145728,-0.154932,0.4265,0.4834,0.1432,0.000000,0.579845,-0.562971,0.564505,-0.590583,0.575243,-0.561437
0.5380,0.016847,0.000000,0.054078,-0.054078,0.0000,0.0000,0.0000,-0.002350,0.124252,-0.131922,0.4265,0.4834,0.1432,0.000000,0.579845,-0.562971,0.564505,-0.590583,0.575243,-0.561437
0.5548,0.016779,0.000000,0.039436,-0.039436,0.0000,0.0000,0.0000,-0.002350,0.101243,-0.108913,0.4265,0.4834,0.1432,0.000000,0.579845,-0.562971,0.564505,-0.590583,0.575243,-0.561437
0.5716,0.016763,0.000000,0.024807,-0.024807,0.0000,0.0000,0.0000,-0.002350,0.081301,-0.088971,0.4265,0.4834,0.1432,0.000000,0.579845,-0.562971,0.564505,-0.590583,0.575243,-0.561437
0.5883,0.016766,0.000000,0.010177,-0.010177,0.0000,0.0000,0.0000,-0.002364,0.061359,-0.065961,0.4759,0.5005,0.1973,0.000000,0.579845,-0.562971,0.564505,-0.590583,0.575243,-0.559903
0.6051,0.016764,0.000000,-0.004453,0.004453,0.0000,0.0000,0.0000,-0.002364,0.061359,-0.065961,0.4759,0.5005,0.1973,0.000000,0.579845,-0.562971,0.564505,-0.590583,0.575243,-0.559903
0.6219,0.016750,0.000000,-0.019070,0.019070,0.0000,0.0000,0.0000,-0.002349,0.041417,-0.041417,0.4212,0.4810,0.1382,0.000000,0.579845,-0.562971,0.564505,-0.590583,0.575243,-0.561437
0.6386,0.016770,0.000000,-0.033705,0.033705,0.0000,0.0000,0.0000,-0.002351,0.023010,-0.019942,0.4269,0.4831,0.1443,0.000000,0.579845,-0.562971,0.564505,-0.590583,0.575243,-0.561437
0.6554,0.016755,0.000000,-0.048326,0.048326,0.0000,0.0000,0.0000,-0.002351,0.007670,-0.006136,0.4269,0.4831,0.1443,0.000000,0.579845,-0.562971,0.564505,-0.590583,0.575243,-0.561437
0.6721,0.016770,0.000000,-0.062960,0.062960,0.0000,0.0000,0.0000,-0.002351,-0.006136,0.003068,0.4269,0.4831,0.1443,0.000000,0.579845,-0.562971,0.564505,-0.590583,0.575243,-0.561437
0.6889,0.016766,0.000000,-0.077591,0.077591,0.0000,0.0000,0.0000,-0.002351,-0.018408,0.016874,0.4269,0.4831,0.1443,0.000000,0.579845,-0.562971,0.564505,-0.590583,0.575243,-0.561437
0.7057,0.016764,0.000000,-0.092221,0.092221,0.0000,0.0000,0.0000,-0.002351,-0.018408,0.016874,0.4269,0.4831,0.1443,0.000000,0.579845,-0.562971,0.564505,-0.590583,0.575243,-0.561437
0.7224,0.016752,0.000000,-0.106840,0.106840,0.0000,0.0000,0.0000,-0.002351,-0.036816,0.038350,0.4269,0.4831,0.1443,0.000000,0.579845,-0.562971,0.564505,-0.590583,0.575243,-0.561437
0.7392,0.016752,0.000000,-0.121459,0.121459,0.0000,0.0000,0.0000,-0.002339,-0.058291,0.055223,0.4371,0.5337,0.0900,0.000000,0.579845,-0.562971,0.564505,-0.592117,0.575243,-0.561437
0.7559,0.016757,0.000000,-0.136082,0.136082,0.0000,0.0000,0.0000,-0.002352,-0.062893,0.061359,0.4253,0.4776,0.1494,0.000000,0.579845,-0.562971,0.564505,-0.590583,0.575243,-0.561437
0.7727,0.016765,0.000000,-0.150713,0.150713,0.0000,0.0000,0.0000,-0.002350,-0.072097,0.073631,0.4265,0.4834,0.1432,0.000000,0.579845,-0.562971,0.564505,-0.590583,0.575243,-0.561437
0.7895,0.016762,0.000000,-0.165341,0.165341,0.0000,0.0000,0.0000,-0.002350,-0.096641,0.101243,0.4265,0.4834,0.1432,0.000000,0.579845,-0.562971,0.564505,-0.590583,0.575243,-0.561437
0.8062,0.016766,0.000000,-0.169094,0.169094,0.0000,0.0000,0.0000,-0.002350,-0.096641,0.101243,0.4265,0.4834,0.1432,0.000000,0.579845,-0.562971,0.564505,-0.590583,0.575243,-0.561437
0.8230,0.016755,0.000000,-0.154472,0.154472,0.0000,0.0000,0.0000,-0.002350,-0.130388,0.131922,0.4265,0.4834,0.1432,0.000000,0.579845,-0.562971,0.564505,-0.590583,0.575243,-0.561437
0.8397,0.016761,0.000000,-0.139845,0.139845,0.0000,0.0000,0.0000,-0.002339,-0.154932,0.156466,0.4371,0.5336,0.0901,0.000000,0.579845,-0.562971,0.564505,-0.592117,0.575243,-0.561437
0.8565,0.016754,0.000000,-0.125225,0.125225,0.0000,0.0000,0.0000,-0.002353,-0.171806,0.165670,0.4856,0.5460,0.1491,0.000000,0.579845,-0.562971,0.564505,-0.592117,0.575243,-0.559903
0.8733,0.016845,0.000000,-0.110524,0.110524,0.0000,0.0000,0.0000,-0.002350,-0.170272,0.162602,0.4202,0.4763,0.1432,0.000000,0.579845,-0.562971,0.564505,-0.590583,0.575243,-0.561437
0.8901,0.016733,0.000000,-0.095922,0.095922,0.0000,0.0000,0.0000,-0.002350,-0.158000,0.153398,0.4202,0.4763,0.1432,0.000000,0.579845,-0.562971,0.564505,-0.590583,0.575243,-0.559903
0.9068,0.016762,0.000000,-0.081295,0.081295,0.0000,0.0000,0.0000,-0.002364,-0.158000,0.153398,0.4766,0.5012,0.1973,0.000000,0.579845,-0.562971,0.564505,-0.590583,0.575243,-0.559903
0.9236,0.016757,0.000000,-0.066671,0.066671,0.0000,0.0000,0.0000,-0.002351,-0.142660,0.141126,0.4814,0.5495,0.1379,0.000000,0.579845,-0.562971,0.564505,-0.592117,0.575243,-0.559903
0.9404,0.016758,0.000000,-0.052047,0.052047,0.0000,0.0000,0.0000,-0.002350,-0.122718,0.125786,0.4206,0.4760,0.1444,0.000000,0.579845,-0.562971,0.564505,-0.590583,0.575243,-0.561437
0.9571,0.016758,0.000000,-0.037423,0.037423,0.0000,0.0000,0.0000,-0.002339,-0.104311,0.108913,0.4378,0.5344,0.0900,0.000000,0.579845,-0.562971,0.564505,-0.592117,0.575243,-0.561437
0.9739,0.016781,0.000000,-0.022779,0.022779,0.0000,0.0000,0.0000,-0.002365,-0.087437,0.090505,0.4747,0.4952,0.2028,0.000000,0.579845,-0.562971,0.564505,-0.590583,0.575243,-0.559903
0.9906,0.016751,0.000000,-0.008161,0.008161,0.0000,0.0000,0.0000,-0.002365,-0.087437,0.090505,0.4747,0.4952,0.2028,0.000000,0.579845,-0.562971,0.564505,-0.590583,0.575243,-0.559903
1.0074,0.016762,0.000000,0.006467,-0.006467,0.0000,0.0000,0.0000,-0.002338,-0.067495,0.069029,0.4321,0.5324,0.0839,0.000000,0.579845,-0.562971,0.564505,-0.592117,0.575243,-0.561437
1.0242,0.016757,0.000000,0.021090,-0.021090,0.0000,0.0000,0.0000,-0.002340,-0.047553,0.049087,0.4366,0.5285,0.0963,0.000000,0.579845,-0.562971,0.564505,-0.592117,0.575243,-0.561437
1.0409,0.016767,0.000000,0.035722,-0.035722,0.0000,0.0000,0.0000,-0.002352,-0.030680,0.032214,0.4253,0.4782,0.1487,0.000000,0.579845,-0.562971,0.564505,-0.590583,0.575243,-0.561437
1.0577,0.016751,0.000000,0.050340,-0.050340,0.0000,0.0000,0.0000,-0.002350,-0.012272,0.016874,0.4265,0.4834,0.1432,0.000000,0.579845,-0.562971,0.564505,-0.590583,0.575243,-0.561437
1.0745,0.016776,0.000000,0.064979,-0.064979,0.0000,0.0000,0.0000,-0.002350,-0.012272,0.016874,0.4265,0.4834,0.1432,0.000000,0.579845,-0.562971,0.564505,-0.590583,0.575243,-0.561437
1.0912,0.016749,0.000000,0.079596,-0.079596,0.0000,0.0000,0.0000,-0.002350,0.006136,0.000000,0.4265,0.4834,0.1432,0.000000,0.579845,-0.562971,0.564505,-0.590583,0.575243,-0.561437
1.1080,0.016765,0.000000,0.094226,-0.094226,0.0000,0.0000,0.0000,-0.002350,0.046019,-0.041417,0.4265,0.4834,0.1432,0.000000,0.579845,-0.562971,0.564505,-0.590583,0.575243,-0.561437
1.1247,0.016749,0.000000,0.108842,-0.108842,0.0000,0.0000,0.0000,-0.002350,0.059825,-0.058291,0.4265,0.4834,0.1432,0.000000,0.579845,-0.562971,0.564505,-0.590583,0.575243,-0.561437
1.1415,0.016754,0.000000,0.123463,-0.123463,0.0000,0.0000,0.0000,-0.002350,0.072097,-0.073631,0.4265,0.4834,0.1432,0.000000,0.579845,-0.562971,0.564505,-0.590583,0.575243,-0.561437
1.1582,0.016761,0.000000,0.138089,-0.138089,0.0000,0.0000,0.0000,-0.002350,0.090505,-0.092039,0.4265,0.4834,0.1432,0.000000,0.579845,-0.562971,0.564505,-0.590583,0.575243,-0.561437
1.1750,0.016769,0.000000,0.152723,-0.152723,0.0000,0.0000,0.0000,-0.002350,0.090505,-0.092039,0.4265,0.4834,0.1432,0.000000,0.579845,-0.562971,0.564505,-0.590583,0.575243,-0.561437
1.1918,0.016761,0.000000,0.167350,-0.167350,0.0000,0.0000,0.0000,-0.002350,0.113515,-0.107379,0.4265,0.4834,0.1432,0.000000,0.579845,-0.562971,0.564505,-0.590583,0.575243,-0.561437
1.2085,0.016750,0.000000,0.167099,-0.167099,0.0000,0.0000,0.0000,-0.002350,0.134990,-0.124252,0.4265,0.4834,0.1432,0.000000,0.579845,-0.562971,0.564505,-0.590583,0.575243,-0.561437
1.2253,0.016757,0.000000,0.152476,-0.152476,0.0000,0.0000,0.0000,-0.002339,0.148796,-0.139592,0.4371,0.5336,0.0901,0.000000,0.579845,-0.562971,0.564505,-0.592117,0.575243,-0.561437
1.2420,0.016752,0.000000,0.137857,-0.137857,0.0000,0.0000,0.0000,-0.002353,0.164136,-0.159534,0.4856,0.5460,0.1491,0.000000,0.579845,-0.562971,0.564505,-0.592117,0.575243,-0.559903
1.2588,0.016760,0.000000,0.123231,-0.123231,0.0000,0.0000,0.0000,-0.002350,0.171806,-0.173340,0.4202,0.4763,0.1432,0.000000,0.579845,-0.562971,0.564505,-0.590583,0.575243,-0.561437
1.2756,0.016770,0.000000,0.108597,-0.108597,0.0000,0.0000,0.0000,-0.002350,0.171806,-0.173340,0.4202,0.4763,0.1432,0.000000,0.579845,-0.562971,0.564505,-0.590583,0.575243,-0.561437
1.2923,0.016754,0.000000,0.093976,-0.093976,0.0000,0.0000,0.0000,-0.002351,0.165670,-0.170272,0.4270,0.4836,0.1438,0.000000,0.579845,-0.562971,0.564505,-0.590583,0.575243,-0.561437
1.3091,0.016756,0.000000,0.079354,-0.079354,0.0000,0.0000,0.0000,-0.002351,0.148796,-0.154932,0.4270,0.4836,0.0559,-0.001534,0.579845,-0.562971,0.564505,-0.590583,0.575243,-0.561437
1.3258,0.016753,0.000000,0.064734,-0.064734,0.0000,0.0000,0.0000,-0.002339,0.128854,-0.136524,0.4371,0.5336,0.0900,0.000000,0.579845,-0.562971,0.564505,-0.592117,0.575243,-0.561437
1.3426,0.016764,0.000000,0.050104,-0.050104,0.0000,0.0000,0.0000,-0.002352,0.104311,-0.113515,0.4253,0.4776,0.1493,0.000000,0.579845,-0.562971,0.564505,-0.590583,0.575243,-0.561437
1.3593,0.016755,0.000000,0.035483,-0.035483,0.0000,0.0000,0.0000,-0.002339,0.079767,-0.085903,0.4373,0.5342,0.0894,0.000000,0.579845,-0.562971,0.564505,-0.592117,0.575243,-0.561437
1.3761,0.016758,0.000000,0.020859,-0.020859,0.0000,0.0000,0.0000,-0.002339,0.079767,-0.085903,0.4373,0.5342,0.0894,0.000000,0.579845,-0.562971,0.564505,-0.592117,0.575243,-0.561437
1.3929,0.016762,0.000000,0.006232,-0.006232,0.0000,0.0000,0.0000,-0.002340,0.056757,-0.061359,0.4360,0.5283,0.0957,0.000000,0.579845,-0.562971,0.564505,-0.592117,0.575243,-0.561437
1.4096,0.016747,0.000000,-0.008383,0.008383,0.0000,0.0000,0.0000,-0.002352,0.038350,-0.041417,0.4254,0.4782,0.1488,0.000000,0.579845,-0.562971,0.564505,-0.590583,0.575243,-0.561437
1.4264,0.016756,0.000000,-0.023006,0.023006,0.0000,0.0000,0.0000,-0.002339,0.026078,-0.026078,0.4373,0.5342,0.0895,0.000000,0.579845,-0.562971,0.564505,-0.592117,0.575243,-0.561437
1.4431,0.016762,0.000000,-0.037633,0.037633,0.0000,0.0000,0.0000,-0.002340,0.013806,-0.009204,0.4360,0.5283,0.0957,0.000000,0.579845,-0.562971,0.564505,-0.592117,0.575243,-0.561437
1.4599,0.016760,0.000000,-0.052259,0.052259,0.0000,0.0000,0.0000,-0.002340,-0.001534,0.006136,0.4360,0.5283,0.0957,0.000000,0.579845,-0.562971,0.564505,-0.590583,0.575243,-0.559903
1.4766,0.016759,0.000000,-0.066884,0.066884,0.0000,0.0000,0.0000,-0.002365,-0.001534,0.006136,0.4749,0.4958,0.2022,0.000000,0.579845,-0.562971,0.564505,-0.590583,0.575243,-0.559903
1.4934,0.016805,0.000000,-0.081549,0.081549,0.0000,0.0000,0.0000,-0.002362,-0.027612,0.029146,0.4709,0.4992,0.1911,0.000000,0.579845,-0.562971,0.564505,-0.590583,0.575243,-0.559903
1.5102,0.016750,0.000000,-0.096167,0.096167,0.0000,0.0000,0.0000,-0.002349,-0.046019,0.046019,0.4217,0.4812,0.1388,0.000000,0.579845,-0.562971,0.564505,-0.590583,0.575243,-0.561437
1.5270,0.016762,0.000000,-0.110794,0.110794,0.0000,0.0000,0.0000,-0.002339,-0.062893,0.059825,0.4376,0.5339,0.0905,0.000000,0.579845,-0.562971,0.564505,-0.592117,0.575243,-0.561437
1.5437,0.016752,0.000000,-0.125413,0.125413,0.0000,0.0000,0.0000,-0.002352,-0.078233,0.075165,0.4252,0.4776,0.1493,0.000000,0.579845,-0.562971,0.564505,-0.590583,0.575243,-0.561437
1.5605,0.016775,0.000000,-0.140053,0.140053,0.0000,0.0000,0.0000,-0.002352,-0.095107,0.095107,0.4252,0.4776,0.1493,0.000000,0.579845,-0.562971,0.564505,-0.590583,0.575243,-0.561437
1.5772,0.016761,0.000000,-0.154679,0.154679,0.0000,0.0000,0.0000,-0.002350,-0.095107,0.095107,0.4265,0.4834,0.1432,0.000000,0.579845,-0.562971,0.564505,-0.590583,0.575243,-0.561437
1.5940,0.016756,0.000000,-0.169302,0.169302,0.0000,0.0000,0.0000,-0.002350,-0.116583,0.115049,0.4265,0.4834,0.1432,0.000000,0.579845,-0.562971,0.564505,-0.590583,0.575243,-0.561437
1.6108,0.016755,0.000000,-0.165143,0.165143,0.0000,0.0000,0.0000,-0.002339,-0.133456,0.131922,0.4371,0.5336,0.0901,0.000000,0.579845,-0.562971,0.564505,-0.592117,0.575243,-0.561437
1.6275,0.016762,0.000000,-0.150515,0.150515,0.0000,0.0000,0.0000,-0.002365,-0.147262,0.144194,0.4748,0.4953,0.2028,0.000000,0.579845,-0.562971,0.564505,-0.590583,0.575243,-0.559903
1.6443,0.016759,0.000000,-0.135890,0.135890,0.0000,0.0000,0.0000,-0.002349,-0.162602,0.158000,0.4213,0.4816,0.1376,0.000000,0.579845,-0.562971,0.564505,-0.590583,0.575243,-0.561437
1.6610,0.016759,0.000000,-0.121265,0.121265,0.0000,0.0000,0.0000,-0.002351,-0.174874,0.171806,0.4269,0.4830,0.1444,0.000000,0.579845,-0.562971,0.564505,-0.590583,0.575243,-0.561437
1.6778,0.016767,0.000000,-0.106634,0.106634,0.0000,0.0000,0.0000,-0.002351,-0.174874,0.171806,0.4269,0.4830,0.1444,0.000000,0.579845,-0.562971,0.564505,-0.590583,0.575243,-0.561437
1.6946,0.016787,0.000000,-0.091984,0.091984,0.0000,0.0000,0.0000,-0.002351,-0.171806,0.170272,0.4269,0.4830,0.1444,0.000000,0.579845,-0.562971,0.564505,-0.590583,0.575243,-0.561437
1.7114,0.016757,0.000000,-0.077360,0.077360,0.0000,0.0000,0.0000,-0.002364,-0.154932,0.153398,0.4759,0.5005,0.1972,0.000000,0.579845,-0.562971,0.564505,-0.590583,0.575243,-0.559903
1.7281,0.016768,0.000000,-0.062728,0.062728,0.0000,0.0000,0.0000,-0.002349,-0.136524,0.138058,0.4212,0.4810,0.1382,0.000000,0.579845,-0.562971,0.564505,-0.590583,0.575243,-0.561437
1.7449,0.016765,0.000000,-0.048098,0.048098,0.0000,0.0000,0.0000,-0.002339,-0.108913,0.111981,0.4377,0.5339,0.0906,0.000000,0.579845,-0.562971,0.564505,-0.592117,0.575243,-0.561437
1.7625,0.017624,0.000000,-0.032718,0.032718,0.0000,0.0000,0.0000,-0.002339,-0.108913,0.111981,0.4377,0.5339,0.0906,0.000000,0.579845,-0.562971,0.564505,-0.592117,0.575243,-0.561437
1.7793,0.016756,0.000000,-0.018096,0.018096,0.0000,0.0000,0.0000,-0.002352,-0.082835,0.087437,0.4252,0.4776,0.1493,0.000000,0.579845,-0.562971,0.564505,-0.590583,0.575243,-0.561437
1.7960,0.016755,0.000000,-0.003474,0.003474,0.0000,0.0000,0.0000,-0.002350,-0.059825,0.062893,0.4265,0.4834,0.1432,0.000000,0.579845,-0.562971,0.564505,-0.590583,0.575243,-0.561437
1.8128,0.016754,0.000000,0.011147,-0.011147,0.0000,0.0000,0.0000,-0.002339,-0.042951,0.044485,0.4371,0.5336,0.0901,0.000000,0.579845,-0.562971,0.564505,-0.592117,0.575243,-0.561437
1.8295,0.016721,0.000000,0.025738,-0.025738,0.0000,0.0000,0.0000,-0.002352,-0.029146,0.029146,0.4253,0.4776,0.1493,0.000000,0.579845,-0.562971,0.564505,-0.590583,0.575243,-0.561437
1.8463,0.016758,0.000000,0.040362,-0.040362,0.0000,0.0000,0.0000,-0.002350,-0.012272,0.012272,0.4265,0.4834,0.1432,0.000000,0.579845,-0.562971,0.564505,-0.590583,0.575243,-0.561437
1.8630,0.016772,0.000000,0.054999,-0.054999,0.0000,0.0000,0.0000,-0.002339,0.004602,-0.001534,0.4371,0.5336,0.0901,0.000000,0.579845,-0.562971,0.564505,-0.592117,0.575243,-0.561437
1.8798,0.016757,0.000000,0.069622,-0.069622,0.0000,0.0000,0.0000,-0.002339,0.004602,-0.001534,0.4371,0.5336,0.0901,0.000000,0.579845,-0.562971,0.564505,-0.592117,0.575243,-0.561437
1.8965,0.016757,0.000000,0.084245,-0.084245,0.0000,0.0000,0.0000,-0.002365,0.027612,-0.024544,0.4748,0.4953,0.2028,0.000000,0.579845,-0.562971,0.564505,-0.590583,0.575243,-0.559903
1.9133,0.016761,0.000000,0.098871,-0.098871,0.0000,0.0000,0.0000,-0.002338,0.044485,-0.041417,0.4321,0.5324,0.0839,0.000000,0.579845,-0.562971,0.564505,-0.592117,0.575243,-0.561437
1.9302,0.016918,0.000000,0.113635,-0.113635,0.0000,0.0000,0.0000,-0.002340,0.059825,-0.056757,0.4366,0.5285,0.0963,0.000000,0.579845,-0.562971,0.564505,-0.592117,0.575243,-0.561437
1.9470,0.016761,0.000000,0.128262,-0.128262,0.0000,0.0000,0.0000,-0.002340,0.059825,-0.056757,0.4366,0.5285,0.0963,0.000000,0.579845,-0.562971,0.564505,-0.592117,0.575243,-0.561437
1.9637,0.016763,0.000000,0.142890,-0.142890,0.0000,0.0000,0.0000,-0.002352,0.070563,-0.072097,0.4253,0.4782,0.1487,0.000000,0.579845,-0.562971,0.564505,-0.590583,0.575243,-0.561437
1.9805,0.016757,0.000000,0.157513,-0.157513,0.0000,0.0000,0.0000,-0.002339,0.088971,-0.088971,0.4373,0.5342,0.0895,0.000000,0.579845,-0.562971,0.564505,-0.592117,0.575243,-0.561437
1.9973,0.016765,0.000000,0.172143,-0.172143,0.0000,0.0000,0.0000,-0.002365,0.108913,-0.104311,0.4748,0.4952,0.2029,0.000000,0.579845,-0.562971,0.564505,-0.590583,0.575243,-0.559903
2.0140,0.016757,0.000000,0.162300,-0.162300,0.0000,0.0000,0.0000,-0.002362,0.128854,-0.122718,0.4709,0.4993,0.1911,0.000000,0.579845,-0.562971,0.564505,-0.590583,0.575243,-0.559903
2.0308,0.016773,0.000000,0.147662,-0.147662,0.0000,0.0000,0.0000,-0.002349,0.151864,-0.141126,0.4217,0.4812,0.1388,0.000000,0.579845,-0.562971,0.564505,-0.590583,0.575243,-0.561437
2.0475,0.016755,0.000000,0.133040,-0.133040,0.0000,0.0000,0.0000,-0.002349,0.151864,-0.141126,0.4217,0.4812,0.1388,0.000000,0.579845,-0.562971,0.564505,-0.590583,0.575243,-0.561437
2.0643,0.016752,0.000000,0.118421,-0.118421,0.0000,0.0000,0.0000,-0.002351,0.174874,-0.162602,0.4269,0.4831,0.1443,0.000000,0.579845,-0.562971,0.564505,-0.590583,0.575243,-0.561437
2.0811,0.016761,0.000000,0.103795,-0.103795,0.0000,0.0000,0.0000,-0.002351,0.177942,-0.173340,0.4269,0.4831,0.1443,0.000000,0.579845,-0.562971,0.564505,-0.590583,0.575243,-0.561437
2.0984,0.017303,0.000000,0.088695,-0.088695,0.0000,0.0000,0.0000,-0.002351,0.167204,-0.168738,0.4269,0.4831,0.1443,0.000000,0.579845,-0.562971,0.564505,-0.590583,0.575243,-0.561437
2.1151,0.016754,0.000000,0.074075,-0.074075,0.0000,0.0000,0.0000,-0.002351,0.147262,-0.153398,0.4269,0.4831,0.1443,0.000000,0.579845,-0.562971,0.564505,-0.590583,0.575243,-0.561437
2.1319,0.016755,0.000000,0.059453,-0.059453,0.0000,0.0000,0.0000,-0.002351,0.124252,-0.131922,0.4269,0.4831,0.1443,0.000000,0.579845,-0.562971,0.564505,-0.590583,0.575243,-0.561437
2.1486,0.016758,0.000000,0.044829,-0.044829,0.0000,0.0000,0.0000,-0.002351,0.124252,-0.131922,0.4269,0.4831,0.1443,0.000000,0.579845,-0.562971,0.564505,-0.590583,0.575243,-0.561437
2.1654,0.016767,0.000000,0.030197,-0.030197,0.0000,0.0000,0.0000,-0.002339,0.095107,-0.105845,0.4371,0.5337,0.0900,0.000000,0.579845,-0.562971,0.564505,-0.592117,0.575243,-0.561437
2.1822,0.016758,0.000000,0.015572,-0.015572,0.0000,0.0000,0.0000,-0.002365,0.075165,-0.082835,0.4748,0.4953,0.2028,0.000000,0.579845,-0.562971,0.564505,-0.590583,0.575243,-0.559903
2.1989,0.016764,0.000000,0.000943,-0.000943,0.0000,0.0000,0.0000,-0.002362,0.058291,-0.059825,0.4709,0.4993,0.1911,0.000000,0.579845,-0.562971,0.564505,-0.590583,0.575243,-0.559903
2.2157,0.016766,0.000000,-0.013688,0.013688,0.0000,0.0000,0.0000,-0.002338,0.044485,-0.044485,0.4325,0.5320,0.0851,0.000000,0.579845,-0.562971,0.564505,-0.592117,0.575243,-0.561437
2.2325,0.016779,0.000000,-0.028331,0.028331,0.0000,0.0000,0.0000,-0.002352,0.032214,-0.027612,0.4257,0.4778,0.1499,0.000000,0.579845,-0.562971,0.564505,-0.590583,0.575243,-0.561437
2.2492,0.016751,0.000000,-0.042949,0.042949,0.0000,0.0000,0.0000,-0.002352,0.032214,-0.027612,0.4257,0.4778,0.1499,0.000000,0.579845,-0.562971,0.564505,-0.590583,0.575243,-0.561437
2.2660,0.016752,0.000000,-0.057568,0.057568,0.0000,0.0000,0.0000,-0.002339,0.012272,-0.007670,0.4372,0.5342,0.0894,0.000000,0.579845,-0.562971,0.564505,-0.592117,0.575243,-0.561437
2.2827,0.016754,0.000000,-0.072189,0.072189,0.0000,0.0000,0.0000,-0.002365,-0.010738,0.012272,0.4748,0.4952,0.2029,0.000000,0.579845,-0.562971,0.564505,-0.590583,0.575243,-0.559903
2.2995,0.016759,0.000000,-0.086814,0.086814,0.0000,0.0000,0.0000,-0.002351,-0.027612,0.026078,0.4816,0.5501,0.1373,0.000000,0.579845,-0.562971,0.564505,-0.592117,0.575243,-0.559903
2.3162,0.016760,0.000000,-0.101440,0.101440,0.0000,0.0000,0.0000,-0.002350,-0.042951,0.039884,0.4206,0.4759,0.1444,0.000000,0.579845,-0.562971,0.564505,-0.590583,0.575243,-0.561437
2.3330,0.016766,0.000000,-0.116071,0.116071,0.0000,0.0000,0.0000,-0.002350,-0.056757,0.055223,0.4270,0.4836,0.1437,0.000000,0.579845,-0.562971,0.564505,-0.590583,0.575243,-0.561437
2.3498,0.016754,0.000000,-0.130692,0.130692,0.0000,0.0000,0.0000,-0.002350,-0.056757,0.055223,0.4270,0.4836,0.1437,0.000000,0.579845,-0.562971,0.564505,-0.590583,0.575243,-0.561437
2.3665,0.016750,0.000000,-0.145309,0.145309,0.0000,0.0000,0.0000,-0.002350,-0.073631,0.075165,0.4270,0.4836,0.1437,0.000000,0.579845,-0.562971,0.564505,-0.590583,0.575243,-0.561437
2.3833,0.016758,0.000000,-0.159933,0.159933,0.0000,0.0000,0.0000,-0.002350,-0.095107,0.096641,0.4270,0.4836,0.1437,0.000000,0.579845,-0.562971,0.564505,-0.590583,0.575243,-0.561437
2.4000,0.016748,0.000000,-0.174518,0.174518,0.0000,0.0000,0.0000,-0.002350,-0.115049,0.113515,0.4270,0.4836,0.1437,0.000000,0.579845,-0.562971,0.564505,-0.590583,0.575243,-0.561437
2.4168,0.016755,0.000000,-0.159896,0.159896,0.0000,0.0000,0.0000,-0.002350,-0.130388,0.125786,0.4270,0.4836,0.1437,0.000000,0.579845,-0.562971,0.564505,-0.590583,0.575243,-0.561437
2.4335,0.016769,0.000000,-0.145263,0.145263,0.0000,0.0000,0.0000,-0.002364,-0.147262,0.141126,0.4759,0.5005,0.1972,0.000000,0.579845,-0.562971,0.564505,-0.590583,0.575243,-0.559903
2.4503,0.016753,0.000000,-0.130642,0.130642,0.0000,0.0000,0.0000,-0.002364,-0.147262,0.141126,0.4759,0.5005,0.1972,0.000000,0.579845,-0.562971,0.564505,-0.590583,0.575243,-0.559903
2.4671,0.016812,0.000000,-0.115971,0.115971,0.0000,0.0000,0.0000,-0.002351,-0.168738,0.162602,0.4815,0.5495,0.1379,0.000000,0.579845,-0.562971,0.564505,-0.592117,0.575243,-0.559903
2.4839,0.016769,0.000000,-0.101338,0.101338,0.0000,0.0000,0.0000,-0.002350,-0.176408,0.173340,0.4206,0.4760,0.1444,0.000000,0.579845,-0.562971,0.564505,-0.590583,0.575243,-0.561437
2.5006,0.016757,0.000000,-0.086714,0.086714,0.0000,0.0000,0.0000,-0.002364,-0.154932,0.156466,0.4765,0.5013,0.1972,0.000000,0.579845,-0.562971,0.564505,-0.590583,0.575243,-0.559903
2.5176,0.016963,0.000000,-0.071911,0.071911,0.0000,0.0000,0.0000,-0.002349,-0.131922,0.134990,0.4212,0.4810,0.1382,0.000000,0.579845,-0.562971,0.564505,-0.590583,0.575243,-0.561437
2.5344,0.016756,0.000000,-0.057289,0.057289,0.0000,0.0000,0.0000,-0.002349,-0.131922,0.134990,0.4212,0.4810,0.1382,0.000000,0.579845,-0.562971,0.564505,-0.590583,0.575243,-0.561437
2.5511,0.016756,0.000000,-0.042666,0.042666,0.0000,0.0000,0.0000,-0.002351,-0.104311,0.108913,0.4269,0.4831,0.1443,0.000000,0.579845,-0.562971,0.564505,-0.590583,0.575243,-0.561437
2.5679,0.016759,0.000000,-0.028041,0.028041,0.0000,0.0000,0.0000,-0.002351,-0.081301,0.085903,0.4269,0.4831,0.1443,0.000000,0.579845,-0.562971,0.564505,-0.590583,0.575243,-0.561437
2.5849,0.017002,0.000000,-0.013204,0.013204,0.0000,0.0000,0.0000,-0.002364,-0.061359,0.064427,0.4759,0.5005,0.1972,0.000000,0.579845,-0.562971,0.564505,-0.590583,0.575243,-0.559903
2.6016,0.016763,0.000000,0.001424,-0.001424,0.0000,0.0000,0.0000,-0.002349,-0.049087,0.050621,0.4212,0.4810,0.1382,0.000000,0.579845,-0.562971,0.564505,-0.590583,0.575243,-0.561437
2.6184,0.016723,0.000000,0.016018,-0.016018,0.0000,0.0000,0.0000,-0.002351,-0.032214,0.033748,0.4269,0.4831,0.1443,0.000000,0.579845,-0.562971,0.564505,-0.590583,0.575243,-0.561437
2.6351,0.016752,0.000000,0.030637,-0.030637,0.0000,0.0000,0.0000,-0.002351,-0.032214,0.033748,0.4269,0.4831,0.1443,0.000000,0.579845,-0.562971,0.564505,-0.590583,0.575243,-0.561437
2.6519,0.016766,0.000000,0.045268,-0.045268,0.0000,0.0000,0.0000,-0.002339,-0.012272,0.012272,0.4371,0.5337,0.0900,0.000000,0.579845,-0.562971,0.564505,-0.592117,0.575243,-0.561437
2.6686,0.016760,0.000000,0.059893,-0.059893,0.0000,0.0000,0.0000,-0.002352,0.004602,-0.001534,0.4253,0.4776,0.1494,0.000000,0.579845,-0.562971,0.564505,-0.590583,0.575243,-0.561437
2.6855,0.016847,0.000000,0.074596,-0.074596,0.0000,0.0000,0.0000,-0.002350,0.023010,-0.019942,0.4265,0.4834,0.1432,0.000000,0.579845,-0.562971,0.564505,-0.590583,0.575243,-0.561437
2.7023,0.016796,0.000000,0.089253,-0.089253,0.0000,0.0000,0.0000,-0.002350,0.042951,-0.039884,0.4265,0.4834,0.1432,0.000000,0.579845,-0.562971,0.564505,-0.590583,0.575243,-0.561437
2.7190,0.016763,0.000000,0.103881,-0.103881,0.0000,0.0000,0.0000,-0.002350,0.061359,-0.059825,0.4265,0.4834,0.1432,0.000000,0.579845,-0.562971,0.564505,-0.590583,0.575243,-0.561437
2.7358,0.016770,0.000000,0.118516,-0.118516,0.0000,0.0000,0.0000,-0.002350,0.061359,-0.059825,0.4265,0.4834,0.1432,0.000000,0.579845,-0.562971,0.564505,-0.590583,0.575243,-0.561437
2.7526,0.016750,0.000000,0.133133,-0.133133,0.0000,0.0000,0.0000,-0.002350,0.081301,-0.079767,0.4265,0.4834,0.1432,0.000000,0.579845,-0.562971,0.564505,-0.590583,0.575243,-0.561437
2.7693,0.016761,0.000000,0.147759,-0.147759,0.0000,0.0000,0.0000,-0.002350,0.098175,-0.092039,0.4265,0.4834,0.1432,0.000000,0.579845,-0.562971,0.564505,-0.590583,0.575243,-0.561437
2.7861,0.016760,0.000000,0.162385,-0.162385,0.0000,0.0000,0.0000,-0.002350,0.108913,-0.105845,0.4265,0.4834,0.1432,0.000000,0.579845,-0.562971,0.564505,-0.590583,0.575243,-0.561437
2.8029,0.016815,0.000000,0.172007,-0.172007,0.0000,0.0000,0.0000,-0.002350,0.125786,-0.122718,0.4265,0.4834,0.1432,0.000000,0.579845,-0.562971,0.564505,-0.590583,0.575243,-0.561437
2.8196,0.016755,0.000000,0.157386,-0.157386,0.0000,0.0000,0.0000,-0.002350,0.150330,-0.141126,0.4265,0.4834,0.1432,0.000000,0.579845,-0.562971,0.564505,-0.590583,0.575243,-0.561437
2.8377,0.018035,0.000000,0.141648,-0.141648,0.0000,0.0000,0.0000,-0.002350,0.150330,-0.141126,0.4265,0.4834,0.1432,0.000000,0.579845,-0.562971,0.564505,-0.590583,0.575243,-0.561437
2.8544,0.016743,0.000000,0.127036,-0.127036,0.0000,0.0000,0.0000,-0.002350,0.173340,-0.162602,0.4265,0.4834,0.1432,0.000000,0.579845,-0.562971,0.564505,-0.590583,0.575243,-0.561437
2.8715,0.017028,0.000000,0.112177,-0.112177,0.0000,0.0000,0.0000,-0.002350,0.177942,-0.176408,0.4265,0.4834,0.1432,0.000000,0.579845,-0.562971,0.564505,-0.590583,0.575243,-0.561437
2.8884,0.016951,0.000000,0.097384,-0.097384,0.0000,0.0000,0.0000,-0.002350,0.167204,-0.171806,0.4265,0.4834,0.1432,0.000000,0.579845,-0.562971,0.564505,-0.590583,0.575243,-0.561437
2.9055,0.017084,0.000000,0.082476,-0.082476,0.0000,0.0000,0.0000,-0.002350,0.148796,-0.156466,0.4265,0.4834,0.1432,0.000000,0.579845,-0.562971,0.564505,-0.590583,0.575243,-0.561437
2.9222,0.016757,0.000000,0.067853,-0.067853,0.0000,0.0000,0.0000,-0.002350,0.125786,-0.133456,0.4265,0.4834,0.1432,0.000000,0.579845,-0.562971,0.564505,-0.590583,0.575243,-0.561437
2.9390,0.016773,0.000000,0.053216,-0.053216,0.0000,0.0000,0.0000,-0.002350,0.125786,-0.133456,0.4265,0.4834,0.1432,0.000000,0.579845,-0.562971,0.564505,-0.590583,0.575243,-0.561437
2.9558,0.016756,0.000000,0.038594,-0.038594,0.0000,0.0000,0.0000,-0.002352,0.096641,-0.104311,0.4867,0.5513,0.1436,0.000000,0.579845,-0.562971,0.564505,-0.592117,0.575243,-0.559903
2.9725,0.016769,0.000000,0.023960,-0.023960,0.0000,0.0000,0.0000,-0.002339,0.076699,-0.081301,0.4309,0.5265,0.0900,0.000000,0.579845,-0.562971,0.564505,-0.592117,0.575243,-0.561437
2.9893,0.016769,0.000000,0.009326,-0.009326,0.0000,0.0000,0.0000,-0.002352,0.056757,-0.058291,0.4259,0.4784,0.1493,0.000000,0.579845,-0.562971,0.564505,-0.590583,0.575243,-0.561437
3.0061,0.016805,0.000000,-0.005339,0.005339,0.0000,0.0000,0.0000,-0.002352,0.041417,-0.039884,0.4259,0.4784,0.1493,0.000000,0.579845,-0.562971,0.564505,-0.590583,0.575243,-0.561437
3.0229,0.016752,0.000000,-0.019958,0.019958,0.0000,0.0000,0.0000,-0.002350,0.041417,-0.039884,0.4264,0.4834,0.1432,0.000000,0.579845,-0.562971,0.564505,-0.590583,0.575243,-0.561437
3.0396,0.016762,0.000000,-0.034585,0.034585,0.0000,0.0000,0.0000,-0.002364,0.023010,-0.019942,0.4759,0.5005,0.1973,0.000000,0.579845,-0.562971,0.564505,-0.590583,0.575243,-0.559903
3.0564,0.016781,0.000000,-0.049230,0.049230,0.0000,0.0000,0.0000,-0.002338,0.006136,-0.004602,0.4320,0.5318,0.0844,0.000000,0.579845,-0.562971,0.564505,-0.592117,0.575243,-0.561437
3.0732,0.016763,0.000000,-0.063858,0.063858,0.0000,0.0000,0.0000,-0.002365,-0.007670,0.003068,0.4753,0.4954,0.2034,0.000000,0.579845,-0.562971,0.564505,-0.590583,0.575243,-0.559903
3.0899,0.016750,0.000000,-0.078475,0.078475,0.0000,0.0000,0.0000,-0.002338,-0.021476,0.013806,0.4320,0.5324,0.0838,0.000000,0.579845,-0.562971,0.564505,-0.592117,0.575243,-0.561437
3.1067,0.016765,0.000000,-0.093105,0.093105,0.0000,0.0000,0.0000,-0.002338,-0.021476,0.013806,0.4320,0.5324,0.0838,0.000000,0.579845,-0.562971,0.564505,-0.592117,0.575243,-0.561437
3.1235,0.016761,0.000000,-0.107732,0.107732,0.0000,0.0000,0.0000,-0.002340,-0.039884,0.035282,0.4366,0.5285,0.0963,0.000000,0.579845,-0.562971,0.564505,-0.592117,0.575243,-0.561437
3.1402,0.016763,0.000000,-0.122360,0.122360,0.0000,0.0000,0.0000,-0.002352,-0.059825,0.058291,0.4253,0.4782,0.1487,0.000000,0.579845,-0.562971,0.564505,-0.590583,0.575243,-0.561437
3.1570,0.016758,0.000000,-0.136985,0.136985,0.0000,0.0000,0.0000,-0.002350,-0.079767,0.079767,0.4265,0.4834,0.1432,0.000000,0.579845,-0.562971,0.564505,-0.590583,0.575243,-0.561437
3.1737,0.016764,0.000000,-0.151614,0.151614,0.0000,0.0000,0.0000,-0.002339,-0.096641,0.096641,0.4371,0.5336,0.0901,0.000000,0.579845,-0.562971,0.564505,-0.592117,0.575243,-0.561437
3.1907,0.016979,0.000000,-0.166431,0.166431,0.0000,0.0000,0.0000,-0.002340,-0.115049,0.113515,0.4360,0.5284,0.0956,0.000000,0.579845,-0.562971,0.564505,-0.592117,0.575243,-0.561437
3.2075,0.016762,0.000000,-0.168007,0.168007,0.0000,0.0000,0.0000,-0.002340,-0.115049,0.113515,0.4360,0.5284,0.0956,0.000000,0.579845,-0.562971,0.564505,-0.592117,0.575243,-0.561437
3.2242,0.016751,0.000000,-0.153389,0.153389,0.0000,0.0000,0.0000,-0.002352,-0.134990,0.133456,0.4254,0.4782,0.1488,0.000000,0.579845,-0.562971,0.564505,-0.590583,0.575243,-0.561437
3.2410,0.016754,0.000000,-0.138769,0.138769,0.0000,0.0000,0.0000,-0.002363,-0.154932,0.153398,0.4760,0.5010,0.1967,0.000000,0.579845,-0.562971,0.564505,-0.590583,0.575243,-0.559903
3.2577,0.016763,0.000000,-0.124140,0.124140,0.0000,0.0000,0.0000,-0.002349,-0.168738,0.164136,0.4212,0.4810,0.1382,0.000000,0.579845,-0.562971,0.564505,-0.590583,0.575243,-0.561437
3.2745,0.016753,0.000000,-0.109521,0.109521,0.0000,0.0000,0.0000,-0.002351,-0.170272,0.164136,0.4269,0.4831,0.1443,0.000000,0.579845,-0.562971,0.564505,-0.590583,0.575243,-0.561437
3.2913,0.016756,0.000000,-0.094898,0.094898,0.0000,0.0000,0.0000,-0.002351,-0.158000,0.156466,0.4269,0.4831,0.1443,0.000000,0.579845,-0.562971,0.564505,-0.590583,0.575243,-0.561437
3.3080,0.016764,0.000000,-0.080269,0.080269,0.0000,0.0000,0.0000,-0.002351,-0.158000,0.156466,0.4269,0.4831,0.1443,0.000000,0.579845,-0.562971,0.564505,-0.590583,0.575243,-0.561437
3.3248,0.016740,0.000000,-0.065660,0.065660,0.0000,0.0000,0.0000,-0.002351,-0.141126,0.141126,0.4269,0.4831,0.1443,0.000000,0.579845,-0.562971,0.564505,-0.590583,0.575243,-0.561437
3.3415,0.016747,0.000000,-0.051045,0.051045,0.0000,0.0000,0.0000,-0.002351,-0.122718,0.124252,0.4269,0.4831,0.1443,0.000000,0.579845,-0.562971,0.564505,-0.590583,0.575243,-0.561437
3.3583,0.016747,0.000000,-0.036431,0.036431,0.0000,0.0000,0.0000,-0.002351,-0.102777,0.105845,0.4269,0.4831,0.1443,0.000000,0.579845,-0.562971,0.564505,-0.590583,0.575243,-0.561437
3.3750,0.016756,0.000000,-0.021809,0.021809,0.0000,0.0000,0.0000,-0.002364,-0.085903,0.088971,0.4759,0.5005,0.1972,0.000000,0.579845,-0.562971,0.564505,-0.590583,0.575243,-0.559903
3.3922,0.017166,0.000000,-0.006829,0.006829,0.0000,0.0000,0.0000,-0.002349,-0.067495,0.065961,0.4212,0.4810,0.1382,0.000000,0.579845,-0.562971,0.564505,-0.590583,0.575243,-0.561437
3.4089,0.016767,0.000000,0.007803,-0.007803,0.0000,0.0000,0.0000,-0.002349,-0.067495,0.065961,0.4212,0.4810,0.1382,0.000000,0.579845,-0.562971,0.564505,-0.590583,0.575243,-0.561437
3.4257,0.016755,0.000000,0.022425,-0.022425,0.0000,0.0000,0.0000,-0.002351,-0.046019,0.044485,0.4269,0.4831,0.1443,0.000000,0.579845,-0.562971,0.564505,-0.590583,0.575243,-0.561437
3.4424,0.016752,0.000000,0.037044,-0.037044,0.0000,0.0000,0.0000,-0.002364,-0.026078,0.027612,0.4759,0.5005,0.1972,0.000000,0.579845,-0.562971,0.564505,-0.590583,0.575243,-0.559903
3.4592,0.016751,0.000000,0.051662,-0.051662,0.0000,0.0000,0.0000,-0.002362,-0.007670,0.012272,0.4708,0.4987,0.1917,0.000000,0.579845,-0.562971,0.564505,-0.590583,0.575243,-0.559903
3.4760,0.016751,0.000000,0.066280,-0.066280,0.0000,0.0000,0.0000,-0.002349,0.007670,-0.003068,0.4218,0.4812,0.1388,0.000000,0.579845,-0.562971,0.564505,-0.590583,0.575243,-0.561437
3.4927,0.016757,0.000000,0.080904,-0.080904,0.0000,0.0000,0.0000,-0.002339,0.026078,-0.023010,0.4376,0.5339,0.0905,0.000000,0.579845,-0.562971,0.564505,-0.592117,0.575243,-0.561437
3.5095,0.016761,0.000000,0.095530,-0.095530,0.0000,0.0000,0.0000,-0.002339,0.026078,-0.023010,0.4376,0.5339,0.0905,0.000000,0.579845,-0.562971,0.564505,-0.592117,0.575243,-0.561437
3.5262,0.016749,0.000000,0.110147,-0.110147,0.0000,0.0000,0.0000,-0.002340,0.046019,-0.044485,0.4360,0.5284,0.0956,0.000000,0.579845,-0.562971,0.564505,-0.592117,0.575243,-0.561437
3.5430,0.016749,0.000000,0.124763,-0.124763,0.0000,0.0000,0.0000,-0.002352,0.062893,-0.061359,0.4254,0.4782,0.1488,0.000000,0.579845,-0.562971,0.564505,-0.590583,0.575243,-0.561437
3.5597,0.016751,0.000000,0.139381,-0.139381,0.0000,0.0000,0.0000,-0.002339,0.078233,-0.078233,0.4373,0.5342,0.0895,0.000000,0.579845,-0.562971,0.564505,-0.592117,0.575243,-0.561437
3.5765,0.016756,0.000000,0.154003,-0.154003,0.0000,0.0000,0.0000,-0.002352,0.092039,-0.092039,0.4252,0.4776,0.1494,0.000000,0.579845,-0.562971,0.564505,-0.590583,0.575243,-0.561437
3.5934,0.016952,0.000000,0.168796,-0.168796,0.0000,0.0000,0.0000,-0.002350,0.110447,-0.107379,0.4265,0.4835,0.1432,0.000000,0.579845,-0.562971,0.564505,-0.590583,0.575243,-0.561437
3.6102,0.016744,0.000000,0.165658,-0.165658,0.0000,0.0000,0.0000,-0.002350,0.110447,-0.107379,0.4265,0.4835,0.1432,0.000000,0.579845,-0.562971,0.564505,-0.590583,0.575243,-0.561437
3.6269,0.016746,0.000000,0.151045,-0.151045,0.0000,0.0000,0.0000,-0.002339,0.134990,-0.125786,0.4371,0.5336,0.0901,0.000000,0.579845,-0.562971,0.564505,-0.592117,0.575243,-0.561437
3.6437,0.016755,0.000000,0.136423,-0.136423,0.0000,0.0000,0.0000,-0.002340,0.156466,-0.144194,0.4360,0.5284,0.0956,0.000000,0.579845,-0.562971,0.564505,-0.592117,0.575243,-0.561437
3.6604,0.016742,0.000000,0.121812,-0.121812,0.0000,0.0000,0.0000,-0.002352,0.165670,-0.161068,0.4254,0.4782,0.1488,0.000000,0.579845,-0.562971,0.564505,-0.590583,0.575243,-0.561437
3.6772,0.016752,0.000000,0.107194,-0.107194,0.0000,0.0000,0.0000,-0.002350,0.170272,-0.170272,0.4265,0.4834,0.1432,0.000000,0.579845,-0.562971,0.564505,-0.590583,0.575243,-0.561437
3.6939,0.016745,0.000000,0.092581,-0.092581,0.0000,0.0000,0.0000,-0.002350,0.162602,-0.165670,0.4265,0.4834,0.1432,0.000000,0.579845,-0.562971,0.564505,-0.590583,0.575243,-0.561437
3.7107,0.016812,0.000000,0.077910,-0.077910,0.0000,0.0000,0.0000,-0.002350,0.162602,-0.165670,0.4265,0.4834,0.1432,0.000000,0.579845,-0.562971,0.564505,-0.590583,0.575243,-0.561437
3.7275,0.016750,0.000000,0.063293,-0.063293,0.0000,0.0000,0.0000,-0.002339,0.145728,-0.151864,0.4371,0.5336,0.0901,0.000000,0.579845,-0.562971,0.564505,-0.592117,0.575243,-0.561437
3.7442,0.016754,0.000000,0.048673,-0.048673,0.0000,0.0000,0.0000,-0.002340,0.125786,-0.133456,0.4360,0.5284,0.0956,0.000000,0.579845,-0.562971,0.564505,-0.592117,0.575243,-0.561437
3.7610,0.016752,0.000000,0.034054,-0.034054,0.0000,0.0000,0.0000,-0.002352,0.102777,-0.113515,0.4254,0.4782,0.1488,0.000000,0.579845,-0.562971,0.564505,-0.590583,0.575243,-0.561437
3.7777,0.016752,0.000000,0.019435,-0.019435,0.0000,0.0000,0.0000,-0.002363,0.082835,-0.090505,0.4760,0.5010,0.1967,0.000000,0.579845,-0.562971,0.564505,-0.590583,0.575243,-0.559903
3.7946,0.016838,0.000000,0.004741,-0.004741,0.0000,0.0000,0.0000,-0.002349,0.061359,-0.065961,0.4212,0.4810,0.1382,0.000000,0.579845,-0.562971,0.564505,-0.590583,0.575243,-0.561437
3.8113,0.016752,0.000000,-0.009878,0.009878,0.0000,0.0000,0.0000,-0.002349,0.061359,-0.065961,0.4212,0.4810,0.1382,0.000000,0.579845,-0.562971,0.564505,-0.590583,0.575243,-0.561437
3.8281,0.016747,0.000000,-0.024492,0.024492,0.0000,0.0000,0.0000,-0.002351,0.039884,-0.042951,0.4269,0.4831,0.1443,0.000000,0.579845,-0.562971,0.564505,-0.590583,0.575243,-0.561437
3.8448,0.016741,0.000000,-0.039101,0.039101,0.0000,0.0000,0.0000,-0.002351,0.021476,-0.021476,0.4269,0.4831,0.1443,0.000000,0.579845,-0.562971,0.564505,-0.590583,0.575243,-0.561437
3.8615,0.016743,0.000000,-0.053712,0.053712,0.0000,0.0000,0.0000,-0.002351,0.006136,-0.006136,0.4269,0.4831,0.1443,0.000000,0.579845,-0.562971,0.564505,-0.590583,0.575243,-0.561437
3.8783,0.016741,0.000000,-0.068322,0.068322,0.0000,0.0000,0.0000,-0.002351,-0.006136,0.003068,0.4269,0.4831,0.1443,0.000000,0.579845,-0.562971,0.564505,-0.590583,0.575243,-0.561437
3.8952,0.016934,0.000000,-0.083099,0.083099,0.0000,0.0000,0.0000,-0.002351,-0.021476,0.018408,0.4269,0.4831,0.1443,0.000000,0.579845,-0.562971,0.564505,-0.590583,0.575243,-0.561437
3.9120,0.016743,0.000000,-0.097710,0.097710,0.0000,0.0000,0.0000,-0.002351,-0.021476,0.018408,0.4269,0.4831,0.1443,0.000000,0.579845,-0.562971,0.564505,-0.590583,0.575243,-0.561437
3.9287,0.016748,0.000000,-0.112326,0.112326,0.0000,0.0000,0.0000,-0.002339,-0.042951,0.041417,0.4371,0.5337,0.0900,0.000000,0.579845,-0.562971,0.564505,-0.592117,0.575243,-0.561437
3.9455,0.016746,0.000000,-0.126939,0.126939,0.0000,0.0000,0.0000,-0.002365,-0.081301,0.079767,0.4748,0.4953,0.2028,0.000000,0.579845,-0.562971,0.564505,-0.590583,0.575243,-0.559903
3.9622,0.016746,0.000000,-0.141553,0.141553,0.0000,0.0000,0.0000,-0.002338,-0.093573,0.092039,0.4321,0.5324,0.0839,0.000000,0.579845,-0.562971,0.564505,-0.592117,0.575243,-0.561437
3.9789,0.016740,0.000000,-0.156161,0.156161,0.0000,0.0000,0.0000,-0.002352,-0.111981,0.108913,0.4258,0.4778,0.1500,0.000000,0.579845,-0.562971,0.564505,-0.590583,0.575243,-0.561437
3.9957,0.016755,0.000000,-0.170783,0.170783,0.0000,0.0000,0.0000,-0.002352,-0.111981,0.108913,0.4258,0.4778,0.1500,0.000000,0.579845,-0.562971,0.564505,-0.590583,0.575243,-0.561437
4.0124,0.016745,0.000000,-0.163670,0.163670,0.0000,0.0000,0.0000,-0.002350,-0.133456,0.131922,0.4265,0.4834,0.1431,0.000000,0.579845,-0.562971,0.564505,-0.590583,0.575243,-0.561437
4.0292,0.016746,0.000000,-0.149057,0.149057,0.0000,0.0000,0.0000,-0.002339,-0.153398,0.153398,0.4372,0.5336,0.0901,0.000000,0.579845,-0.562971,0.564505,-0.592117,0.575243,-0.561437
4.0459,0.016743,0.000000,-0.134446,0.134446,0.0000,0.0000,0.0000,-0.002340,-0.170272,0.167204,0.4360,0.5284,0.0956,0.000000,0.579845,-0.562971,0.564505,-0.592117,0.575243,-0.561437
4.0629,0.016917,0.000000,-0.119682,0.119682,0.0000,0.0000,0.0000,-0.002352,-0.177942,0.173340,0.4254,0.4782,0.1488,0.000000,0.579845,-0.562971,0.564505,-0.590583,0.575243,-0.561437
4.0796,0.016744,0.000000,-0.105071,0.105071,0.0000,0.0000,0.0000,-0.002352,-0.168738,0.165670,0.4868,0.5518,0.1430,0.000000,0.579845,-0.562971,0.564505,-0.592117,0.575243,-0.559903
4.0963,0.016752,0.000000,-0.090452,0.090452,0.0000,0.0000,0.0000,-0.002352,-0.150330,0.151864,0.4868,0.5518,0.1430,0.000000,0.579845,-0.562971,0.564505,-0.592117,0.575243,-0.559903
4.1131,0.016744,0.000000,-0.075840,0.075840,0.0000,0.0000,0.0000,-0.002352,-0.150330,0.151864,0.4804,0.5442,0.1436,0.000000,0.579845,-0.562971,0.564505,-0.592117,0.575243,-0.559903
4.1298,0.016744,0.000000,-0.061229,0.061229,0.0000,0.0000,0.0000,-0.002350,-0.127320,0.130388,0.4208,0.4765,0.1438,0.000000,0.579845,-0.562971,0.564505,-0.590583,0.575243,-0.561437
4.1466,0.016742,0.000000,-0.046619,0.046619,0.0000,0.0000,0.0000,-0.002352,-0.104311,0.107379,0.4873,0.5520,0.1435,0.000000,0.579845,-0.562971,0.564505,-0.592117,0.575243,-0.559903
4.1633,0.016755,0.000000,-0.031998,0.031998,0.0000,0.0000,0.0000,-0.002350,-0.087437,0.090505,0.4200,0.4757,0.1438,0.000000,0.579845,-0.562971,0.564505,-0.590583,0.575243,-0.561437
4.1801,0.016745,0.000000,-0.017385,0.017385,0.0000,0.0000,0.0000,-0.002339,-0.067495,0.067495,0.4378,0.5344,0.0900,0.000000,0.579845,-0.562971,0.564505,-0.592117,0.575243,-0.561437
4.1968,0.016754,0.000000,-0.002764,0.002764,0.0000,0.0000,0.0000,-0.002339,-0.044485,0.047553,0.4378,0.5344,0.0900,0.000000,0.579845,-0.562971,0.564505,-0.592117,0.575243,-0.559903
4.2136,0.016755,0.000000,0.011857,-0.011857,0.0000,0.0000,0.0000,-0.002353,-0.044485,0.047553,0.4855,0.5460,0.1491,0.000000,0.579845,-0.562971,0.564505,-0.592117,0.575243,-0.559903
4.2303,0.016747,0.000000,0.026472,-0.026472,0.0000,0.0000,0.0000,-0.002352,-0.026078,0.029146,0.4805,0.5448,0.1430,0.000000,0.579845,-0.562971,0.564505,-0.592117,0.575243,-0.559903
4.2471,0.016740,0.000000,0.041081,-0.041081,0.0000,0.0000,0.0000,-0.002352,-0.007670,0.012272,0.4805,0.5448,0.1430,0.000000,0.579845,-0.562971,0.564505,-0.592117,0.575243,-0.559903
4.2638,0.016752,0.000000,0.055700,-0.055700,0.0000,0.0000,0.0000,-0.002350,0.004602,-0.001534,0.4207,0.4764,0.1438,0.000000,0.579845,-0.562971,0.564505,-0.590583,0.575243,-0.561437
4.2806,0.016745,0.000000,0.070312,-0.070312,0.0000,0.0000,0.0000,-0.002350,0.021476,-0.019942,0.4270,0.4836,0.1437,0.000000,0.579845,-0.562971,0.564505,-0.590583,0.575243,-0.561437
4.2973,0.016762,0.000000,0.084940,-0.084940,0.0000,0.0000,0.0000,-0.002350,0.041417,-0.039884,0.4270,0.4836,0.1437,0.000000,0.579845,-0.562971,0.564505,-0.592117,0.575243,-0.561437
4.3141,0.016739,0.000000,0.099548,-0.099548,0.0000,0.0000,0.0000,-0.002339,0.041417,-0.039884,0.4371,0.5336,0.0900,0.000000,0.579845,-0.562971,0.564505,-0.592117,0.575243,-0.561437
4.3308,0.016754,0.000000,0.114168,-0.114168,0.0000,0.0000,0.0000,-0.002352,0.061359,-0.059825,0.4253,0.4776,0.1493,0.000000,0.579845,-0.562971,0.564505,-0.590583,0.575243,-0.561437
4.3477,0.016886,0.000000,0.128904,-0.128904,0.0000,0.0000,0.0000,-0.002350,0.078233,-0.076699,0.4265,0.4834,0.1432,0.000000,0.579845,-0.562971,0.564505,-0.590583,0.575243,-0.561437
4.3645,0.016749,0.000000,0.143521,-0.143521,0.0000,0.0000,0.0000,-0.002350,0.095107,-0.093573,0.4265,0.4834,0.1432,0.000000,0.579845,-0.562971,0.564505,-0.590583,0.575243,-0.561437
4.3812,0.016741,0.000000,0.158131,-0.158131,0.0000,0.0000,0.0000,-0.002350,0.116583,-0.110447,0.4265,0.4834,0.1432,0.000000,0.579845,-0.562971,0.564505,-0.590583,0.575243,-0.561437
4.3980,0.016752,0.000000,0.172749,-0.172749,0.0000,0.0000,0.0000,-0.002350,0.116583,-0.110447,0.4265,0.4834,0.1432,0.000000,0.579845,-0.562971,0.564505,-0.590583,0.575243,-0.561437
4.4147,0.016746,0.000000,0.161703,-0.161703,0.0000,0.0000,0.0000,-0.002350,0.138058,-0.127320,0.4265,0.4834,0.1432,0.000000,0.579845,-0.562971,0.564505,-0.590583,0.575243,-0.561437
4.4314,0.016741,0.000000,0.147094,-0.147094,0.0000,0.0000,0.0000,-0.002350,0.151864,-0.144194,0.4265,0.4834,0.1432,0.000000,0.579845,-0.562971,0.564505,-0.590583,0.575243,-0.561437
4.4482,0.016738,0.000000,0.132487,-0.132487,0.0000,0.0000,0.0000,-0.002339,0.161068,-0.161068,0.4371,0.5336,0.0901,0.000000,0.579845,-0.562971,0.564505,-0.592117,0.575243,-0.561437
4.4649,0.016742,0.000000,0.117877,-0.117877,0.0000,0.0000,0.0000,-0.002352,0.170272,-0.173340,0.4253,0.4776,0.1493,0.000000,0.579845,-0.562971,0.564505,-0.590583,0.575243,-0.561437
4.4817,0.016740,0.000000,0.103269,-0.103269,0.0000,0.0000,0.0000,-0.002350,0.167204,-0.170272,0.4265,0.4834,0.1432,0.000000,0.579845,-0.562971,0.564505,-0.590583,0.575243,-0.561437
4.4984,0.016753,0.000000,0.088649,-0.088649,0.0000,0.0000,0.0000,-0.002350,0.167204,-0.170272,0.4265,0.4834,0.1432,0.000000,0.579845,-0.562971,0.564505,-0.590583,0.575243,-0.561437
4.5152,0.016742,0.000000,0.074039,-0.074039,0.0000,0.0000,0.0000,-0.002350,0.153398,-0.154932,0.4265,0.4834,0.1432,0.000000,0.579845,-0.562971,0.564505,-0.590583,0.575243,-0.561437
4.5319,0.016743,0.000000,0.059428,-0.059428,0.0000,0.0000,0.0000,-0.002350,0.130388,-0.133456,0.4265,0.4834,0.1432,0.000000,0.579845,-0.562971,0.564505,-0.590583,0.575243,-0.561437
4.5486,0.016741,0.000000,0.044818,-0.044818,0.0000,0.0000,0.0000,-0.002350,0.105845,-0.111981,0.4265,0.4834,0.1432,0.000000,0.579845,-0.562971,0.564505,-0.590583,0.575243,-0.561437
4.5654,0.016749,0.000000,0.030202,-0.030202,0.0000,0.0000,0.0000,-0.002339,0.081301,-0.087437,0.4371,0.5336,0.0901,0.000000,0.579845,-0.562971,0.564505,-0.592117,0.575243,-0.561437
4.5822,0.016797,0.000000,0.015543,-0.015543,0.0000,0.0000,0.0000,-0.002352,0.056757,-0.061359,0.4253,0.4776,0.1493,0.000000,0.579845,-0.562971,0.564505,-0.590583,0.575243,-0.561437
4.5989,0.016750,0.000000,0.000926,-0.000926,0.0000,0.0000,0.0000,-0.002352,0.056757,-0.061359,0.4253,0.4776,0.1493,0.000000,0.579845,-0.562971,0.564505,-0.590583,0.575243,-0.561437
4.6157,0.016754,0.000000,-0.013695,0.013695,0.0000,0.0000,0.0000,-0.002339,0.035282,-0.038350,0.4373,0.5342,0.0894,0.000000,0.579845,-0.562971,0.564505,-0.592117,0.575243,-0.561437
4.6324,0.016749,0.000000,-0.028311,0.028311,0.0000,0.0000,0.0000,-0.002365,0.021476,-0.021476,0.4748,0.4952,0.2029,0.000000,0.579845,-0.562971,0.564505,-0.590583,0.575243,-0.559903
4.6492,0.016741,0.000000,-0.042920,0.042920,0.0000,0.0000,0.0000,-0.002351,0.010738,-0.010738,0.4816,0.5501,0.1374,0.000000,0.579845,-0.562971,0.564505,-0.592117,0.575243,-0.559903
4.6659,0.016749,0.000000,-0.057537,0.057537,0.0000,0.0000,0.0000,-0.002350,-0.001534,-0.001534,0.4206,0.4759,0.1444,0.000000,0.579845,-0.562971,0.564505,-0.590583,0.575243,-0.561437
4.6827,0.016743,0.000000,-0.072148,0.072148,0.0000,0.0000,0.0000,-0.002350,-0.021476,0.015340,0.4270,0.4836,0.1437,0.000000,0.579845,-0.562971,0.564505,-0.590583,0.575243,-0.561437
4.6994,0.016754,0.000000,-0.086769,0.086769,0.0000,0.0000,0.0000,-0.002350,-0.021476,0.015340,0.4270,0.4836,0.1437,0.000000,0.579845,-0.562971,0.564505,-0.590583,0.575243,-0.561437
4.7162,0.016745,0.000000,-0.101382,0.101382,0.0000,0.0000,0.0000,-0.002350,-0.046019,0.041417,0.4270,0.4836,0.1437,0.000000,0.579845,-0.562971,0.564505,-0.590583,0.575243,-0.561437
4.7330,0.016866,0.000000,-0.116100,0.116100,0.0000,0.0000,0.0000,-0.002350,-0.064427,0.062893,0.4270,0.4836,0.1437,0.000000,0.579845,-0.562971,0.564505,-0.590583,0.575243,-0.561437
4.7498,0.016742,0.000000,-0.130710,0.130710,0.0000,0.0000,0.0000,-0.002339,-0.078233,0.081301,0.4371,0.5336,0.0900,0.000000,0.579845,-0.562971,0.564505,-0.592117,0.575243,-0.561437
4.7665,0.016767,0.000000,-0.145342,0.145342,0.0000,0.0000,0.0000,-0.002340,-0.093573,0.096641,0.4361,0.5284,0.0956,0.000000,0.579845,-0.562971,0.564505,-0.592117,0.575243,-0.561437
4.7833,0.016749,0.000000,-0.159958,0.159958,0.0000,0.0000,0.0000,-0.002365,-0.115049,0.118117,0.4749,0.4958,0.2022,0.000000,0.579845,-0.562971,0.564505,-0.590583,0.575243,-0.559903
4.8001,0.016763,0.000000,-0.174479,0.174479,0.0000,0.0000,0.0000,-0.002365,-0.115049,0.118117,0.4749,0.4958,0.2022,0.000000,0.579845,-0.562971,0.564505,-0.590583,0.575243,-0.559903
4.8168,0.016745,0.000000,-0.159867,0.159867,0.0000,0.0000,0.0000,-0.002349,-0.136524,0.138058,0.4213,0.4815,0.1377,0.000000,0.579845,-0.562971,0.564505,-0.590583,0.575243,-0.561437
4.8336,0.016758,0.000000,-0.145242,0.145242,0.0000,0.0000,0.0000,-0.002351,-0.153398,0.150330,0.4269,0.4830,0.1444,0.000000,0.579845,-0.562971,0.564505,-0.590583,0.575243,-0.561437
4.8503,0.016750,0.000000,-0.130625,0.130625,0.0000,0.0000,0.0000,-0.002351,-0.165670,0.159534,0.4269,0.4830,0.1444,0.000000,0.579845,-0.562971,0.564505,-0.590583,0.575243,-0.561437
4.8671,0.016757,0.000000,-0.116001,0.116001,0.0000,0.0000,0.0000,-0.002364,-0.162602,0.161068,0.4759,0.5005,0.1972,0.000000,0.579845,-0.562971,0.564505,-0.590583,0.575243,-0.559903
4.8838,0.016743,0.000000,-0.101390,0.101390,0.0000,0.0000,0.0000,-0.002349,-0.153398,0.156466,0.4212,0.4810,0.1382,0.000000,0.579845,-0.562971,0.564505,-0.590583,0.575243,-0.561437
4.9006,0.016766,0.000000,-0.086758,0.086758,0.0000,0.0000,0.0000,-0.002349,-0.153398,0.156466,0.4212,0.4810,0.1382,0.000000,0.579845,-0.562971,0.564505,-0.590583,0.575243,-0.561437
4.9173,0.016744,0.000000,-0.072147,0.072147,0.0000,0.0000,0.0000,-0.002364,-0.141126,0.142660,0.4765,0.5007,0.1978,0.000000,0.579845,-0.562971,0.564505,-0.590583,0.575243,-0.559903
4.9341,0.016764,0.000000,-0.057518,0.057518,0.0000,0.0000,0.0000,-0.002338,-0.125786,0.130388,0.4319,0.5318,0.0844,0.000000,0.579845,-0.562971,0.564505,-0.592117,0.575243,-0.561437
4.9508,0.016743,0.000000,-0.042906,0.042906,0.0000,0.0000,0.0000,-0.002340,-0.110447,0.113515,0.4366,0.5286,0.0962,0.000000,0.579845,-0.562971,0.564505,-0.592117,0.575243,-0.561437
4.9676,0.016751,0.000000,-0.028288,0.028288,0.0000,0.0000,0.0000,-0.002352,-0.085903,0.090505,0.4253,0.4781,0.1487,0.000000,0.579845,-0.562971,0.564505,-0.590583,0.575243,-0.561437
4.9843,0.016752,0.000000,-0.013669,0.013669,0.0000,0.0000,0.0000,-0.002339,-0.065961,0.067495,0.4373,0.5342,0.0895,0.000000,0.579845,-0.562971,0.564505,-0.592117,0.575243,-0.561437
5.0011,0.016752,0.000000,0.000949,-0.000949,0.0000,0.0000,0.0000,-0.002339,-0.065961,0.067495,0.4373,0.5342,0.0895,0.000000,0.579845,-0.562971,0.564505,-0.592117,0.575243,-0.561437
5.0178,0.016743,0.000000,0.015560,-0.015560,0.0000,0.0000,0.0000,-0.002352,-0.047553,0.047553,0.4252,0.4776,0.1494,0.000000,0.579845,-0.562971,0.564505,-0.590583,0.575243,-0.561437
5.0346,0.016765,0.000000,0.030191,-0.030191,0.0000,0.0000,0.0000,-0.002350,-0.026078,0.027612,0.4265,0.4835,0.1432,0.000000,0.579845,-0.562971,0.564505,-0.590583,0.575243,-0.561437
5.0513,0.016742,0.000000,0.044800,-0.044800,0.0000,0.0000,0.0000,-0.002350,-0.009204,0.013806,0.4265,0.4835,0.1432,0.000000,0.579845,-0.562971,0.564505,-0.590583,0.575243,-0.561437
5.0681,0.016756,0.000000,0.059423,-0.059423,0.0000,0.0000,0.0000,-0.002350,0.006136,-0.004602,0.4265,0.4835,0.1432,0.000000,0.579845,-0.562971,0.564505,-0.590583,0.575243,-0.561437
5.0848,0.016747,0.000000,0.074037,-0.074037,0.0000,0.0000,0.0000,-0.002339,0.024544,-0.024544,0.4371,0.5336,0.0901,0.000000,0.579845,-0.562971,0.564505,-0.592117,0.575243,-0.561437
5.1016,0.016757,0.000000,0.088660,-0.088660,0.0000,0.0000,0.0000,-0.002339,0.024544,-0.024544,0.4371,0.5336,0.0901,0.000000,0.579845,-0.562971,0.564505,-0.592117,0.575243,-0.561437
5.1183,0.016746,0.000000,0.103273,-0.103273,0.0000,0.0000,0.0000,-0.002352,0.044485,-0.042951,0.4253,0.4776,0.1493,0.000000,0.579845,-0.562971,0.564505,-0.590583,0.575243,-0.561437
5.1351,0.016751,0.000000,0.117891,-0.117891,0.0000,0.0000,0.0000,-0.002339,0.062893,-0.059825,0.4373,0.5342,0.0894,0.000000,0.579845,-0.562971,0.564505,-0.592117,0.575243,-0.561437
5.1518,0.016741,0.000000,0.132501,-0.132501,0.0000,0.0000,0.0000,-0.002352,0.075165,-0.075165,0.4252,0.4776,0.1494,0.000000,0.579845,-0.562971,0.564505,-0.590583,0.575243,-0.561437
5.1686,0.016757,0.000000,0.147124,-0.147124,0.0000,0.0000,0.0000,-0.002350,0.090505,-0.090505,0.4265,0.4835,0.1432,0.000000,0.579845,-0.562971,0.564505,-0.590583,0.575243,-0.561437
5.1853,0.016756,0.000000,0.161747,-0.161747,0.0000,0.0000,0.0000,-0.002350,0.111981,-0.107379,0.4265,0.4835,0.1432,0.000000,0.579845,-0.562971,0.564505,-0.590583,0.575243,-0.561437
5.2021,0.016756,0.000000,0.172696,-0.172696,0.0000,0.0000,0.0000,-0.002350,0.111981,-0.107379,0.4265,0.4835,0.1432,0.000000,0.579845,-0.562971,0.564505,-0.590583,0.575243,-0.561437
5.2188,0.016744,0.000000,0.158085,-0.158085,0.0000,0.0000,0.0000,-0.002339,0.134990,-0.125786,0.4371,0.5336,0.0901,0.000000,0.579845,-0.562971,0.564505,-0.592117,0.575243,-0.561437
5.2372,0.018368,0.000000,0.142056,-0.142056,0.0000,0.0000,0.0000,-0.002352,0.153398,-0.144194,0.4253,0.4776,0.1493,0.000000,0.579845,-0.562971,0.564505,-0.590583,0.575243,-0.561437
5.2540,0.016745,0.000000,0.127444,-0.127444,0.0000,0.0000,0.0000,-0.002339,0.161068,-0.161068,0.4373,0.5342,0.0894,0.000000,0.579845,-0.562971,0.564505,-0.592117,0.575243,-0.561437
5.2707,0.016752,0.000000,0.112824,-0.112824,0.0000,0.0000,0.0000,-0.002352,0.158000,-0.164136,0.4252,0.4776,0.1494,0.000000,0.579845,-0.562971,0.564505,-0.590583,0.575243,-0.561437
5.2875,0.016830,0.000000,0.098137,-0.098137,0.0000,0.0000,0.0000,-0.002350,0.150330,-0.156466,0.4265,0.4835,0.1432,0.000000,0.579845,-0.562971,0.564505,-0.590583,0.575243,-0.561437
5.3043,0.016764,0.000000,0.083508,-0.083508,0.0000,0.0000,0.0000,-0.002350,0.150330,-0.156466,0.4265,0.4835,0.1432,0.000000,0.579845,-0.562971,0.564505,-0.590583,0.575243,-0.561437
5.3210,0.016739,0.000000,0.068901,-0.068901,0.0000,0.0000,0.0000,-0.002350,0.138058,-0.142660,0.4265,0.4835,0.1432,0.000000,0.579845,-0.562971,0.564505,-0.590583,0.575243,-0.561437
5.3378,0.016750,0.000000,0.054283,-0.054283,0.0000,0.0000,0.0000,-0.002350,0.121184,-0.125786,0.4265,0.4835,0.1432,0.000000,0.579845,-0.562971,0.564505,-0.590583,0.575243,-0.561437
5.3545,0.016751,0.000000,0.039666,-0.039666,0.0000,0.0000,0.0000,-0.002350,0.105845,-0.110447,0.4265,0.4835,0.1432,0.000000,0.579845,-0.562971,0.564505,-0.590583,0.575243,-0.561437
5.3713,0.016759,0.000000,0.025040,-0.025040,0.0000,0.0000,0.0000,-0.002350,0.081301,-0.085903,0.4265,0.4835,0.1432,0.000000,0.579845,-0.562971,0.564505,-0.590583,0.575243,-0.561437
5.3881,0.016748,0.000000,0.010425,-0.010425,0.0000,0.0000,0.0000,-0.002350,0.058291,-0.059825,0.4265,0.4835,0.1432,0.000000,0.579845,-0.562971,0.564505,-0.590583,0.575243,-0.561437
5.4048,0.016764,0.000000,-0.004204,0.004204,0.0000,0.0000,0.0000,-0.002350,0.058291,-0.059825,0.4265,0.4835,0.1432,0.000000,0.579845,-0.562971,0.564505,-0.590583,0.575243,-0.561437
5.4216,0.016745,0.000000,-0.018817,0.018817,0.0000,0.0000,0.0000,-0.002364,0.039884,-0.041417,0.4759,0.5005,0.1973,0.000000,0.579845,-0.562971,0.564505,-0.590583,0.575243,-0.559903
5.4383,0.016742,0.000000,-0.033427,0.033427,0.0000,0.0000,0.0000,-0.002338,0.021476,-0.019942,0.4320,0.5318,0.0844,0.000000,0.579845,-0.562971,0.564505,-0.592117,0.575243,-0.561437
5.4550,0.016741,0.000000,-0.048036,0.048036,0.0000,0.0000,0.0000,-0.002365,0.006136,-0.006136,0.4753,0.4954,0.2034,0.000000,0.579845,-0.562971,0.564505,-0.590583,0.575243,-0.559903
5.4718,0.016751,0.000000,-0.062654,0.062654,0.0000,0.0000,0.0000,-0.002349,-0.007670,0.003068,0.4213,0.4816,0.1375,0.000000,0.579845,-0.562971,0.564505,-0.590583,0.575243,-0.561437
5.4885,0.016746,0.000000,-0.077268,0.077268,0.0000,0.0000,0.0000,-0.002351,-0.026078,0.019942,0.4269,0.4830,0.1444,0.000000,0.579845,-0.562971,0.564505,-0.590583,0.575243,-0.561437
