t,loop_dt,cmd_z,cmd_ant_l,cmd_ant_r,cmd_roll,cmd_pitch,cmd_yaw,pres_z,pres_ant_l,pres_ant_r,pres_roll,pres_pitch,pres_yaw,pres_j0,pres_j1,pres_j2,pres_j3,pres_j4,pres_j5,pres_j6
0.0000,0.000001,0.000000,-1.745329,1.745329,0.0000,0.0000,0.0000,-0.002512,-1.564660,1.563126,0.4980,0.7920,0.3336,0.000000,0.572175,-0.559903,0.564505,-0.592117,0.575243,-0.549165
0.0168,0.016806,0.000000,-1.739462,1.739462,0.0000,0.0000,0.0000,-0.002512,-1.564660,1.563126,0.4980,0.7920,0.3336,0.000000,0.572175,-0.559903,0.564505,-0.592117,0.575243,-0.549165
0.0336,0.016751,0.000000,-1.733615,1.733615,0.0000,0.0000,0.0000,-0.002498,-1.570796,1.566194,0.4494,0.7742,0.2815,0.000000,0.572175,-0.559903,0.564505,-0.592117,0.575243,-0.550699
0.0503,0.016749,0.000000,-1.727769,1.727769,0.0000,0.0000,0.0000,-0.002500,-1.573864,1.566194,0.4544,0.7761,0.2870,0.000000,0.572175,-0.559903,0.564505,-0.592117,0.575243,-0.550699
0.0671,0.016750,0.000000,-1.721922,1.721922,0.0000,0.0000,0.0000,-0.002500,-1.610680,1.612214,0.4544,0.7761,0.2870,0.000000,0.572175,-0.559903,0.564505,-0.592117,0.575243,-0.550699
0.0838,0.016758,0.000000,-1.716072,1.716072,0.0000,0.0000,0.0000,-0.002473,-1.691981,1.688913,0.3544,0.7403,0.1796,0.000000,0.572175,-0.559903,0.564505,-0.592117,0.575243,-0.553767
0.1006,0.016758,0.000000,-1.710223,1.710223,0.0000,0.0000,0.0000,-0.002476,-1.759476,1.754874,0.3649,0.7441,0.1908,0.000000,0.572175,-0.559903,0.564505,-0.592117,0.575243,-0.553767
0.1173,0.016757,0.000000,-1.704373,1.704373,0.0000,0.0000,0.0000,-0.002476,-1.759476,1.754874,0.3649,0.7441,0.1908,0.000000,0.572175,-0.559903,0.564505,-0.592117,0.575243,-0.553767
0.1341,0.016750,0.000000,-1.698527,1.698527,0.0000,0.0000,0.0000,-0.002462,-1.770214,1.765612,0.3141,0.7260,0.1362,0.000000,0.572175,-0.559903,0.564505,-0.592117,0.575243,-0.555301
0.1508,0.016745,0.000000,-1.692682,1.692682,0.0000,0.0000,0.0000,-0.002436,-1.759476,1.759476,0.2488,0.6064,0.0358,0.000000,0.572175,-0.561437,0.564505,-0.590583,0.575243,-0.558369
0.1676,0.016741,0.000000,-1.686838,1.686838,0.0000,0.0000,0.0000,-0.002426,-1.739534,1.745670,0.2060,0.6015,-0.0072,0.000000,0.572175,-0.561437,0.564505,-0.590583,0.575243,-0.559903
0.1843,0.016749,0.000000,-1.680991,1.680991,0.0000,0.0000,0.0000,-0.002391,-1.725728,1.736466,0.3102,0.6015,-0.0559,0.000000,0.573709,-0.562971,0.564505,-0.592117,0.575243,-0.559903
0.2012,0.016878,0.000000,-1.675100,1.675100,0.0000,0.0000,0.0000,-0.002383,-1.711923,1.725728,0.3492,0.5858,0.0029,0.000000,0.575243,-0.562971,0.564505,-0.592117,0.575243,-0.559903
0.2179,0.016753,0.000000,-1.669252,1.669252,0.0000,0.0000,0.0000,-0.002383,-1.711923,1.725728,0.3492,0.5858,0.0029,0.000000,0.575243,-0.562971,0.564505,-0.592117,0.575243,-0.559903
0.2347,0.016744,0.000000,-1.663407,1.663407,0.0000,0.0000,0.0000,-0.002359,-1.707321,1.716525,0.3455,0.5542,-0.0029,0.000000,0.576777,-0.562971,0.564505,-0.592117,0.575243,-0.561437
0.2514,0.016750,0.000000,-1.657561,1.657561,0.0000,0.0000,0.0000,-0.002361,-1.702719,1.707321,0.3459,0.5575,-0.0023,0.000000,0.576777,-0.562971,0.564505,-0.592117,0.575243,-0.561437
0.2683,0.016880,0.000000,-1.651668,1.651668,0.0000,0.0000,0.0000,-0.002386,-1.699651,1.699651,0.3847,0.5240,0.1049,0.000000,0.576777,-0.562971,0.564505,-0.590583,0.575243,-0.559903
0.2851,0.016753,0.000000,-1.645820,1.645820,0.0000,0.0000,0.0000,-0.002359,-1.693515,1.690447,0.3418,0.5607,-0.0136,0.000000,0.576777,-0.562971,0.564505,-0.592117,0.575243,-0.561437
0.3018,0.016753,0.000000,-1.639973,1.639973,0.0000,0.0000,0.0000,-0.002363,-1.687379,1.687379,0.4457,0.5587,0.1061,0.000000,0.578311,-0.562971,0.564505,-0.592117,0.575243,-0.559903
0.3186,0.016755,0.000000,-1.634124,1.634124,0.0000,0.0000,0.0000,-0.002363,-1.687379,1.687379,0.4457,0.5587,0.1061,0.000000,0.578311,-0.562971,0.564505,-0.592117,0.575243,-0.559903
0.3353,0.016745,0.000000,-1.628279,1.628279,0.0000,0.0000,0.0000,-0.002375,-1.676641,1.682777,0.3957,0.5945,0.1468,0.000000,0.578311,-0.561437,0.564505,-0.592117,0.575243,-0.559903
0.3521,0.016745,0.000000,-1.622434,1.622434,0.0000,0.0000,0.0000,-0.002372,-1.670505,1.678175,0.3406,0.5224,0.1428,0.000000,0.578311,-0.561437,0.564505,-0.590583,0.575243,-0.561437
0.3688,0.016767,0.000000,-1.616581,1.616581,0.0000,0.0000,0.0000,-0.002348,-1.664369,1.670505,0.3963,0.5452,0.0363,0.000000,0.578311,-0.562971,0.564505,-0.592117,0.575243,-0.561437
0.3856,0.016750,0.000000,-1.610734,1.610734,0.0000,0.0000,0.0000,-0.002351,-1.658233,1.661301,0.3905,0.5428,0.0474,0.000000,0.578311,-0.562971,0.564505,-0.592117,0.575243,-0.561437
0.4024,0.016800,0.000000,-1.604870,1.604870,0.0000,0.0000,0.0000,-0.002363,-1.650563,1.655165,0.3519,0.5786,0.0994,0.000000,0.578311,-0.561437,0.564505,-0.592117,0.575243,-0.561437
0.4191,0.016751,0.000000,-1.599023,1.599023,0.0000,0.0000,0.0000,-0.002363,-1.650563,1.655165,0.3519,0.5786,0.0994,0.000000,0.578311,-0.561437,0.564505,-0.592117,0.575243,-0.561437
0.4359,0.016746,0.000000,-1.593178,1.593178,0.0000,0.0000,0.0000,-0.002362,-1.641359,1.649029,0.4446,0.5569,0.0943,0.000000,0.578311,-0.562971,0.564505,-0.592117,0.575243,-0.559903
0.4526,0.016743,0.000000,-1.587333,1.587333,0.0000,0.0000,0.0000,-0.002349,-1.639825,1.645961,0.3854,0.5416,0.0413,0.000000,0.578311,-0.562971,0.564505,-0.592117,0.575243,-0.561437
0.4694,0.016780,0.000000,-1.581476,1.581476,0.0000,0.0000,0.0000,-0.002362,-1.638291,1.636758,0.3809,0.4924,0.1006,0.000000,0.578311,-0.562971,0.564505,-0.590583,0.575243,-0.561437
0.4865,0.017114,0.000000,-1.575502,1.575502,0.0000,0.0000,0.0000,-0.002361,-1.635224,1.630622,0.3813,0.4975,0.0944,0.000000,0.578311,-0.562971,0.564505,-0.590583,0.575243,-0.561437
0.5033,0.016751,0.000000,-1.569655,1.569655,0.0000,0.0000,0.0000,-0.002363,-1.624486,1.622952,0.4416,0.5654,0.0948,0.000000,0.578311,-0.562971,0.564505,-0.592117,0.575243,-0.559903
0.5200,0.016751,0.000000,-1.563807,1.563807,0.0000,0.0000,0.0000,-0.002363,-1.624486,1.622952,0.4416,0.5654,0.0948,0.000000,0.578311,-0.562971,0.564505,-0.592117,0.575243,-0.559903
0.5368,0.016761,0.000000,-1.557957,1.557957,0.0000,0.0000,0.0000,-0.002349,-1.613748,1.615282,0.3858,0.5407,0.0413,0.000000,0.578311,-0.562971,0.564505,-0.592117,0.575243,-0.561437
0.5535,0.016743,0.000000,-1.552112,1.552112,0.0000,0.0000,0.0000,-0.002364,-1.606078,1.606078,0.4411,0.5609,0.1004,0.000000,0.578311,-0.562971,0.564505,-0.592117,0.575243,-0.559903
0.5703,0.016748,0.000000,-1.546266,1.546266,0.0000,0.0000,0.0000,-0.002362,-1.598408,1.603010,0.4353,0.5588,0.0942,0.000000,0.578311,-0.562971,0.564505,-0.592117,0.575243,-0.559903
0.5870,0.016749,0.000000,-1.540420,1.540420,0.0000,0.0000,0.0000,-0.002362,-1.589204,1.595340,0.4353,0.5588,0.0942,0.000000,0.578311,-0.562971,0.564505,-0.592117,0.575243,-0.559903
0.6038,0.016764,0.000000,-1.534568,1.534568,0.0000,0.0000,0.0000,-0.002362,-1.589204,1.595340,0.4353,0.5588,0.0942,0.000000,0.578311,-0.562971,0.564505,-0.592117,0.575243,-0.559903
0.6205,0.016738,0.000000,-1.528725,1.528725,0.0000,0.0000,0.0000,-0.002374,-1.584602,1.590738,0.4252,0.5082,0.1486,0.000000,0.578311,-0.562971,0.564505,-0.590583,0.575243,-0.559903
0.6373,0.016747,0.000000,-1.522880,1.522880,0.0000,0.0000,0.0000,-0.002361,-1.576932,1.581534,0.4370,0.5643,0.0892,0.000000,0.578311,-0.562971,0.564505,-0.592117,0.575243,-0.559903
0.6540,0.016749,0.000000,-1.517033,1.517033,0.0000,0.0000,0.0000,-0.002363,-1.570796,1.578466,0.4358,0.5584,0.0954,0.000000,0.578311,-0.562971,0.564505,-0.592117,0.575243,-0.559903
0.6708,0.016756,0.000000,-1.511184,1.511184,0.0000,0.0000,0.0000,-0.002362,-1.563126,1.573864,0.3472,0.5769,0.0944,0.000000,0.578311,-0.561437,0.564505,-0.592117,0.575243,-0.561437
0.6876,0.016835,0.000000,-1.505308,1.505308,0.0000,0.0000,0.0000,-0.002362,-1.556990,1.566194,0.4451,0.5571,0.0948,0.000000,0.578311,-0.562971,0.564505,-0.592117,0.575243,-0.559903
0.7044,0.016795,0.000000,-1.499445,1.499445,0.0000,0.0000,0.0000,-0.002362,-1.556990,1.566194,0.4451,0.5571,0.0948,0.000000,0.578311,-0.562971,0.564505,-0.592117,0.575243,-0.559903
0.7212,0.016744,0.000000,-1.493600,1.493600,0.0000,0.0000,0.0000,-0.002361,-1.547787,1.553923,0.3746,0.4908,0.0950,0.000000,0.578311,-0.562971,0.564505,-0.590583,0.575243,-0.561437
0.7379,0.016743,0.000000,-1.487756,1.487756,0.0000,0.0000,0.0000,-0.002363,-1.543185,1.544719,0.4423,0.5661,0.0948,0.000000,0.578311,-0.562971,0.564505,-0.592117,0.575243,-0.559903
0.7546,0.016742,0.000000,-1.481912,1.481912,0.0000,0.0000,0.0000,-0.002374,-1.535515,1.533981,0.4245,0.5075,0.1485,0.000000,0.578311,-0.562971,0.564505,-0.590583,0.575243,-0.559903
0.7714,0.016753,0.000000,-1.476064,1.476064,0.0000,0.0000,0.0000,-0.002348,-1.530913,1.526311,0.3875,0.5467,0.0357,0.000000,0.578311,-0.562971,0.564505,-0.592117,0.575243,-0.561437
0.7881,0.016747,0.000000,-1.470218,1.470218,0.0000,0.0000,0.0000,-0.002364,-1.520175,1.517107,0.4409,0.5602,0.1009,0.000000,0.578311,-0.562971,0.564505,-0.592117,0.575243,-0.559903
0.8049,0.016752,0.000000,-1.464371,1.464371,0.0000,0.0000,0.0000,-0.002364,-1.520175,1.517107,0.4409,0.5602,0.1009,0.000000,0.578311,-0.562971,0.564505,-0.592117,0.575243,-0.559903
0.8216,0.016746,0.000000,-1.458525,1.458525,0.0000,0.0000,0.0000,-0.002349,-1.510971,1.512505,0.3858,0.5412,0.0407,0.000000,0.578311,-0.562971,0.564505,-0.592117,0.575243,-0.561437
0.8384,0.016719,0.000000,-1.452689,1.452689,0.0000,0.0000,0.0000,-0.002377,-1.501767,1.506369,0.4019,0.5963,0.1536,0.000000,0.578311,-0.561437,0.564505,-0.592117,0.575243,-0.559903
0.8551,0.016716,0.000000,-1.446855,1.446855,0.0000,0.0000,0.0000,-0.002385,-1.494097,1.501767,0.3895,0.5398,0.1956,0.000000,0.578311,-0.561437,0.564505,-0.590583,0.575243,-0.559903
0.8718,0.016745,0.000000,-1.441010,1.441010,0.0000,0.0000,0.0000,-0.002360,-1.487961,1.495631,0.4407,0.5610,0.0843,0.000000,0.578311,-0.562971,0.564505,-0.592117,0.575243,-0.559903
0.8887,0.016841,0.000000,-1.435131,1.435131,0.0000,0.0000,0.0000,-0.002363,-1.483359,1.492563,0.4354,0.5588,0.0959,0.000000,0.578311,-0.562971,0.564505,-0.592117,0.575243,-0.559903
0.9054,0.016748,0.000000,-1.429285,1.429285,0.0000,0.0000,0.0000,-0.002363,-1.483359,1.492563,0.4354,0.5588,0.0959,0.000000,0.578311,-0.562971,0.564505,-0.592117,0.575243,-0.559903
0.9221,0.016742,0.000000,-1.423441,1.423441,0.0000,0.0000,0.0000,-0.002374,-1.478757,1.483359,0.4252,0.5082,0.1484,0.000000,0.578311,-0.562971,0.564505,-0.590583,0.575243,-0.559903
0.9389,0.016742,0.000000,-1.417596,1.417596,0.0000,0.0000,0.0000,-0.002361,-1.474156,1.472622,0.4370,0.5643,0.0892,0.000000,0.578311,-0.562971,0.564505,-0.592117,0.575243,-0.559903
0.9557,0.016791,0.000000,-1.411735,1.411735,0.0000,0.0000,0.0000,-0.002374,-1.464952,1.461884,0.3363,0.5255,0.1488,0.000000,0.578311,-0.561437,0.564505,-0.590583,0.575243,-0.561437
0.9724,0.016747,0.000000,-1.405889,1.405889,0.0000,0.0000,0.0000,-0.002361,-1.455748,1.454214,0.4463,0.5625,0.0892,0.000000,0.578311,-0.562971,0.564505,-0.592117,0.575243,-0.559903
0.9893,0.016867,0.000000,-1.400002,1.400002,0.0000,0.0000,0.0000,-0.002361,-1.448078,1.445010,0.4463,0.5625,0.0892,0.000000,0.578311,-0.561437,0.564505,-0.592117,0.575243,-0.561437
1.0060,0.016742,0.000000,-1.398369,1.398369,0.0000,0.0000,0.0000,-0.002362,-1.448078,1.445010,0.3461,0.5765,0.0950,0.000000,0.578311,-0.561437,0.564505,-0.592117,0.575243,-0.561437
1.0228,0.016745,0.000000,-1.404214,1.404214,0.0000,0.0000,0.0000,-0.002362,-1.440408,1.440408,0.4452,0.5571,0.0948,0.000000,0.578311,-0.562971,0.564505,-0.592117,0.575243,-0.559903
1.0395,0.016743,0.000000,-1.410059,1.410059,0.0000,0.0000,0.0000,-0.002349,-1.434272,1.434272,0.3854,0.5415,0.0413,0.000000,0.578311,-0.562971,0.564505,-0.592117,0.575243,-0.561437
1.0563,0.016745,0.000000,-1.415904,1.415904,0.0000,0.0000,0.0000,-0.002364,-1.426602,1.431204,0.4411,0.5608,0.1004,0.000000,0.578311,-0.562971,0.564505,-0.592117,0.575243,-0.559903
1.0730,0.016746,0.000000,-1.421749,1.421749,0.0000,0.0000,0.0000,-0.002374,-1.425068,1.426602,0.4246,0.5080,0.1479,0.000000,0.578311,-0.562971,0.564505,-0.590583,0.575243,-0.559903
1.0899,0.016846,0.000000,-1.427630,1.427630,0.0000,0.0000,0.0000,-0.002361,-1.425068,1.425068,0.4370,0.5643,0.0893,0.000000,0.578311,-0.562971,0.564505,-0.592117,0.575243,-0.559903
1.1066,0.016759,0.000000,-1.433479,1.433479,0.0000,0.0000,0.0000,-0.002361,-1.425068,1.425068,0.4370,0.5643,0.0893,0.000000,0.578311,-0.562971,0.564505,-0.592117,0.575243,-0.559903
1.1234,0.016746,0.000000,-1.439325,1.439325,0.0000,0.0000,0.0000,-0.002361,-1.425068,1.425068,0.3755,0.4900,0.0956,0.000000,0.578311,-0.562971,0.564505,-0.590583,0.575243,-0.561437
1.1401,0.016749,0.000000,-1.445171,1.445171,0.0000,0.0000,0.0000,-0.002387,-1.425068,1.425068,0.3922,0.5509,0.2016,0.000000,0.578311,-0.561437,0.564505,-0.590583,0.575243,-0.559903
1.1569,0.016754,0.000000,-1.451020,1.451020,0.0000,0.0000,0.0000,-0.002360,-1.429670,1.425068,0.3517,0.5777,0.0833,0.000000,0.578311,-0.561437,0.564505,-0.592117,0.575243,-0.561437
1.1736,0.016761,0.000000,-1.456870,1.456870,0.0000,0.0000,0.0000,-0.002374,-1.438874,1.431204,0.4339,0.5062,0.1497,0.000000,0.578311,-0.562971,0.564505,-0.590583,0.575243,-0.559903
1.1904,0.016757,0.000000,-1.462720,1.462720,0.0000,0.0000,0.0000,-0.002361,-1.452680,1.446544,0.4361,0.5645,0.0891,0.000000,0.578311,-0.562971,0.564505,-0.592117,0.575243,-0.559903
1.2071,0.016753,0.000000,-1.468567,1.468567,0.0000,0.0000,0.0000,-0.002361,-1.452680,1.446544,0.4361,0.5645,0.0891,0.000000,0.578311,-0.562971,0.564505,-0.592117,0.575243,-0.559903
1.2239,0.016742,0.000000,-1.474411,1.474411,0.0000,0.0000,0.0000,-0.002363,-1.454214,1.454214,0.4359,0.5584,0.0954,0.000000,0.578311,-0.562971,0.564505,-0.592117,0.575243,-0.559903
1.2406,0.016747,0.000000,-1.480257,1.480257,0.0000,0.0000,0.0000,-0.002374,-1.457282,1.452680,0.4251,0.5083,0.1485,0.000000,0.578311,-0.562971,0.564505,-0.590583,0.575243,-0.559903
1.2574,0.016744,0.000000,-1.486102,1.486102,0.0000,0.0000,0.0000,-0.002361,-1.466486,1.457282,0.4370,0.5643,0.0892,0.000000,0.578311,-0.562971,0.564505,-0.592117,0.575243,-0.559903
1.2741,0.016748,0.000000,-1.491948,1.491948,0.0000,0.0000,0.0000,-0.002363,-1.474156,1.472622,0.4358,0.5584,0.0954,0.000000,0.578311,-0.562971,0.564505,-0.592117,0.575243,-0.559903
1.2909,0.016755,0.000000,-1.497797,1.497797,0.0000,0.0000,0.0000,-0.002374,-1.483359,1.481825,0.4252,0.5083,0.1485,0.000000,0.578311,-0.562971,0.564505,-0.590583,0.575243,-0.559903
1.3076,0.016748,0.000000,-1.503643,1.503643,0.0000,0.0000,0.0000,-0.002374,-1.483359,1.481825,0.4252,0.5083,0.1485,0.000000,0.578311,-0.562971,0.564505,-0.590583,0.575243,-0.559903
1.3244,0.016745,0.000000,-1.509488,1.509488,0.0000,0.0000,0.0000,-0.002361,-1.489495,1.483359,0.4370,0.5643,0.0892,0.000000,0.578311,-0.562971,0.564505,-0.592117,0.575243,-0.559903
1.3411,0.016750,0.000000,-1.515335,1.515335,0.0000,0.0000,0.0000,-0.002374,-1.491029,1.483359,0.4250,0.5077,0.1491,0.000000,0.578311,-0.562971,0.564505,-0.590583,0.575243,-0.559903
1.3579,0.016754,0.000000,-1.521183,1.521183,0.0000,0.0000,0.0000,-0.002348,-1.500233,1.494097,0.3875,0.5467,0.0356,0.000000,0.578311,-0.562971,0.564505,-0.592117,0.575243,-0.561437
1.3748,0.016953,0.000000,-1.527101,1.527101,0.0000,0.0000,0.0000,-0.002375,-1.518641,1.515573,0.4302,0.5095,0.1547,0.000000,0.578311,-0.562971,0.564505,-0.590583,0.575243,-0.559903
1.3916,0.016753,0.000000,-1.532949,1.532949,0.0000,0.0000,0.0000,-0.002375,-1.518641,1.515573,0.4302,0.5095,0.1547,0.000000,0.578311,-0.562971,0.564505,-0.590583,0.575243,-0.559903
1.4083,0.016757,0.000000,-1.538798,1.538798,0.0000,0.0000,0.0000,-0.002349,-1.524777,1.517107,0.4863,0.5486,0.1424,0.000000,0.579845,-0.562971,0.564505,-0.592117,0.575243,-0.559903
1.4251,0.016745,0.000000,-1.544643,1.544643,0.0000,0.0000,0.0000,-0.002339,-1.524777,1.526311,0.4309,0.5268,0.0902,0.000000,0.579845,-0.562971,0.564505,-0.592117,0.575243,-0.561437
1.4440,0.018970,0.000000,-1.551265,1.551265,0.0000,0.0000,0.0000,-0.002376,-1.535515,1.533981,0.4257,0.5115,0.1490,0.000000,0.578311,-0.562971,0.564505,-0.590583,0.575243,-0.559903
1.4608,0.016736,0.000000,-1.557107,1.557107,0.0000,0.0000,0.0000,-0.002348,-1.547787,1.535515,0.3874,0.5463,0.0356,0.000000,0.578311,-0.562971,0.564505,-0.592117,0.575243,-0.561437
1.4775,0.016749,0.000000,-1.562954,1.562954,0.0000,0.0000,0.0000,-0.002352,-1.552389,1.544719,0.4907,0.5447,0.1548,0.000000,0.579845,-0.562971,0.564505,-0.592117,0.575243,-0.559903
1.4944,0.016892,0.000000,-1.568850,1.568850,0.0000,0.0000,0.0000,-0.002350,-1.556990,1.561592,0.3806,0.5428,0.0351,0.000000,0.578311,-0.562971,0.564505,-0.592117,0.575243,-0.561437
1.5112,0.016758,0.000000,-1.574700,1.574700,0.0000,0.0000,0.0000,-0.002350,-1.556990,1.561592,0.3806,0.5428,0.0351,0.000000,0.578311,-0.562971,0.564505,-0.592117,0.575243,-0.561437
1.5279,0.016744,0.000000,-1.580545,1.580545,0.0000,0.0000,0.0000,-0.002351,-1.556990,1.561592,0.3921,0.5430,0.0475,0.000000,0.578311,-0.562971,0.564505,-0.592117,0.575243,-0.561437
1.5447,0.016751,0.000000,-1.586392,1.586392,0.0000,0.0000,0.0000,-0.002352,-1.570796,1.563126,0.4903,0.5450,0.1535,0.000000,0.579845,-0.562971,0.564505,-0.592117,0.575243,-0.559903
1.5614,0.016742,0.000000,-1.592236,1.592236,0.0000,0.0000,0.0000,-0.002376,-1.575398,1.570796,0.3910,0.5960,0.1418,0.000000,0.578311,-0.561437,0.564505,-0.592117,0.575243,-0.559903
1.5782,0.016754,0.000000,-1.598084,1.598084,0.0000,0.0000,0.0000,-0.002372,-1.586136,1.589204,0.3411,0.5222,0.1433,0.000000,0.578311,-0.561437,0.564505,-0.590583,0.575243,-0.561437
1.5949,0.016741,0.000000,-1.603928,1.603928,0.0000,0.0000,0.0000,-0.002350,-1.593806,1.593806,0.4956,0.5472,0.1436,0.000000,0.579845,-0.562971,0.564505,-0.592117,0.575243,-0.559903
1.6117,0.016754,0.000000,-1.609776,1.609776,0.0000,0.0000,0.0000,-0.002350,-1.593806,1.593806,0.4956,0.5472,0.1436,0.000000,0.579845,-0.562971,0.564505,-0.592117,0.575243,-0.559903
1.6284,0.016745,0.000000,-1.615621,1.615621,0.0000,0.0000,0.0000,-0.002352,-1.596874,1.593806,0.4795,0.5446,0.1435,0.000000,0.579845,-0.562971,0.564505,-0.592117,0.575243,-0.559903
1.6452,0.016749,0.000000,-1.621468,1.621468,0.0000,0.0000,0.0000,-0.002364,-1.601476,1.599942,0.4313,0.5604,0.0897,0.000000,0.578311,-0.562971,0.564505,-0.592117,0.575243,-0.559903
1.6619,0.016745,0.000000,-1.627313,1.627313,0.0000,0.0000,0.0000,-0.002351,-1.612214,1.613748,0.4862,0.5432,0.1492,0.000000,0.579845,-0.562971,0.564505,-0.592117,0.575243,-0.559903
1.6787,0.016747,0.000000,-1.633159,1.633159,0.0000,0.0000,0.0000,-0.002364,-1.624486,1.624486,0.4306,0.5606,0.0891,0.000000,0.578311,-0.562971,0.564505,-0.592117,0.575243,-0.559903
1.6956,0.016946,0.000000,-1.639074,1.639074,0.0000,0.0000,0.0000,-0.002362,-1.629088,1.624486,0.3477,0.5767,0.0950,0.000000,0.578311,-0.561437,0.564505,-0.592117,0.575243,-0.561437
1.7124,0.016756,0.000000,-1.644923,1.644923,0.0000,0.0000,0.0000,-0.002362,-1.629088,1.624486,0.3477,0.5767,0.0950,0.000000,0.578311,-0.561437,0.564505,-0.592117,0.575243,-0.561437
1.7291,0.016746,0.000000,-1.650769,1.650769,0.0000,0.0000,0.0000,-0.002351,-1.627554,1.624486,0.4949,0.5415,0.1486,0.000000,0.579845,-0.562971,0.564505,-0.592117,0.575243,-0.559903
1.7458,0.016725,0.000000,-1.656607,1.656607,0.0000,0.0000,0.0000,-0.002352,-1.633690,1.636758,0.4795,0.5452,0.1430,0.000000,0.579845,-0.562971,0.564505,-0.592117,0.575243,-0.559903
1.7626,0.016764,0.000000,-1.662459,1.662459,0.0000,0.0000,0.0000,-0.002365,-1.649029,1.647495,0.4419,0.5804,0.1968,0.000000,0.579845,-0.561437,0.564505,-0.592117,0.575243,-0.559903
1.7794,0.016778,0.000000,-1.668315,1.668315,0.0000,0.0000,0.0000,-0.002351,-1.658233,1.655165,0.4851,0.5412,0.1380,0.000000,0.579845,-0.562971,0.564505,-0.592117,0.575243,-0.559903
1.7961,0.016756,0.000000,-1.674164,1.674164,0.0000,0.0000,0.0000,-0.002352,-1.659767,1.659767,0.4806,0.5453,0.1441,0.000000,0.579845,-0.562971,0.564505,-0.592117,0.575243,-0.559903
1.8129,0.016743,0.000000,-1.680009,1.680009,0.0000,0.0000,0.0000,-0.002352,-1.659767,1.659767,0.4806,0.5453,0.1441,0.000000,0.579845,-0.562971,0.564505,-0.592117,0.575243,-0.559903
1.8296,0.016748,0.000000,-1.685855,1.685855,0.0000,0.0000,0.0000,-0.002350,-1.664369,1.665903,0.4207,0.4764,0.1437,0.000000,0.579845,-0.562971,0.564505,-0.590583,0.575243,-0.561437
1.8464,0.016747,0.000000,-1.691701,1.691701,0.0000,0.0000,0.0000,-0.002364,-1.679709,1.672039,0.4375,0.5676,0.0897,0.000000,0.578311,-0.562971,0.564505,-0.592117,0.575243,-0.559903
1.8631,0.016753,0.000000,-1.697549,1.697549,0.0000,0.0000,0.0000,-0.002351,-1.684311,1.675107,0.4855,0.5425,0.1492,0.000000,0.579845,-0.562971,0.564505,-0.592117,0.575243,-0.559903
1.8799,0.016771,0.000000,-1.703403,1.703403,0.0000,0.0000,0.0000,-0.002364,-1.690447,1.682777,0.4307,0.5607,0.0891,0.000000,0.578311,-0.562971,0.564505,-0.592117,0.575243,-0.559903
1.8966,0.016753,0.000000,-1.709251,1.709251,0.0000,0.0000,0.0000,-0.002364,-1.690447,1.682777,0.4307,0.5607,0.0891,0.000000,0.578311,-0.562971,0.564505,-0.592117,0.575243,-0.559903
1.9134,0.016772,0.000000,-1.715105,1.715105,0.0000,0.0000,0.0000,-0.002351,-1.698117,1.696583,0.4862,0.5432,0.1492,0.000000,0.579845,-0.562971,0.564505,-0.592117,0.575243,-0.559903
1.9302,0.016761,0.000000,-1.720956,1.720956,0.0000,0.0000,0.0000,-0.002352,-1.702719,1.699651,0.4804,0.5451,0.1429,0.000000,0.579845,-0.562971,0.564505,-0.592117,0.575243,-0.559903
1.9470,0.016830,0.000000,-1.726831,1.726831,0.0000,0.0000,0.0000,-0.002352,-1.708855,1.702719,0.4804,0.5451,0.1429,0.000000,0.579845,-0.562971,0.564505,-0.592117,0.575243,-0.559903
1.9637,0.016742,0.000000,-1.732675,1.732675,0.0000,0.0000,0.0000,-0.002339,-1.722660,1.714991,0.4315,0.5272,0.0901,0.000000,0.579845,-0.562971,0.564505,-0.592117,0.575243,-0.561437
1.9805,0.016763,0.000000,-1.738526,1.738526,0.0000,0.0000,0.0000,-0.002353,-1.728796,1.724194,0.4861,0.5467,0.1491,0.000000,0.579845,-0.562971,0.564505,-0.592117,0.575243,-0.559903
1.9973,0.016747,0.000000,-1.744372,1.744372,0.0000,0.0000,0.0000,-0.002353,-1.728796,1.724194,0.4861,0.5467,0.1491,0.000000,0.579845,-0.562971,0.564505,-0.592117,0.575243,-0.559903
2.0141,0.016813,0.000000,-1.740418,1.740418,0.0000,0.0000,0.0000,-0.002363,-1.730330,1.724194,0.4307,0.5602,0.0891,0.000000,0.578311,-0.562971,0.564505,-0.592117,0.575243,-0.559903
2.0308,0.016742,0.000000,-1.734574,1.734574,0.0000,0.0000,0.0000,-0.002338,-1.739534,1.730330,0.4367,0.5256,0.0957,0.000000,0.579845,-0.562971,0.564505,-0.592117,0.575243,-0.561437
2.0476,0.016765,0.000000,-1.728722,1.728722,0.0000,0.0000,0.0000,-0.002365,-1.744136,1.739534,0.4358,0.5624,0.0947,0.000000,0.578311,-0.562971,0.564505,-0.592117,0.575243,-0.559903
2.0643,0.016739,0.000000,-1.722879,1.722879,0.0000,0.0000,0.0000,-0.002362,-1.744136,1.747204,0.4750,0.4923,0.2023,0.000000,0.579845,-0.562971,0.564505,-0.590583,0.575243,-0.559903
2.0811,0.016771,0.000000,-1.717025,1.717025,0.0000,0.0000,0.0000,-0.002362,-1.739534,1.745670,0.4750,0.4923,0.2023,0.000000,0.578311,-0.561437,0.564505,-0.592117,0.575243,-0.561437
2.0978,0.016740,0.000000,-1.711181,1.711181,0.0000,0.0000,0.0000,-0.002362,-1.739534,1.745670,0.3431,0.5838,0.0832,0.000000,0.578311,-0.561437,0.564505,-0.592117,0.575243,-0.561437
2.1146,0.016749,0.000000,-1.705335,1.705335,0.0000,0.0000,0.0000,-0.002362,-1.739534,1.745670,0.4455,0.5564,0.0960,0.000000,0.578311,-0.562971,0.564505,-0.592117,0.575243,-0.559903
2.1313,0.016739,0.000000,-1.699492,1.699492,0.0000,0.0000,0.0000,-0.002349,-1.738000,1.745670,0.3853,0.5416,0.0412,0.000000,0.578311,-0.562971,0.564505,-0.592117,0.575243,-0.561437
2.1481,0.016760,0.000000,-1.693642,1.693642,0.0000,0.0000,0.0000,-0.002365,-1.738000,1.745670,0.4518,0.5807,0.2074,0.000000,0.579845,-0.561437,0.564505,-0.592117,0.575243,-0.559903
2.1648,0.016693,0.000000,-1.687814,1.687814,0.0000,0.0000,0.0000,-0.002362,-1.736466,1.742602,0.4343,0.5567,0.0831,0.000000,0.578311,-0.562971,0.564505,-0.592117,0.575243,-0.559903
2.1815,0.016765,0.000000,-1.681962,1.681962,0.0000,0.0000,0.0000,-0.002362,-1.736466,1.742602,0.4343,0.5567,0.0831,0.000000,0.578311,-0.562971,0.564505,-0.592117,0.575243,-0.559903
2.1983,0.016739,0.000000,-1.676119,1.676119,0.0000,0.0000,0.0000,-0.002338,-1.733398,1.739534,0.4364,0.5260,0.0963,0.000000,0.579845,-0.562971,0.564505,-0.592117,0.575243,-0.561437
2.2150,0.016750,0.000000,-1.670272,1.670272,0.0000,0.0000,0.0000,-0.002365,-1.728796,1.734932,0.4358,0.5624,0.0946,0.000000,0.578311,-0.562971,0.564505,-0.592117,0.575243,-0.559903
2.2318,0.016744,0.000000,-1.664428,1.664428,0.0000,0.0000,0.0000,-0.002375,-1.721126,1.727262,0.3967,0.5942,0.1480,0.000000,0.578311,-0.561437,0.564505,-0.592117,0.575243,-0.559903
2.2485,0.016760,0.000000,-1.658577,1.658577,0.0000,0.0000,0.0000,-0.002361,-1.710389,1.713457,0.4790,0.4889,0.1968,0.000000,0.579845,-0.562971,0.564505,-0.590583,0.575243,-0.559903
2.2653,0.016745,0.000000,-1.652732,1.652732,0.0000,0.0000,0.0000,-0.002351,-1.701185,1.702719,0.4812,0.5507,0.1380,0.000000,0.579845,-0.562971,0.564505,-0.592117,0.575243,-0.559903
2.2820,0.016766,0.000000,-1.646880,1.646880,0.0000,0.0000,0.0000,-0.002351,-1.701185,1.702719,0.4812,0.5507,0.1380,0.000000,0.579845,-0.562971,0.564505,-0.592117,0.575243,-0.559903
2.2988,0.016742,0.000000,-1.641036,1.641036,0.0000,0.0000,0.0000,-0.002339,-1.690447,1.690447,0.4314,0.5266,0.0906,0.000000,0.579845,-0.562971,0.564505,-0.592117,0.575243,-0.561437
2.3155,0.016748,0.000000,-1.635190,1.635190,0.0000,0.0000,0.0000,-0.002365,-1.682777,1.684311,0.4363,0.5623,0.0952,0.000000,0.578311,-0.562971,0.564505,-0.592117,0.575243,-0.559903
2.3323,0.016743,0.000000,-1.629346,1.629346,0.0000,0.0000,0.0000,-0.002351,-1.675107,1.678175,0.4857,0.5431,0.1486,0.000000,0.579845,-0.562971,0.564505,-0.592117,0.575243,-0.559903
2.3490,0.016759,0.000000,-1.623496,1.623496,0.0000,0.0000,0.0000,-0.002365,-1.667437,1.672039,0.4413,0.5806,0.1962,0.000000,0.579845,-0.561437,0.564505,-0.592117,0.575243,-0.559903
2.3658,0.016749,0.000000,-1.617650,1.617650,0.0000,0.0000,0.0000,-0.002351,-1.664369,1.662835,0.4852,0.5412,0.1380,0.000000,0.579845,-0.562971,0.564505,-0.592117,0.575243,-0.559903
2.3825,0.016766,0.000000,-1.611797,1.611797,0.0000,0.0000,0.0000,-0.002351,-1.664369,1.662835,0.4852,0.5412,0.1380,0.000000,0.579845,-0.562971,0.564505,-0.592117,0.575243,-0.559903
2.3993,0.016750,0.000000,-1.605950,1.605950,0.0000,0.0000,0.0000,-0.002352,-1.658233,1.659767,0.4806,0.5453,0.1441,0.000000,0.579845,-0.562971,0.564505,-0.592117,0.575243,-0.559903
2.4160,0.016751,0.000000,-1.600103,1.600103,0.0000,0.0000,0.0000,-0.002350,-1.650563,1.659767,0.3817,0.5427,0.0362,0.000000,0.578311,-0.562971,0.564505,-0.592117,0.575243,-0.561437
2.4328,0.016745,0.000000,-1.594258,1.594258,0.0000,0.0000,0.0000,-0.002377,-1.644427,1.659767,0.4023,0.5962,0.1541,0.000000,0.578311,-0.561437,0.564505,-0.592117,0.575243,-0.559903
2.4496,0.016765,0.000000,-1.588406,1.588406,0.0000,0.0000,0.0000,-0.002361,-1.639825,1.653631,0.4394,0.5551,0.0886,0.000000,0.578311,-0.562971,0.564505,-0.592117,0.575243,-0.559903
2.4664,0.016800,0.000000,-1.582542,1.582542,0.0000,0.0000,0.0000,-0.002364,-1.633690,1.644427,0.4462,0.5794,0.2024,0.000000,0.579845,-0.561437,0.564505,-0.592117,0.575243,-0.559903
2.4831,0.016758,0.000000,-1.576692,1.576692,0.0000,0.0000,0.0000,-0.002364,-1.633690,1.644427,0.4462,0.5794,0.2024,0.000000,0.579845,-0.561437,0.564505,-0.592117,0.575243,-0.559903
2.4999,0.016750,0.000000,-1.570845,1.570845,0.0000,0.0000,0.0000,-0.002362,-1.627554,1.632156,0.4349,0.5568,0.0836,0.000000,0.578311,-0.562971,0.564505,-0.592117,0.575243,-0.559903
2.5166,0.016748,0.000000,-1.564999,1.564999,0.0000,0.0000,0.0000,-0.002338,-1.619884,1.621418,0.4363,0.5260,0.0963,0.000000,0.579845,-0.562971,0.564505,-0.592117,0.575243,-0.561437
2.5334,0.016746,0.000000,-1.559154,1.559154,0.0000,0.0000,0.0000,-0.002365,-1.613748,1.612214,0.4358,0.5624,0.0946,0.000000,0.578311,-0.562971,0.564505,-0.592117,0.575243,-0.559903
2.5501,0.016755,0.000000,-1.553305,1.553305,0.0000,0.0000,0.0000,-0.002362,-1.609146,1.604544,0.4359,0.5586,0.0948,0.000000,0.578311,-0.562971,0.564505,-0.592117,0.575243,-0.559903
2.5669,0.016753,0.000000,-1.547458,1.547458,0.0000,0.0000,0.0000,-0.002375,-1.601476,1.598408,0.3967,0.5945,0.1480,0.000000,0.578311,-0.561437,0.564505,-0.592117,0.575243,-0.559903
2.5836,0.016753,0.000000,-1.541610,1.541610,0.0000,0.0000,0.0000,-0.002375,-1.601476,1.598408,0.3967,0.5945,0.1480,0.000000,0.578311,-0.561437,0.564505,-0.592117,0.575243,-0.559903
2.6004,0.016748,0.000000,-1.535764,1.535764,0.0000,0.0000,0.0000,-0.002361,-1.593806,1.592272,0.4400,0.5553,0.0892,0.000000,0.578311,-0.562971,0.564505,-0.592117,0.575243,-0.559903
2.6171,0.016753,0.000000,-1.529916,1.529916,0.0000,0.0000,0.0000,-0.002362,-1.584602,1.586136,0.3468,0.5772,0.0950,0.000000,0.578311,-0.561437,0.564505,-0.592117,0.575243,-0.561437
2.6339,0.016743,0.000000,-1.524071,1.524071,0.0000,0.0000,0.0000,-0.002362,-1.576932,1.581534,0.4452,0.5571,0.0948,0.000000,0.578311,-0.562971,0.564505,-0.592117,0.575243,-0.559903
2.6506,0.016753,0.000000,-1.518223,1.518223,0.0000,0.0000,0.0000,-0.002351,-1.567728,1.576932,0.4847,0.5436,0.1486,0.000000,0.579845,-0.562971,0.564505,-0.592117,0.575243,-0.559903
2.6674,0.016824,0.000000,-1.512351,1.512351,0.0000,0.0000,0.0000,-0.002351,-1.558524,1.573864,0.3813,0.5429,0.0357,0.000000,0.578311,-0.562971,0.564505,-0.592117,0.575243,-0.561437
2.6842,0.016756,0.000000,-1.506502,1.506502,0.0000,0.0000,0.0000,-0.002351,-1.558524,1.573864,0.3813,0.5429,0.0357,0.000000,0.578311,-0.562971,0.564505,-0.592117,0.575243,-0.561437
2.7009,0.016751,0.000000,-1.500655,1.500655,0.0000,0.0000,0.0000,-0.002363,-1.552389,1.564660,0.3529,0.5785,0.1006,0.000000,0.578311,-0.561437,0.564505,-0.592117,0.575243,-0.561437
2.7177,0.016719,0.000000,-1.494819,1.494819,0.0000,0.0000,0.0000,-0.002362,-1.544719,1.553923,0.4445,0.5569,0.0942,0.000000,0.578311,-0.562971,0.564505,-0.592117,0.575243,-0.559903
2.7344,0.016741,0.000000,-1.488975,1.488975,0.0000,0.0000,0.0000,-0.002338,-1.538583,1.544719,0.4353,0.5260,0.0952,0.000000,0.579845,-0.562971,0.564505,-0.592117,0.575243,-0.561437
2.7511,0.016745,0.000000,-1.483130,1.483130,0.0000,0.0000,0.0000,-0.002353,-1.533981,1.535515,0.4857,0.5468,0.1486,0.000000,0.579845,-0.562971,0.564505,-0.592117,0.575243,-0.559903
2.7680,0.016889,0.000000,-1.477234,1.477234,0.0000,0.0000,0.0000,-0.002352,-1.529379,1.527845,0.4805,0.5447,0.1430,0.000000,0.579845,-0.562971,0.564505,-0.592117,0.575243,-0.559903
2.7848,0.016737,0.000000,-1.471392,1.471392,0.0000,0.0000,0.0000,-0.002352,-1.529379,1.527845,0.4805,0.5447,0.1430,0.000000,0.579845,-0.562971,0.564505,-0.592117,0.575243,-0.559903
2.8015,0.016745,0.000000,-1.465547,1.465547,0.0000,0.0000,0.0000,-0.002352,-1.518641,1.518641,0.4805,0.5447,0.1430,0.000000,0.579845,-0.562971,0.564505,-0.592117,0.575243,-0.559903
2.8183,0.016741,0.000000,-1.459703,1.459703,0.0000,0.0000,0.0000,-0.002375,-1.510971,1.512505,0.4205,0.5097,0.1435,0.000000,0.578311,-0.562971,0.564505,-0.590583,0.575243,-0.559903
2.8350,0.016745,0.000000,-1.453858,1.453858,0.0000,0.0000,0.0000,-0.002361,-1.504835,1.506369,0.4375,0.5641,0.0897,0.000000,0.578311,-0.562971,0.564505,-0.592117,0.575243,-0.559903
2.8518,0.016750,0.000000,-1.448011,1.448011,0.0000,0.0000,0.0000,-0.002363,-1.498699,1.500233,0.4357,0.5584,0.0953,0.000000,0.578311,-0.562971,0.564505,-0.592117,0.575243,-0.559903
2.8685,0.016774,0.000000,-1.442156,1.442156,0.0000,0.0000,0.0000,-0.002351,-1.489495,1.494097,0.4857,0.5435,0.1486,0.000000,0.579845,-0.562971,0.564505,-0.592117,0.575243,-0.559903
2.8853,0.016753,0.000000,-1.436308,1.436308,0.0000,0.0000,0.0000,-0.002351,-1.489495,1.494097,0.4857,0.5435,0.1486,0.000000,0.579845,-0.562971,0.564505,-0.592117,0.575243,-0.559903
2.9020,0.016742,0.000000,-1.430464,1.430464,0.0000,0.0000,0.0000,-0.002377,-1.480291,1.486427,0.3915,0.5961,0.1424,0.000000,0.578311,-0.561437,0.564505,-0.592117,0.575243,-0.559903
2.9188,0.016742,0.000000,-1.424619,1.424619,0.0000,0.0000,0.0000,-0.002361,-1.477223,1.477223,0.4405,0.5551,0.0898,0.000000,0.578311,-0.562971,0.564505,-0.592117,0.575243,-0.559903
2.9355,0.016751,0.000000,-1.418772,1.418772,0.0000,0.0000,0.0000,-0.002338,-1.472622,1.469554,0.4357,0.5262,0.0956,0.000000,0.579845,-0.562971,0.564505,-0.592117,0.575243,-0.561437
2.9526,0.017061,0.000000,-1.412817,1.412817,0.0000,0.0000,0.0000,-0.002365,-1.464952,1.461884,0.4749,0.4960,0.2022,0.000000,0.579845,-0.562971,0.564505,-0.590583,0.575243,-0.559903
2.9693,0.016760,0.000000,-1.406966,1.406966,0.0000,0.0000,0.0000,-0.002365,-1.464952,1.461884,0.4749,0.4960,0.2022,0.000000,0.579845,-0.562971,0.564505,-0.590583,0.575243,-0.559903
2.9861,0.016746,0.000000,-1.401121,1.401121,0.0000,0.0000,0.0000,-0.002387,-1.455748,1.452680,0.3819,0.5503,0.1905,0.000000,0.578311,-0.561437,0.564505,-0.590583,0.575243,-0.559903
3.0028,0.016744,0.000000,-1.397251,1.397251,0.0000,0.0000,0.0000,-0.002360,-1.449612,1.446544,0.4806,0.4935,0.1923,0.000000,0.579845,-0.562971,0.564505,-0.590583,0.575243,-0.559903
3.0197,0.016862,0.000000,-1.403137,1.403137,0.0000,0.0000,0.0000,-0.002364,-1.445010,1.441942,0.4418,0.5858,0.1916,0.000000,0.579845,-0.561437,0.564505,-0.592117,0.575243,-0.559903
3.0368,0.017115,0.000000,-1.409111,1.409111,0.0000,0.0000,0.0000,-0.002364,-1.437340,1.440408,0.4459,0.5762,0.1917,0.000000,0.579845,-0.561437,0.564505,-0.592117,0.575243,-0.559903
3.0536,0.016792,0.000000,-1.414972,1.414972,0.0000,0.0000,0.0000,-0.002362,-1.429670,1.434272,0.4349,0.5572,0.0847,0.000000,0.578311,-0.562971,0.564505,-0.592117,0.575243,-0.559903
3.0703,0.016748,0.000000,-1.420819,1.420819,0.0000,0.0000,0.0000,-0.002362,-1.429670,1.434272,0.4349,0.5572,0.0847,0.000000,0.578311,-0.562971,0.564505,-0.592117,0.575243,-0.559903
3.0871,0.016748,0.000000,-1.426665,1.426665,0.0000,0.0000,0.0000,-0.002362,-1.425068,1.428136,0.4360,0.5592,0.0958,0.000000,0.578311,-0.562971,0.564505,-0.592117,0.575243,-0.559903
3.1038,0.016753,0.000000,-1.432513,1.432513,0.0000,0.0000,0.0000,-0.002351,-1.425068,1.423534,0.4857,0.5434,0.1485,0.000000,0.579845,-0.562971,0.564505,-0.592117,0.575243,-0.559903
3.1206,0.016752,0.000000,-1.438360,1.438360,0.0000,0.0000,0.0000,-0.002352,-1.425068,1.423534,0.4805,0.5450,0.1430,0.000000,0.579845,-0.562971,0.564505,-0.592117,0.575243,-0.559903
3.1374,0.016752,0.000000,-1.444208,1.444208,0.0000,0.0000,0.0000,-0.002352,-1.426602,1.426602,0.4805,0.5450,0.1430,0.000000,0.579845,-0.562971,0.564505,-0.592117,0.575243,-0.559903
3.1548,0.017410,0.000000,-1.450285,1.450285,0.0000,0.0000,0.0000,-0.002352,-1.435806,1.431204,0.4805,0.5450,0.1430,0.000000,0.579845,-0.562971,0.564505,-0.592117,0.575243,-0.559903
3.1715,0.016748,0.000000,-1.456131,1.456131,0.0000,0.0000,0.0000,-0.002352,-1.435806,1.431204,0.4805,0.5450,0.1430,0.000000,0.579845,-0.562971,0.564505,-0.592117,0.575243,-0.559903
3.1883,0.016744,0.000000,-1.461976,1.461976,0.0000,0.0000,0.0000,-0.002364,-1.440408,1.437340,0.4312,0.5604,0.0898,0.000000,0.578311,-0.562971,0.564505,-0.592117,0.575243,-0.559903
3.2050,0.016753,0.000000,-1.467824,1.467824,0.0000,0.0000,0.0000,-0.002351,-1.443476,1.441942,0.4862,0.5432,0.1491,0.000000,0.579845,-0.562971,0.564505,-0.592117,0.575243,-0.559903
3.2218,0.016749,0.000000,-1.473670,1.473670,0.0000,0.0000,0.0000,-0.002339,-1.463418,1.455748,0.4309,0.5274,0.0895,0.000000,0.579845,-0.562971,0.564505,-0.592117,0.575243,-0.561437
3.2385,0.016744,0.000000,-1.479515,1.479515,0.0000,0.0000,0.0000,-0.002365,-1.471088,1.466486,0.4364,0.5623,0.0953,0.000000,0.578311,-0.562971,0.564505,-0.592117,0.575243,-0.559903
3.2553,0.016755,0.000000,-1.485364,1.485364,0.0000,0.0000,0.0000,-0.002374,-1.474156,1.474156,0.4251,0.5079,0.1485,0.000000,0.578311,-0.562971,0.564505,-0.590583,0.575243,-0.559903
3.2720,0.016748,0.000000,-1.491210,1.491210,0.0000,0.0000,0.0000,-0.002374,-1.474156,1.474156,0.4251,0.5079,0.1485,0.000000,0.578311,-0.562971,0.564505,-0.590583,0.575243,-0.559903
3.2888,0.016760,0.000000,-1.497060,1.497060,0.0000,0.0000,0.0000,-0.002361,-1.478757,1.477223,0.3483,0.5822,0.0889,0.000000,0.578311,-0.561437,0.564505,-0.592117,0.575243,-0.561437
3.3055,0.016742,0.000000,-1.502904,1.502904,0.0000,0.0000,0.0000,-0.002338,-1.489495,1.481825,0.4453,0.5233,0.0957,0.000000,0.579845,-0.562971,0.564505,-0.592117,0.575243,-0.561437
3.3222,0.016742,0.000000,-1.508748,1.508748,0.0000,0.0000,0.0000,-0.002376,-1.498699,1.492563,0.4242,0.5119,0.1484,0.000000,0.578311,-0.562971,0.564505,-0.590583,0.575243,-0.559903
3.3390,0.016755,0.000000,-1.514597,1.514597,0.0000,0.0000,0.0000,-0.002336,-1.501767,1.504835,0.4374,0.5307,0.0895,0.000000,0.579845,-0.562971,0.564505,-0.592117,0.575243,-0.561437
3.3558,0.016791,0.000000,-1.520458,1.520458,0.0000,0.0000,0.0000,-0.002354,-1.512505,1.507903,0.4855,0.5464,0.1492,0.000000,0.579845,-0.562971,0.564505,-0.592117,0.575243,-0.559903
3.3725,0.016754,0.000000,-1.526307,1.526307,0.0000,0.0000,0.0000,-0.002354,-1.512505,1.507903,0.4855,0.5464,0.1492,0.000000,0.579845,-0.562971,0.564505,-0.592117,0.575243,-0.559903
3.3893,0.016745,0.000000,-1.532152,1.532152,0.0000,0.0000,0.0000,-0.002352,-1.517107,1.507903,0.4805,0.5447,0.1430,0.000000,0.579845,-0.562971,0.564505,-0.592117,0.575243,-0.559903
3.4060,0.016746,0.000000,-1.537997,1.537997,0.0000,0.0000,0.0000,-0.002352,-1.521709,1.515573,0.4805,0.5447,0.1430,0.000000,0.579845,-0.562971,0.564505,-0.592117,0.575243,-0.559903
3.4228,0.016744,0.000000,-1.543842,1.543842,0.0000,0.0000,0.0000,-0.002364,-1.527845,1.529379,0.4312,0.5604,0.0898,0.000000,0.578311,-0.562971,0.564505,-0.592117,0.575243,-0.559903
3.4397,0.016891,0.000000,-1.549738,1.549738,0.0000,0.0000,0.0000,-0.002362,-1.540117,1.538583,0.4364,0.5588,0.0953,0.000000,0.578311,-0.562971,0.564505,-0.592117,0.575243,-0.559903
3.4564,0.016748,0.000000,-1.555584,1.555584,0.0000,0.0000,0.0000,-0.002375,-1.546253,1.540117,0.3967,0.5945,0.1479,0.000000,0.578311,-0.561437,0.564505,-0.592117,0.575243,-0.559903
3.4732,0.016757,0.000000,-1.561434,1.561434,0.0000,0.0000,0.0000,-0.002375,-1.546253,1.540117,0.3967,0.5945,0.1479,0.000000,0.578311,-0.561437,0.564505,-0.592117,0.575243,-0.559903
3.4899,0.016748,0.000000,-1.567280,1.567280,0.0000,0.0000,0.0000,-0.002350,-1.549321,1.546253,0.4898,0.5397,0.1431,0.000000,0.579845,-0.562971,0.564505,-0.592117,0.575243,-0.559903
3.5067,0.016755,0.000000,-1.573128,1.573128,0.0000,0.0000,0.0000,-0.002377,-1.553923,1.556990,0.4301,0.5302,0.2505,0.000000,0.579845,-0.561437,0.564505,-0.590583,0.575243,-0.559903
3.5234,0.016747,0.000000,-1.578974,1.578974,0.0000,0.0000,0.0000,-0.002336,-1.566194,1.561592,0.4368,0.5288,0.0789,0.000000,0.579845,-0.562971,0.564505,-0.592117,0.575243,-0.561437
3.5402,0.016769,0.000000,-1.584828,1.584828,0.0000,0.0000,0.0000,-0.002365,-1.575398,1.569262,0.4358,0.5621,0.0965,0.000000,0.578311,-0.562971,0.564505,-0.592117,0.575243,-0.559903
3.5569,0.016750,0.000000,-1.590675,1.590675,0.0000,0.0000,0.0000,-0.002351,-1.576932,1.580000,0.4857,0.5431,0.1485,0.000000,0.579845,-0.562971,0.564505,-0.592117,0.575243,-0.559903
3.5737,0.016753,0.000000,-1.596522,1.596522,0.0000,0.0000,0.0000,-0.002351,-1.576932,1.580000,0.4857,0.5431,0.1485,0.000000,0.579845,-0.562971,0.564505,-0.592117,0.575243,-0.559903
3.5904,0.016741,0.000000,-1.602366,1.602366,0.0000,0.0000,0.0000,-0.002375,-1.581534,1.584602,0.3312,0.5277,0.1426,0.000000,0.578311,-0.561437,0.564505,-0.590583,0.575243,-0.561437
3.6072,0.016746,0.000000,-1.608211,1.608211,0.0000,0.0000,0.0000,-0.002350,-1.592272,1.586136,0.4966,0.5467,0.1436,0.000000,0.579845,-0.562971,0.564505,-0.592117,0.575243,-0.559903
3.6240,0.016777,0.000000,-1.614068,1.614068,0.0000,0.0000,0.0000,-0.002352,-1.596874,1.592272,0.4794,0.5447,0.1435,0.000000,0.579845,-0.562971,0.564505,-0.592117,0.575243,-0.559903
3.6407,0.016746,0.000000,-1.619913,1.619913,0.0000,0.0000,0.0000,-0.002362,-1.606078,1.604544,0.3711,0.4920,0.0900,0.000000,0.578311,-0.562971,0.564505,-0.590583,0.575243,-0.561437
3.6576,0.016927,0.000000,-1.625822,1.625822,0.0000,0.0000,0.0000,-0.002363,-1.615282,1.615282,0.4426,0.5659,0.0953,0.000000,0.578311,-0.562971,0.564505,-0.592117,0.575243,-0.559903
3.6744,0.016771,0.000000,-1.631676,1.631676,0.0000,0.0000,0.0000,-0.002363,-1.615282,1.615282,0.4426,0.5659,0.0953,0.000000,0.578311,-0.562971,0.564505,-0.592117,0.575243,-0.559903
3.6912,0.016743,0.000000,-1.637520,1.637520,0.0000,0.0000,0.0000,-0.002351,-1.619884,1.616816,0.4850,0.5427,0.1486,0.000000,0.579845,-0.562971,0.564505,-0.592117,0.575243,-0.559903
3.7079,0.016750,0.000000,-1.643367,1.643367,0.0000,0.0000,0.0000,-0.002339,-1.622952,1.621418,0.4311,0.5274,0.0895,0.000000,0.579845,-0.562971,0.564505,-0.592117,0.575243,-0.561437
3.7246,0.016745,0.000000,-1.649212,1.649212,0.0000,0.0000,0.0000,-0.002363,-1.630622,1.632156,0.3761,0.4939,0.0956,0.000000,0.578311,-0.562971,0.564505,-0.590583,0.575243,-0.561437
3.7414,0.016745,0.000000,-1.655057,1.655057,0.0000,0.0000,0.0000,-0.002362,-1.644427,1.642893,0.3534,0.5837,0.0944,0.000000,0.578311,-0.561437,0.564505,-0.592117,0.575243,-0.561437
3.7582,0.016826,0.000000,-1.660931,1.660931,0.0000,0.0000,0.0000,-0.002362,-1.652097,1.645961,0.4445,0.5564,0.0948,0.000000,0.578311,-0.562971,0.564505,-0.592117,0.575243,-0.559903
3.7750,0.016752,0.000000,-1.666779,1.666779,0.0000,0.0000,0.0000,-0.002362,-1.652097,1.645961,0.4445,0.5564,0.0948,0.000000,0.578311,-0.562971,0.564505,-0.592117,0.575243,-0.559903
3.7917,0.016743,0.000000,-1.672623,1.672623,0.0000,0.0000,0.0000,-0.002351,-1.652097,1.652097,0.4848,0.5437,0.1486,0.000000,0.579845,-0.562971,0.564505,-0.592117,0.575243,-0.559903
3.8085,0.016762,0.000000,-1.678474,1.678474,0.0000,0.0000,0.0000,-0.002339,-1.655165,1.661301,0.4311,0.5273,0.0895,0.000000,0.579845,-0.562971,0.564505,-0.592117,0.575243,-0.561437
3.8252,0.016750,0.000000,-1.684321,1.684321,0.0000,0.0000,0.0000,-0.002365,-1.667437,1.665903,0.4754,0.4959,0.2029,0.000000,0.579845,-0.562971,0.564505,-0.590583,0.575243,-0.559903
3.8420,0.016753,0.000000,-1.690168,1.690168,0.0000,0.0000,0.0000,-0.002351,-1.681243,1.673573,0.4816,0.5500,0.1374,0.000000,0.579845,-0.562971,0.564505,-0.592117,0.575243,-0.559903
3.8589,0.016923,0.000000,-1.696076,1.696076,0.0000,0.0000,0.0000,-0.002352,-1.687379,1.682777,0.4809,0.5444,0.1442,0.000000,0.579845,-0.562971,0.564505,-0.592117,0.575243,-0.559903
3.8757,0.016754,0.000000,-1.701924,1.701924,0.0000,0.0000,0.0000,-0.002352,-1.687379,1.682777,0.4809,0.5444,0.1442,0.000000,0.579845,-0.562971,0.564505,-0.592117,0.575243,-0.559903
3.8924,0.016744,0.000000,-1.707769,1.707769,0.0000,0.0000,0.0000,-0.002376,-1.687379,1.688913,0.3920,0.5960,0.1428,0.000000,0.578311,-0.561437,0.564505,-0.592117,0.575243,-0.559903
3.9092,0.016755,0.000000,-1.713617,1.713617,0.0000,0.0000,0.0000,-0.002362,-1.698117,1.690447,0.4511,0.5751,0.1968,0.000000,0.579845,-0.561437,0.564505,-0.592117,0.575243,-0.559903
3.9259,0.016749,0.000000,-1.719464,1.719464,0.0000,0.0000,0.0000,-0.002362,-1.704253,1.698117,0.4343,0.5573,0.0842,0.000000,0.578311,-0.562971,0.564505,-0.592117,0.575243,-0.559903
3.9427,0.016750,0.000000,-1.725311,1.725311,0.0000,0.0000,0.0000,-0.002351,-1.705787,1.705787,0.3972,0.5615,0.1494,0.000000,0.579845,-0.561437,0.564505,-0.592117,0.575243,-0.561437
3.9595,0.016847,0.000000,-1.731192,1.731192,0.0000,0.0000,0.0000,-0.002362,-1.716525,1.718058,0.3797,0.4903,0.0894,0.000000,0.578311,-0.562971,0.564505,-0.590583,0.575243,-0.561437
3.9763,0.016755,0.000000,-1.737040,1.737040,0.0000,0.0000,0.0000,-0.002362,-1.716525,1.718058,0.3797,0.4903,0.0894,0.000000,0.578311,-0.562971,0.564505,-0.590583,0.575243,-0.561437
3.9930,0.016747,0.000000,-1.742886,1.742886,0.0000,0.0000,0.0000,-0.002362,-1.728796,1.722660,0.4417,0.5661,0.0954,0.000000,0.578311,-0.562971,0.564505,-0.592117,0.575243,-0.559903
4.0098,0.016754,0.000000,-1.741924,1.741924,0.0000,0.0000,0.0000,-0.002362,-1.730330,1.724194,0.4353,0.5582,0.0947,0.000000,0.578311,-0.562971,0.564505,-0.592117,0.575243,-0.559903
4.0267,0.016899,0.000000,-1.736025,1.736025,0.0000,0.0000,0.0000,-0.002351,-1.736466,1.730330,0.4858,0.5435,0.1486,0.000000,0.579845,-0.562971,0.564505,-0.592117,0.575243,-0.559903
4.0434,0.016753,0.000000,-1.730177,1.730177,0.0000,0.0000,0.0000,-0.002377,-1.750272,1.745670,0.3915,0.5961,0.1423,0.000000,0.578311,-0.561437,0.564505,-0.592117,0.575243,-0.559903
4.0602,0.016754,0.000000,-1.724329,1.724329,0.0000,0.0000,0.0000,-0.002349,-1.751806,1.747204,0.4903,0.5395,0.1437,0.000000,0.579845,-0.562971,0.564505,-0.592117,0.575243,-0.559903
4.0769,0.016753,0.000000,-1.718482,1.718482,0.0000,0.0000,0.0000,-0.002349,-1.751806,1.747204,0.4903,0.5395,0.1437,0.000000,0.579845,-0.562971,0.564505,-0.592117,0.575243,-0.559903
4.0937,0.016748,0.000000,-1.712635,1.712635,0.0000,0.0000,0.0000,-0.002351,-1.750272,1.745670,0.4197,0.4770,0.1438,0.000000,0.579845,-0.562971,0.564505,-0.590583,0.575243,-0.561437
4.1104,0.016754,0.000000,-1.706787,1.706787,0.0000,0.0000,0.0000,-0.002339,-1.748738,1.745670,0.4379,0.5343,0.0900,0.000000,0.579845,-0.562971,0.564505,-0.592117,0.575243,-0.561437
4.1272,0.016748,0.000000,-1.700941,1.700941,0.0000,0.0000,0.0000,-0.002353,-1.748738,1.744136,0.4855,0.5460,0.1491,0.000000,0.579845,-0.562971,0.564505,-0.592117,0.575243,-0.559903
4.1439,0.016752,0.000000,-1.695093,1.695093,0.0000,0.0000,0.0000,-0.002363,-1.747204,1.742602,0.4307,0.5603,0.0891,0.000000,0.578311,-0.562971,0.564505,-0.592117,0.575243,-0.559903
4.1608,0.016920,0.000000,-1.689187,1.689187,0.0000,0.0000,0.0000,-0.002375,-1.744136,1.741068,0.4363,0.5280,0.2561,0.000000,0.579845,-0.561437,0.564505,-0.590583,0.575243,-0.559903
4.1776,0.016753,0.000000,-1.683339,1.683339,0.0000,0.0000,0.0000,-0.002375,-1.744136,1.741068,0.4363,0.5280,0.2561,0.000000,0.579845,-0.561437,0.564505,-0.590583,0.575243,-0.559903
4.1943,0.016747,0.000000,-1.677494,1.677494,0.0000,0.0000,0.0000,-0.002360,-1.734932,1.739534,0.3756,0.4937,0.0782,0.000000,0.578311,-0.562971,0.564505,-0.590583,0.575243,-0.561437
4.2111,0.016748,0.000000,-1.671648,1.671648,0.0000,0.0000,0.0000,-0.002363,-1.724194,1.738000,0.4422,0.5658,0.0965,0.000000,0.578311,-0.562971,0.564505,-0.592117,0.575243,-0.559903
4.2278,0.016747,0.000000,-1.665802,1.665802,0.0000,0.0000,0.0000,-0.002364,-1.713457,1.730330,0.4459,0.5783,0.2016,0.000000,0.579845,-0.561437,0.564505,-0.592117,0.575243,-0.559903
4.2446,0.016748,0.000000,-1.659955,1.659955,0.0000,0.0000,0.0000,-0.002362,-1.705787,1.719592,0.3851,0.5085,0.1909,0.000000,0.579845,-0.561437,0.564505,-0.590583,0.575243,-0.561437
4.2616,0.017042,0.000000,-1.654007,1.654007,0.0000,0.0000,0.0000,-0.002351,-1.696583,1.704253,0.4910,0.5487,0.1386,0.000000,0.579845,-0.562971,0.564505,-0.592117,0.575243,-0.559903
4.2784,0.016757,0.000000,-1.648157,1.648157,0.0000,0.0000,0.0000,-0.002351,-1.696583,1.704253,0.4910,0.5487,0.1386,0.000000,0.579845,-0.562971,0.564505,-0.592117,0.575243,-0.559903
4.2951,0.016743,0.000000,-1.642313,1.642313,0.0000,0.0000,0.0000,-0.002365,-1.691981,1.691981,0.4408,0.5800,0.1972,0.000000,0.579845,-0.561437,0.564505,-0.592117,0.575243,-0.559903
4.3119,0.016749,0.000000,-1.636466,1.636466,0.0000,0.0000,0.0000,-0.002351,-1.684311,1.682777,0.4852,0.5412,0.1379,0.000000,0.579845,-0.562971,0.564505,-0.592117,0.575243,-0.559903
4.3286,0.016748,0.000000,-1.630620,1.630620,0.0000,0.0000,0.0000,-0.002364,-1.678175,1.676641,0.4307,0.5608,0.0903,0.000000,0.578311,-0.562971,0.564505,-0.592117,0.575243,-0.559903
4.3454,0.016750,0.000000,-1.624773,1.624773,0.0000,0.0000,0.0000,-0.002351,-1.672039,1.670505,0.4862,0.5432,0.1491,0.000000,0.579845,-0.562971,0.564505,-0.592117,0.575243,-0.559903
4.3623,0.016890,0.000000,-1.618878,1.618878,0.0000,0.0000,0.0000,-0.002352,-1.664369,1.662835,0.4804,0.5451,0.1430,0.000000,0.579845,-0.562971,0.564505,-0.592117,0.575243,-0.559903
4.3790,0.016757,0.000000,-1.613028,1.613028,0.0000,0.0000,0.0000,-0.002352,-1.664369,1.662835,0.4804,0.5451,0.1430,0.000000,0.579845,-0.562971,0.564505,-0.592117,0.575243,-0.559903
4.3958,0.016743,0.000000,-1.607184,1.607184,0.0000,0.0000,0.0000,-0.002364,-1.659767,1.659767,0.4312,0.5604,0.0898,0.000000,0.578311,-0.562971,0.564505,-0.592117,0.575243,-0.559903
4.4125,0.016747,0.000000,-1.601338,1.601338,0.0000,0.0000,0.0000,-0.002349,-1.652097,1.659767,0.3868,0.5412,0.0418,0.000000,0.578311,-0.562971,0.564505,-0.592117,0.575243,-0.561437
4.4292,0.016745,0.000000,-1.595493,1.595493,0.0000,0.0000,0.0000,-0.002364,-1.645961,1.658233,0.4800,0.4944,0.2078,0.000000,0.579845,-0.562971,0.564505,-0.590583,0.575243,-0.559903
4.4460,0.016753,0.000000,-1.589646,1.589646,0.0000,0.0000,0.0000,-0.002351,-1.639825,1.653631,0.4811,0.5502,0.1368,0.000000,0.579845,-0.562971,0.564505,-0.592117,0.575243,-0.559903
4.4629,0.016873,0.000000,-1.583756,1.583756,0.0000,0.0000,0.0000,-0.002364,-1.633690,1.642893,0.4702,0.4936,0.1979,0.000000,0.579845,-0.562971,0.564505,-0.590583,0.575243,-0.559903
4.4796,0.016766,0.000000,-1.577903,1.577903,0.0000,0.0000,0.0000,-0.002364,-1.633690,1.642893,0.4702,0.4936,0.1979,0.000000,0.579845,-0.562971,0.564505,-0.590583,0.575243,-0.559903
4.4964,0.016742,0.000000,-1.572059,1.572059,0.0000,0.0000,0.0000,-0.002351,-1.627554,1.630622,0.4821,0.5503,0.1379,0.000000,0.579845,-0.562971,0.564505,-0.592117,0.575243,-0.559903
4.5131,0.016747,0.000000,-1.566213,1.566213,0.0000,0.0000,0.0000,-0.002364,-1.621418,1.621418,0.4311,0.5599,0.0903,0.000000,0.578311,-0.562971,0.564505,-0.592117,0.575243,-0.559903
4.5299,0.016756,0.000000,-1.560364,1.560364,0.0000,0.0000,0.0000,-0.002351,-1.615282,1.613748,0.4862,0.5433,0.1491,0.000000,0.579845,-0.562971,0.564505,-0.592117,0.575243,-0.559903
4.5466,0.016758,0.000000,-1.554515,1.554515,0.0000,0.0000,0.0000,-0.002351,-1.609146,1.603010,0.3811,0.5429,0.0356,0.000000,0.578311,-0.562971,0.564505,-0.592117,0.575243,-0.561437
4.5634,0.016753,0.000000,-1.548667,1.548667,0.0000,0.0000,0.0000,-0.002375,-1.603010,1.598408,0.4308,0.5098,0.1547,0.000000,0.578311,-0.562971,0.564505,-0.590583,0.575243,-0.559903
4.5802,0.016759,0.000000,-1.542817,1.542817,0.0000,0.0000,0.0000,-0.002375,-1.603010,1.598408,0.4308,0.5098,0.1547,0.000000,0.578311,-0.562971,0.564505,-0.590583,0.575243,-0.559903
4.5969,0.016743,0.000000,-1.536972,1.536972,0.0000,0.0000,0.0000,-0.002361,-1.593806,1.592272,0.4364,0.5641,0.0885,0.000000,0.578311,-0.562971,0.564505,-0.592117,0.575243,-0.559903
4.6136,0.016748,0.000000,-1.531126,1.531126,0.0000,0.0000,0.0000,-0.002351,-1.584602,1.586136,0.4857,0.5429,0.1493,0.000000,0.579845,-0.562971,0.564505,-0.592117,0.575243,-0.559903
4.6304,0.016742,0.000000,-1.525282,1.525282,0.0000,0.0000,0.0000,-0.002351,-1.576932,1.581534,0.3812,0.5430,0.0356,0.000000,0.578311,-0.562971,0.564505,-0.592117,0.575243,-0.561437
4.6471,0.016754,0.000000,-1.519434,1.519434,0.0000,0.0000,0.0000,-0.002364,-1.567728,1.576932,0.4416,0.5606,0.1010,0.000000,0.578311,-0.562971,0.564505,-0.592117,0.575243,-0.559903
4.6639,0.016754,0.000000,-1.513586,1.513586,0.0000,0.0000,0.0000,-0.002374,-1.560058,1.572330,0.4246,0.5080,0.1479,0.000000,0.578311,-0.562971,0.564505,-0.590583,0.575243,-0.559903
4.6807,0.016761,0.000000,-1.507735,1.507735,0.0000,0.0000,0.0000,-0.002374,-1.560058,1.572330,0.4246,0.5080,0.1479,0.000000,0.578311,-0.562971,0.564505,-0.590583,0.575243,-0.559903
4.6974,0.016744,0.000000,-1.501890,1.501890,0.0000,0.0000,0.0000,-0.002363,-1.552389,1.564660,0.4477,0.5843,0.1963,0.000000,0.579845,-0.561437,0.564505,-0.592117,0.575243,-0.559903
4.7141,0.016743,0.000000,-1.496046,1.496046,0.0000,0.0000,0.0000,-0.002374,-1.544719,1.553923,0.4240,0.5055,0.1379,0.000000,0.578311,-0.562971,0.564505,-0.590583,0.575243,-0.559903
4.7309,0.016747,0.000000,-1.490200,1.490200,0.0000,0.0000,0.0000,-0.002349,-1.538583,1.544719,0.3982,0.5668,0.1438,0.000000,0.579845,-0.561437,0.564505,-0.592117,0.575243,-0.561437
4.7476,0.016749,0.000000,-1.484354,1.484354,0.0000,0.0000,0.0000,-0.002351,-1.533981,1.535515,0.3903,0.5405,0.0362,0.000000,0.578311,-0.562971,0.564505,-0.592117,0.575243,-0.561437
4.7644,0.016756,0.000000,-1.478505,1.478505,0.0000,0.0000,0.0000,-0.002339,-1.527845,1.526311,0.4409,0.5277,0.1012,0.000000,0.579845,-0.562971,0.564505,-0.592117,0.575243,-0.561437
4.7812,0.016762,0.000000,-1.472654,1.472654,0.0000,0.0000,0.0000,-0.002339,-1.527845,1.526311,0.4409,0.5277,0.1012,0.000000,0.579845,-0.562971,0.564505,-0.592117,0.575243,-0.561437
4.7979,0.016753,0.000000,-1.466806,1.466806,0.0000,0.0000,0.0000,-0.002366,-1.520175,1.520175,0.4460,0.5822,0.2011,0.000000,0.579845,-0.561437,0.564505,-0.592117,0.575243,-0.559903
4.8147,0.016745,0.000000,-1.460961,1.460961,0.0000,0.0000,0.0000,-0.002362,-1.510971,1.512505,0.3851,0.5080,0.1910,0.000000,0.579845,-0.561437,0.564505,-0.590583,0.575243,-0.561437
4.8314,0.016751,0.000000,-1.455114,1.455114,0.0000,0.0000,0.0000,-0.002351,-1.504835,1.507903,0.4910,0.5487,0.1386,0.000000,0.579845,-0.562971,0.564505,-0.592117,0.575243,-0.559903
4.8482,0.016756,0.000000,-1.449265,1.449265,0.0000,0.0000,0.0000,-0.002352,-1.498699,1.500233,0.3912,0.5623,0.1437,0.000000,0.579845,-0.561437,0.564505,-0.592117,0.575243,-0.561437
4.8649,0.016749,0.000000,-1.443418,1.443418,0.0000,0.0000,0.0000,-0.002352,-1.498699,1.500233,0.3912,0.5623,0.1437,0.000000,0.579845,-0.561437,0.564505,-0.592117,0.575243,-0.561437
4.8817,0.016761,0.000000,-1.437568,1.437568,0.0000,0.0000,0.0000,-0.002364,-1.489495,1.494097,0.4406,0.5586,0.0897,0.000000,0.578311,-0.562971,0.564505,-0.592117,0.575243,-0.559903
4.8984,0.016745,0.000000,-1.431722,1.431722,0.0000,0.0000,0.0000,-0.002374,-1.481825,1.486427,0.4247,0.5082,0.1491,0.000000,0.578311,-0.562971,0.564505,-0.590583,0.575243,-0.559903
4.9152,0.016779,0.000000,-1.425865,1.425865,0.0000,0.0000,0.0000,-0.002337,-1.478757,1.478757,0.4373,0.5311,0.0895,0.000000,0.579845,-0.562971,0.564505,-0.592117,0.575243,-0.561437
4.9321,0.016877,0.000000,-1.419974,1.419974,0.0000,0.0000,0.0000,-0.002365,-1.474156,1.469554,0.4357,0.5619,0.0953,0.000000,0.578311,-0.562971,0.564505,-0.592117,0.575243,-0.559903
4.9488,0.016755,0.000000,-1.414126,1.414126,0.0000,0.0000,0.0000,-0.002351,-1.466486,1.461884,0.4857,0.5431,0.1486,0.000000,0.579845,-0.562971,0.564505,-0.592117,0.575243,-0.559903
4.9656,0.016748,0.000000,-1.408280,1.408280,0.0000,0.0000,0.0000,-0.002362,-1.457282,1.454214,0.3704,0.4922,0.0894,0.000000,0.578311,-0.562971,0.564505,-0.590583,0.575243,-0.561437
4.9823,0.016762,0.000000,-1.402429,1.402429,0.0000,0.0000,0.0000,-0.002362,-1.457282,1.454214,0.3704,0.4922,0.0894,0.000000,0.578311,-0.562971,0.564505,-0.590583,0.575243,-0.561437
4.9991,0.016742,0.000000,-1.396585,1.396585,0.0000,0.0000,0.0000,-0.002374,-1.449612,1.446544,0.4320,0.5151,0.1491,0.000000,0.578311,-0.562971,0.564505,-0.590583,0.575243,-0.559903
5.0158,0.016752,0.000000,-1.401790,1.401790,0.0000,0.0000,0.0000,-0.002350,-1.440408,1.441942,0.4861,0.5480,0.1430,0.000000,0.579845,-0.562971,0.564505,-0.592117,0.575243,-0.559903
5.0326,0.016757,0.000000,-1.407639,1.407639,0.0000,0.0000,0.0000,-0.002351,-1.434272,1.437340,0.3811,0.5424,0.0363,0.000000,0.578311,-0.562971,0.564505,-0.592117,0.575243,-0.561437
5.0494,0.016764,0.000000,-1.413491,1.413491,0.0000,0.0000,0.0000,-0.002362,-1.426602,1.431204,0.3813,0.4923,0.1011,0.000000,0.578311,-0.562971,0.564505,-0.590583,0.575243,-0.561437
5.0661,0.016793,0.000000,-1.419353,1.419353,0.0000,0.0000,0.0000,-0.002362,-1.426602,1.431204,0.3813,0.4923,0.1011,0.000000,0.578311,-0.562971,0.564505,-0.590583,0.575243,-0.561437
5.0829,0.016755,0.000000,-1.425201,1.425201,0.0000,0.0000,0.0000,-0.002362,-1.425068,1.426602,0.4416,0.5659,0.0941,0.000000,0.578311,-0.562971,0.564505,-0.592117,0.575243,-0.559903
5.0996,0.016730,0.000000,-1.431041,1.431041,0.0000,0.0000,0.0000,-0.002362,-1.425068,1.422000,0.4353,0.5582,0.0949,0.000000,0.578311,-0.562971,0.564505,-0.592117,0.575243,-0.559903
5.1164,0.016758,0.000000,-1.436891,1.436891,0.0000,0.0000,0.0000,-0.002362,-1.425068,1.423534,0.4353,0.5582,0.0949,0.000000,0.578311,-0.562971,0.564505,-0.592117,0.575243,-0.559903
5.1331,0.016753,0.000000,-1.442739,1.442739,0.0000,0.0000,0.0000,-0.002361,-1.425068,1.423534,0.3757,0.4907,0.0950,0.000000,0.578311,-0.562971,0.564505,-0.590583,0.575243,-0.561437
5.1500,0.016848,0.000000,-1.448620,1.448620,0.0000,0.0000,0.0000,-0.002351,-1.432738,1.431204,0.4920,0.5505,0.1486,0.000000,0.579845,-0.562971,0.564505,-0.592117,0.575243,-0.559903
5.1667,0.016753,0.000000,-1.454467,1.454467,0.0000,0.0000,0.0000,-0.002351,-1.443476,1.438874,0.3805,0.5422,0.0357,0.000000,0.578311,-0.562971,0.564505,-0.592117,0.575243,-0.561437
5.1835,0.016755,0.000000,-1.460316,1.460316,0.0000,0.0000,0.0000,-0.002351,-1.443476,1.438874,0.3805,0.5422,0.0357,0.000000,0.578311,-0.562971,0.564505,-0.592117,0.575243,-0.561437
5.2002,0.016747,0.000000,-1.466162,1.466162,0.0000,0.0000,0.0000,-0.002364,-1.445010,1.443476,0.4416,0.5607,0.1009,0.000000,0.578311,-0.562971,0.564505,-0.592117,0.575243,-0.559903
5.2170,0.016742,0.000000,-1.472006,1.472006,0.0000,0.0000,0.0000,-0.002349,-1.446544,1.449612,0.3858,0.5412,0.0407,0.000000,0.578311,-0.562971,0.564505,-0.592117,0.575243,-0.561437
5.2337,0.016734,0.000000,-1.477847,1.477847,0.0000,0.0000,0.0000,-0.002365,-1.460350,1.455748,0.4517,0.5808,0.2074,0.000000,0.579845,-0.561437,0.564505,-0.592117,0.575243,-0.559903
5.2505,0.016775,0.000000,-1.483703,1.483703,0.0000,0.0000,0.0000,-0.002362,-1.471088,1.463418,0.4343,0.5567,0.0831,0.000000,0.578311,-0.562971,0.564505,-0.592117,0.575243,-0.559903
5.2672,0.016754,0.000000,-1.489551,1.489551,0.0000,0.0000,0.0000,-0.002362,-1.471088,1.463418,0.4343,0.5567,0.0831,0.000000,0.578311,-0.562971,0.564505,-0.592117,0.575243,-0.559903
5.2840,0.016748,0.000000,-1.495397,1.495397,0.0000,0.0000,0.0000,-0.002364,-1.474156,1.475690,0.4467,0.5792,0.2030,0.000000,0.579845,-0.561437,0.564505,-0.592117,0.575243,-0.559903
5.3008,0.016771,0.000000,-1.501251,1.501251,0.0000,0.0000,0.0000,-0.002374,-1.478757,1.478757,0.4241,0.5061,0.1372,0.000000,0.578311,-0.562971,0.564505,-0.590583,0.575243,-0.559903
5.3175,0.016754,0.000000,-1.507100,1.507100,0.0000,0.0000,0.0000,-0.002350,-1.489495,1.481825,0.4869,0.5489,0.1442,0.000000,0.579845,-0.562971,0.564505,-0.592117,0.575243,-0.559903
5.3343,0.016766,0.000000,-1.512952,1.512952,0.0000,0.0000,0.0000,-0.002364,-1.500233,1.489495,0.4696,0.4937,0.1972,0.000000,0.579845,-0.562971,0.564505,-0.590583,0.575243,-0.559903
5.3510,0.016744,0.000000,-1.518797,1.518797,0.0000,0.0000,0.0000,-0.002375,-1.503301,1.504835,0.4322,0.5350,0.2449,0.000000,0.579845,-0.561437,0.564505,-0.590583,0.575243,-0.559903
5.3678,0.016770,0.000000,-1.524651,1.524651,0.0000,0.0000,0.0000,-0.002375,-1.510971,1.506369,0.4322,0.5350,0.2449,0.000000,0.578311,-0.562971,0.564505,-0.590583,0.575243,-0.559903
5.3846,0.016824,0.000000,-1.530524,1.530524,0.0000,0.0000,0.0000,-0.002373,-1.510971,1.506369,0.4256,0.5107,0.1329,0.000000,0.578311,-0.562971,0.564505,-0.590583,0.575243,-0.559903
5.4014,0.016746,0.000000,-1.536369,1.536369,0.0000,0.0000,0.0000,-0.002337,-1.517107,1.507903,0.4372,0.5308,0.0912,0.000000,0.579845,-0.562971,0.564505,-0.592117,0.575243,-0.561437
5.4182,0.016821,0.000000,-1.542241,1.542241,0.0000,0.0000,0.0000,-0.002366,-1.523243,1.514039,0.4463,0.5819,0.2022,0.000000,0.579845,-0.561437,0.564505,-0.592117,0.575243,-0.559903
5.4349,0.016744,0.000000,-1.548086,1.548086,0.0000,0.0000,0.0000,-0.002362,-1.526311,1.527845,0.4348,0.5566,0.0836,0.000000,0.578311,-0.562971,0.564505,-0.592117,0.575243,-0.559903
5.4517,0.016764,0.000000,-1.553937,1.553937,0.0000,0.0000,0.0000,-0.002362,-1.538583,1.537049,0.4348,0.5566,0.0836,0.000000,0.579845,-0.562971,0.564505,-0.592117,0.575243,-0.561437
5.4684,0.016744,0.000000,-1.559782,1.559782,0.0000,0.0000,0.0000,-0.002338,-1.538583,1.537049,0.4363,0.5260,0.0963,0.000000,0.579845,-0.562971,0.564505,-0.592117,0.575243,-0.561437
5.4852,0.016743,0.000000,-1.565626,1.565626,0.0000,0.0000,0.0000,-0.002365,-1.547787,1.540117,0.4358,0.5624,0.0946,0.000000,0.578311,-0.562971,0.564505,-0.592117,0.575243,-0.559903
