t,loop_dt,cmd_z,cmd_ant_l,cmd_ant_r,cmd_roll,cmd_pitch,cmd_yaw,pres_z,pres_ant_l,pres_ant_r,pres_roll,pres_pitch,pres_yaw,pres_j0,pres_j1,pres_j2,pres_j3,pres_j4,pres_j5,pres_j6
0.0000,0.000001,0.000000,-0.174533,0.174533,0.0000,0.0000,0.0000,-0.002488,-0.003068,0.004602,0.4312,0.6848,0.2436,0.000000,0.572175,-0.561437,0.564505,-0.590583,0.575243,-0.552233
0.0168,0.016753,0.000000,-0.173071,0.173071,0.0000,0.0000,0.0000,-0.002473,-0.004602,0.003068,0.3855,0.6635,0.1848,0.000000,0.572175,-0.561437,0.564505,-0.590583,0.575243,-0.553767
0.0335,0.016765,0.000000,-0.171608,0.171608,0.0000,0.0000,0.0000,-0.002473,-0.004602,0.003068,0.3855,0.6635,0.1848,0.000000,0.572175,-0.561437,0.564505,-0.590583,0.575243,-0.553767
0.0503,0.016761,0.000000,-0.170145,0.170145,0.0000,0.0000,0.0000,-0.002462,-0.010738,0.009204,0.4294,0.6301,0.1378,0.000000,0.572175,-0.562971,0.564505,-0.590583,0.575243,-0.553767
0.0670,0.016763,0.000000,-0.168682,0.168682,0.0000,0.0000,0.0000,-0.002463,-0.064427,0.064427,0.4248,0.6336,0.1427,0.000000,0.572175,-0.562971,0.564505,-0.590583,0.575243,-0.553767
0.0838,0.016755,0.000000,-0.167220,0.167220,0.0000,0.0000,0.0000,-0.002463,-0.144194,0.141126,0.4248,0.6336,0.1427,0.000000,0.572175,-0.562971,0.564505,-0.590583,0.575243,-0.553767
0.1006,0.016759,0.000000,-0.165758,0.165758,0.0000,0.0000,0.0000,-0.002463,-0.194816,0.193282,0.4248,0.6336,0.1427,0.000000,0.572175,-0.562971,0.564505,-0.590583,0.575243,-0.553767
0.1173,0.016763,0.000000,-0.164295,0.164295,0.0000,0.0000,0.0000,-0.002438,-0.199418,0.199418,0.3861,0.6664,0.0351,0.000000,0.572175,-0.562971,0.564505,-0.592117,0.575243,-0.555301
0.1341,0.016782,0.000000,-0.162830,0.162830,0.0000,0.0000,0.0000,-0.002428,-0.182544,0.187146,0.3406,0.6454,-0.0071,0.000000,0.572175,-0.562971,0.564505,-0.592117,0.575243,-0.556835
0.1509,0.016762,0.000000,-0.161367,0.161367,0.0000,0.0000,0.0000,-0.002428,-0.182544,0.187146,0.3406,0.6454,-0.0071,0.000000,0.572175,-0.562971,0.564505,-0.592117,0.575243,-0.556835
0.1676,0.016762,0.000000,-0.159905,0.159905,0.0000,0.0000,0.0000,-0.002440,-0.168738,0.174874,0.3347,0.5969,0.0510,0.000000,0.572175,-0.562971,0.564505,-0.590583,0.575243,-0.556835
0.1844,0.016755,0.000000,-0.158443,0.158443,0.0000,0.0000,0.0000,-0.002439,-0.162602,0.165670,0.3354,0.6019,0.0450,0.000000,0.572175,-0.562971,0.564505,-0.590583,0.575243,-0.556835
0.2011,0.016759,0.000000,-0.156980,0.156980,0.0000,0.0000,0.0000,-0.002416,-0.164136,0.162602,0.3958,0.6365,0.0456,0.000000,0.573709,-0.562971,0.564505,-0.592117,0.575243,-0.556835
0.2179,0.016761,0.000000,-0.155517,0.155517,0.0000,0.0000,0.0000,-0.002406,-0.164136,0.161068,0.4787,0.5509,0.2067,0.000000,0.576777,-0.562971,0.564505,-0.590583,0.575243,-0.556835
0.2347,0.016776,0.000000,-0.154053,0.154053,0.0000,0.0000,0.0000,-0.002407,-0.158000,0.158000,0.4701,0.5599,0.1899,0.000000,0.576777,-0.562971,0.564505,-0.590583,0.575243,-0.556835
0.2514,0.016755,0.000000,-0.152591,0.152591,0.0000,0.0000,0.0000,-0.002407,-0.158000,0.158000,0.4701,0.5599,0.1899,0.000000,0.576777,-0.562971,0.564505,-0.590583,0.575243,-0.556835
0.2682,0.016763,0.000000,-0.151128,0.151128,0.0000,0.0000,0.0000,-0.002382,-0.158000,0.156466,0.4712,0.5257,0.1921,0.000000,0.578311,-0.562971,0.564505,-0.590583,0.575243,-0.558369
0.2850,0.016773,0.000000,-0.149665,0.149665,0.0000,0.0000,0.0000,-0.002385,-0.158000,0.156466,0.4711,0.5293,0.1918,0.000000,0.578311,-0.562971,0.564505,-0.590583,0.575243,-0.558369
0.3017,0.016758,0.000000,-0.148202,0.148202,0.0000,0.0000,0.0000,-0.002373,-0.156466,0.153398,0.4321,0.5312,0.2454,0.000000,0.579845,-0.561437,0.564505,-0.590583,0.575243,-0.559903
0.3185,0.016757,0.000000,-0.146740,0.146740,0.0000,0.0000,0.0000,-0.002348,-0.153398,0.150330,0.4258,0.4778,0.1332,0.000000,0.579845,-0.562971,0.564505,-0.590583,0.575243,-0.561437
0.3352,0.016716,0.000000,-0.145281,0.145281,0.0000,0.0000,0.0000,-0.002348,-0.153398,0.150330,0.4258,0.4778,0.1332,0.000000,0.579845,-0.562971,0.564505,-0.590583,0.575243,-0.561437
0.3521,0.016874,0.000000,-0.143809,0.143809,0.0000,0.0000,0.0000,-0.002351,-0.150330,0.148796,0.4265,0.4834,0.1449,0.000000,0.579845,-0.562971,0.564505,-0.590583,0.575243,-0.561437
0.3688,0.016754,0.000000,-0.142347,0.142347,0.0000,0.0000,0.0000,-0.002339,-0.151864,0.148796,0.4372,0.5336,0.0899,0.000000,0.579845,-0.562971,0.564505,-0.592117,0.575243,-0.561437
0.3856,0.016754,0.000000,-0.140884,0.140884,0.0000,0.0000,0.0000,-0.002352,-0.150330,0.148796,0.4253,0.4776,0.1494,0.000000,0.579845,-0.562971,0.564505,-0.590583,0.575243,-0.561437
0.4023,0.016740,0.000000,-0.139424,0.139424,0.0000,0.0000,0.0000,-0.002350,-0.148796,0.147262,0.4265,0.4834,0.1432,0.000000,0.579845,-0.562971,0.564505,-0.590583,0.575243,-0.561437
0.4191,0.016758,0.000000,-0.137961,0.137961,0.0000,0.0000,0.0000,-0.002350,-0.148796,0.147262,0.4265,0.4834,0.1432,0.000000,0.579845,-0.562971,0.564505,-0.590583,0.575243,-0.561437
0.4358,0.016757,0.000000,-0.136499,0.136499,0.0000,0.0000,0.0000,-0.002350,-0.147262,0.147262,0.4265,0.4834,0.1432,0.000000,0.579845,-0.562971,0.564505,-0.590583,0.575243,-0.561437
0.4526,0.016756,0.000000,-0.135037,0.135037,0.0000,0.0000,0.0000,-0.002350,-0.145728,0.145728,0.4265,0.4834,0.1432,0.000000,0.579845,-0.562971,0.564505,-0.590583,0.575243,-0.561437
0.4693,0.016748,0.000000,-0.133575,0.133575,0.0000,0.0000,0.0000,-0.002350,-0.145728,0.145728,0.4265,0.4834,0.1432,0.000000,0.579845,-0.562971,0.564505,-0.590583,0.575243,-0.561437
0.4861,0.016757,0.000000,-0.132113,0.132113,0.0000,0.0000,0.0000,-0.002350,-0.142660,0.144194,0.4265,0.4834,0.1432,0.000000,0.579845,-0.562971,0.564505,-0.590583,0.575243,-0.561437
0.5029,0.016763,0.000000,-0.130650,0.130650,0.0000,0.0000,0.0000,-0.002350,-0.136524,0.144194,0.4265,0.4834,0.1432,0.000000,0.579845,-0.562971,0.564505,-0.590583,0.575243,-0.561437
0.5197,0.016792,0.000000,-0.129185,0.129185,0.0000,0.0000,0.0000,-0.002350,-0.136524,0.144194,0.4265,0.4834,0.1432,0.000000,0.579845,-0.562971,0.564505,-0.590583,0.575243,-0.561437
0.5364,0.016718,0.000000,-0.127726,0.127726,0.0000,0.0000,0.0000,-0.002350,-0.134990,0.142660,0.4265,0.4834,0.1432,0.000000,0.579845,-0.562971,0.564505,-0.590583,0.575243,-0.561437
0.5531,0.016756,0.000000,-0.126263,0.126263,0.0000,0.0000,0.0000,-0.002350,-0.136524,0.141126,0.4265,0.4834,0.1432,0.000000,0.579845,-0.562971,0.564505,-0.590583,0.575243,-0.561437
0.5699,0.016751,0.000000,-0.124802,0.124802,0.0000,0.0000,0.0000,-0.002350,-0.134990,0.138058,0.4265,0.4834,0.1432,0.000000,0.579845,-0.562971,0.564505,-0.590583,0.575243,-0.561437
0.5866,0.016760,0.000000,-0.123339,0.123339,0.0000,0.0000,0.0000,-0.002350,-0.130388,0.133456,0.4265,0.4834,0.1432,0.000000,0.579845,-0.562971,0.564505,-0.590583,0.575243,-0.561437
0.6034,0.016765,0.000000,-0.121876,0.121876,0.0000,0.0000,0.0000,-0.002350,-0.127320,0.125786,0.4265,0.4834,0.1432,0.000000,0.579845,-0.562971,0.564505,-0.590583,0.575243,-0.561437
0.6202,0.016758,0.000000,-0.120413,0.120413,0.0000,0.0000,0.0000,-0.002350,-0.127320,0.125786,0.4265,0.4834,0.1432,0.000000,0.579845,-0.562971,0.564505,-0.590583,0.575243,-0.561437
0.6369,0.016750,0.000000,-0.118952,0.118952,0.0000,0.0000,0.0000,-0.002350,-0.127320,0.124252,0.4265,0.4834,0.1432,0.000000,0.579845,-0.562971,0.564505,-0.590583,0.575243,-0.561437
0.6537,0.016772,0.000000,-0.117488,0.117488,0.0000,0.0000,0.0000,-0.002350,-0.127320,0.122718,0.4265,0.4834,0.1432,0.000000,0.579845,-0.562971,0.564505,-0.590583,0.575243,-0.561437
0.6704,0.016755,0.000000,-0.116026,0.116026,0.0000,0.0000,0.0000,-0.002350,-0.124252,0.122718,0.4265,0.4834,0.1432,0.000000,0.579845,-0.562971,0.564505,-0.590583,0.575243,-0.561437
0.6872,0.016790,0.000000,-0.114561,0.114561,0.0000,0.0000,0.0000,-0.002350,-0.121184,0.121184,0.4265,0.4834,0.1432,0.000000,0.579845,-0.562971,0.564505,-0.590583,0.575243,-0.561437
0.7040,0.016752,0.000000,-0.113099,0.113099,0.0000,0.0000,0.0000,-0.002350,-0.121184,0.121184,0.4265,0.4834,0.1432,0.000000,0.579845,-0.562971,0.564505,-0.590583,0.575243,-0.561437
0.7207,0.016760,0.000000,-0.111636,0.111636,0.0000,0.0000,0.0000,-0.002364,-0.121184,0.119651,0.4759,0.5005,0.1973,0.000000,0.579845,-0.562971,0.564505,-0.590583,0.575243,-0.559903
0.7375,0.016748,0.000000,-0.110175,0.110175,0.0000,0.0000,0.0000,-0.002338,-0.121184,0.118117,0.4320,0.5318,0.0844,0.000000,0.579845,-0.562971,0.564505,-0.592117,0.575243,-0.561437
0.7543,0.016763,0.000000,-0.108712,0.108712,0.0000,0.0000,0.0000,-0.002352,-0.121184,0.116583,0.4258,0.4778,0.1499,0.000000,0.579845,-0.562971,0.564505,-0.590583,0.575243,-0.561437
0.7710,0.016756,0.000000,-0.107250,0.107250,0.0000,0.0000,0.0000,-0.002350,-0.119651,0.116583,0.4265,0.4834,0.1431,0.000000,0.579845,-0.562971,0.564505,-0.590583,0.575243,-0.561437
0.7878,0.016779,0.000000,-0.105785,0.105785,0.0000,0.0000,0.0000,-0.002350,-0.119651,0.116583,0.4265,0.4834,0.1431,0.000000,0.579845,-0.562971,0.564505,-0.590583,0.575243,-0.561437
0.8045,0.016758,0.000000,-0.104323,0.104323,0.0000,0.0000,0.0000,-0.002350,-0.119651,0.116583,0.4265,0.4834,0.1431,0.000000,0.579845,-0.562971,0.564505,-0.590583,0.575243,-0.561437
0.8213,0.016758,0.000000,-0.102861,0.102861,0.0000,0.0000,0.0000,-0.002364,-0.116583,0.115049,0.4759,0.5005,0.1973,0.000000,0.579845,-0.562971,0.564505,-0.590583,0.575243,-0.559903
0.8381,0.016752,0.000000,-0.101399,0.101399,0.0000,0.0000,0.0000,-0.002349,-0.110447,0.113515,0.4212,0.4810,0.1382,0.000000,0.579845,-0.562971,0.564505,-0.590583,0.575243,-0.561437
0.8548,0.016752,0.000000,-0.099937,0.099937,0.0000,0.0000,0.0000,-0.002351,-0.105845,0.111981,0.4269,0.4831,0.1443,0.000000,0.579845,-0.562971,0.564505,-0.590583,0.575243,-0.561437
0.8716,0.016751,0.000000,-0.098475,0.098475,0.0000,0.0000,0.0000,-0.002351,-0.105845,0.107379,0.4269,0.4831,0.1443,0.000000,0.579845,-0.562971,0.564505,-0.590583,0.575243,-0.561437
0.8883,0.016780,0.000000,-0.097011,0.097011,0.0000,0.0000,0.0000,-0.002351,-0.105845,0.102777,0.4269,0.4831,0.1443,0.000000,0.579845,-0.562971,0.564505,-0.590583,0.575243,-0.561437
0.9051,0.016753,0.000000,-0.095549,0.095549,0.0000,0.0000,0.0000,-0.002351,-0.105845,0.102777,0.4269,0.4831,0.1443,0.000000,0.579845,-0.562971,0.564505,-0.590583,0.575243,-0.561437
0.9218,0.016749,0.000000,-0.094087,0.094087,0.0000,0.0000,0.0000,-0.002351,-0.102777,0.098175,0.4269,0.4831,0.1443,0.000000,0.579845,-0.562971,0.564505,-0.590583,0.575243,-0.561437
0.9385,0.016704,0.000000,-0.092629,0.092629,0.0000,0.0000,0.0000,-0.002351,-0.101243,0.098175,0.4269,0.4831,0.1443,0.000000,0.579845,-0.562971,0.564505,-0.590583,0.575243,-0.561437
0.9553,0.016754,0.000000,-0.091167,0.091167,0.0000,0.0000,0.0000,-0.002351,-0.099709,0.098175,0.4269,0.4831,0.1443,0.000000,0.579845,-0.562971,0.564505,-0.590583,0.575243,-0.561437
0.9721,0.016752,0.000000,-0.089705,0.089705,0.0000,0.0000,0.0000,-0.002351,-0.099709,0.095107,0.4269,0.4831,0.1443,0.000000,0.579845,-0.562971,0.564505,-0.590583,0.575243,-0.561437
0.9888,0.016766,0.000000,-0.088242,0.088242,0.0000,0.0000,0.0000,-0.002351,-0.099709,0.095107,0.4269,0.4831,0.1443,0.000000,0.579845,-0.562971,0.564505,-0.590583,0.575243,-0.561437
1.0056,0.016746,0.000000,-0.086781,0.086781,0.0000,0.0000,0.0000,-0.002351,-0.096641,0.093573,0.4269,0.4831,0.1443,0.000000,0.579845,-0.562971,0.564505,-0.590583,0.575243,-0.561437
1.0223,0.016753,0.000000,-0.085319,0.085319,0.0000,0.0000,0.0000,-0.002351,-0.093573,0.092039,0.4269,0.4831,0.1443,0.000000,0.579845,-0.562971,0.564505,-0.590583,0.575243,-0.561437
1.0391,0.016749,0.000000,-0.083857,0.083857,0.0000,0.0000,0.0000,-0.002351,-0.092039,0.090505,0.4269,0.4831,0.1443,0.000000,0.579845,-0.562971,0.564505,-0.590583,0.575243,-0.561437
1.0560,0.016902,0.000000,-0.082382,0.082382,0.0000,0.0000,0.0000,-0.002351,-0.092039,0.090505,0.4269,0.4831,0.1443,0.000000,0.579845,-0.562971,0.564505,-0.590583,0.575243,-0.561437
1.0728,0.016858,0.000000,-0.080911,0.080911,0.0000,0.0000,0.0000,-0.002339,-0.088971,0.090505,0.4371,0.5337,0.0900,0.000000,0.579845,-0.562971,0.564505,-0.592117,0.575243,-0.561437
1.0896,0.016758,0.000000,-0.079449,0.079449,0.0000,0.0000,0.0000,-0.002339,-0.088971,0.090505,0.4371,0.5337,0.0900,0.000000,0.579845,-0.562971,0.564505,-0.592117,0.575243,-0.561437
1.1063,0.016751,0.000000,-0.077987,0.077987,0.0000,0.0000,0.0000,-0.002352,-0.081301,0.088971,0.4253,0.4776,0.1494,0.000000,0.579845,-0.562971,0.564505,-0.590583,0.575243,-0.561437
1.1231,0.016757,0.000000,-0.076525,0.076525,0.0000,0.0000,0.0000,-0.002350,-0.082835,0.085903,0.4265,0.4834,0.1432,0.000000,0.579845,-0.562971,0.564505,-0.590583,0.575243,-0.561437
1.1398,0.016730,0.000000,-0.075065,0.075065,0.0000,0.0000,0.0000,-0.002350,-0.079767,0.081301,0.4265,0.4834,0.1432,0.000000,0.579845,-0.562971,0.564505,-0.590583,0.575243,-0.561437
1.1566,0.016764,0.000000,-0.073602,0.073602,0.0000,0.0000,0.0000,-0.002350,-0.075165,0.076699,0.4265,0.4834,0.1432,0.000000,0.579845,-0.562971,0.564505,-0.590583,0.575243,-0.561437
1.1733,0.016758,0.000000,-0.072139,0.072139,0.0000,0.0000,0.0000,-0.002350,-0.076699,0.073631,0.4265,0.4834,0.1432,0.000000,0.579845,-0.562971,0.564505,-0.590583,0.575243,-0.561437
1.1901,0.016757,0.000000,-0.070677,0.070677,0.0000,0.0000,0.0000,-0.002350,-0.076699,0.073631,0.4265,0.4834,0.1432,0.000000,0.579845,-0.562971,0.564505,-0.590583,0.575243,-0.561437
1.2069,0.016750,0.000000,-0.069215,0.069215,0.0000,0.0000,0.0000,-0.002339,-0.075165,0.072097,0.4371,0.5336,0.0901,0.000000,0.579845,-0.562971,0.564505,-0.592117,0.575243,-0.561437
1.2236,0.016755,0.000000,-0.067753,0.067753,0.0000,0.0000,0.0000,-0.002352,-0.072097,0.072097,0.4253,0.4776,0.1493,0.000000,0.579845,-0.562971,0.564505,-0.590583,0.575243,-0.561437
1.2407,0.017080,0.000000,-0.066263,0.066263,0.0000,0.0000,0.0000,-0.002350,-0.070563,0.070563,0.4265,0.4834,0.1432,0.000000,0.579845,-0.562971,0.564505,-0.590583,0.575243,-0.561437
1.2574,0.016755,0.000000,-0.064800,0.064800,0.0000,0.0000,0.0000,-0.002350,-0.072097,0.070563,0.4265,0.4834,0.1432,0.000000,0.579845,-0.562971,0.564505,-0.590583,0.575243,-0.561437
1.2742,0.016760,0.000000,-0.063338,0.063338,0.0000,0.0000,0.0000,-0.002350,-0.070563,0.067495,0.4265,0.4834,0.1432,0.000000,0.579845,-0.562971,0.564505,-0.590583,0.575243,-0.561437
1.2910,0.016756,0.000000,-0.061875,0.061875,0.0000,0.0000,0.0000,-0.002350,-0.070563,0.067495,0.4265,0.4834,0.1432,0.000000,0.579845,-0.562971,0.564505,-0.590583,0.575243,-0.561437
1.3077,0.016786,0.000000,-0.060411,0.060411,0.0000,0.0000,0.0000,-0.002350,-0.067495,0.065961,0.4265,0.4834,0.1432,0.000000,0.579845,-0.562971,0.564505,-0.590583,0.575243,-0.561437
1.3245,0.016748,0.000000,-0.058949,0.058949,0.0000,0.0000,0.0000,-0.002350,-0.065961,0.064427,0.4265,0.4834,0.1432,0.000000,0.579845,-0.562971,0.564505,-0.590583,0.575243,-0.561437
1.3413,0.016762,0.000000,-0.057486,0.057486,0.0000,0.0000,0.0000,-0.002350,-0.062893,0.064427,0.4265,0.4834,0.1432,0.000000,0.579845,-0.562971,0.564505,-0.590583,0.575243,-0.561437
1.3580,0.016756,0.000000,-0.056024,0.056024,0.0000,0.0000,0.0000,-0.002350,-0.058291,0.062893,0.4265,0.4834,0.1432,0.000000,0.579845,-0.562971,0.564505,-0.590583,0.575243,-0.561437
1.3748,0.016764,0.000000,-0.054561,0.054561,0.0000,0.0000,0.0000,-0.002350,-0.058291,0.062893,0.4265,0.4834,0.1432,0.000000,0.579845,-0.562971,0.564505,-0.590583,0.575243,-0.561437
1.3915,0.016759,0.000000,-0.053099,0.053099,0.0000,0.0000,0.0000,-0.002364,-0.058291,0.062893,0.4759,0.5005,0.1973,0.000000,0.579845,-0.562971,0.564505,-0.590583,0.575243,-0.559903
1.4083,0.016769,0.000000,-0.051635,0.051635,0.0000,0.0000,0.0000,-0.002362,-0.058291,0.062893,0.4708,0.4987,0.1916,0.000000,0.579845,-0.562971,0.564505,-0.590583,0.575243,-0.559903
1.4251,0.016754,0.000000,-0.050173,0.050173,0.0000,0.0000,0.0000,-0.002349,-0.055223,0.059825,0.4218,0.4812,0.1388,0.000000,0.579845,-0.562971,0.564505,-0.590583,0.575243,-0.561437
1.4418,0.016753,0.000000,-0.048711,0.048711,0.0000,0.0000,0.0000,-0.002351,-0.050621,0.058291,0.4269,0.4831,0.1443,0.000000,0.579845,-0.562971,0.564505,-0.590583,0.575243,-0.561437
1.4586,0.016782,0.000000,-0.047247,0.047247,0.0000,0.0000,0.0000,-0.002351,-0.050621,0.058291,0.4269,0.4831,0.1443,0.000000,0.579845,-0.562971,0.564505,-0.590583,0.575243,-0.561437
1.4754,0.016773,0.000000,-0.045783,0.045783,0.0000,0.0000,0.0000,-0.002351,-0.050621,0.052155,0.4269,0.4831,0.1443,0.000000,0.579845,-0.562971,0.564505,-0.590583,0.575243,-0.561437
1.4921,0.016755,0.000000,-0.044321,0.044321,0.0000,0.0000,0.0000,-0.002351,-0.053689,0.049087,0.4269,0.4831,0.1443,0.000000,0.579845,-0.562971,0.564505,-0.590583,0.575243,-0.561437
1.5089,0.016766,0.000000,-0.042858,0.042858,0.0000,0.0000,0.0000,-0.002351,-0.050621,0.047553,0.4269,0.4831,0.1443,0.000000,0.579845,-0.562971,0.564505,-0.590583,0.575243,-0.561437
1.5256,0.016752,0.000000,-0.041396,0.041396,0.0000,0.0000,0.0000,-0.002351,-0.044485,0.046019,0.4269,0.4831,0.1443,0.000000,0.579845,-0.562971,0.564505,-0.590583,0.575243,-0.561437
1.5424,0.016768,0.000000,-0.039933,0.039933,0.0000,0.0000,0.0000,-0.002339,-0.042951,0.042951,0.4371,0.5337,0.0900,0.000000,0.579845,-0.562971,0.564505,-0.592117,0.575243,-0.561437
1.5592,0.016764,0.000000,-0.038470,0.038470,0.0000,0.0000,0.0000,-0.002352,-0.046019,0.041417,0.4253,0.4776,0.1494,0.000000,0.579845,-0.562971,0.564505,-0.590583,0.575243,-0.561437
1.5759,0.016768,0.000000,-0.037006,0.037006,0.0000,0.0000,0.0000,-0.002352,-0.046019,0.041417,0.4253,0.4776,0.1494,0.000000,0.579845,-0.562971,0.564505,-0.590583,0.575243,-0.561437
1.5927,0.016752,0.000000,-0.035544,0.035544,0.0000,0.0000,0.0000,-0.002350,-0.042951,0.039884,0.4265,0.4834,0.1432,0.000000,0.579845,-0.562971,0.564505,-0.590583,0.575243,-0.561437
1.6098,0.017154,0.000000,-0.034048,0.034048,0.0000,0.0000,0.0000,-0.002350,-0.038350,0.039884,0.4265,0.4834,0.1432,0.000000,0.579845,-0.562971,0.564505,-0.590583,0.575243,-0.561437
1.6266,0.016756,0.000000,-0.032585,0.032585,0.0000,0.0000,0.0000,-0.002350,-0.038350,0.038350,0.4265,0.4834,0.1432,0.000000,0.579845,-0.562971,0.564505,-0.590583,0.575243,-0.561437
1.6434,0.016782,0.000000,-0.031121,0.031121,0.0000,0.0000,0.0000,-0.002339,-0.039884,0.036816,0.4371,0.5336,0.0901,0.000000,0.579845,-0.562971,0.564505,-0.592117,0.575243,-0.561437
1.6601,0.016754,0.000000,-0.029659,0.029659,0.0000,0.0000,0.0000,-0.002339,-0.039884,0.036816,0.4371,0.5336,0.0901,0.000000,0.579845,-0.562971,0.564505,-0.592117,0.575243,-0.561437
1.6769,0.016791,0.000000,-0.028193,0.028193,0.0000,0.0000,0.0000,-0.002352,-0.038350,0.035282,0.4253,0.4776,0.1493,0.000000,0.579845,-0.562971,0.564505,-0.590583,0.575243,-0.561437
1.6938,0.016918,0.000000,-0.026717,0.026717,0.0000,0.0000,0.0000,-0.002350,-0.032214,0.035282,0.4265,0.4834,0.1432,0.000000,0.579845,-0.562971,0.564505,-0.590583,0.575243,-0.561437
1.7106,0.016768,0.000000,-0.025254,0.025254,0.0000,0.0000,0.0000,-0.002350,-0.027612,0.035282,0.4265,0.4834,0.1432,0.000000,0.579845,-0.562971,0.564505,-0.590583,0.575243,-0.561437
1.7274,0.016754,0.000000,-0.023792,0.023792,0.0000,0.0000,0.0000,-0.002350,-0.029146,0.033748,0.4265,0.4834,0.1432,0.000000,0.579845,-0.562971,0.564505,-0.590583,0.575243,-0.561437
1.7441,0.016770,0.000000,-0.022328,0.022328,0.0000,0.0000,0.0000,-0.002350,-0.029146,0.032214,0.4265,0.4834,0.1432,0.000000,0.579845,-0.562971,0.564505,-0.590583,0.575243,-0.561437
1.7609,0.016753,0.000000,-0.020866,0.020866,0.0000,0.0000,0.0000,-0.002350,-0.029146,0.032214,0.4265,0.4834,0.1432,0.000000,0.579845,-0.562971,0.564505,-0.590583,0.575243,-0.561437
1.7777,0.016766,0.000000,-0.019403,0.019403,0.0000,0.0000,0.0000,-0.002350,-0.024544,0.029146,0.4265,0.4834,0.1432,0.000000,0.579845,-0.562971,0.564505,-0.590583,0.575243,-0.561437
1.7944,0.016750,0.000000,-0.017941,0.017941,0.0000,0.0000,0.0000,-0.002350,-0.023010,0.024544,0.4265,0.4834,0.1432,0.000000,0.579845,-0.562971,0.564505,-0.590583,0.575243,-0.561437
1.8112,0.016772,0.000000,-0.016478,0.016478,0.0000,0.0000,0.0000,-0.002350,-0.027612,0.021476,0.4265,0.4834,0.1432,0.000000,0.579845,-0.562971,0.564505,-0.590583,0.575243,-0.561437
1.8279,0.016763,0.000000,-0.015015,0.015015,0.0000,0.0000,0.0000,-0.002350,-0.024544,0.018408,0.4265,0.4834,0.1432,0.000000,0.579845,-0.562971,0.564505,-0.590583,0.575243,-0.561437
1.8447,0.016768,0.000000,-0.013552,0.013552,0.0000,0.0000,0.0000,-0.002350,-0.024544,0.018408,0.4265,0.4834,0.1432,0.000000,0.579845,-0.562971,0.564505,-0.590583,0.575243,-0.561437
1.8615,0.016760,0.000000,-0.012089,0.012089,0.0000,0.0000,0.0000,-0.002350,-0.018408,0.016874,0.4265,0.4834,0.1432,0.000000,0.579845,-0.562971,0.564505,-0.590583,0.575243,-0.561437
1.8782,0.016770,0.000000,-0.010626,0.010626,0.0000,0.0000,0.0000,-0.002350,-0.013806,0.015340,0.4265,0.4834,0.1432,0.000000,0.579845,-0.562971,0.564505,-0.590583,0.575243,-0.561437
1.8950,0.016759,0.000000,-0.009163,0.009163,0.0000,0.0000,0.0000,-0.002339,-0.013806,0.013806,0.4371,0.5336,0.0901,0.000000,0.579845,-0.562971,0.564505,-0.592117,0.575243,-0.561437
1.9118,0.016766,0.000000,-0.007700,0.007700,0.0000,0.0000,0.0000,-0.002352,-0.013806,0.012272,0.4253,0.4776,0.1493,0.000000,0.579845,-0.562971,0.564505,-0.590583,0.575243,-0.561437
1.9287,0.016914,0.000000,-0.006224,0.006224,0.0000,0.0000,0.0000,-0.002339,-0.013806,0.009204,0.4373,0.5342,0.0894,0.000000,0.579845,-0.562971,0.564505,-0.592117,0.575243,-0.561437
1.9455,0.016774,0.000000,-0.004760,0.004760,0.0000,0.0000,0.0000,-0.002339,-0.013806,0.009204,0.4373,0.5342,0.0894,0.000000,0.579845,-0.562971,0.564505,-0.592117,0.575243,-0.561437
1.9622,0.016750,0.000000,-0.003299,0.003299,0.0000,0.0000,0.0000,-0.002352,-0.012272,0.007670,0.4252,0.4776,0.1494,0.000000,0.579845,-0.562971,0.564505,-0.590583,0.575243,-0.561437
1.9790,0.016750,0.000000,-0.001837,0.001837,0.0000,0.0000,0.0000,-0.002350,-0.007670,0.007670,0.4265,0.4835,0.1432,0.000000,0.579845,-0.562971,0.564505,-0.590583,0.575243,-0.561437
1.9957,0.016779,0.000000,-0.000372,0.000372,0.0000,0.0000,0.0000,-0.002350,-0.004602,0.007670,0.4265,0.4835,0.1432,0.000000,0.579845,-0.562971,0.564505,-0.590583,0.575243,-0.561437
2.0125,0.016753,0.000000,0.001090,-0.001090,0.0000,0.0000,0.0000,-0.002339,-0.006136,0.006136,0.4371,0.5336,0.0901,0.000000,0.579845,-0.562971,0.564505,-0.592117,0.575243,-0.561437
2.0292,0.016760,0.000000,0.002552,-0.002552,0.0000,0.0000,0.0000,-0.002352,-0.003068,0.004602,0.4253,0.4776,0.1493,0.000000,0.579845,-0.562971,0.564505,-0.590583,0.575243,-0.561437
2.0460,0.016760,0.000000,0.004015,-0.004015,0.0000,0.0000,0.0000,-0.002352,-0.003068,0.004602,0.4253,0.4776,0.1493,0.000000,0.579845,-0.562971,0.564505,-0.590583,0.575243,-0.561437
2.0628,0.016755,0.000000,0.005477,-0.005477,0.0000,0.0000,0.0000,-0.002339,0.001534,0.003068,0.4373,0.5342,0.0894,0.000000,0.579845,-0.562971,0.564505,-0.592117,0.575243,-0.561437
2.0795,0.016763,0.000000,0.006940,-0.006940,0.0000,0.0000,0.0000,-0.002352,0.000000,-0.001534,0.4252,0.4776,0.1494,0.000000,0.579845,-0.562971,0.564505,-0.590583,0.575243,-0.561437
2.0963,0.016755,0.000000,0.008402,-0.008402,0.0000,0.0000,0.0000,-0.002339,-0.001534,-0.001534,0.4373,0.5343,0.0894,0.000000,0.579845,-0.562971,0.564505,-0.592117,0.575243,-0.561437
2.1130,0.016757,0.000000,0.009864,-0.009864,0.0000,0.0000,0.0000,-0.002340,0.003068,-0.003068,0.4360,0.5283,0.0957,0.000000,0.579845,-0.562971,0.564505,-0.592117,0.575243,-0.561437
2.1298,0.016752,0.000000,0.011326,-0.011326,0.0000,0.0000,0.0000,-0.002352,0.007670,-0.003068,0.4254,0.4782,0.1488,0.000000,0.579845,-0.562971,0.564505,-0.590583,0.575243,-0.561437
2.1465,0.016756,0.000000,0.012788,-0.012788,0.0000,0.0000,0.0000,-0.002352,0.007670,-0.003068,0.4254,0.4782,0.1488,0.000000,0.579845,-0.562971,0.564505,-0.590583,0.575243,-0.561437
2.1633,0.016748,0.000000,0.014250,-0.014250,0.0000,0.0000,0.0000,-0.002339,0.007670,-0.006136,0.4373,0.5342,0.0895,0.000000,0.579845,-0.562971,0.564505,-0.592117,0.575243,-0.561437
2.1800,0.016749,0.000000,0.015712,-0.015712,0.0000,0.0000,0.0000,-0.002352,0.006136,-0.009204,0.4252,0.4776,0.1494,0.000000,0.579845,-0.562971,0.564505,-0.590583,0.575243,-0.561437
2.1968,0.016753,0.000000,0.017174,-0.017174,0.0000,0.0000,0.0000,-0.002350,0.009204,-0.010738,0.4265,0.4835,0.1432,0.000000,0.579845,-0.562971,0.564505,-0.590583,0.575243,-0.561437
2.2136,0.016758,0.000000,0.018636,-0.018636,0.0000,0.0000,0.0000,-0.002350,0.015340,-0.010738,0.4265,0.4835,0.1432,0.000000,0.579845,-0.562971,0.564505,-0.590583,0.575243,-0.561437
2.2303,0.016763,0.000000,0.020099,-0.020099,0.0000,0.0000,0.0000,-0.002350,0.013806,-0.013806,0.4265,0.4835,0.1432,0.000000,0.579845,-0.562971,0.564505,-0.590583,0.575243,-0.561437
2.2471,0.016759,0.000000,0.021561,-0.021561,0.0000,0.0000,0.0000,-0.002350,0.013806,-0.013806,0.4265,0.4835,0.1432,0.000000,0.579845,-0.562971,0.564505,-0.590583,0.575243,-0.561437
2.2638,0.016758,0.000000,0.023024,-0.023024,0.0000,0.0000,0.0000,-0.002350,0.010738,-0.016874,0.4265,0.4835,0.1432,0.000000,0.579845,-0.562971,0.564505,-0.590583,0.575243,-0.561437
2.2806,0.016753,0.000000,0.024486,-0.024486,0.0000,0.0000,0.0000,-0.002350,0.015340,-0.016874,0.4265,0.4835,0.1432,0.000000,0.579845,-0.562971,0.564505,-0.590583,0.575243,-0.561437
2.2973,0.016752,0.000000,0.025947,-0.025947,0.0000,0.0000,0.0000,-0.002350,0.019942,-0.016874,0.4265,0.4835,0.1432,0.000000,0.579845,-0.562971,0.564505,-0.590583,0.575243,-0.561437
2.3141,0.016758,0.000000,0.027410,-0.027410,0.0000,0.0000,0.0000,-0.002350,0.021476,-0.018408,0.4265,0.4835,0.1432,0.000000,0.579845,-0.562971,0.564505,-0.590583,0.575243,-0.561437
2.3309,0.016757,0.000000,0.028872,-0.028872,0.0000,0.0000,0.0000,-0.002350,0.019942,-0.021476,0.4265,0.4835,0.1432,0.000000,0.579845,-0.562971,0.564505,-0.590583,0.575243,-0.561437
2.3476,0.016765,0.000000,0.030335,-0.030335,0.0000,0.0000,0.0000,-0.002350,0.019942,-0.021476,0.4265,0.4835,0.1432,0.000000,0.579845,-0.562971,0.564505,-0.590583,0.575243,-0.561437
2.3645,0.016899,0.000000,0.031810,-0.031810,0.0000,0.0000,0.0000,-0.002350,0.024544,-0.024544,0.4265,0.4835,0.1432,0.000000,0.579845,-0.562971,0.564505,-0.590583,0.575243,-0.561437
2.3813,0.016750,0.000000,0.033272,-0.033272,0.0000,0.0000,0.0000,-0.002350,0.029146,-0.026078,0.4265,0.4835,0.1432,0.000000,0.579845,-0.562971,0.564505,-0.590583,0.575243,-0.561437
2.3983,0.017012,0.000000,0.034756,-0.034756,0.0000,0.0000,0.0000,-0.002350,0.027612,-0.027612,0.4265,0.4835,0.1432,0.000000,0.579845,-0.562971,0.564505,-0.590583,0.575243,-0.561437
2.4150,0.016752,0.000000,0.036218,-0.036218,0.0000,0.0000,0.0000,-0.002339,0.024544,-0.029146,0.4371,0.5336,0.0901,0.000000,0.579845,-0.562971,0.564505,-0.592117,0.575243,-0.561437
2.4318,0.016729,0.000000,0.037678,-0.037678,0.0000,0.0000,0.0000,-0.002339,0.024544,-0.029146,0.4371,0.5336,0.0901,0.000000,0.579845,-0.562971,0.564505,-0.592117,0.575243,-0.561437
2.4485,0.016766,0.000000,0.039141,-0.039141,0.0000,0.0000,0.0000,-0.002365,0.036816,-0.032214,0.4748,0.4953,0.2028,0.000000,0.579845,-0.562971,0.564505,-0.590583,0.575243,-0.559903
2.4653,0.016747,0.000000,0.040603,-0.040603,0.0000,0.0000,0.0000,-0.002349,0.035282,-0.035282,0.4213,0.4816,0.1376,0.000000,0.579845,-0.562971,0.564505,-0.590583,0.575243,-0.561437
2.4820,0.016752,0.000000,0.042065,-0.042065,0.0000,0.0000,0.0000,-0.002351,0.030680,-0.036816,0.4269,0.4830,0.1444,0.000000,0.579845,-0.562971,0.564505,-0.590583,0.575243,-0.561437
2.4988,0.016743,0.000000,0.043526,-0.043526,0.0000,0.0000,0.0000,-0.002351,0.035282,-0.036816,0.4269,0.4830,0.1444,0.000000,0.579845,-0.562971,0.564505,-0.590583,0.575243,-0.561437
2.5155,0.016742,0.000000,0.044987,-0.044987,0.0000,0.0000,0.0000,-0.002339,0.046019,-0.039884,0.4371,0.5337,0.0900,0.000000,0.579845,-0.562971,0.564505,-0.592117,0.575243,-0.561437
2.5323,0.016763,0.000000,0.046450,-0.046450,0.0000,0.0000,0.0000,-0.002352,0.044485,-0.044485,0.4253,0.4776,0.1494,0.000000,0.579845,-0.562971,0.564505,-0.590583,0.575243,-0.561437
2.5490,0.016747,0.000000,0.047911,-0.047911,0.0000,0.0000,0.0000,-0.002352,0.044485,-0.044485,0.4253,0.4776,0.1494,0.000000,0.579845,-0.562971,0.564505,-0.590583,0.575243,-0.561437
2.5658,0.016741,0.000000,0.049372,-0.049372,0.0000,0.0000,0.0000,-0.002350,0.038350,-0.044485,0.4265,0.4834,0.1432,0.000000,0.579845,-0.562971,0.564505,-0.590583,0.575243,-0.561437
2.5825,0.016749,0.000000,0.050834,-0.050834,0.0000,0.0000,0.0000,-0.002350,0.041417,-0.044485,0.4265,0.4834,0.1432,0.000000,0.579845,-0.562971,0.564505,-0.590583,0.575243,-0.561437
2.5993,0.016774,0.000000,0.052297,-0.052297,0.0000,0.0000,0.0000,-0.002350,0.050621,-0.046019,0.4265,0.4834,0.1432,0.000000,0.579845,-0.562971,0.564505,-0.590583,0.575243,-0.561437
2.6160,0.016737,0.000000,0.053758,-0.053758,0.0000,0.0000,0.0000,-0.002350,0.050621,-0.047553,0.4265,0.4834,0.1432,0.000000,0.579845,-0.562971,0.564505,-0.590583,0.575243,-0.561437
2.6328,0.016752,0.000000,0.055220,-0.055220,0.0000,0.0000,0.0000,-0.002350,0.049087,-0.050621,0.4265,0.4834,0.1432,0.000000,0.579845,-0.562971,0.564505,-0.590583,0.575243,-0.561437
2.6495,0.016746,0.000000,0.056681,-0.056681,0.0000,0.0000,0.0000,-0.002350,0.049087,-0.050621,0.4265,0.4834,0.1432,0.000000,0.579845,-0.562971,0.564505,-0.590583,0.575243,-0.561437
2.6663,0.016750,0.000000,0.058143,-0.058143,0.0000,0.0000,0.0000,-0.002350,0.050621,-0.053689,0.4265,0.4834,0.1432,0.000000,0.579845,-0.562971,0.564505,-0.590583,0.575243,-0.561437
2.6832,0.016927,0.000000,0.059620,-0.059620,0.0000,0.0000,0.0000,-0.002339,0.056757,-0.055223,0.4371,0.5336,0.0901,0.000000,0.579845,-0.562971,0.564505,-0.592117,0.575243,-0.561437
2.6999,0.016754,0.000000,0.061082,-0.061082,0.0000,0.0000,0.0000,-0.002340,0.059825,-0.055223,0.4360,0.5284,0.0956,0.000000,0.579845,-0.562971,0.564505,-0.592117,0.575243,-0.561437
2.7167,0.016770,0.000000,0.062546,-0.062546,0.0000,0.0000,0.0000,-0.002352,0.055223,-0.056757,0.4254,0.4782,0.1488,0.000000,0.579845,-0.562971,0.564505,-0.590583,0.575243,-0.561437
2.7335,0.016757,0.000000,0.064008,-0.064008,0.0000,0.0000,0.0000,-0.002352,0.055223,-0.056757,0.4254,0.4782,0.1488,0.000000,0.579845,-0.562971,0.564505,-0.590583,0.575243,-0.561437
2.7502,0.016744,0.000000,0.065469,-0.065469,0.0000,0.0000,0.0000,-0.002350,0.055223,-0.059825,0.4265,0.4834,0.1432,0.000000,0.579845,-0.562971,0.564505,-0.590583,0.575243,-0.561437
2.7670,0.016749,0.000000,0.066931,-0.066931,0.0000,0.0000,0.0000,-0.002350,0.061359,-0.059825,0.4265,0.4834,0.1432,0.000000,0.579845,-0.562971,0.564505,-0.590583,0.575243,-0.561437
2.7837,0.016767,0.000000,0.068394,-0.068394,0.0000,0.0000,0.0000,-0.002350,0.064427,-0.059825,0.4265,0.4834,0.1432,0.000000,0.579845,-0.562971,0.564505,-0.590583,0.575243,-0.561437
2.8005,0.016757,0.000000,0.069856,-0.069856,0.0000,0.0000,0.0000,-0.002350,0.062893,-0.062893,0.4265,0.4834,0.1432,0.000000,0.579845,-0.562971,0.564505,-0.590583,0.575243,-0.561437
2.8173,0.016755,0.000000,0.071319,-0.071319,0.0000,0.0000,0.0000,-0.002350,0.062893,-0.067495,0.4265,0.4834,0.1432,0.000000,0.579845,-0.562971,0.564505,-0.590583,0.575243,-0.561437
2.8340,0.016747,0.000000,0.072780,-0.072780,0.0000,0.0000,0.0000,-0.002350,0.062893,-0.067495,0.4265,0.4834,0.1432,0.000000,0.579845,-0.562971,0.564505,-0.590583,0.575243,-0.561437
2.8507,0.016748,0.000000,0.074241,-0.074241,0.0000,0.0000,0.0000,-0.002339,0.069029,-0.069029,0.4371,0.5336,0.0901,0.000000,0.579845,-0.562971,0.564505,-0.592117,0.575243,-0.561437
2.8675,0.016750,0.000000,0.075703,-0.075703,0.0000,0.0000,0.0000,-0.002340,0.072097,-0.069029,0.4360,0.5284,0.0956,0.000000,0.579845,-0.562971,0.564505,-0.592117,0.575243,-0.561437
2.8842,0.016743,0.000000,0.077164,-0.077164,0.0000,0.0000,0.0000,-0.002352,0.069029,-0.070563,0.4254,0.4782,0.1488,0.000000,0.579845,-0.562971,0.564505,-0.590583,0.575243,-0.561437
2.9010,0.016748,0.000000,0.078626,-0.078626,0.0000,0.0000,0.0000,-0.002350,0.069029,-0.072097,0.4265,0.4834,0.1432,0.000000,0.579845,-0.562971,0.564505,-0.590583,0.575243,-0.561437
2.9178,0.016822,0.000000,0.080094,-0.080094,0.0000,0.0000,0.0000,-0.002350,0.076699,-0.073631,0.4265,0.4834,0.1432,0.000000,0.579845,-0.562971,0.564505,-0.590583,0.575243,-0.561437
2.9346,0.016747,0.000000,0.081555,-0.081555,0.0000,0.0000,0.0000,-0.002350,0.076699,-0.073631,0.4265,0.4834,0.1432,0.000000,0.579845,-0.562971,0.564505,-0.590583,0.575243,-0.561437
2.9513,0.016766,0.000000,0.083018,-0.083018,0.0000,0.0000,0.0000,-0.002350,0.079767,-0.073631,0.4265,0.4834,0.1432,0.000000,0.579845,-0.562971,0.564505,-0.590583,0.575243,-0.561437
2.9681,0.016741,0.000000,0.084479,-0.084479,0.0000,0.0000,0.0000,-0.002350,0.076699,-0.073631,0.4265,0.4834,0.1432,0.000000,0.579845,-0.562971,0.564505,-0.590583,0.575243,-0.561437
2.9848,0.016748,0.000000,0.085941,-0.085941,0.0000,0.0000,0.0000,-0.002339,0.076699,-0.073631,0.4371,0.5336,0.0901,0.000000,0.579845,-0.562971,0.564505,-0.592117,0.575243,-0.561437
3.0015,0.016740,0.000000,0.087402,-0.087402,0.0000,0.0000,0.0000,-0.002352,0.084369,-0.073631,0.4253,0.4776,0.1493,0.000000,0.579845,-0.562971,0.564505,-0.590583,0.575243,-0.561437
3.0183,0.016753,0.000000,0.088864,-0.088864,0.0000,0.0000,0.0000,-0.002350,0.088971,-0.075165,0.4265,0.4834,0.1432,0.000000,0.579845,-0.562971,0.564505,-0.590583,0.575243,-0.561437
3.0351,0.016749,0.000000,0.090325,-0.090325,0.0000,0.0000,0.0000,-0.002350,0.088971,-0.075165,0.4265,0.4834,0.1432,0.000000,0.579845,-0.562971,0.564505,-0.590583,0.575243,-0.561437
3.0518,0.016745,0.000000,0.091787,-0.091787,0.0000,0.0000,0.0000,-0.002350,0.082835,-0.076699,0.4265,0.4834,0.1432,0.000000,0.579845,-0.562971,0.564505,-0.590583,0.575243,-0.561437
3.0685,0.016746,0.000000,0.093248,-0.093248,0.0000,0.0000,0.0000,-0.002350,0.082835,-0.078233,0.4265,0.4834,0.1432,0.000000,0.579845,-0.562971,0.564505,-0.590583,0.575243,-0.561437
3.0853,0.016755,0.000000,0.094710,-0.094710,0.0000,0.0000,0.0000,-0.002350,0.092039,-0.081301,0.4265,0.4834,0.1432,0.000000,0.579845,-0.562971,0.564505,-0.590583,0.575243,-0.561437
3.1020,0.016747,0.000000,0.096172,-0.096172,0.0000,0.0000,0.0000,-0.002350,0.092039,-0.085903,0.4265,0.4834,0.1432,0.000000,0.579845,-0.562971,0.564505,-0.590583,0.575243,-0.561437
3.1188,0.016755,0.000000,0.097634,-0.097634,0.0000,0.0000,0.0000,-0.002350,0.087437,-0.090505,0.4265,0.4834,0.1432,0.000000,0.579845,-0.562971,0.564505,-0.590583,0.575243,-0.561437
3.1355,0.016743,0.000000,0.099095,-0.099095,0.0000,0.0000,0.0000,-0.002350,0.087437,-0.090505,0.4265,0.4834,0.1432,0.000000,0.579845,-0.562971,0.564505,-0.590583,0.575243,-0.561437
3.1523,0.016746,0.000000,0.100556,-0.100556,0.0000,0.0000,0.0000,-0.002350,0.092039,-0.095107,0.4265,0.4834,0.1432,0.000000,0.579845,-0.562971,0.564505,-0.590583,0.575243,-0.561437
3.1690,0.016704,0.000000,0.102014,-0.102014,0.0000,0.0000,0.0000,-0.002350,0.099709,-0.095107,0.4265,0.4834,0.1432,0.000000,0.579845,-0.562971,0.564505,-0.590583,0.575243,-0.561437
3.1857,0.016751,0.000000,0.103476,-0.103476,0.0000,0.0000,0.0000,-0.002350,0.098175,-0.095107,0.4265,0.4834,0.1432,0.000000,0.579845,-0.562971,0.564505,-0.590583,0.575243,-0.561437
3.2025,0.016743,0.000000,0.104937,-0.104937,0.0000,0.0000,0.0000,-0.002350,0.093573,-0.098175,0.4265,0.4834,0.1432,0.000000,0.579845,-0.562971,0.564505,-0.590583,0.575243,-0.561437
3.2198,0.017275,0.000000,0.106444,-0.106444,0.0000,0.0000,0.0000,-0.002350,0.093573,-0.098175,0.4265,0.4834,0.1432,0.000000,0.579845,-0.562971,0.564505,-0.590583,0.575243,-0.561437
3.2365,0.016745,0.000000,0.107906,-0.107906,0.0000,0.0000,0.0000,-0.002350,0.098175,-0.101243,0.4265,0.4834,0.1432,0.000000,0.579845,-0.562971,0.564505,-0.590583,0.575243,-0.561437
3.2533,0.016748,0.000000,0.109367,-0.109367,0.0000,0.0000,0.0000,-0.002339,0.105845,-0.102777,0.4371,0.5336,0.0901,0.000000,0.579845,-0.562971,0.564505,-0.592117,0.575243,-0.561437
3.2700,0.016746,0.000000,0.110829,-0.110829,0.0000,0.0000,0.0000,-0.002352,0.105845,-0.102777,0.4253,0.4776,0.1493,0.000000,0.579845,-0.562971,0.564505,-0.590583,0.575243,-0.561437
3.2868,0.016749,0.000000,0.112290,-0.112290,0.0000,0.0000,0.0000,-0.002350,0.101243,-0.102777,0.4265,0.4834,0.1432,0.000000,0.579845,-0.562971,0.564505,-0.590583,0.575243,-0.561437
3.3035,0.016751,0.000000,0.113752,-0.113752,0.0000,0.0000,0.0000,-0.002350,0.105845,-0.105845,0.4265,0.4834,0.1432,0.000000,0.579845,-0.562971,0.564505,-0.590583,0.575243,-0.561437
3.3202,0.016739,0.000000,0.115213,-0.115213,0.0000,0.0000,0.0000,-0.002350,0.105845,-0.105845,0.4265,0.4834,0.1432,0.000000,0.579845,-0.562971,0.564505,-0.590583,0.575243,-0.561437
3.3370,0.016744,0.000000,0.116674,-0.116674,0.0000,0.0000,0.0000,-0.002350,0.116583,-0.108913,0.4265,0.4834,0.1432,0.000000,0.579845,-0.562971,0.564505,-0.590583,0.575243,-0.561437
3.3537,0.016740,0.000000,0.118135,-0.118135,0.0000,0.0000,0.0000,-0.002339,0.115049,-0.113515,0.4371,0.5336,0.0901,0.000000,0.579845,-0.562971,0.564505,-0.592117,0.575243,-0.561437
3.3705,0.016744,0.000000,0.119596,-0.119596,0.0000,0.0000,0.0000,-0.002352,0.108913,-0.116583,0.4253,0.4776,0.1493,0.000000,0.579845,-0.562971,0.564505,-0.590583,0.575243,-0.561437
3.3872,0.016747,0.000000,0.121057,-0.121057,0.0000,0.0000,0.0000,-0.002350,0.113515,-0.118117,0.4265,0.4834,0.1432,0.000000,0.579845,-0.562971,0.564505,-0.590583,0.575243,-0.561437
3.4040,0.016744,0.000000,0.122519,-0.122519,0.0000,0.0000,0.0000,-0.002350,0.122718,-0.119651,0.4265,0.4834,0.1432,0.000000,0.579845,-0.562971,0.564505,-0.590583,0.575243,-0.561437
3.4207,0.016744,0.000000,0.123980,-0.123980,0.0000,0.0000,0.0000,-0.002350,0.122718,-0.119651,0.4265,0.4834,0.1432,0.000000,0.579845,-0.562971,0.564505,-0.590583,0.575243,-0.561437
3.4374,0.016745,0.000000,0.125441,-0.125441,0.0000,0.0000,0.0000,-0.002350,0.119651,-0.121184,0.4265,0.4834,0.1432,0.000000,0.579845,-0.562971,0.564505,-0.590583,0.575243,-0.561437
3.4542,0.016740,0.000000,0.126902,-0.126902,0.0000,0.0000,0.0000,-0.002350,0.115049,-0.119651,0.4265,0.4834,0.1432,0.000000,0.579845,-0.562971,0.564505,-0.590583,0.575243,-0.561437
3.4709,0.016759,0.000000,0.128365,-0.128365,0.0000,0.0000,0.0000,-0.002339,0.119651,-0.122718,0.4371,0.5336,0.0901,0.000000,0.579845,-0.562971,0.564505,-0.592117,0.575243,-0.561437
3.4877,0.016749,0.000000,0.129826,-0.129826,0.0000,0.0000,0.0000,-0.002352,0.128854,-0.125786,0.4253,0.4776,0.1493,0.000000,0.579845,-0.562971,0.564505,-0.590583,0.575243,-0.561437
3.5045,0.016759,0.000000,0.131289,-0.131289,0.0000,0.0000,0.0000,-0.002352,0.128854,-0.125786,0.4253,0.4776,0.1493,0.000000,0.579845,-0.562971,0.564505,-0.590583,0.575243,-0.561437
3.5212,0.016741,0.000000,0.132750,-0.132750,0.0000,0.0000,0.0000,-0.002339,0.127320,-0.127320,0.4373,0.5342,0.0894,0.000000,0.579845,-0.562971,0.564505,-0.592117,0.575243,-0.561437
3.5379,0.016745,0.000000,0.134211,-0.134211,0.0000,0.0000,0.0000,-0.002352,0.122718,-0.128854,0.4252,0.4776,0.1494,0.000000,0.579845,-0.562971,0.564505,-0.590583,0.575243,-0.561437
3.5547,0.016743,0.000000,0.135672,-0.135672,0.0000,0.0000,0.0000,-0.002350,0.125786,-0.128854,0.4265,0.4835,0.1432,0.000000,0.579845,-0.562971,0.564505,-0.590583,0.575243,-0.561437
3.5714,0.016755,0.000000,0.137134,-0.137134,0.0000,0.0000,0.0000,-0.002350,0.134990,-0.130388,0.4265,0.4835,0.1432,0.000000,0.579845,-0.562971,0.564505,-0.590583,0.575243,-0.561437
3.5882,0.016746,0.000000,0.138595,-0.138595,0.0000,0.0000,0.0000,-0.002350,0.133456,-0.130388,0.4265,0.4835,0.1432,0.000000,0.579845,-0.562971,0.564505,-0.590583,0.575243,-0.561437
3.6050,0.016764,0.000000,0.140058,-0.140058,0.0000,0.0000,0.0000,-0.002350,0.133456,-0.130388,0.4265,0.4835,0.1432,0.000000,0.579845,-0.562971,0.564505,-0.590583,0.575243,-0.561437
3.6217,0.016747,0.000000,0.141520,-0.141520,0.0000,0.0000,0.0000,-0.002350,0.130388,-0.131922,0.4265,0.4835,0.1432,0.000000,0.579845,-0.562971,0.564505,-0.590583,0.575243,-0.561437
3.6385,0.016774,0.000000,0.142984,-0.142984,0.0000,0.0000,0.0000,-0.002350,0.136524,-0.133456,0.4265,0.4835,0.1432,0.000000,0.579845,-0.562971,0.564505,-0.590583,0.575243,-0.561437
3.6552,0.016742,0.000000,0.144445,-0.144445,0.0000,0.0000,0.0000,-0.002350,0.142660,-0.136524,0.4265,0.4835,0.1432,0.000000,0.579845,-0.562971,0.564505,-0.590583,0.575243,-0.561437
3.6723,0.017058,0.000000,0.145933,-0.145933,0.0000,0.0000,0.0000,-0.002339,0.141126,-0.144194,0.4371,0.5336,0.0901,0.000000,0.579845,-0.562971,0.564505,-0.592117,0.575243,-0.561437
3.6890,0.016743,0.000000,0.147394,-0.147394,0.0000,0.0000,0.0000,-0.002352,0.138058,-0.145728,0.4253,0.4776,0.1493,0.000000,0.579845,-0.562971,0.564505,-0.590583,0.575243,-0.561437
3.7058,0.016765,0.000000,0.148857,-0.148857,0.0000,0.0000,0.0000,-0.002352,0.138058,-0.145728,0.4253,0.4776,0.1493,0.000000,0.579845,-0.562971,0.564505,-0.590583,0.575243,-0.561437
3.7225,0.016744,0.000000,0.150318,-0.150318,0.0000,0.0000,0.0000,-0.002350,0.142660,-0.145728,0.4265,0.4834,0.1432,0.000000,0.579845,-0.562971,0.564505,-0.590583,0.575243,-0.561437
3.7393,0.016752,0.000000,0.151780,-0.151780,0.0000,0.0000,0.0000,-0.002350,0.147262,-0.147262,0.4265,0.4834,0.1432,0.000000,0.579845,-0.562971,0.564505,-0.590583,0.575243,-0.561437
3.7560,0.016742,0.000000,0.153241,-0.153241,0.0000,0.0000,0.0000,-0.002350,0.147262,-0.150330,0.4265,0.4834,0.1432,0.000000,0.579845,-0.562971,0.564505,-0.590583,0.575243,-0.561437
3.7728,0.016761,0.000000,0.154704,-0.154704,0.0000,0.0000,0.0000,-0.002350,0.144194,-0.150330,0.4265,0.4834,0.1432,0.000000,0.579845,-0.562971,0.564505,-0.590583,0.575243,-0.561437
3.7895,0.016743,0.000000,0.156165,-0.156165,0.0000,0.0000,0.0000,-0.002350,0.150330,-0.151864,0.4265,0.4834,0.1432,0.000000,0.579845,-0.562971,0.564505,-0.590583,0.575243,-0.561437
3.8063,0.016819,0.000000,0.157633,-0.157633,0.0000,0.0000,0.0000,-0.002350,0.150330,-0.151864,0.4265,0.4834,0.1432,0.000000,0.579845,-0.562971,0.564505,-0.590583,0.575243,-0.561437
3.8231,0.016747,0.000000,0.159094,-0.159094,0.0000,0.0000,0.0000,-0.002350,0.153398,-0.153398,0.4265,0.4834,0.1432,0.000000,0.579845,-0.562971,0.564505,-0.590583,0.575243,-0.561437
3.8398,0.016754,0.000000,0.160556,-0.160556,0.0000,0.0000,0.0000,-0.002350,0.150330,-0.154932,0.4265,0.4834,0.1432,0.000000,0.579845,-0.562971,0.564505,-0.590583,0.575243,-0.561437
3.8566,0.016743,0.000000,0.162017,-0.162017,0.0000,0.0000,0.0000,-0.002339,0.148796,-0.156466,0.4371,0.5336,0.0901,0.000000,0.579845,-0.562971,0.564505,-0.592117,0.575243,-0.561437
3.8733,0.016758,0.000000,0.163480,-0.163480,0.0000,0.0000,0.0000,-0.002352,0.159534,-0.158000,0.4253,0.4776,0.1493,0.000000,0.579845,-0.562971,0.564505,-0.590583,0.575243,-0.561437
3.8901,0.016749,0.000000,0.164942,-0.164942,0.0000,0.0000,0.0000,-0.002350,0.161068,-0.159534,0.4265,0.4834,0.1432,0.000000,0.579845,-0.562971,0.564505,-0.590583,0.575243,-0.561437
3.9069,0.016829,0.000000,0.166410,-0.166410,0.0000,0.0000,0.0000,-0.002350,0.161068,-0.159534,0.4265,0.4834,0.1432,0.000000,0.579845,-0.562971,0.564505,-0.590583,0.575243,-0.561437
3.9237,0.016744,0.000000,0.167871,-0.167871,0.0000,0.0000,0.0000,-0.002350,0.156466,-0.162602,0.4265,0.4834,0.1432,0.000000,0.579845,-0.562971,0.564505,-0.590583,0.575243,-0.561437
3.9404,0.016759,0.000000,0.169334,-0.169334,0.0000,0.0000,0.0000,-0.002350,0.156466,-0.164136,0.4265,0.4834,0.1432,0.000000,0.579845,-0.562971,0.564505,-0.590583,0.575243,-0.561437
3.9572,0.016743,0.000000,0.170795,-0.170795,0.0000,0.0000,0.0000,-0.002350,0.164136,-0.164136,0.4265,0.4834,0.1432,0.000000,0.579845,-0.562971,0.564505,-0.590583,0.575243,-0.561437
3.9739,0.016751,0.000000,0.172257,-0.172257,0.0000,0.0000,0.0000,-0.002350,0.170272,-0.167204,0.4265,0.4834,0.1432,0.000000,0.579845,-0.562971,0.564505,-0.590583,0.575243,-0.561437
3.9907,0.016742,0.000000,0.173718,-0.173718,0.0000,0.0000,0.0000,-0.002350,0.170272,-0.170272,0.4265,0.4834,0.1432,0.000000,0.579845,-0.562971,0.564505,-0.590583,0.575243,-0.561437
4.0077,0.017079,0.000000,0.173858,-0.173858,0.0000,0.0000,0.0000,-0.002350,0.170272,-0.170272,0.4265,0.4834,0.1432,0.000000,0.579845,-0.562971,0.564505,-0.590583,0.575243,-0.561437
4.0245,0.016740,0.000000,0.172397,-0.172397,0.0000,0.0000,0.0000,-0.002350,0.167204,-0.171806,0.4265,0.4834,0.1432,0.000000,0.579845,-0.562971,0.564505,-0.590583,0.575243,-0.561437
4.0412,0.016749,0.000000,0.170935,-0.170935,0.0000,0.0000,0.0000,-0.002350,0.173340,-0.173340,0.4265,0.4834,0.1432,0.000000,0.579845,-0.562971,0.564505,-0.590583,0.575243,-0.561437
4.0580,0.016743,0.000000,0.169474,-0.169474,0.0000,0.0000,0.0000,-0.002350,0.174874,-0.174874,0.4265,0.4834,0.1432,0.000000,0.579845,-0.562971,0.564505,-0.590583,0.575243,-0.561437
4.0749,0.016951,0.000000,0.167995,-0.167995,0.0000,0.0000,0.0000,-0.002350,0.168738,-0.174874,0.4265,0.4834,0.1432,0.000000,0.579845,-0.562971,0.564505,-0.590583,0.575243,-0.561437
4.0917,0.016742,0.000000,0.166534,-0.166534,0.0000,0.0000,0.0000,-0.002350,0.168738,-0.173340,0.4265,0.4834,0.1432,0.000000,0.579845,-0.562971,0.564505,-0.590583,0.575243,-0.561437
4.1084,0.016752,0.000000,0.165072,-0.165072,0.0000,0.0000,0.0000,-0.002350,0.168738,-0.173340,0.4265,0.4834,0.1432,0.000000,0.579845,-0.562971,0.564505,-0.590583,0.575243,-0.561437
4.1252,0.016751,0.000000,0.163610,-0.163610,0.0000,0.0000,0.0000,-0.002350,0.171806,-0.173340,0.4265,0.4834,0.1432,0.000000,0.579845,-0.562971,0.564505,-0.590583,0.575243,-0.561437
4.1419,0.016754,0.000000,0.162148,-0.162148,0.0000,0.0000,0.0000,-0.002350,0.171806,-0.170272,0.4265,0.4834,0.1432,0.000000,0.579845,-0.562971,0.564505,-0.590583,0.575243,-0.561437
4.1587,0.016741,0.000000,0.160687,-0.160687,0.0000,0.0000,0.0000,-0.002350,0.168738,-0.170272,0.4265,0.4834,0.1432,0.000000,0.579845,-0.562971,0.564505,-0.590583,0.575243,-0.561437
4.1754,0.016753,0.000000,0.159225,-0.159225,0.0000,0.0000,0.0000,-0.002364,0.165670,-0.170272,0.4759,0.5005,0.1973,0.000000,0.579845,-0.562971,0.564505,-0.590583,0.575243,-0.559903
4.1922,0.016745,0.000000,0.157764,-0.157764,0.0000,0.0000,0.0000,-0.002349,0.162602,-0.170272,0.4212,0.4810,0.1382,0.000000,0.579845,-0.562971,0.564505,-0.590583,0.575243,-0.561437
4.2089,0.016756,0.000000,0.156301,-0.156301,0.0000,0.0000,0.0000,-0.002349,0.162602,-0.170272,0.4212,0.4810,0.1382,0.000000,0.579845,-0.562971,0.564505,-0.590583,0.575243,-0.561437
4.2257,0.016748,0.000000,0.154840,-0.154840,0.0000,0.0000,0.0000,-0.002351,0.159534,-0.168738,0.4269,0.4831,0.1443,0.000000,0.579845,-0.562971,0.564505,-0.590583,0.575243,-0.561437
4.2424,0.016752,0.000000,0.153378,-0.153378,0.0000,0.0000,0.0000,-0.002351,0.158000,-0.168738,0.4269,0.4831,0.1443,0.000000,0.579845,-0.562971,0.564505,-0.590583,0.575243,-0.561437
4.2592,0.016744,0.000000,0.151917,-0.151917,0.0000,0.0000,0.0000,-0.002339,0.158000,-0.167204,0.4371,0.5337,0.0900,0.000000,0.579845,-0.562971,0.564505,-0.592117,0.575243,-0.561437
4.2766,0.017434,0.000000,0.150395,-0.150395,0.0000,0.0000,0.0000,-0.002352,0.158000,-0.164136,0.4253,0.4776,0.1494,0.000000,0.579845,-0.562971,0.564505,-0.590583,0.575243,-0.561437
4.2933,0.016741,0.000000,0.148935,-0.148935,0.0000,0.0000,0.0000,-0.002350,0.154932,-0.158000,0.4265,0.4834,0.1432,0.000000,0.579845,-0.562971,0.564505,-0.590583,0.575243,-0.561437
4.3101,0.016762,0.000000,0.147472,-0.147472,0.0000,0.0000,0.0000,-0.002350,0.154932,-0.158000,0.4265,0.4834,0.1432,0.000000,0.579845,-0.562971,0.564505,-0.590583,0.575243,-0.561437
4.3268,0.016743,0.000000,0.146011,-0.146011,0.0000,0.0000,0.0000,-0.002350,0.150330,-0.153398,0.4265,0.4834,0.1432,0.000000,0.579845,-0.562971,0.564505,-0.590583,0.575243,-0.561437
4.3436,0.016744,0.000000,0.144549,-0.144549,0.0000,0.0000,0.0000,-0.002350,0.150330,-0.153398,0.4265,0.4834,0.1432,0.000000,0.579845,-0.562971,0.564505,-0.590583,0.575243,-0.561437
4.3603,0.016740,0.000000,0.143089,-0.143089,0.0000,0.0000,0.0000,-0.002350,0.147262,-0.150330,0.4265,0.4834,0.1432,0.000000,0.579845,-0.562971,0.564505,-0.590583,0.575243,-0.561437
4.3771,0.016735,0.000000,0.141628,-0.141628,0.0000,0.0000,0.0000,-0.002339,0.144194,-0.148796,0.4371,0.5336,0.0901,0.000000,0.579845,-0.562971,0.564505,-0.592117,0.575243,-0.561437
4.3938,0.016747,0.000000,0.140167,-0.140167,0.0000,0.0000,0.0000,-0.002352,0.144194,-0.148796,0.4253,0.4776,0.1493,0.000000,0.579845,-0.562971,0.564505,-0.590583,0.575243,-0.561437
4.4106,0.016759,0.000000,0.138704,-0.138704,0.0000,0.0000,0.0000,-0.002352,0.144194,-0.148796,0.4253,0.4776,0.1493,0.000000,0.579845,-0.562971,0.564505,-0.590583,0.575243,-0.561437
4.4273,0.016738,0.000000,0.137244,-0.137244,0.0000,0.0000,0.0000,-0.002350,0.142660,-0.148796,0.4265,0.4834,0.1432,0.000000,0.579845,-0.562971,0.564505,-0.590583,0.575243,-0.561437
4.4440,0.016744,0.000000,0.135782,-0.135782,0.0000,0.0000,0.0000,-0.002364,0.141126,-0.148796,0.4759,0.5005,0.1973,0.000000,0.579845,-0.562971,0.564505,-0.590583,0.575243,-0.559903
4.4608,0.016741,0.000000,0.134322,-0.134322,0.0000,0.0000,0.0000,-0.002349,0.139592,-0.147262,0.4212,0.4810,0.1382,0.000000,0.579845,-0.562971,0.564505,-0.590583,0.575243,-0.561437
4.4775,0.016750,0.000000,0.132860,-0.132860,0.0000,0.0000,0.0000,-0.002351,0.136524,-0.144194,0.4269,0.4831,0.1443,0.000000,0.579845,-0.562971,0.564505,-0.590583,0.575243,-0.561437
4.4945,0.016932,0.000000,0.131382,-0.131382,0.0000,0.0000,0.0000,-0.002351,0.133456,-0.142660,0.4269,0.4831,0.1443,0.000000,0.579845,-0.562971,0.564505,-0.590583,0.575243,-0.561437
4.5112,0.016755,0.000000,0.129920,-0.129920,0.0000,0.0000,0.0000,-0.002351,0.133456,-0.142660,0.4269,0.4831,0.1443,0.000000,0.579845,-0.562971,0.564505,-0.590583,0.575243,-0.561437
4.5280,0.016745,0.000000,0.128459,-0.128459,0.0000,0.0000,0.0000,-0.002351,0.131922,-0.139592,0.4269,0.4831,0.1443,0.000000,0.579845,-0.562971,0.564505,-0.590583,0.575243,-0.561437
4.5447,0.016751,0.000000,0.126997,-0.126997,0.0000,0.0000,0.0000,-0.002352,0.131922,-0.134990,0.4866,0.5513,0.1435,0.000000,0.579845,-0.562971,0.564505,-0.592117,0.575243,-0.559903
4.5615,0.016748,0.000000,0.125535,-0.125535,0.0000,0.0000,0.0000,-0.002350,0.131922,-0.131922,0.4201,0.4758,0.1438,0.000000,0.579845,-0.562971,0.564505,-0.590583,0.575243,-0.561437
4.5782,0.016751,0.000000,0.124074,-0.124074,0.0000,0.0000,0.0000,-0.002350,0.127320,-0.130388,0.4270,0.4836,0.1438,0.000000,0.579845,-0.562971,0.564505,-0.590583,0.575243,-0.561437
4.5951,0.016851,0.000000,0.122603,-0.122603,0.0000,0.0000,0.0000,-0.002350,0.124252,-0.128854,0.4270,0.4836,0.1438,0.000000,0.579845,-0.562971,0.564505,-0.590583,0.575243,-0.561437
4.6118,0.016764,0.000000,0.121140,-0.121140,0.0000,0.0000,0.0000,-0.002350,0.124252,-0.128854,0.4261,0.4825,0.1438,0.000000,0.579845,-0.562971,0.564505,-0.590583,0.575243,-0.561437
4.6286,0.016743,0.000000,0.119679,-0.119679,0.0000,0.0000,0.0000,-0.002350,0.124252,-0.125786,0.4261,0.4825,0.1438,0.000000,0.579845,-0.562971,0.564505,-0.590583,0.575243,-0.561437
4.6453,0.016752,0.000000,0.118217,-0.118217,0.0000,0.0000,0.0000,-0.002352,0.122718,-0.125786,0.4867,0.5514,0.1435,0.000000,0.579845,-0.562971,0.564505,-0.592117,0.575243,-0.559903
4.6621,0.016721,0.000000,0.116758,-0.116758,0.0000,0.0000,0.0000,-0.002350,0.119651,-0.124252,0.4201,0.4758,0.1438,0.000000,0.579845,-0.562971,0.564505,-0.590583,0.575243,-0.561437
4.6788,0.016745,0.000000,0.115297,-0.115297,0.0000,0.0000,0.0000,-0.002350,0.119651,-0.124252,0.4270,0.4836,0.1438,0.000000,0.579845,-0.562971,0.564505,-0.590583,0.575243,-0.561437
4.6957,0.016899,0.000000,0.113822,-0.113822,0.0000,0.0000,0.0000,-0.002350,0.118117,-0.124252,0.4270,0.4836,0.1438,0.000000,0.579845,-0.562971,0.564505,-0.590583,0.575243,-0.561437
4.7124,0.016751,0.000000,0.112360,-0.112360,0.0000,0.0000,0.0000,-0.002350,0.118117,-0.124252,0.4261,0.4825,0.1438,0.000000,0.579845,-0.562971,0.564505,-0.590583,0.575243,-0.561437
4.7292,0.016744,0.000000,0.110899,-0.110899,0.0000,0.0000,0.0000,-0.002364,0.116583,-0.122718,0.4760,0.5006,0.1972,0.000000,0.579845,-0.562971,0.564505,-0.590583,0.575243,-0.559903
4.7459,0.016747,0.000000,0.109437,-0.109437,0.0000,0.0000,0.0000,-0.002338,0.115049,-0.122718,0.4320,0.5318,0.0844,0.000000,0.579845,-0.562971,0.564505,-0.592117,0.575243,-0.561437
4.7627,0.016743,0.000000,0.107976,-0.107976,0.0000,0.0000,0.0000,-0.002352,0.113515,-0.122718,0.4258,0.4778,0.1499,0.000000,0.579845,-0.562971,0.564505,-0.590583,0.575243,-0.561437
4.7794,0.016753,0.000000,0.106514,-0.106514,0.0000,0.0000,0.0000,-0.002339,0.108913,-0.119651,0.4372,0.5342,0.0894,0.000000,0.579845,-0.562971,0.564505,-0.592117,0.575243,-0.561437
4.7968,0.017350,0.000000,0.105000,-0.105000,0.0000,0.0000,0.0000,-0.002352,0.107379,-0.118117,0.4253,0.4776,0.1494,0.000000,0.579845,-0.562971,0.564505,-0.590583,0.575243,-0.561437
4.8135,0.016758,0.000000,0.103538,-0.103538,0.0000,0.0000,0.0000,-0.002352,0.107379,-0.118117,0.4253,0.4776,0.1494,0.000000,0.579845,-0.562971,0.564505,-0.590583,0.575243,-0.561437
4.8303,0.016747,0.000000,0.102076,-0.102076,0.0000,0.0000,0.0000,-0.002350,0.107379,-0.116583,0.4265,0.4835,0.1432,0.000000,0.579845,-0.562971,0.564505,-0.590583,0.575243,-0.561437
4.8470,0.016750,0.000000,0.100615,-0.100615,0.0000,0.0000,0.0000,-0.002350,0.104311,-0.115049,0.4265,0.4835,0.1432,0.000000,0.579845,-0.562971,0.564505,-0.590583,0.575243,-0.561437
4.8638,0.016745,0.000000,0.099153,-0.099153,0.0000,0.0000,0.0000,-0.002350,0.102777,-0.108913,0.4265,0.4835,0.1432,0.000000,0.579845,-0.562971,0.564505,-0.590583,0.575243,-0.561437
4.8805,0.016751,0.000000,0.097692,-0.097692,0.0000,0.0000,0.0000,-0.002339,0.101243,-0.102777,0.4371,0.5336,0.0901,0.000000,0.579845,-0.562971,0.564505,-0.592117,0.575243,-0.561437
4.8974,0.016862,0.000000,0.096220,-0.096220,0.0000,0.0000,0.0000,-0.002340,0.098175,-0.101243,0.4360,0.5284,0.0956,0.000000,0.579845,-0.562971,0.564505,-0.592117,0.575243,-0.561437
4.9142,0.016761,0.000000,0.094757,-0.094757,0.0000,0.0000,0.0000,-0.002340,0.098175,-0.101243,0.4360,0.5284,0.0956,0.000000,0.579845,-0.562971,0.564505,-0.592117,0.575243,-0.561437
4.9309,0.016749,0.000000,0.093296,-0.093296,0.0000,0.0000,0.0000,-0.002340,0.098175,-0.101243,0.4360,0.5284,0.0956,0.000000,0.579845,-0.562971,0.564505,-0.592117,0.575243,-0.561437
4.9477,0.016749,0.000000,0.091834,-0.091834,0.0000,0.0000,0.0000,-0.002352,0.096641,-0.096641,0.4254,0.4782,0.1488,0.000000,0.579845,-0.562971,0.564505,-0.590583,0.575243,-0.561437
4.9644,0.016746,0.000000,0.090373,-0.090373,0.0000,0.0000,0.0000,-0.002350,0.093573,-0.095107,0.4265,0.4834,0.1432,0.000000,0.579845,-0.562971,0.564505,-0.590583,0.575243,-0.561437
4.9812,0.016749,0.000000,0.088911,-0.088911,0.0000,0.0000,0.0000,-0.002350,0.092039,-0.093573,0.4265,0.4834,0.1432,0.000000,0.579845,-0.562971,0.564505,-0.590583,0.575243,-0.561437
4.9980,0.016864,0.000000,0.087440,-0.087440,0.0000,0.0000,0.0000,-0.002350,0.090505,-0.092039,0.4265,0.4834,0.1432,0.000000,0.579845,-0.562971,0.564505,-0.590583,0.575243,-0.561437
5.0148,0.016752,0.000000,0.085978,-0.085978,0.0000,0.0000,0.0000,-0.002350,0.090505,-0.092039,0.4265,0.4834,0.1432,0.000000,0.579845,-0.562971,0.564505,-0.590583,0.575243,-0.561437
5.0315,0.016751,0.000000,0.084516,-0.084516,0.0000,0.0000,0.0000,-0.002350,0.088971,-0.090505,0.4265,0.4834,0.1432,0.000000,0.579845,-0.562971,0.564505,-0.590583,0.575243,-0.561437
5.0483,0.016754,0.000000,0.083054,-0.083054,0.0000,0.0000,0.0000,-0.002339,0.088971,-0.088971,0.4371,0.5336,0.0901,0.000000,0.579845,-0.562971,0.564505,-0.592117,0.575243,-0.561437
5.0650,0.016742,0.000000,0.081593,-0.081593,0.0000,0.0000,0.0000,-0.002352,0.087437,-0.088971,0.4253,0.4776,0.1493,0.000000,0.579845,-0.562971,0.564505,-0.590583,0.575243,-0.561437
5.0818,0.016757,0.000000,0.080130,-0.080130,0.0000,0.0000,0.0000,-0.002350,0.085903,-0.087437,0.4265,0.4834,0.1432,0.000000,0.579845,-0.562971,0.564505,-0.590583,0.575243,-0.561437
5.0985,0.016755,0.000000,0.078668,-0.078668,0.0000,0.0000,0.0000,-0.002350,0.084369,-0.082835,0.4265,0.4834,0.1432,0.000000,0.579845,-0.562971,0.564505,-0.590583,0.575243,-0.561437
5.1153,0.016749,0.000000,0.077207,-0.077207,0.0000,0.0000,0.0000,-0.002350,0.084369,-0.082835,0.4265,0.4834,0.1432,0.000000,0.579845,-0.562971,0.564505,-0.590583,0.575243,-0.561437
5.1320,0.016752,0.000000,0.075745,-0.075745,0.0000,0.0000,0.0000,-0.002350,0.081301,-0.081301,0.4265,0.4834,0.1432,0.000000,0.579845,-0.562971,0.564505,-0.590583,0.575243,-0.561437
5.1488,0.016755,0.000000,0.074283,-0.074283,0.0000,0.0000,0.0000,-0.002350,0.078233,-0.081301,0.4265,0.4834,0.1432,0.000000,0.579845,-0.562971,0.564505,-0.590583,0.575243,-0.561437
5.1655,0.016745,0.000000,0.072821,-0.072821,0.0000,0.0000,0.0000,-0.002350,0.076699,-0.078233,0.4265,0.4834,0.1432,0.000000,0.579845,-0.562971,0.564505,-0.590583,0.575243,-0.561437
5.1823,0.016750,0.000000,0.071360,-0.071360,0.0000,0.0000,0.0000,-0.002350,0.075165,-0.075165,0.4265,0.4834,0.1432,0.000000,0.579845,-0.562971,0.564505,-0.590583,0.575243,-0.561437
5.1990,0.016758,0.000000,0.069897,-0.069897,0.0000,0.0000,0.0000,-0.002350,0.073631,-0.075165,0.4265,0.4834,0.1432,0.000000,0.579845,-0.562971,0.564505,-0.590583,0.575243,-0.561437
5.2158,0.016757,0.000000,0.068435,-0.068435,0.0000,0.0000,0.0000,-0.002350,0.073631,-0.075165,0.4265,0.4834,0.1432,0.000000,0.579845,-0.562971,0.564505,-0.590583,0.575243,-0.561437
5.2325,0.016747,0.000000,0.066973,-0.066973,0.0000,0.0000,0.0000,-0.002350,0.070563,-0.072097,0.4265,0.4834,0.1432,0.000000,0.579845,-0.562971,0.564505,-0.590583,0.575243,-0.561437
5.2493,0.016752,0.000000,0.065512,-0.065512,0.0000,0.0000,0.0000,-0.002350,0.070563,-0.069029,0.4265,0.4834,0.1432,0.000000,0.579845,-0.562971,0.564505,-0.590583,0.575243,-0.561437
5.2660,0.016747,0.000000,0.064050,-0.064050,0.0000,0.0000,0.0000,-0.002350,0.069029,-0.069029,0.4265,0.4834,0.1432,0.000000,0.579845,-0.562971,0.564505,-0.590583,0.575243,-0.561437
5.2828,0.016745,0.000000,0.062589,-0.062589,0.0000,0.0000,0.0000,-0.002339,0.064427,-0.069029,0.4371,0.5336,0.0901,0.000000,0.579845,-0.562971,0.564505,-0.592117,0.575243,-0.561437
5.2995,0.016760,0.000000,0.061126,-0.061126,0.0000,0.0000,0.0000,-0.002352,0.062893,-0.064427,0.4253,0.4776,0.1493,0.000000,0.579845,-0.562971,0.564505,-0.590583,0.575243,-0.561437
5.3163,0.016742,0.000000,0.059665,-0.059665,0.0000,0.0000,0.0000,-0.002352,0.062893,-0.064427,0.4253,0.4776,0.1493,0.000000,0.579845,-0.562971,0.564505,-0.590583,0.575243,-0.561437
5.3330,0.016753,0.000000,0.058203,-0.058203,0.0000,0.0000,0.0000,-0.002338,0.062893,-0.062893,0.3870,0.4495,0.1965,0.000000,0.579845,-0.562971,0.564505,-0.590583,0.576777,-0.561437
5.3498,0.016748,0.000000,0.056742,-0.056742,0.0000,0.0000,0.0000,-0.002352,0.062893,-0.062893,0.4305,0.4864,0.1383,0.000000,0.579845,-0.562971,0.564505,-0.590583,0.575243,-0.561437
5.3665,0.016752,0.000000,0.055280,-0.055280,0.0000,0.0000,0.0000,-0.002350,0.061359,-0.061359,0.4260,0.4825,0.1443,0.000000,0.579845,-0.562971,0.564505,-0.590583,0.575243,-0.561437
5.3833,0.016745,0.000000,0.053818,-0.053818,0.0000,0.0000,0.0000,-0.002350,0.058291,-0.059825,0.4260,0.4825,0.1443,0.000000,0.579845,-0.562971,0.564505,-0.590583,0.575243,-0.561437
5.4000,0.016758,0.000000,0.052356,-0.052356,0.0000,0.0000,0.0000,-0.002350,0.055223,-0.055223,0.4260,0.4825,0.1443,0.000000,0.579845,-0.562971,0.564505,-0.590583,0.575243,-0.561437
5.4168,0.016745,0.000000,0.050895,-0.050895,0.0000,0.0000,0.0000,-0.002350,0.055223,-0.055223,0.4260,0.4825,0.1443,0.000000,0.579845,-0.562971,0.564505,-0.590583,0.575243,-0.561437
5.4335,0.016742,0.000000,0.049434,-0.049434,0.0000,0.0000,0.0000,-0.002350,0.053689,-0.053689,0.4260,0.4825,0.1443,0.000000,0.579845,-0.562971,0.564505,-0.590583,0.575243,-0.561437
5.4503,0.016741,0.000000,0.047973,-0.047973,0.0000,0.0000,0.0000,-0.002350,0.055223,-0.055223,0.4260,0.4825,0.1443,0.000000,0.579845,-0.562971,0.564505,-0.590583,0.575243,-0.561437
5.4670,0.016752,0.000000,0.046511,-0.046511,0.0000,0.0000,0.0000,-0.002339,0.052155,-0.050621,0.4372,0.5337,0.0900,0.000000,0.579845,-0.562971,0.564505,-0.592117,0.575243,-0.561437
5.4838,0.016735,0.000000,0.045050,-0.045050,0.0000,0.0000,0.0000,-0.002352,0.047553,-0.047553,0.4253,0.4776,0.1494,0.000000,0.579845,-0.562971,0.564505,-0.590583,0.575243,-0.561437
