t,loop_dt,cmd_z,cmd_ant_l,cmd_ant_r,cmd_roll,cmd_pitch,cmd_yaw,pres_z,pres_ant_l,pres_ant_r,pres_roll,pres_pitch,pres_yaw,pres_j0,pres_j1,pres_j2,pres_j3,pres_j4,pres_j5,pres_j6
0.0000,0.000002,0.000000,-1.745329,1.745329,0.0000,0.0000,0.0000,-0.002520,-1.612214,1.606078,0.2730,0.8016,0.0927,0.000000,0.567573,-0.559903,0.564505,-0.592117,0.575243,-0.552233
0.0168,0.016759,0.000000,-1.742989,1.742989,0.0000,0.0000,0.0000,-0.002520,-1.612214,1.606078,0.2730,0.8016,0.0927,0.000000,0.567573,-0.559903,0.564505,-0.592117,0.575243,-0.552233
0.0335,0.016772,0.000000,-1.740647,1.740647,0.0000,0.0000,0.0000,-0.002520,-1.612214,1.606078,0.2730,0.8016,0.0927,0.000000,0.567573,-0.559903,0.564505,-0.592117,0.575243,-0.552233
0.0503,0.016762,0.000000,-1.738307,1.738307,0.0000,0.0000,0.0000,-0.002520,-1.616816,1.612214,0.2730,0.8016,0.0927,0.000000,0.567573,-0.559903,0.564505,-0.592117,0.575243,-0.552233
0.0671,0.016769,0.000000,-1.735965,1.735965,0.0000,0.0000,0.0000,-0.002495,-1.661301,1.659767,0.2735,0.7689,0.0924,0.000000,0.569107,-0.559903,0.564505,-0.592117,0.575243,-0.553767
0.0838,0.016754,0.000000,-1.733626,1.733626,0.0000,0.0000,0.0000,-0.002499,-1.742602,1.736466,0.3731,0.7743,0.1996,0.000000,0.570641,-0.559903,0.564505,-0.592117,0.575243,-0.552233
0.1006,0.016740,0.000000,-1.731289,1.731289,0.0000,0.0000,0.0000,-0.002498,-1.774816,1.768680,0.3627,0.7738,0.1884,0.000000,0.570641,-0.559903,0.564505,-0.592117,0.575243,-0.552233
0.1173,0.016769,0.000000,-1.728947,1.728947,0.0000,0.0000,0.0000,-0.002485,-1.776350,1.770214,0.3535,0.6898,0.2437,0.000000,0.572175,-0.559903,0.564505,-0.590583,0.575243,-0.553767
0.1341,0.016771,0.000000,-1.726606,1.726606,0.0000,0.0000,0.0000,-0.002485,-1.776350,1.770214,0.3535,0.6898,0.2437,0.000000,0.572175,-0.559903,0.564505,-0.590583,0.575243,-0.553767
0.1508,0.016736,0.000000,-1.724269,1.724269,0.0000,0.0000,0.0000,-0.002475,-1.767146,1.765612,0.3650,0.7494,0.1841,0.000000,0.572175,-0.559903,0.564505,-0.592117,0.575243,-0.553767
0.1676,0.016759,0.000000,-1.721929,1.721929,0.0000,0.0000,0.0000,-0.002476,-1.757942,1.761010,0.3638,0.7432,0.1904,0.000000,0.572175,-0.559903,0.564505,-0.592117,0.575243,-0.553767
0.1843,0.016758,0.000000,-1.719589,1.719589,0.0000,0.0000,0.0000,-0.002450,-1.750272,1.757942,0.3534,0.6906,0.0832,0.000000,0.572175,-0.561437,0.564505,-0.592117,0.575243,-0.555301
0.2011,0.016762,0.000000,-1.717249,1.717249,0.0000,0.0000,0.0000,-0.002439,-1.747204,1.754874,0.3049,0.6785,0.0410,0.000000,0.572175,-0.561437,0.564505,-0.592117,0.575243,-0.556835
0.2179,0.016753,0.000000,-1.714910,1.714910,0.0000,0.0000,0.0000,-0.002439,-1.747204,1.754874,0.3049,0.6785,0.0410,0.000000,0.572175,-0.561437,0.564505,-0.592117,0.575243,-0.556835
0.2346,0.016780,0.000000,-1.712567,1.712567,0.0000,0.0000,0.0000,-0.002439,-1.744136,1.751806,0.3385,0.5934,0.0460,0.000000,0.572175,-0.562971,0.564505,-0.590583,0.575243,-0.556835
0.2514,0.016752,0.000000,-1.710228,1.710228,0.0000,0.0000,0.0000,-0.002428,-1.739534,1.750272,0.3455,0.6531,-0.0083,0.000000,0.572175,-0.562971,0.564505,-0.592117,0.575243,-0.556835
0.2682,0.016780,0.000000,-1.707885,1.707885,0.0000,0.0000,0.0000,-0.002429,-1.738000,1.747204,0.3448,0.6468,-0.0026,0.000000,0.572175,-0.562971,0.564505,-0.592117,0.575243,-0.556835
0.2850,0.016830,0.000000,-1.705535,1.705535,0.0000,0.0000,0.0000,-0.002416,-1.736466,1.744136,0.2953,0.6300,-0.0566,0.000000,0.572175,-0.562971,0.564505,-0.592117,0.575243,-0.558369
0.3018,0.016766,0.000000,-1.703194,1.703194,0.0000,0.0000,0.0000,-0.002416,-1.736466,1.744136,0.2953,0.6300,-0.0566,0.000000,0.572175,-0.562971,0.564505,-0.592117,0.575243,-0.558369
0.3185,0.016747,0.000000,-1.700855,1.700855,0.0000,0.0000,0.0000,-0.002417,-1.736466,1.742602,0.3005,0.6317,-0.0510,0.000000,0.572175,-0.562971,0.564505,-0.592117,0.575243,-0.558369
0.3353,0.016770,0.000000,-1.698514,1.698514,0.0000,0.0000,0.0000,-0.002428,-1.736466,1.741068,0.2893,0.5808,0.0022,0.000000,0.572175,-0.562971,0.564505,-0.590583,0.575243,-0.558369
0.3520,0.016753,0.000000,-1.696175,1.696175,0.0000,0.0000,0.0000,-0.002414,-1.736466,1.741068,0.2409,0.5687,-0.0568,0.000000,0.572175,-0.562971,0.564505,-0.590583,0.575243,-0.559903
0.3688,0.016758,0.000000,-1.693835,1.693835,0.0000,0.0000,0.0000,-0.002404,-1.734932,1.741068,0.2566,0.6207,-0.1045,0.000000,0.572175,-0.562971,0.564505,-0.592117,0.575243,-0.559903
0.3856,0.016753,0.000000,-1.691496,1.691496,0.0000,0.0000,0.0000,-0.002405,-1.734932,1.741068,0.2550,0.6153,-0.0995,0.000000,0.572175,-0.562971,0.564505,-0.592117,0.575243,-0.559903
0.4023,0.016764,0.000000,-1.689155,1.689155,0.0000,0.0000,0.0000,-0.002405,-1.733398,1.741068,0.2550,0.6153,-0.0995,0.000000,0.573709,-0.562971,0.564505,-0.590583,0.575243,-0.559903
0.4191,0.016748,0.000000,-1.686817,1.686817,0.0000,0.0000,0.0000,-0.002405,-1.733398,1.741068,0.2944,0.5493,0.0075,0.000000,0.573709,-0.562971,0.564505,-0.590583,0.575243,-0.559903
0.4358,0.016754,0.000000,-1.684477,1.684477,0.0000,0.0000,0.0000,-0.002381,-1.728796,1.741068,0.3509,0.5912,-0.0037,0.000000,0.575243,-0.562971,0.564505,-0.592117,0.575243,-0.559903
0.4526,0.016753,0.000000,-1.682138,1.682138,0.0000,0.0000,0.0000,-0.002372,-1.722660,1.741068,0.3949,0.5712,0.0513,0.000000,0.576777,-0.562971,0.564505,-0.592117,0.575243,-0.559903
0.4693,0.016762,0.000000,-1.679798,1.679798,0.0000,0.0000,0.0000,-0.002397,-1.718058,1.738000,0.3404,0.5581,0.1524,0.000000,0.576777,-0.561437,0.564505,-0.590583,0.575243,-0.559903
0.4861,0.016763,0.000000,-1.677457,1.677457,0.0000,0.0000,0.0000,-0.002382,-1.710389,1.730330,0.3853,0.5239,0.0887,0.000000,0.576777,-0.562971,0.564505,-0.590583,0.575243,-0.559903
0.5029,0.016770,0.000000,-1.675115,1.675115,0.0000,0.0000,0.0000,-0.002382,-1.710389,1.730330,0.3853,0.5239,0.0887,0.000000,0.576777,-0.562971,0.564505,-0.590583,0.575243,-0.559903
0.5196,0.016758,0.000000,-1.672776,1.672776,0.0000,0.0000,0.0000,-0.002372,-1.705787,1.718058,0.3913,0.5782,0.0416,0.000000,0.576777,-0.562971,0.564505,-0.592117,0.575243,-0.559903
0.5364,0.016765,0.000000,-1.670435,1.670435,0.0000,0.0000,0.0000,-0.002373,-1.702719,1.707321,0.3907,0.5726,0.0465,0.000000,0.576777,-0.562971,0.564505,-0.592117,0.575243,-0.559903
0.5531,0.016749,0.000000,-1.668096,1.668096,0.0000,0.0000,0.0000,-0.002373,-1.699651,1.699651,0.3907,0.5726,0.0465,0.000000,0.576777,-0.562971,0.564505,-0.592117,0.575243,-0.559903
0.5699,0.016754,0.000000,-1.665757,1.665757,0.0000,0.0000,0.0000,-0.002373,-1.698117,1.693515,0.3907,0.5726,0.0465,0.000000,0.576777,-0.562971,0.564505,-0.592117,0.575243,-0.559903
0.5867,0.016762,0.000000,-1.663416,1.663416,0.0000,0.0000,0.0000,-0.002373,-1.698117,1.693515,0.3907,0.5726,0.0465,0.000000,0.576777,-0.562971,0.564505,-0.592117,0.575243,-0.559903
0.6034,0.016761,0.000000,-1.661076,1.661076,0.0000,0.0000,0.0000,-0.002386,-1.696583,1.690447,0.3516,0.6087,0.0992,0.000000,0.576777,-0.561437,0.564505,-0.592117,0.575243,-0.559903
0.6202,0.016754,0.000000,-1.658737,1.658737,0.0000,0.0000,0.0000,-0.002372,-1.695049,1.690447,0.3948,0.5694,0.0405,0.000000,0.576777,-0.562971,0.564505,-0.592117,0.575243,-0.559903
0.6369,0.016751,0.000000,-1.656398,1.656398,0.0000,0.0000,0.0000,-0.002373,-1.695049,1.690447,0.3903,0.5735,0.0467,0.000000,0.576777,-0.562971,0.564505,-0.592117,0.575243,-0.559903
0.6537,0.016752,0.000000,-1.654059,1.654059,0.0000,0.0000,0.0000,-0.002373,-1.695049,1.690447,0.3903,0.5735,0.0467,0.000000,0.576777,-0.562971,0.564505,-0.592117,0.575243,-0.559903
0.6708,0.017076,0.000000,-1.651675,1.651675,0.0000,0.0000,0.0000,-0.002373,-1.695049,1.688913,0.3903,0.5735,0.0467,0.000000,0.576777,-0.562971,0.564505,-0.592117,0.575243,-0.559903
0.6875,0.016759,0.000000,-1.649335,1.649335,0.0000,0.0000,0.0000,-0.002373,-1.695049,1.688913,0.3903,0.5735,0.0467,0.000000,0.576777,-0.562971,0.564505,-0.592117,0.575243,-0.559903
0.7043,0.016756,0.000000,-1.646995,1.646995,0.0000,0.0000,0.0000,-0.002373,-1.695049,1.688913,0.3903,0.5735,0.0467,0.000000,0.576777,-0.562971,0.564505,-0.592117,0.575243,-0.559903
0.7210,0.016749,0.000000,-1.644657,1.644657,0.0000,0.0000,0.0000,-0.002373,-1.695049,1.688913,0.3903,0.5735,0.0467,0.000000,0.576777,-0.562971,0.564505,-0.592117,0.575243,-0.559903
0.7378,0.016751,0.000000,-1.642318,1.642318,0.0000,0.0000,0.0000,-0.002373,-1.693515,1.688913,0.3903,0.5735,0.0467,0.000000,0.576777,-0.562971,0.564505,-0.592117,0.575243,-0.559903
0.7547,0.016917,0.000000,-1.639956,1.639956,0.0000,0.0000,0.0000,-0.002373,-1.688913,1.688913,0.3903,0.5735,0.0467,0.000000,0.576777,-0.562971,0.564505,-0.592117,0.575243,-0.559903
0.7717,0.017012,0.000000,-1.637580,1.637580,0.0000,0.0000,0.0000,-0.002373,-1.679709,1.688913,0.3903,0.5735,0.0467,0.000000,0.576777,-0.562971,0.564505,-0.592117,0.575243,-0.559903
0.7885,0.016767,0.000000,-1.635239,1.635239,0.0000,0.0000,0.0000,-0.002373,-1.667437,1.687379,0.3903,0.5735,0.0467,0.000000,0.576777,-0.562971,0.564505,-0.592117,0.575243,-0.559903
0.8053,0.016875,0.000000,-1.632883,1.632883,0.0000,0.0000,0.0000,-0.002373,-1.667437,1.687379,0.3903,0.5735,0.0467,0.000000,0.576777,-0.562971,0.564505,-0.592117,0.575243,-0.559903
0.8221,0.016776,0.000000,-1.630541,1.630541,0.0000,0.0000,0.0000,-0.002386,-1.662835,1.684311,0.3516,0.6086,0.0992,0.000000,0.576777,-0.561437,0.564505,-0.592117,0.575243,-0.559903
0.8389,0.016756,0.000000,-1.628201,1.628201,0.0000,0.0000,0.0000,-0.002383,-1.658233,1.678175,0.3841,0.5186,0.0943,0.000000,0.576777,-0.562971,0.564505,-0.590583,0.575243,-0.559903
0.8556,0.016748,0.000000,-1.625862,1.625862,0.0000,0.0000,0.0000,-0.002372,-1.655165,1.668971,0.3914,0.5788,0.0410,0.000000,0.576777,-0.562971,0.564505,-0.592117,0.575243,-0.559903
0.8724,0.016754,0.000000,-1.623523,1.623523,0.0000,0.0000,0.0000,-0.002373,-1.653631,1.659767,0.3907,0.5725,0.0466,0.000000,0.576777,-0.562971,0.564505,-0.592117,0.575243,-0.559903
0.8891,0.016765,0.000000,-1.621182,1.621182,0.0000,0.0000,0.0000,-0.002373,-1.653631,1.656699,0.3907,0.5725,0.0466,0.000000,0.576777,-0.562971,0.564505,-0.592117,0.575243,-0.559903
0.9059,0.016759,0.000000,-1.618842,1.618842,0.0000,0.0000,0.0000,-0.002373,-1.653631,1.656699,0.3907,0.5725,0.0466,0.000000,0.576777,-0.562971,0.564505,-0.592117,0.575243,-0.559903
0.9227,0.016761,0.000000,-1.616502,1.616502,0.0000,0.0000,0.0000,-0.002373,-1.653631,1.655165,0.3907,0.5725,0.0466,0.000000,0.576777,-0.562971,0.564505,-0.592117,0.575243,-0.559903
0.9394,0.016751,0.000000,-1.614163,1.614163,0.0000,0.0000,0.0000,-0.002373,-1.653631,1.652097,0.3907,0.5725,0.0466,0.000000,0.576777,-0.562971,0.564505,-0.592117,0.575243,-0.559903
0.9562,0.016759,0.000000,-1.611823,1.611823,0.0000,0.0000,0.0000,-0.002373,-1.653631,1.649029,0.3907,0.5725,0.0466,0.000000,0.576777,-0.562971,0.564505,-0.592117,0.575243,-0.559903
0.9729,0.016761,0.000000,-1.609483,1.609483,0.0000,0.0000,0.0000,-0.002373,-1.650563,1.647495,0.3907,0.5725,0.0466,0.000000,0.576777,-0.562971,0.564505,-0.592117,0.575243,-0.559903
0.9897,0.016774,0.000000,-1.607141,1.607141,0.0000,0.0000,0.0000,-0.002373,-1.647495,1.647495,0.3907,0.5725,0.0466,0.000000,0.576777,-0.562971,0.564505,-0.592117,0.575243,-0.559903
1.0065,0.016763,0.000000,-1.604800,1.604800,0.0000,0.0000,0.0000,-0.002373,-1.647495,1.647495,0.3907,0.5725,0.0466,0.000000,0.576777,-0.562971,0.564505,-0.592117,0.575243,-0.559903
1.0232,0.016764,0.000000,-1.602459,1.602459,0.0000,0.0000,0.0000,-0.002385,-1.641359,1.647495,0.3800,0.5224,0.0998,0.000000,0.576777,-0.562971,0.564505,-0.590583,0.575243,-0.559903
1.0400,0.016768,0.000000,-1.600118,1.600118,0.0000,0.0000,0.0000,-0.002372,-1.638291,1.647495,0.3918,0.5784,0.0405,0.000000,0.576777,-0.562971,0.564505,-0.592117,0.575243,-0.559903
1.0568,0.016759,0.000000,-1.597778,1.597778,0.0000,0.0000,0.0000,-0.002373,-1.638291,1.647495,0.3906,0.5725,0.0467,0.000000,0.576777,-0.562971,0.564505,-0.592117,0.575243,-0.559903
1.0737,0.016992,0.000000,-1.595406,1.595406,0.0000,0.0000,0.0000,-0.002373,-1.638291,1.645961,0.3906,0.5725,0.0467,0.000000,0.576777,-0.562971,0.564505,-0.592117,0.575243,-0.559903
1.0905,0.016755,0.000000,-1.593066,1.593066,0.0000,0.0000,0.0000,-0.002373,-1.638291,1.645961,0.3906,0.5725,0.0467,0.000000,0.576777,-0.562971,0.564505,-0.592117,0.575243,-0.559903
1.1073,0.016762,0.000000,-1.590726,1.590726,0.0000,0.0000,0.0000,-0.002373,-1.638291,1.644427,0.3906,0.5725,0.0467,0.000000,0.576777,-0.562971,0.564505,-0.592117,0.575243,-0.559903
1.1240,0.016754,0.000000,-1.588386,1.588386,0.0000,0.0000,0.0000,-0.002373,-1.630622,1.629088,0.3906,0.5725,0.0467,0.000000,0.576777,-0.562971,0.564505,-0.592117,0.575243,-0.559903
1.1408,0.016766,0.000000,-1.586045,1.586045,0.0000,0.0000,0.0000,-0.002373,-1.622952,1.622952,0.3906,0.5725,0.0467,0.000000,0.576777,-0.562971,0.564505,-0.592117,0.575243,-0.559903
1.1575,0.016748,0.000000,-1.583707,1.583707,0.0000,0.0000,0.0000,-0.002373,-1.616816,1.618350,0.3906,0.5725,0.0467,0.000000,0.576777,-0.562971,0.564505,-0.592117,0.575243,-0.559903
1.1743,0.016772,0.000000,-1.581365,1.581365,0.0000,0.0000,0.0000,-0.002373,-1.612214,1.613748,0.3906,0.5725,0.0467,0.000000,0.576777,-0.561437,0.564505,-0.592117,0.575243,-0.559903
1.1911,0.016759,0.000000,-1.579025,1.579025,0.0000,0.0000,0.0000,-0.002386,-1.612214,1.613748,0.3516,0.6087,0.0992,0.000000,0.576777,-0.561437,0.564505,-0.592117,0.575243,-0.559903
1.2078,0.016753,0.000000,-1.576686,1.576686,0.0000,0.0000,0.0000,-0.002385,-1.612214,1.610680,0.3556,0.6049,0.0937,0.000000,0.576777,-0.561437,0.564505,-0.592117,0.575243,-0.559903
1.2246,0.016755,0.000000,-1.574346,1.574346,0.0000,0.0000,0.0000,-0.002372,-1.612214,1.607612,0.3944,0.5698,0.0411,0.000000,0.576777,-0.562971,0.564505,-0.592117,0.575243,-0.559903
1.2413,0.016753,0.000000,-1.572007,1.572007,0.0000,0.0000,0.0000,-0.002373,-1.612214,1.607612,0.3904,0.5734,0.0466,0.000000,0.576777,-0.562971,0.564505,-0.592117,0.575243,-0.559903
1.2581,0.016772,0.000000,-1.569665,1.569665,0.0000,0.0000,0.0000,-0.002373,-1.612214,1.606078,0.3904,0.5734,0.0466,0.000000,0.576777,-0.562971,0.564505,-0.592117,0.575243,-0.559903
1.2749,0.016759,0.000000,-1.567325,1.567325,0.0000,0.0000,0.0000,-0.002373,-1.612214,1.606078,0.3904,0.5734,0.0466,0.000000,0.576777,-0.562971,0.564505,-0.592117,0.575243,-0.559903
1.2916,0.016761,0.000000,-1.564985,1.564985,0.0000,0.0000,0.0000,-0.002385,-1.612214,1.607612,0.3801,0.5223,0.0998,0.000000,0.576777,-0.562971,0.564505,-0.590583,0.575243,-0.559903
1.3084,0.016757,0.000000,-1.562646,1.562646,0.0000,0.0000,0.0000,-0.002385,-1.612214,1.607612,0.3527,0.6139,0.0936,0.000000,0.576777,-0.561437,0.564505,-0.592117,0.575243,-0.559903
1.3251,0.016748,0.000000,-1.560307,1.560307,0.0000,0.0000,0.0000,-0.002383,-1.612214,1.607612,0.3840,0.5181,0.0949,0.000000,0.576777,-0.562971,0.564505,-0.590583,0.575243,-0.559903
1.3419,0.016755,0.000000,-1.557968,1.557968,0.0000,0.0000,0.0000,-0.002372,-1.612214,1.606078,0.3914,0.5789,0.0410,0.000000,0.576777,-0.562971,0.564505,-0.592117,0.575243,-0.559903
1.3586,0.016725,0.000000,-1.555632,1.555632,0.0000,0.0000,0.0000,-0.002372,-1.612214,1.606078,0.3914,0.5789,0.0410,0.000000,0.576777,-0.562971,0.564505,-0.592117,0.575243,-0.559903
1.3754,0.016755,0.000000,-1.553293,1.553293,0.0000,0.0000,0.0000,-0.002373,-1.609146,1.607612,0.3907,0.5725,0.0466,0.000000,0.576777,-0.562971,0.564505,-0.592117,0.575243,-0.559903
1.3921,0.016744,0.000000,-1.550955,1.550955,0.0000,0.0000,0.0000,-0.002397,-1.599942,1.606078,0.3409,0.5579,0.1529,0.000000,0.576777,-0.561437,0.564505,-0.590583,0.575243,-0.559903
1.4089,0.016759,0.000000,-1.548615,1.548615,0.0000,0.0000,0.0000,-0.002370,-1.589204,1.606078,0.3959,0.5747,0.0349,0.000000,0.576777,-0.562971,0.564505,-0.592117,0.575243,-0.559903
1.4256,0.016748,0.000000,-1.546277,1.546277,0.0000,0.0000,0.0000,-0.002385,-1.581534,1.606078,0.3795,0.5222,0.1010,0.000000,0.576777,-0.562971,0.564505,-0.590583,0.575243,-0.559903
1.4424,0.016760,0.000000,-1.543937,1.543937,0.0000,0.0000,0.0000,-0.002372,-1.573864,1.603010,0.3919,0.5784,0.0403,0.000000,0.576777,-0.562971,0.564505,-0.592117,0.575243,-0.559903
1.4591,0.016756,0.000000,-1.541597,1.541597,0.0000,0.0000,0.0000,-0.002372,-1.573864,1.603010,0.3919,0.5784,0.0403,0.000000,0.576777,-0.562971,0.564505,-0.592117,0.575243,-0.559903
1.4759,0.016756,0.000000,-1.539257,1.539257,0.0000,0.0000,0.0000,-0.002373,-1.570796,1.595340,0.3906,0.5725,0.0467,0.000000,0.576777,-0.562971,0.564505,-0.592117,0.575243,-0.559903
1.4926,0.016755,0.000000,-1.536918,1.536918,0.0000,0.0000,0.0000,-0.002373,-1.570796,1.584602,0.3906,0.5725,0.0467,0.000000,0.576777,-0.562971,0.564505,-0.592117,0.575243,-0.559903
1.5095,0.016820,0.000000,-1.534569,1.534569,0.0000,0.0000,0.0000,-0.002373,-1.570796,1.576932,0.3906,0.5725,0.0467,0.000000,0.576777,-0.562971,0.564505,-0.592117,0.575243,-0.559903
1.5266,0.017111,0.000000,-1.532180,1.532180,0.0000,0.0000,0.0000,-0.002386,-1.567728,1.572330,0.3516,0.6087,0.0992,0.000000,0.576777,-0.561437,0.564505,-0.592117,0.575243,-0.559903
1.5433,0.016767,0.000000,-1.529839,1.529839,0.0000,0.0000,0.0000,-0.002372,-1.564660,1.567728,0.3948,0.5694,0.0405,0.000000,0.576777,-0.562971,0.564505,-0.592117,0.575243,-0.559903
1.5601,0.016760,0.000000,-1.527499,1.527499,0.0000,0.0000,0.0000,-0.002372,-1.564660,1.567728,0.3948,0.5694,0.0405,0.000000,0.576777,-0.562971,0.564505,-0.592117,0.575243,-0.559903
1.5768,0.016752,0.000000,-1.525160,1.525160,0.0000,0.0000,0.0000,-0.002385,-1.560058,1.563126,0.3796,0.5227,0.1004,0.000000,0.576777,-0.562971,0.564505,-0.590583,0.575243,-0.559903
1.5936,0.016750,0.000000,-1.522821,1.522821,0.0000,0.0000,0.0000,-0.002383,-1.560058,1.558524,0.3812,0.5276,0.0942,0.000000,0.576777,-0.562971,0.564505,-0.590583,0.575243,-0.559903
1.6104,0.016830,0.000000,-1.520471,1.520471,0.0000,0.0000,0.0000,-0.002372,-1.560058,1.555457,0.3917,0.5779,0.0411,0.000000,0.576777,-0.562971,0.564505,-0.592117,0.575243,-0.559903
1.6272,0.016750,0.000000,-1.518132,1.518132,0.0000,0.0000,0.0000,-0.002385,-1.560058,1.553923,0.3799,0.5219,0.1003,0.000000,0.576777,-0.562971,0.564505,-0.590583,0.575243,-0.559903
1.6443,0.017081,0.000000,-1.515747,1.515747,0.0000,0.0000,0.0000,-0.002385,-1.560058,1.553923,0.3527,0.6140,0.0936,0.000000,0.576777,-0.561437,0.564505,-0.592117,0.575243,-0.559903
1.6610,0.016761,0.000000,-1.513407,1.513407,0.0000,0.0000,0.0000,-0.002385,-1.560058,1.553923,0.3527,0.6140,0.0936,0.000000,0.576777,-0.561437,0.564505,-0.592117,0.575243,-0.559903
1.6778,0.016752,0.000000,-1.511068,1.511068,0.0000,0.0000,0.0000,-0.002372,-1.560058,1.553923,0.3947,0.5688,0.0411,0.000000,0.576777,-0.562971,0.564505,-0.592117,0.575243,-0.559903
1.6945,0.016749,0.000000,-1.508730,1.508730,0.0000,0.0000,0.0000,-0.002373,-1.558524,1.553923,0.3903,0.5735,0.0466,0.000000,0.576777,-0.562971,0.564505,-0.592117,0.575243,-0.559903
1.7115,0.017017,0.000000,-1.506354,1.506354,0.0000,0.0000,0.0000,-0.002373,-1.558524,1.553923,0.3903,0.5735,0.0466,0.000000,0.576777,-0.562971,0.564505,-0.592117,0.575243,-0.559903
1.7283,0.016763,0.000000,-1.504013,1.504013,0.0000,0.0000,0.0000,-0.002373,-1.556990,1.553923,0.3903,0.5735,0.0466,0.000000,0.576777,-0.562971,0.564505,-0.592117,0.575243,-0.559903
1.7451,0.016767,0.000000,-1.501672,1.501672,0.0000,0.0000,0.0000,-0.002373,-1.546253,1.553923,0.3903,0.5735,0.0466,0.000000,0.576777,-0.562971,0.564505,-0.592117,0.575243,-0.559903
1.7618,0.016753,0.000000,-1.499333,1.499333,0.0000,0.0000,0.0000,-0.002373,-1.546253,1.553923,0.3903,0.5735,0.0466,0.000000,0.576777,-0.562971,0.564505,-0.592117,0.575243,-0.559903
1.7786,0.016758,0.000000,-1.496993,1.496993,0.0000,0.0000,0.0000,-0.002385,-1.535515,1.553923,0.3801,0.5223,0.0998,0.000000,0.576777,-0.562971,0.564505,-0.590583,0.575243,-0.559903
1.7953,0.016748,0.000000,-1.494654,1.494654,0.0000,0.0000,0.0000,-0.002383,-1.527845,1.553923,0.3811,0.5276,0.0942,0.000000,0.576777,-0.562971,0.564505,-0.590583,0.575243,-0.559903
1.8124,0.017073,0.000000,-1.492271,1.492271,0.0000,0.0000,0.0000,-0.002372,-1.520175,1.552389,0.3917,0.5779,0.0411,0.000000,0.576777,-0.562971,0.564505,-0.592117,0.575243,-0.559903
1.8291,0.016751,0.000000,-1.489932,1.489932,0.0000,0.0000,0.0000,-0.002373,-1.515573,1.552389,0.3906,0.5726,0.0466,0.000000,0.576777,-0.562971,0.564505,-0.592117,0.575243,-0.559903
1.8459,0.016756,0.000000,-1.487592,1.487592,0.0000,0.0000,0.0000,-0.002373,-1.512505,1.547787,0.3906,0.5726,0.0466,0.000000,0.576777,-0.562971,0.564505,-0.592117,0.575243,-0.559903
1.8627,0.016753,0.000000,-1.485253,1.485253,0.0000,0.0000,0.0000,-0.002373,-1.512505,1.547787,0.3906,0.5726,0.0466,0.000000,0.576777,-0.562971,0.564505,-0.592117,0.575243,-0.559903
1.8794,0.016760,0.000000,-1.482913,1.482913,0.0000,0.0000,0.0000,-0.002373,-1.510971,1.537049,0.3906,0.5726,0.0466,0.000000,0.576777,-0.562971,0.564505,-0.592117,0.575243,-0.559903
1.8962,0.016756,0.000000,-1.480573,1.480573,0.0000,0.0000,0.0000,-0.002385,-1.510971,1.523243,0.3800,0.5224,0.0998,0.000000,0.576777,-0.562971,0.564505,-0.590583,0.575243,-0.559903
1.9129,0.016765,0.000000,-1.478233,1.478233,0.0000,0.0000,0.0000,-0.002372,-1.510971,1.512505,0.3918,0.5784,0.0405,0.000000,0.576777,-0.562971,0.564505,-0.592117,0.575243,-0.559903
1.9297,0.016753,0.000000,-1.475893,1.475893,0.0000,0.0000,0.0000,-0.002373,-1.509437,1.504835,0.3906,0.5725,0.0467,0.000000,0.576777,-0.562971,0.564505,-0.592117,0.575243,-0.559903
1.9467,0.017037,0.000000,-1.473515,1.473515,0.0000,0.0000,0.0000,-0.002373,-1.509437,1.501767,0.3906,0.5725,0.0467,0.000000,0.576777,-0.562971,0.564505,-0.592117,0.575243,-0.559903
1.9635,0.016756,0.000000,-1.471175,1.471175,0.0000,0.0000,0.0000,-0.002373,-1.509437,1.501767,0.3906,0.5725,0.0467,0.000000,0.576777,-0.562971,0.564505,-0.592117,0.575243,-0.559903
1.9802,0.016762,0.000000,-1.468835,1.468835,0.0000,0.0000,0.0000,-0.002373,-1.507903,1.500233,0.3906,0.5725,0.0467,0.000000,0.576777,-0.562971,0.564505,-0.592117,0.575243,-0.559903
1.9971,0.016887,0.000000,-1.466477,1.466477,0.0000,0.0000,0.0000,-0.002373,-1.507903,1.500233,0.3906,0.5725,0.0467,0.000000,0.576777,-0.562971,0.564505,-0.592117,0.575243,-0.559903
2.0139,0.016750,0.000000,-1.464138,1.464138,0.0000,0.0000,0.0000,-0.002373,-1.506369,1.500233,0.3906,0.5725,0.0467,0.000000,0.576777,-0.562971,0.564505,-0.592117,0.575243,-0.559903
2.0306,0.016760,0.000000,-1.461798,1.461798,0.0000,0.0000,0.0000,-0.002373,-1.506369,1.500233,0.3906,0.5725,0.0467,0.000000,0.576777,-0.562971,0.564505,-0.592117,0.575243,-0.559903
2.0474,0.016768,0.000000,-1.459457,1.459457,0.0000,0.0000,0.0000,-0.002373,-1.506369,1.500233,0.3906,0.5725,0.0467,0.000000,0.576777,-0.562971,0.564505,-0.592117,0.575243,-0.559903
2.0642,0.016754,0.000000,-1.457117,1.457117,0.0000,0.0000,0.0000,-0.002373,-1.504835,1.500233,0.3906,0.5725,0.0467,0.000000,0.576777,-0.562971,0.564505,-0.592117,0.575243,-0.559903
2.0809,0.016753,0.000000,-1.454778,1.454778,0.0000,0.0000,0.0000,-0.002373,-1.504835,1.500233,0.3906,0.5725,0.0467,0.000000,0.576777,-0.562971,0.564505,-0.592117,0.575243,-0.559903
2.0977,0.016755,0.000000,-1.452439,1.452439,0.0000,0.0000,0.0000,-0.002373,-1.503301,1.500233,0.3906,0.5725,0.0467,0.000000,0.576777,-0.562971,0.564505,-0.592117,0.575243,-0.559903
2.1144,0.016761,0.000000,-1.450098,1.450098,0.0000,0.0000,0.0000,-0.002385,-1.497165,1.498699,0.3800,0.5224,0.0998,0.000000,0.576777,-0.562971,0.564505,-0.590583,0.575243,-0.559903
2.1312,0.016758,0.000000,-1.447758,1.447758,0.0000,0.0000,0.0000,-0.002385,-1.497165,1.498699,0.3800,0.5224,0.0998,0.000000,0.576777,-0.562971,0.564505,-0.590583,0.575243,-0.559903
2.1479,0.016755,0.000000,-1.445419,1.445419,0.0000,0.0000,0.0000,-0.002383,-1.486427,1.498699,0.3811,0.5276,0.0942,0.000000,0.576777,-0.562971,0.564505,-0.590583,0.575243,-0.559903
2.1647,0.016754,0.000000,-1.443080,1.443080,0.0000,0.0000,0.0000,-0.002372,-1.478757,1.498699,0.3917,0.5779,0.0411,0.000000,0.576777,-0.562971,0.564505,-0.592117,0.575243,-0.559903
2.1815,0.016754,0.000000,-1.440740,1.440740,0.0000,0.0000,0.0000,-0.002373,-1.471088,1.498699,0.3906,0.5726,0.0466,0.000000,0.576777,-0.562971,0.564505,-0.592117,0.575243,-0.559903
2.1982,0.016767,0.000000,-1.438399,1.438399,0.0000,0.0000,0.0000,-0.002373,-1.468020,1.497165,0.3906,0.5726,0.0466,0.000000,0.576777,-0.562971,0.564505,-0.592117,0.575243,-0.559903
2.2150,0.016751,0.000000,-1.436060,1.436060,0.0000,0.0000,0.0000,-0.002385,-1.464952,1.491029,0.3800,0.5224,0.0998,0.000000,0.576777,-0.562971,0.564505,-0.590583,0.575243,-0.559903
2.2318,0.016779,0.000000,-1.433718,1.433718,0.0000,0.0000,0.0000,-0.002385,-1.464952,1.491029,0.3800,0.5224,0.0998,0.000000,0.576777,-0.562971,0.564505,-0.590583,0.575243,-0.559903
2.2485,0.016777,0.000000,-1.431375,1.431375,0.0000,0.0000,0.0000,-0.002372,-1.464952,1.478757,0.3918,0.5784,0.0405,0.000000,0.576777,-0.562971,0.564505,-0.592117,0.575243,-0.559903
2.2653,0.016756,0.000000,-1.429036,1.429036,0.0000,0.0000,0.0000,-0.002373,-1.464952,1.457282,0.3906,0.5725,0.0467,0.000000,0.576777,-0.562971,0.564505,-0.592117,0.575243,-0.559903
2.2820,0.016762,0.000000,-1.426695,1.426695,0.0000,0.0000,0.0000,-0.002373,-1.464952,1.451146,0.3906,0.5725,0.0467,0.000000,0.576777,-0.562971,0.564505,-0.592117,0.575243,-0.559903
2.2988,0.016786,0.000000,-1.424351,1.424351,0.0000,0.0000,0.0000,-0.002373,-1.464952,1.449612,0.3906,0.5725,0.0467,0.000000,0.576777,-0.562971,0.564505,-0.592117,0.575243,-0.559903
2.3156,0.016766,0.000000,-1.422010,1.422010,0.0000,0.0000,0.0000,-0.002373,-1.464952,1.449612,0.3906,0.5725,0.0467,0.000000,0.576777,-0.562971,0.564505,-0.592117,0.575243,-0.559903
2.3324,0.016769,0.000000,-1.419669,1.419669,0.0000,0.0000,0.0000,-0.002385,-1.464952,1.449612,0.3800,0.5224,0.0998,0.000000,0.576777,-0.562971,0.564505,-0.590583,0.575243,-0.559903
2.3491,0.016754,0.000000,-1.417330,1.417330,0.0000,0.0000,0.0000,-0.002383,-1.461884,1.448078,0.3811,0.5276,0.0942,0.000000,0.576777,-0.562971,0.564505,-0.590583,0.575243,-0.559903
2.3659,0.016755,0.000000,-1.414990,1.414990,0.0000,0.0000,0.0000,-0.002372,-1.457282,1.448078,0.3917,0.5779,0.0411,0.000000,0.576777,-0.562971,0.564505,-0.592117,0.575243,-0.559903
2.3826,0.016755,0.000000,-1.412651,1.412651,0.0000,0.0000,0.0000,-0.002373,-1.451146,1.448078,0.3906,0.5726,0.0466,0.000000,0.576777,-0.562971,0.564505,-0.592117,0.575243,-0.559903
2.3994,0.016776,0.000000,-1.410308,1.410308,0.0000,0.0000,0.0000,-0.002373,-1.445010,1.448078,0.3906,0.5726,0.0466,0.000000,0.576777,-0.562971,0.564505,-0.592117,0.575243,-0.559903
2.4162,0.016755,0.000000,-1.407969,1.407969,0.0000,0.0000,0.0000,-0.002373,-1.445010,1.448078,0.3906,0.5726,0.0466,0.000000,0.576777,-0.562971,0.564505,-0.592117,0.575243,-0.559903
2.4329,0.016774,0.000000,-1.405627,1.405627,0.0000,0.0000,0.0000,-0.002373,-1.438874,1.446544,0.3906,0.5726,0.0466,0.000000,0.576777,-0.562971,0.564505,-0.592117,0.575243,-0.559903
2.4497,0.016757,0.000000,-1.403287,1.403287,0.0000,0.0000,0.0000,-0.002373,-1.434272,1.445010,0.3906,0.5726,0.0466,0.000000,0.576777,-0.562971,0.564505,-0.592117,0.575243,-0.559903
2.4665,0.016764,0.000000,-1.400946,1.400946,0.0000,0.0000,0.0000,-0.002373,-1.431204,1.445010,0.3906,0.5726,0.0466,0.000000,0.576777,-0.562971,0.564505,-0.592117,0.575243,-0.559903
2.4832,0.016755,0.000000,-1.398607,1.398607,0.0000,0.0000,0.0000,-0.002373,-1.429670,1.443476,0.3906,0.5726,0.0466,0.000000,0.576777,-0.562971,0.564505,-0.592117,0.575243,-0.559903
2.5003,0.017046,0.000000,-1.396300,1.396300,0.0000,0.0000,0.0000,-0.002373,-1.429670,1.443476,0.3906,0.5726,0.0466,0.000000,0.576777,-0.562971,0.564505,-0.592117,0.575243,-0.559903
2.5170,0.016752,0.000000,-1.398639,1.398639,0.0000,0.0000,0.0000,-0.002373,-1.428136,1.441942,0.3906,0.5726,0.0466,0.000000,0.576777,-0.562971,0.564505,-0.592117,0.575243,-0.559903
2.5338,0.016751,0.000000,-1.400978,1.400978,0.0000,0.0000,0.0000,-0.002373,-1.428136,1.437340,0.3906,0.5726,0.0466,0.000000,0.576777,-0.562971,0.564505,-0.592117,0.575243,-0.559903
2.5505,0.016758,0.000000,-1.403318,1.403318,0.0000,0.0000,0.0000,-0.002373,-1.428136,1.431204,0.3906,0.5726,0.0466,0.000000,0.576777,-0.562971,0.564505,-0.592117,0.575243,-0.559903
2.5673,0.016761,0.000000,-1.405658,1.405658,0.0000,0.0000,0.0000,-0.002373,-1.428136,1.423534,0.3906,0.5726,0.0466,0.000000,0.576777,-0.562971,0.564505,-0.592117,0.575243,-0.559903
2.5842,0.016870,0.000000,-1.408014,1.408014,0.0000,0.0000,0.0000,-0.002373,-1.428136,1.420466,0.3906,0.5726,0.0466,0.000000,0.576777,-0.562971,0.564505,-0.592117,0.575243,-0.559903
2.6009,0.016776,0.000000,-1.410356,1.410356,0.0000,0.0000,0.0000,-0.002373,-1.428136,1.420466,0.3906,0.5726,0.0466,0.000000,0.576777,-0.562971,0.564505,-0.592117,0.575243,-0.559903
2.6177,0.016753,0.000000,-1.412695,1.412695,0.0000,0.0000,0.0000,-0.002386,-1.428136,1.420466,0.3516,0.6087,0.0992,0.000000,0.576777,-0.561437,0.564505,-0.592117,0.575243,-0.559903
2.6362,0.018555,0.000000,-1.415286,1.415286,0.0000,0.0000,0.0000,-0.002383,-1.428136,1.420466,0.3841,0.5186,0.0943,0.000000,0.576777,-0.562971,0.564505,-0.590583,0.575243,-0.559903
2.6530,0.016756,0.000000,-1.417625,1.417625,0.0000,0.0000,0.0000,-0.002383,-1.428136,1.420466,0.3807,0.5280,0.0948,0.000000,0.576777,-0.562971,0.564505,-0.590583,0.575243,-0.559903
2.6698,0.016758,0.000000,-1.419965,1.419965,0.0000,0.0000,0.0000,-0.002372,-1.428136,1.420466,0.3918,0.5778,0.0410,0.000000,0.576777,-0.562971,0.564505,-0.592117,0.575243,-0.559903
2.6865,0.016751,0.000000,-1.422304,1.422304,0.0000,0.0000,0.0000,-0.002373,-1.428136,1.420466,0.3906,0.5726,0.0466,0.000000,0.576777,-0.562971,0.564505,-0.592117,0.575243,-0.559903
2.7034,0.016879,0.000000,-1.424661,1.424661,0.0000,0.0000,0.0000,-0.002373,-1.428136,1.420466,0.3906,0.5726,0.0466,0.000000,0.576777,-0.562971,0.564505,-0.592117,0.575243,-0.559903
2.7201,0.016753,0.000000,-1.427000,1.427000,0.0000,0.0000,0.0000,-0.002373,-1.428136,1.420466,0.3906,0.5726,0.0466,0.000000,0.576777,-0.562971,0.564505,-0.592117,0.575243,-0.559903
2.7369,0.016750,0.000000,-1.429339,1.429339,0.0000,0.0000,0.0000,-0.002373,-1.428136,1.420466,0.3906,0.5726,0.0466,0.000000,0.576777,-0.562971,0.564505,-0.592117,0.575243,-0.559903
2.7536,0.016755,0.000000,-1.431678,1.431678,0.0000,0.0000,0.0000,-0.002373,-1.428136,1.422000,0.3906,0.5726,0.0466,0.000000,0.576777,-0.562971,0.564505,-0.592117,0.575243,-0.559903
2.7704,0.016763,0.000000,-1.434019,1.434019,0.0000,0.0000,0.0000,-0.002386,-1.428136,1.423534,0.3516,0.6087,0.0992,0.000000,0.576777,-0.561437,0.564505,-0.592117,0.575243,-0.559903
2.7872,0.016755,0.000000,-1.436358,1.436358,0.0000,0.0000,0.0000,-0.002396,-1.432738,1.428136,0.3449,0.5541,0.1474,0.000000,0.576777,-0.561437,0.564505,-0.590583,0.575243,-0.559903
2.8039,0.016780,0.000000,-1.438701,1.438701,0.0000,0.0000,0.0000,-0.002371,-1.434272,1.432738,0.3955,0.5751,0.0355,0.000000,0.576777,-0.562971,0.564505,-0.592117,0.575243,-0.559903
2.8207,0.016758,0.000000,-1.441041,1.441041,0.0000,0.0000,0.0000,-0.002371,-1.434272,1.432738,0.3955,0.5751,0.0355,0.000000,0.576777,-0.562971,0.564505,-0.592117,0.575243,-0.559903
2.8374,0.016752,0.000000,-1.443380,1.443380,0.0000,0.0000,0.0000,-0.002373,-1.434272,1.432738,0.3902,0.5729,0.0472,0.000000,0.576777,-0.562971,0.564505,-0.592117,0.575243,-0.559903
2.8542,0.016752,0.000000,-1.445719,1.445719,0.0000,0.0000,0.0000,-0.002373,-1.440408,1.434272,0.3902,0.5729,0.0472,0.000000,0.576777,-0.562971,0.564505,-0.592117,0.575243,-0.559903
2.8710,0.016757,0.000000,-1.448059,1.448059,0.0000,0.0000,0.0000,-0.002373,-1.443476,1.437340,0.3902,0.5729,0.0472,0.000000,0.576777,-0.562971,0.564505,-0.592117,0.575243,-0.559903
2.8877,0.016756,0.000000,-1.450398,1.450398,0.0000,0.0000,0.0000,-0.002373,-1.443476,1.443476,0.3902,0.5729,0.0472,0.000000,0.576777,-0.562971,0.564505,-0.592117,0.575243,-0.559903
2.9045,0.016772,0.000000,-1.452740,1.452740,0.0000,0.0000,0.0000,-0.002373,-1.448078,1.448078,0.3902,0.5729,0.0472,0.000000,0.576777,-0.562971,0.564505,-0.592117,0.575243,-0.559903
2.9212,0.016763,0.000000,-1.455081,1.455081,0.0000,0.0000,0.0000,-0.002373,-1.448078,1.448078,0.3902,0.5729,0.0472,0.000000,0.576777,-0.562971,0.564505,-0.592117,0.575243,-0.559903
2.9380,0.016749,0.000000,-1.457419,1.457419,0.0000,0.0000,0.0000,-0.002373,-1.452680,1.448078,0.3902,0.5729,0.0472,0.000000,0.576777,-0.562971,0.564505,-0.592117,0.575243,-0.559903
2.9548,0.016768,0.000000,-1.459760,1.459760,0.0000,0.0000,0.0000,-0.002373,-1.452680,1.448078,0.3902,0.5729,0.0472,0.000000,0.576777,-0.562971,0.564505,-0.592117,0.575243,-0.559903
2.9715,0.016757,0.000000,-1.462100,1.462100,0.0000,0.0000,0.0000,-0.002384,-1.457282,1.452680,0.3801,0.5224,0.0997,0.000000,0.576777,-0.562971,0.564505,-0.590583,0.575243,-0.559903
2.9883,0.016756,0.000000,-1.464440,1.464440,0.0000,0.0000,0.0000,-0.002372,-1.461884,1.458816,0.3918,0.5784,0.0405,0.000000,0.576777,-0.562971,0.564505,-0.592117,0.575243,-0.559903
3.0050,0.016753,0.000000,-1.466779,1.466779,0.0000,0.0000,0.0000,-0.002372,-1.461884,1.458816,0.3918,0.5784,0.0405,0.000000,0.576777,-0.562971,0.564505,-0.592117,0.575243,-0.559903
3.0218,0.016756,0.000000,-1.469118,1.469118,0.0000,0.0000,0.0000,-0.002373,-1.463418,1.458816,0.3906,0.5725,0.0467,0.000000,0.576777,-0.562971,0.564505,-0.592117,0.575243,-0.559903
3.0385,0.016760,0.000000,-1.471459,1.471459,0.0000,0.0000,0.0000,-0.002373,-1.463418,1.460350,0.3906,0.5725,0.0467,0.000000,0.576777,-0.562971,0.564505,-0.592117,0.575243,-0.559903
3.0553,0.016769,0.000000,-1.473800,1.473800,0.0000,0.0000,0.0000,-0.002385,-1.468020,1.463418,0.3800,0.5224,0.0998,0.000000,0.576777,-0.562971,0.564505,-0.590583,0.575243,-0.559903
3.0721,0.016764,0.000000,-1.476141,1.476141,0.0000,0.0000,0.0000,-0.002383,-1.469554,1.469554,0.3811,0.5276,0.0942,0.000000,0.576777,-0.562971,0.564505,-0.590583,0.575243,-0.559903
3.0889,0.016790,0.000000,-1.478485,1.478485,0.0000,0.0000,0.0000,-0.002372,-1.474156,1.472622,0.3917,0.5779,0.0411,0.000000,0.576777,-0.562971,0.564505,-0.592117,0.575243,-0.559903
3.1056,0.016749,0.000000,-1.480824,1.480824,0.0000,0.0000,0.0000,-0.002372,-1.474156,1.472622,0.3917,0.5779,0.0411,0.000000,0.576777,-0.562971,0.564505,-0.592117,0.575243,-0.559903
3.1224,0.016760,0.000000,-1.483164,1.483164,0.0000,0.0000,0.0000,-0.002373,-1.475690,1.472622,0.3906,0.5726,0.0466,0.000000,0.576777,-0.562971,0.564505,-0.592117,0.575243,-0.559903
3.1391,0.016717,0.000000,-1.485498,1.485498,0.0000,0.0000,0.0000,-0.002373,-1.478757,1.475690,0.3906,0.5726,0.0466,0.000000,0.576777,-0.562971,0.564505,-0.592117,0.575243,-0.559903
3.1559,0.016763,0.000000,-1.487839,1.487839,0.0000,0.0000,0.0000,-0.002373,-1.481825,1.477223,0.3906,0.5726,0.0466,0.000000,0.576777,-0.562971,0.564505,-0.592117,0.575243,-0.559903
3.1726,0.016763,0.000000,-1.490179,1.490179,0.0000,0.0000,0.0000,-0.002386,-1.486427,1.481825,0.3516,0.6087,0.0992,0.000000,0.576777,-0.561437,0.564505,-0.592117,0.575243,-0.559903
3.1894,0.016771,0.000000,-1.492521,1.492521,0.0000,0.0000,0.0000,-0.002386,-1.487961,1.484893,0.3516,0.6087,0.0992,0.000000,0.576777,-0.562971,0.564505,-0.590583,0.575243,-0.559903
3.2061,0.016749,0.000000,-1.494859,1.494859,0.0000,0.0000,0.0000,-0.002383,-1.487961,1.484893,0.3841,0.5186,0.0943,0.000000,0.576777,-0.562971,0.564505,-0.590583,0.575243,-0.559903
3.2229,0.016758,0.000000,-1.497199,1.497199,0.0000,0.0000,0.0000,-0.002372,-1.489495,1.486427,0.3914,0.5788,0.0410,0.000000,0.576777,-0.562971,0.564505,-0.592117,0.575243,-0.559903
3.2397,0.016756,0.000000,-1.499539,1.499539,0.0000,0.0000,0.0000,-0.002385,-1.492563,1.487961,0.3799,0.5218,0.1003,0.000000,0.576777,-0.562971,0.564505,-0.590583,0.575243,-0.559903
3.2564,0.016767,0.000000,-1.501880,1.501880,0.0000,0.0000,0.0000,-0.002385,-1.497165,1.491029,0.3527,0.6140,0.0936,0.000000,0.576777,-0.561437,0.564505,-0.592117,0.575243,-0.559903
3.2732,0.016762,0.000000,-1.504220,1.504220,0.0000,0.0000,0.0000,-0.002372,-1.500233,1.494097,0.3947,0.5688,0.0411,0.000000,0.576777,-0.562971,0.564505,-0.592117,0.575243,-0.559903
3.2900,0.016769,0.000000,-1.506562,1.506562,0.0000,0.0000,0.0000,-0.002372,-1.500233,1.494097,0.3947,0.5688,0.0411,0.000000,0.576777,-0.562971,0.564505,-0.592117,0.575243,-0.559903
3.3067,0.016761,0.000000,-1.508902,1.508902,0.0000,0.0000,0.0000,-0.002397,-1.500233,1.503301,0.3404,0.5583,0.1535,0.000000,0.576777,-0.561437,0.564505,-0.590583,0.575243,-0.559903
3.3235,0.016760,0.000000,-1.511242,1.511242,0.0000,0.0000,0.0000,-0.002370,-1.504835,1.503301,0.3960,0.5747,0.0349,0.000000,0.576777,-0.562971,0.564505,-0.592117,0.575243,-0.559903
3.3402,0.016758,0.000000,-1.513582,1.513582,0.0000,0.0000,0.0000,-0.002373,-1.507903,1.501767,0.3902,0.5729,0.0472,0.000000,0.576777,-0.562971,0.564505,-0.592117,0.575243,-0.559903
3.3570,0.016764,0.000000,-1.515923,1.515923,0.0000,0.0000,0.0000,-0.002373,-1.507903,1.506369,0.3910,0.5732,0.0455,0.000000,0.576777,-0.562971,0.564505,-0.592117,0.575243,-0.559903
3.3738,0.016775,0.000000,-1.518265,1.518265,0.0000,0.0000,0.0000,-0.002385,-1.509437,1.507903,0.3800,0.5223,0.0999,0.000000,0.576777,-0.562971,0.564505,-0.590583,0.575243,-0.559903
3.3917,0.017903,0.000000,-1.520764,1.520764,0.0000,0.0000,0.0000,-0.002385,-1.520175,1.514039,0.3527,0.6139,0.0936,0.000000,0.576777,-0.561437,0.564505,-0.592117,0.575243,-0.559903
3.4084,0.016757,0.000000,-1.523104,1.523104,0.0000,0.0000,0.0000,-0.002385,-1.520175,1.514039,0.3527,0.6139,0.0936,0.000000,0.576777,-0.561437,0.564505,-0.592117,0.575243,-0.559903
3.4252,0.016746,0.000000,-1.525442,1.525442,0.0000,0.0000,0.0000,-0.002372,-1.520175,1.514039,0.3947,0.5688,0.0411,0.000000,0.576777,-0.562971,0.564505,-0.592117,0.575243,-0.559903
3.4419,0.016752,0.000000,-1.527781,1.527781,0.0000,0.0000,0.0000,-0.002373,-1.520175,1.515573,0.3903,0.5735,0.0466,0.000000,0.576777,-0.562971,0.564505,-0.592117,0.575243,-0.559903
3.4587,0.016765,0.000000,-1.530122,1.530122,0.0000,0.0000,0.0000,-0.002385,-1.523243,1.520175,0.3801,0.5223,0.0998,0.000000,0.576777,-0.562971,0.564505,-0.590583,0.575243,-0.559903
3.4755,0.016758,0.000000,-1.532462,1.532462,0.0000,0.0000,0.0000,-0.002372,-1.526311,1.526311,0.3918,0.5784,0.0405,0.000000,0.576777,-0.562971,0.564505,-0.592117,0.575243,-0.559903
3.4922,0.016773,0.000000,-1.534804,1.534804,0.0000,0.0000,0.0000,-0.002372,-1.526311,1.526311,0.3918,0.5784,0.0405,0.000000,0.576777,-0.562971,0.564505,-0.592117,0.575243,-0.559903
3.5090,0.016763,0.000000,-1.537144,1.537144,0.0000,0.0000,0.0000,-0.002386,-1.529379,1.527845,0.3515,0.6081,0.0998,0.000000,0.576777,-0.561437,0.564505,-0.592117,0.575243,-0.559903
3.5257,0.016757,0.000000,-1.539484,1.539484,0.0000,0.0000,0.0000,-0.002372,-1.530913,1.527845,0.3948,0.5695,0.0405,0.000000,0.576777,-0.562971,0.564505,-0.592117,0.575243,-0.559903
3.5425,0.016759,0.000000,-1.541824,1.541824,0.0000,0.0000,0.0000,-0.002373,-1.538583,1.535515,0.3903,0.5735,0.0467,0.000000,0.576777,-0.562971,0.564505,-0.592117,0.575243,-0.559903
3.5593,0.016760,0.000000,-1.544164,1.544164,0.0000,0.0000,0.0000,-0.002386,-1.540117,1.537049,0.3516,0.6086,0.0992,0.000000,0.576777,-0.561437,0.564505,-0.592117,0.575243,-0.559903
3.5760,0.016758,0.000000,-1.546504,1.546504,0.0000,0.0000,0.0000,-0.002385,-1.544719,1.540117,0.3556,0.6049,0.0937,0.000000,0.576777,-0.561437,0.564505,-0.592117,0.575243,-0.559903
3.5928,0.016756,0.000000,-1.548844,1.548844,0.0000,0.0000,0.0000,-0.002385,-1.544719,1.540117,0.3556,0.6049,0.0937,0.000000,0.576777,-0.561437,0.564505,-0.592117,0.575243,-0.559903
3.6096,0.016775,0.000000,-1.551186,1.551186,0.0000,0.0000,0.0000,-0.002383,-1.546253,1.543185,0.3837,0.5190,0.0948,0.000000,0.576777,-0.562971,0.564505,-0.590583,0.575243,-0.559903
3.6263,0.016746,0.000000,-1.553524,1.553524,0.0000,0.0000,0.0000,-0.002383,-1.547787,1.544719,0.3808,0.5280,0.0947,0.000000,0.576777,-0.562971,0.564505,-0.590583,0.575243,-0.559903
3.6431,0.016802,0.000000,-1.555870,1.555870,0.0000,0.0000,0.0000,-0.002372,-1.549321,1.546253,0.3918,0.5778,0.0410,0.000000,0.576777,-0.562971,0.564505,-0.592117,0.575243,-0.559903
3.6599,0.016753,0.000000,-1.558209,1.558209,0.0000,0.0000,0.0000,-0.002386,-1.550855,1.549321,0.3515,0.6081,0.0997,0.000000,0.576777,-0.561437,0.564505,-0.592117,0.575243,-0.559903
3.6771,0.017214,0.000000,-1.560613,1.560613,0.0000,0.0000,0.0000,-0.002383,-1.555457,1.556990,0.3841,0.5187,0.0942,0.000000,0.576777,-0.562971,0.564505,-0.590583,0.575243,-0.559903
3.6938,0.016768,0.000000,-1.562954,1.562954,0.0000,0.0000,0.0000,-0.002383,-1.555457,1.556990,0.3841,0.5187,0.0942,0.000000,0.576777,-0.562971,0.564505,-0.590583,0.575243,-0.559903
3.7106,0.016775,0.000000,-1.565296,1.565296,0.0000,0.0000,0.0000,-0.002385,-1.563126,1.558524,0.3523,0.6143,0.0942,0.000000,0.576777,-0.561437,0.564505,-0.592117,0.575243,-0.559903
3.7274,0.016748,0.000000,-1.567635,1.567635,0.0000,0.0000,0.0000,-0.002372,-1.563126,1.558524,0.3948,0.5688,0.0411,0.000000,0.576777,-0.562971,0.564505,-0.592117,0.575243,-0.559903
3.7441,0.016771,0.000000,-1.569976,1.569976,0.0000,0.0000,0.0000,-0.002385,-1.563126,1.560058,0.3796,0.5228,0.1003,0.000000,0.576777,-0.562971,0.564505,-0.590583,0.575243,-0.559903
3.7609,0.016751,0.000000,-1.572315,1.572315,0.0000,0.0000,0.0000,-0.002372,-1.566194,1.563126,0.3919,0.5784,0.0404,0.000000,0.576777,-0.562971,0.564505,-0.592117,0.575243,-0.559903
3.7776,0.016764,0.000000,-1.574656,1.574656,0.0000,0.0000,0.0000,-0.002372,-1.573864,1.569262,0.3919,0.5784,0.0404,0.000000,0.576777,-0.562971,0.564505,-0.590583,0.575243,-0.559903
3.7944,0.016752,0.000000,-1.576995,1.576995,0.0000,0.0000,0.0000,-0.002385,-1.573864,1.569262,0.3799,0.5218,0.1004,0.000000,0.576777,-0.562971,0.564505,-0.590583,0.575243,-0.559903
3.8111,0.016752,0.000000,-1.579334,1.579334,0.0000,0.0000,0.0000,-0.002385,-1.575398,1.570796,0.3527,0.6140,0.0935,0.000000,0.576777,-0.561437,0.564505,-0.592117,0.575243,-0.559903
3.8279,0.016749,0.000000,-1.581673,1.581673,0.0000,0.0000,0.0000,-0.002383,-1.573864,1.572330,0.3840,0.5181,0.0949,0.000000,0.576777,-0.562971,0.564505,-0.590583,0.575243,-0.559903
3.8447,0.016758,0.000000,-1.584013,1.584013,0.0000,0.0000,0.0000,-0.002396,-1.576932,1.576932,0.3416,0.5636,0.1479,0.000000,0.576777,-0.561437,0.564505,-0.590583,0.575243,-0.559903
3.8615,0.016807,0.000000,-1.586359,1.586359,0.0000,0.0000,0.0000,-0.002371,-1.581534,1.583068,0.3959,0.5741,0.0355,0.000000,0.576777,-0.562971,0.564505,-0.592117,0.575243,-0.559903
3.8782,0.016787,0.000000,-1.588703,1.588703,0.0000,0.0000,0.0000,-0.002386,-1.583068,1.583068,0.3511,0.6085,0.1003,0.000000,0.576777,-0.561437,0.564505,-0.592117,0.575243,-0.559903
3.8950,0.016756,0.000000,-1.591043,1.591043,0.0000,0.0000,0.0000,-0.002386,-1.583068,1.583068,0.3511,0.6085,0.1003,0.000000,0.576777,-0.561437,0.564505,-0.592117,0.575243,-0.559903
3.9118,0.016775,0.000000,-1.593385,1.593385,0.0000,0.0000,0.0000,-0.002372,-1.583068,1.583068,0.3949,0.5694,0.0404,0.000000,0.576777,-0.562971,0.564505,-0.592117,0.575243,-0.559903
3.9286,0.016836,0.000000,-1.595736,1.595736,0.0000,0.0000,0.0000,-0.002385,-1.590738,1.587670,0.3796,0.5227,0.1004,0.000000,0.576777,-0.562971,0.564505,-0.590583,0.575243,-0.559903
3.9454,0.016769,0.000000,-1.598077,1.598077,0.0000,0.0000,0.0000,-0.002372,-1.590738,1.587670,0.3919,0.5784,0.0404,0.000000,0.576777,-0.562971,0.564505,-0.592117,0.575243,-0.559903
3.9621,0.016763,0.000000,-1.600418,1.600418,0.0000,0.0000,0.0000,-0.002386,-1.593806,1.592272,0.3515,0.6081,0.0998,0.000000,0.576777,-0.561437,0.564505,-0.592117,0.575243,-0.559903
3.9789,0.016771,0.000000,-1.602759,1.602759,0.0000,0.0000,0.0000,-0.002386,-1.593806,1.592272,0.3515,0.6081,0.0998,0.000000,0.576777,-0.561437,0.564505,-0.592117,0.575243,-0.559903
3.9957,0.016751,0.000000,-1.605098,1.605098,0.0000,0.0000,0.0000,-0.002384,-1.598408,1.598408,0.3557,0.6050,0.0936,0.000000,0.576777,-0.561437,0.564505,-0.592117,0.575243,-0.559903
4.0124,0.016758,0.000000,-1.607438,1.607438,0.0000,0.0000,0.0000,-0.002383,-1.598408,1.598408,0.3837,0.5190,0.0949,0.000000,0.576777,-0.562971,0.564505,-0.590583,0.575243,-0.559903
4.0292,0.016730,0.000000,-1.609774,1.609774,0.0000,0.0000,0.0000,-0.002372,-1.601476,1.599942,0.3915,0.5788,0.0410,0.000000,0.576777,-0.562971,0.564505,-0.592117,0.575243,-0.559903
4.0459,0.016756,0.000000,-1.612114,1.612114,0.0000,0.0000,0.0000,-0.002373,-1.603010,1.606078,0.3907,0.5725,0.0466,0.000000,0.576777,-0.562971,0.564505,-0.592117,0.575243,-0.559903
4.0627,0.016748,0.000000,-1.614452,1.614452,0.0000,0.0000,0.0000,-0.002373,-1.607612,1.607612,0.3907,0.5725,0.0466,0.000000,0.576777,-0.562971,0.564505,-0.592117,0.575243,-0.559903
4.0794,0.016767,0.000000,-1.616793,1.616793,0.0000,0.0000,0.0000,-0.002373,-1.607612,1.607612,0.3907,0.5725,0.0466,0.000000,0.576777,-0.562971,0.564505,-0.592117,0.575243,-0.559903
4.0962,0.016764,0.000000,-1.619134,1.619134,0.0000,0.0000,0.0000,-0.002373,-1.615282,1.607612,0.3907,0.5725,0.0466,0.000000,0.576777,-0.562971,0.564505,-0.592117,0.575243,-0.559903
4.1130,0.016758,0.000000,-1.621474,1.621474,0.0000,0.0000,0.0000,-0.002373,-1.615282,1.610680,0.3907,0.5725,0.0466,0.000000,0.576777,-0.562971,0.564505,-0.592117,0.575243,-0.559903
4.1297,0.016776,0.000000,-1.623816,1.623816,0.0000,0.0000,0.0000,-0.002373,-1.615282,1.613748,0.3907,0.5725,0.0466,0.000000,0.576777,-0.562971,0.564505,-0.592117,0.575243,-0.559903
4.1465,0.016764,0.000000,-1.626157,1.626157,0.0000,0.0000,0.0000,-0.002373,-1.618350,1.613748,0.3907,0.5725,0.0466,0.000000,0.576777,-0.562971,0.564505,-0.592117,0.575243,-0.559903
4.1633,0.016775,0.000000,-1.628499,1.628499,0.0000,0.0000,0.0000,-0.002373,-1.624486,1.619884,0.3907,0.5725,0.0466,0.000000,0.576777,-0.562971,0.564505,-0.592117,0.575243,-0.559903
4.1800,0.016782,0.000000,-1.630842,1.630842,0.0000,0.0000,0.0000,-0.002373,-1.624486,1.619884,0.3907,0.5725,0.0466,0.000000,0.576777,-0.562971,0.564505,-0.592117,0.575243,-0.559903
4.1968,0.016755,0.000000,-1.633182,1.633182,0.0000,0.0000,0.0000,-0.002373,-1.627554,1.627554,0.3907,0.5725,0.0466,0.000000,0.576777,-0.562971,0.564505,-0.592117,0.575243,-0.559903
4.2136,0.016762,0.000000,-1.635522,1.635522,0.0000,0.0000,0.0000,-0.002373,-1.626020,1.627554,0.3907,0.5725,0.0466,0.000000,0.576777,-0.562971,0.564505,-0.592117,0.575243,-0.559903
4.2303,0.016765,0.000000,-1.637863,1.637863,0.0000,0.0000,0.0000,-0.002373,-1.627554,1.627554,0.3907,0.5725,0.0466,0.000000,0.576777,-0.562971,0.564505,-0.592117,0.575243,-0.559903
4.2471,0.016755,0.000000,-1.640202,1.640202,0.0000,0.0000,0.0000,-0.002373,-1.633690,1.635224,0.3907,0.5725,0.0466,0.000000,0.576777,-0.562971,0.564505,-0.592117,0.575243,-0.559903
4.2638,0.016759,0.000000,-1.642542,1.642542,0.0000,0.0000,0.0000,-0.002373,-1.639825,1.636758,0.3907,0.5725,0.0466,0.000000,0.576777,-0.562971,0.564505,-0.592117,0.575243,-0.559903
4.2806,0.016761,0.000000,-1.644883,1.644883,0.0000,0.0000,0.0000,-0.002373,-1.639825,1.636758,0.3907,0.5725,0.0466,0.000000,0.576777,-0.562971,0.564505,-0.592117,0.575243,-0.559903
4.2974,0.016759,0.000000,-1.647223,1.647223,0.0000,0.0000,0.0000,-0.002373,-1.639825,1.636758,0.3907,0.5725,0.0466,0.000000,0.576777,-0.562971,0.564505,-0.592117,0.575243,-0.559903
4.3141,0.016760,0.000000,-1.649563,1.649563,0.0000,0.0000,0.0000,-0.002385,-1.639825,1.639825,0.3800,0.5224,0.0998,0.000000,0.576777,-0.562971,0.564505,-0.590583,0.575243,-0.559903
4.3309,0.016765,0.000000,-1.651904,1.651904,0.0000,0.0000,0.0000,-0.002372,-1.642893,1.641359,0.3918,0.5784,0.0405,0.000000,0.576777,-0.562971,0.564505,-0.592117,0.575243,-0.559903
4.3482,0.017276,0.000000,-1.654316,1.654316,0.0000,0.0000,0.0000,-0.002386,-1.649029,1.644427,0.3515,0.6081,0.0998,0.000000,0.576777,-0.561437,0.564505,-0.592117,0.575243,-0.559903
4.3649,0.016773,0.000000,-1.656658,1.656658,0.0000,0.0000,0.0000,-0.002386,-1.649029,1.644427,0.3515,0.6081,0.0998,0.000000,0.576777,-0.561437,0.564505,-0.592117,0.575243,-0.559903
4.3817,0.016752,0.000000,-1.658997,1.658997,0.0000,0.0000,0.0000,-0.002372,-1.650563,1.652097,0.3948,0.5695,0.0405,0.000000,0.576777,-0.562971,0.564505,-0.592117,0.575243,-0.559903
4.3985,0.016768,0.000000,-1.661338,1.661338,0.0000,0.0000,0.0000,-0.002373,-1.653631,1.652097,0.3903,0.5735,0.0467,0.000000,0.576777,-0.562971,0.564505,-0.592117,0.575243,-0.559903
4.4153,0.016843,0.000000,-1.663690,1.663690,0.0000,0.0000,0.0000,-0.002373,-1.653631,1.652097,0.3903,0.5735,0.0467,0.000000,0.576777,-0.562971,0.564505,-0.592117,0.575243,-0.559903
4.4321,0.016767,0.000000,-1.666031,1.666031,0.0000,0.0000,0.0000,-0.002385,-1.658233,1.658233,0.3801,0.5223,0.0998,0.000000,0.576777,-0.562971,0.564505,-0.590583,0.575243,-0.559903
4.4489,0.016831,0.000000,-1.668381,1.668381,0.0000,0.0000,0.0000,-0.002372,-1.664369,1.664369,0.3918,0.5784,0.0405,0.000000,0.576777,-0.562971,0.564505,-0.592117,0.575243,-0.559903
4.4659,0.017018,0.000000,-1.670757,1.670757,0.0000,0.0000,0.0000,-0.002372,-1.664369,1.664369,0.3918,0.5784,0.0405,0.000000,0.576777,-0.562971,0.564505,-0.592117,0.575243,-0.559903
4.4827,0.016758,0.000000,-1.673097,1.673097,0.0000,0.0000,0.0000,-0.002373,-1.665903,1.664369,0.3906,0.5725,0.0467,0.000000,0.576777,-0.562971,0.564505,-0.592117,0.575243,-0.559903
4.4994,0.016764,0.000000,-1.675438,1.675438,0.0000,0.0000,0.0000,-0.002373,-1.665903,1.664369,0.3906,0.5725,0.0467,0.000000,0.576777,-0.562971,0.564505,-0.592117,0.575243,-0.559903
4.5162,0.016760,0.000000,-1.677778,1.677778,0.0000,0.0000,0.0000,-0.002385,-1.673573,1.668971,0.3800,0.5224,0.0998,0.000000,0.576777,-0.562971,0.564505,-0.590583,0.575243,-0.559903
4.5330,0.016763,0.000000,-1.680119,1.680119,0.0000,0.0000,0.0000,-0.002372,-1.673573,1.670505,0.3918,0.5784,0.0405,0.000000,0.576777,-0.562971,0.564505,-0.592117,0.575243,-0.559903
4.5497,0.016757,0.000000,-1.682458,1.682458,0.0000,0.0000,0.0000,-0.002385,-1.679709,1.675107,0.3799,0.5218,0.1004,0.000000,0.576777,-0.562971,0.564505,-0.590583,0.575243,-0.559903
4.5665,0.016762,0.000000,-1.684799,1.684799,0.0000,0.0000,0.0000,-0.002385,-1.679709,1.675107,0.3799,0.5218,0.1004,0.000000,0.576777,-0.562971,0.564505,-0.590583,0.575243,-0.559903
4.5832,0.016747,0.000000,-1.687137,1.687137,0.0000,0.0000,0.0000,-0.002372,-1.681243,1.678175,0.3919,0.5785,0.0404,0.000000,0.576777,-0.562971,0.564505,-0.592117,0.575243,-0.559903
4.6000,0.016756,0.000000,-1.689476,1.689476,0.0000,0.0000,0.0000,-0.002385,-1.681243,1.678175,0.3799,0.5218,0.1004,0.000000,0.576777,-0.562971,0.564505,-0.590583,0.575243,-0.559903
4.6167,0.016760,0.000000,-1.691817,1.691817,0.0000,0.0000,0.0000,-0.002372,-1.684311,1.679709,0.3919,0.5785,0.0404,0.000000,0.576777,-0.562971,0.564505,-0.592117,0.575243,-0.559903
4.6335,0.016758,0.000000,-1.694157,1.694157,0.0000,0.0000,0.0000,-0.002386,-1.688913,1.688913,0.3515,0.6081,0.0998,0.000000,0.576777,-0.561437,0.564505,-0.592117,0.575243,-0.559903
4.6503,0.016760,0.000000,-1.696497,1.696497,0.0000,0.0000,0.0000,-0.002386,-1.690447,1.690447,0.3515,0.6081,0.0998,0.000000,0.576777,-0.562971,0.564505,-0.590583,0.575243,-0.559903
4.6670,0.016765,0.000000,-1.698838,1.698838,0.0000,0.0000,0.0000,-0.002383,-1.690447,1.690447,0.3841,0.5187,0.0942,0.000000,0.576777,-0.562971,0.564505,-0.590583,0.575243,-0.559903
4.6838,0.016750,0.000000,-1.701176,1.701176,0.0000,0.0000,0.0000,-0.002372,-1.693515,1.690447,0.3914,0.5788,0.0411,0.000000,0.576777,-0.562971,0.564505,-0.592117,0.575243,-0.559903
4.7006,0.016788,0.000000,-1.703520,1.703520,0.0000,0.0000,0.0000,-0.002385,-1.696583,1.693515,0.3799,0.5218,0.1003,0.000000,0.576777,-0.562971,0.564505,-0.590583,0.575243,-0.559903
4.7173,0.016752,0.000000,-1.705859,1.705859,0.0000,0.0000,0.0000,-0.002383,-1.699651,1.695049,0.3812,0.5277,0.0942,0.000000,0.576777,-0.562971,0.564505,-0.590583,0.575243,-0.559903
4.7341,0.016757,0.000000,-1.708199,1.708199,0.0000,0.0000,0.0000,-0.002372,-1.704253,1.698117,0.3917,0.5779,0.0411,0.000000,0.576777,-0.562971,0.564505,-0.592117,0.575243,-0.559903
4.7508,0.016759,0.000000,-1.710539,1.710539,0.0000,0.0000,0.0000,-0.002397,-1.705787,1.704253,0.3407,0.5574,0.1535,0.000000,0.576777,-0.561437,0.564505,-0.590583,0.575243,-0.559903
4.7676,0.016763,0.000000,-1.712880,1.712880,0.0000,0.0000,0.0000,-0.002397,-1.705787,1.704253,0.3407,0.5574,0.1535,0.000000,0.576777,-0.561437,0.564505,-0.590583,0.575243,-0.559903
4.7843,0.016747,0.000000,-1.715218,1.715218,0.0000,0.0000,0.0000,-0.002370,-1.708855,1.704253,0.3960,0.5748,0.0349,0.000000,0.576777,-0.562971,0.564505,-0.592117,0.575243,-0.559903
4.8011,0.016753,0.000000,-1.717557,1.717557,0.0000,0.0000,0.0000,-0.002373,-1.708855,1.707321,0.3902,0.5729,0.0472,0.000000,0.576777,-0.562971,0.564505,-0.592117,0.575243,-0.559903
4.8179,0.016756,0.000000,-1.719897,1.719897,0.0000,0.0000,0.0000,-0.002373,-1.711923,1.711923,0.3910,0.5732,0.0455,0.000000,0.576777,-0.562971,0.564505,-0.592117,0.575243,-0.559903
4.8346,0.016761,0.000000,-1.722237,1.722237,0.0000,0.0000,0.0000,-0.002373,-1.716525,1.713457,0.3910,0.5732,0.0455,0.000000,0.576777,-0.562971,0.564505,-0.592117,0.575243,-0.559903
4.8514,0.016755,0.000000,-1.724576,1.724576,0.0000,0.0000,0.0000,-0.002386,-1.719592,1.714991,0.3516,0.6086,0.0993,0.000000,0.576777,-0.561437,0.564505,-0.592117,0.575243,-0.559903
4.8681,0.016762,0.000000,-1.726917,1.726917,0.0000,0.0000,0.0000,-0.002386,-1.719592,1.714991,0.3516,0.6086,0.0993,0.000000,0.576777,-0.561437,0.564505,-0.592117,0.575243,-0.559903
4.8849,0.016752,0.000000,-1.729256,1.729256,0.0000,0.0000,0.0000,-0.002372,-1.721126,1.718058,0.3948,0.5694,0.0405,0.000000,0.576777,-0.562971,0.564505,-0.592117,0.575243,-0.559903
4.9016,0.016753,0.000000,-1.731595,1.731595,0.0000,0.0000,0.0000,-0.002373,-1.724194,1.719592,0.3903,0.5735,0.0467,0.000000,0.576777,-0.562971,0.564505,-0.592117,0.575243,-0.559903
4.9184,0.016749,0.000000,-1.733934,1.733934,0.0000,0.0000,0.0000,-0.002373,-1.725728,1.721126,0.3903,0.5735,0.0467,0.000000,0.576777,-0.562971,0.564505,-0.592117,0.575243,-0.559903
4.9351,0.016749,0.000000,-1.736272,1.736272,0.0000,0.0000,0.0000,-0.002373,-1.727262,1.725728,0.3903,0.5735,0.0467,0.000000,0.576777,-0.562971,0.564505,-0.592117,0.575243,-0.559903
4.9519,0.016761,0.000000,-1.738612,1.738612,0.0000,0.0000,0.0000,-0.002397,-1.738000,1.731864,0.3409,0.5578,0.1529,0.000000,0.576777,-0.561437,0.564505,-0.590583,0.575243,-0.559903
4.9686,0.016746,0.000000,-1.740951,1.740951,0.0000,0.0000,0.0000,-0.002397,-1.738000,1.731864,0.3409,0.5578,0.1529,0.000000,0.576777,-0.561437,0.564505,-0.590583,0.575243,-0.559903
4.9854,0.016757,0.000000,-1.743290,1.743290,0.0000,0.0000,0.0000,-0.002382,-1.738000,1.733398,0.3852,0.5239,0.0887,0.000000,0.576777,-0.562971,0.564505,-0.590583,0.575243,-0.559903
5.0022,0.016760,0.000000,-1.745028,1.745028,0.0000,0.0000,0.0000,-0.002384,-1.738000,1.733398,0.3806,0.5275,0.0954,0.000000,0.576777,-0.562971,0.564505,-0.590583,0.575243,-0.559903
5.0189,0.016761,0.000000,-1.742688,1.742688,0.0000,0.0000,0.0000,-0.002372,-1.744136,1.741068,0.3918,0.5779,0.0409,0.000000,0.576777,-0.562971,0.564505,-0.592117,0.575243,-0.559903
5.0357,0.016814,0.000000,-1.740340,1.740340,0.0000,0.0000,0.0000,-0.002373,-1.744136,1.741068,0.3906,0.5726,0.0466,0.000000,0.576777,-0.562971,0.564505,-0.592117,0.575243,-0.559903
5.0525,0.016802,0.000000,-1.737994,1.737994,0.0000,0.0000,0.0000,-0.002373,-1.747204,1.744136,0.3906,0.5726,0.0466,0.000000,0.576777,-0.562971,0.564505,-0.592117,0.575243,-0.559903
5.0693,0.016758,0.000000,-1.735654,1.735654,0.0000,0.0000,0.0000,-0.002373,-1.747204,1.744136,0.3906,0.5726,0.0466,0.000000,0.576777,-0.562971,0.564505,-0.592117,0.575243,-0.559903
5.0860,0.016753,0.000000,-1.733315,1.733315,0.0000,0.0000,0.0000,-0.002385,-1.747204,1.744136,0.3800,0.5224,0.0998,0.000000,0.576777,-0.562971,0.564505,-0.590583,0.575243,-0.559903
5.1028,0.016763,0.000000,-1.730974,1.730974,0.0000,0.0000,0.0000,-0.002372,-1.748738,1.744136,0.3918,0.5784,0.0405,0.000000,0.576777,-0.562971,0.564505,-0.592117,0.575243,-0.559903
5.1200,0.017212,0.000000,-1.728571,1.728571,0.0000,0.0000,0.0000,-0.002386,-1.747204,1.744136,0.3515,0.6081,0.0998,0.000000,0.576777,-0.561437,0.564505,-0.592117,0.575243,-0.559903
5.1369,0.016886,0.000000,-1.726214,1.726214,0.0000,0.0000,0.0000,-0.002372,-1.747204,1.744136,0.3948,0.5695,0.0405,0.000000,0.576777,-0.562971,0.564505,-0.592117,0.575243,-0.559903
5.1537,0.016764,0.000000,-1.723873,1.723873,0.0000,0.0000,0.0000,-0.002372,-1.747204,1.744136,0.3948,0.5695,0.0405,0.000000,0.576777,-0.562971,0.564505,-0.592117,0.575243,-0.559903
5.1704,0.016755,0.000000,-1.721533,1.721533,0.0000,0.0000,0.0000,-0.002373,-1.747204,1.744136,0.3903,0.5735,0.0467,0.000000,0.576777,-0.562971,0.564505,-0.592117,0.575243,-0.559903
5.1872,0.016759,0.000000,-1.719193,1.719193,0.0000,0.0000,0.0000,-0.002373,-1.747204,1.744136,0.3903,0.5735,0.0467,0.000000,0.576777,-0.562971,0.564505,-0.592117,0.575243,-0.559903
5.2042,0.016965,0.000000,-1.716824,1.716824,0.0000,0.0000,0.0000,-0.002373,-1.745670,1.744136,0.3903,0.5735,0.0467,0.000000,0.576777,-0.562971,0.564505,-0.592117,0.575243,-0.559903
5.2209,0.016750,0.000000,-1.714486,1.714486,0.0000,0.0000,0.0000,-0.002385,-1.741068,1.744136,0.3801,0.5223,0.0998,0.000000,0.576777,-0.562971,0.564505,-0.590583,0.575243,-0.559903
5.2377,0.016765,0.000000,-1.712145,1.712145,0.0000,0.0000,0.0000,-0.002372,-1.738000,1.742602,0.3918,0.5784,0.0405,0.000000,0.576777,-0.562971,0.564505,-0.592117,0.575243,-0.559903
5.2544,0.016756,0.000000,-1.709805,1.709805,0.0000,0.0000,0.0000,-0.002372,-1.738000,1.742602,0.3918,0.5784,0.0405,0.000000,0.576777,-0.562971,0.564505,-0.592117,0.575243,-0.559903
5.2712,0.016757,0.000000,-1.707466,1.707466,0.0000,0.0000,0.0000,-0.002386,-1.736466,1.742602,0.3515,0.6081,0.0998,0.000000,0.576777,-0.561437,0.564505,-0.592117,0.575243,-0.559903
5.2879,0.016758,0.000000,-1.705126,1.705126,0.0000,0.0000,0.0000,-0.002383,-1.736466,1.742602,0.3841,0.5187,0.0942,0.000000,0.576777,-0.562971,0.564505,-0.590583,0.575243,-0.559903
5.3047,0.016758,0.000000,-1.702786,1.702786,0.0000,0.0000,0.0000,-0.002372,-1.736466,1.742602,0.3914,0.5788,0.0411,0.000000,0.576777,-0.562971,0.564505,-0.592117,0.575243,-0.559903
5.3215,0.016767,0.000000,-1.700445,1.700445,0.0000,0.0000,0.0000,-0.002372,-1.736466,1.742602,0.3914,0.5788,0.0411,0.000000,0.576777,-0.562971,0.564505,-0.592117,0.575243,-0.559903
5.3382,0.016754,0.000000,-1.698105,1.698105,0.0000,0.0000,0.0000,-0.002373,-1.736466,1.742602,0.3907,0.5725,0.0466,0.000000,0.576777,-0.562971,0.564505,-0.592117,0.575243,-0.559903
5.3550,0.016752,0.000000,-1.695766,1.695766,0.0000,0.0000,0.0000,-0.002373,-1.736466,1.741068,0.3907,0.5725,0.0466,0.000000,0.576777,-0.562971,0.564505,-0.592117,0.575243,-0.559903
5.3717,0.016759,0.000000,-1.693426,1.693426,0.0000,0.0000,0.0000,-0.002373,-1.736466,1.741068,0.3907,0.5725,0.0466,0.000000,0.576777,-0.562971,0.564505,-0.592117,0.575243,-0.559903
5.3885,0.016754,0.000000,-1.691087,1.691087,0.0000,0.0000,0.0000,-0.002373,-1.736466,1.741068,0.3907,0.5725,0.0466,0.000000,0.576777,-0.562971,0.564505,-0.592117,0.575243,-0.559903
5.4052,0.016757,0.000000,-1.688747,1.688747,0.0000,0.0000,0.0000,-0.002385,-1.733398,1.739534,0.3800,0.5224,0.0998,0.000000,0.576777,-0.562971,0.564505,-0.590583,0.575243,-0.559903
5.4220,0.016753,0.000000,-1.686408,1.686408,0.0000,0.0000,0.0000,-0.002385,-1.728796,1.738000,0.3800,0.5224,0.0998,0.000000,0.576777,-0.562971,0.564505,-0.592117,0.575243,-0.559903
5.4387,0.016759,0.000000,-1.684068,1.684068,0.0000,0.0000,0.0000,-0.002372,-1.728796,1.738000,0.3918,0.5784,0.0405,0.000000,0.576777,-0.562971,0.564505,-0.592117,0.575243,-0.559903
5.4555,0.016759,0.000000,-1.681728,1.681728,0.0000,0.0000,0.0000,-0.002385,-1.721126,1.733398,0.3799,0.5218,0.1004,0.000000,0.576777,-0.562971,0.564505,-0.590583,0.575243,-0.559903
5.4723,0.016760,0.000000,-1.679388,1.679388,0.0000,0.0000,0.0000,-0.002372,-1.716525,1.722660,0.3919,0.5785,0.0404,0.000000,0.576777,-0.562971,0.564505,-0.592117,0.575243,-0.559903
5.4890,0.016760,0.000000,-1.677048,1.677048,0.0000,0.0000,0.0000,-0.002373,-1.710389,1.713457,0.3906,0.5725,0.0467,0.000000,0.576777,-0.562971,0.564505,-0.592117,0.575243,-0.559903
