t,loop_dt,cmd_z,cmd_ant_l,cmd_ant_r,cmd_roll,cmd_pitch,cmd_yaw,pres_z,pres_ant_l,pres_ant_r,pres_roll,pres_pitch,pres_yaw,pres_j0,pres_j1,pres_j2,pres_j3,pres_j4,pres_j5,pres_j6
0.0000,0.000001,0.000000,-0.174533,0.174533,0.0000,0.0000,0.0000,-0.002463,0.000000,-0.003068,0.4972,0.5132,0.3373,0.000000,0.575243,-0.562971,0.564505,-0.587515,0.575243,-0.553767
0.0168,0.016753,0.000000,-0.173948,0.173948,0.0000,0.0000,0.0000,-0.002476,0.006136,-0.003068,0.5464,0.5306,0.3899,0.000000,0.575243,-0.562971,0.564505,-0.587515,0.575243,-0.552233
0.0335,0.016767,0.000000,-0.173363,0.173363,0.0000,0.0000,0.0000,-0.002450,0.004602,-0.001534,0.5413,0.4956,0.3849,0.000000,0.576777,-0.562971,0.564505,-0.587515,0.575243,-0.553767
0.0512,0.017700,0.000000,-0.172745,0.172745,0.0000,0.0000,0.0000,-0.002452,-0.039884,0.035282,0.5418,0.4993,0.3854,0.000000,0.576777,-0.562971,0.564505,-0.587515,0.575243,-0.553767
0.0680,0.016777,0.000000,-0.172159,0.172159,0.0000,0.0000,0.0000,-0.002452,-0.113515,0.111981,0.5418,0.4993,0.3854,0.000000,0.576777,-0.562971,0.564505,-0.587515,0.575243,-0.553767
0.0848,0.016766,0.000000,-0.171574,0.171574,0.0000,0.0000,0.0000,-0.002452,-0.113515,0.111981,0.5418,0.4993,0.3854,0.000000,0.576777,-0.562971,0.564505,-0.587515,0.575243,-0.553767
0.1015,0.016747,0.000000,-0.170990,0.170990,0.0000,0.0000,0.0000,-0.002426,-0.181010,0.181010,0.4422,0.4634,0.2786,0.000000,0.576777,-0.562971,0.564505,-0.587515,0.575243,-0.556835
0.1183,0.016762,0.000000,-0.170404,0.170404,0.0000,0.0000,0.0000,-0.002404,-0.205553,0.204019,0.4528,0.4340,0.2901,0.000000,0.578311,-0.562971,0.564505,-0.587515,0.575243,-0.558369
0.1350,0.016762,0.000000,-0.169819,0.169819,0.0000,0.0000,0.0000,-0.002406,-0.197884,0.197884,0.4517,0.4371,0.2889,0.000000,0.578311,-0.562971,0.564505,-0.587515,0.575243,-0.558369
0.1518,0.016764,0.000000,-0.169234,0.169234,0.0000,0.0000,0.0000,-0.002393,-0.181010,0.182544,0.4021,0.4191,0.2357,0.000000,0.578311,-0.562971,0.564505,-0.587515,0.575243,-0.559903
0.1686,0.016781,0.000000,-0.168648,0.168648,0.0000,0.0000,0.0000,-0.002393,-0.181010,0.182544,0.4021,0.4191,0.2357,0.000000,0.578311,-0.562971,0.564505,-0.587515,0.575243,-0.559903
0.1853,0.016769,0.000000,-0.168063,0.168063,0.0000,0.0000,0.0000,-0.002369,-0.170272,0.171806,0.4074,0.3878,0.2415,0.000000,0.579845,-0.562971,0.564505,-0.587515,0.575243,-0.561437
0.2021,0.016754,0.000000,-0.167478,0.167478,0.0000,0.0000,0.0000,-0.002372,-0.168738,0.165670,0.4069,0.3911,0.2409,0.000000,0.579845,-0.562971,0.564505,-0.587515,0.575243,-0.561437
0.2189,0.016768,0.000000,-0.166893,0.166893,0.0000,0.0000,0.0000,-0.002372,-0.174874,0.173340,0.4069,0.3911,0.2409,0.000000,0.579845,-0.562971,0.564505,-0.587515,0.575243,-0.561437
0.2358,0.016929,0.000000,-0.166302,0.166302,0.0000,0.0000,0.0000,-0.002372,-0.174874,0.173340,0.4069,0.3911,0.2409,0.000000,0.579845,-0.562971,0.564505,-0.587515,0.575243,-0.561437
0.2528,0.017027,0.000000,-0.165708,0.165708,0.0000,0.0000,0.0000,-0.002372,-0.171806,0.168738,0.4069,0.3911,0.2409,0.000000,0.579845,-0.562971,0.564505,-0.587515,0.575243,-0.561437
0.2696,0.016762,0.000000,-0.165122,0.165122,0.0000,0.0000,0.0000,-0.002372,-0.168738,0.168738,0.4069,0.3911,0.2409,0.000000,0.579845,-0.562971,0.564505,-0.589049,0.575243,-0.561437
0.2864,0.016767,0.000000,-0.164537,0.164537,0.0000,0.0000,0.0000,-0.002360,-0.168738,0.168738,0.4177,0.4416,0.1873,0.000000,0.579845,-0.562971,0.564505,-0.589049,0.575243,-0.561437
0.3031,0.016768,0.000000,-0.163952,0.163952,0.0000,0.0000,0.0000,-0.002361,-0.168738,0.168738,0.4166,0.4364,0.1929,0.000000,0.579845,-0.562971,0.564505,-0.589049,0.575243,-0.561437
0.3199,0.016756,0.000000,-0.163367,0.163367,0.0000,0.0000,0.0000,-0.002361,-0.168738,0.167204,0.4166,0.4364,0.1929,0.000000,0.579845,-0.562971,0.564505,-0.589049,0.575243,-0.561437
0.3366,0.016758,0.000000,-0.162782,0.162782,0.0000,0.0000,0.0000,-0.002349,-0.167204,0.167204,0.4274,0.4878,0.1386,0.000000,0.579845,-0.562971,0.564505,-0.590583,0.575243,-0.561437
0.3536,0.016925,0.000000,-0.162191,0.162191,0.0000,0.0000,0.0000,-0.002351,-0.165670,0.167204,0.4263,0.4824,0.1443,0.000000,0.579845,-0.562971,0.564505,-0.590583,0.575243,-0.561437
0.3703,0.016759,0.000000,-0.161606,0.161606,0.0000,0.0000,0.0000,-0.002351,-0.165670,0.167204,0.4263,0.4824,0.1443,0.000000,0.579845,-0.562971,0.564505,-0.590583,0.575243,-0.561437
0.3871,0.016769,0.000000,-0.161021,0.161021,0.0000,0.0000,0.0000,-0.002351,-0.165670,0.167204,0.4263,0.4824,0.1443,0.000000,0.579845,-0.562971,0.564505,-0.590583,0.575243,-0.561437
0.4038,0.016754,0.000000,-0.160436,0.160436,0.0000,0.0000,0.0000,-0.002351,-0.165670,0.167204,0.4263,0.4824,0.1443,0.000000,0.579845,-0.562971,0.564505,-0.590583,0.575243,-0.561437
0.4206,0.016768,0.000000,-0.159851,0.159851,0.0000,0.0000,0.0000,-0.002351,-0.164136,0.167204,0.4263,0.4824,0.1443,0.000000,0.579845,-0.562971,0.564505,-0.590583,0.575243,-0.561437
0.4374,0.016752,0.000000,-0.159266,0.159266,0.0000,0.0000,0.0000,-0.002351,-0.162602,0.165670,0.4263,0.4824,0.1443,0.000000,0.579845,-0.562971,0.564505,-0.590583,0.575243,-0.561437
0.4542,0.016863,0.000000,-0.158677,0.158677,0.0000,0.0000,0.0000,-0.002351,-0.162602,0.165670,0.4263,0.4824,0.1443,0.000000,0.579845,-0.562971,0.564505,-0.590583,0.575243,-0.561437
0.4710,0.016748,0.000000,-0.158093,0.158093,0.0000,0.0000,0.0000,-0.002351,-0.162602,0.165670,0.4263,0.4824,0.1443,0.000000,0.579845,-0.562971,0.564505,-0.590583,0.575243,-0.561437
0.4877,0.016764,0.000000,-0.157508,0.157508,0.0000,0.0000,0.0000,-0.002351,-0.162602,0.162602,0.4263,0.4824,0.1443,0.000000,0.579845,-0.562971,0.564505,-0.590583,0.575243,-0.561437
0.5045,0.016750,0.000000,-0.156923,0.156923,0.0000,0.0000,0.0000,-0.002351,-0.161068,0.158000,0.4263,0.4824,0.1443,0.000000,0.579845,-0.562971,0.564505,-0.590583,0.575243,-0.561437
0.5213,0.016769,0.000000,-0.156338,0.156338,0.0000,0.0000,0.0000,-0.002351,-0.161068,0.158000,0.4263,0.4824,0.1443,0.000000,0.579845,-0.562971,0.564505,-0.590583,0.575243,-0.561437
0.5380,0.016751,0.000000,-0.155753,0.155753,0.0000,0.0000,0.0000,-0.002351,-0.161068,0.158000,0.4263,0.4824,0.1443,0.000000,0.579845,-0.562971,0.564505,-0.590583,0.575243,-0.561437
0.5548,0.016772,0.000000,-0.155167,0.155167,0.0000,0.0000,0.0000,-0.002351,-0.159534,0.158000,0.4263,0.4824,0.1443,0.000000,0.579845,-0.562971,0.564505,-0.590583,0.575243,-0.561437
0.5715,0.016752,0.000000,-0.154583,0.154583,0.0000,0.0000,0.0000,-0.002351,-0.159534,0.158000,0.4263,0.4824,0.1443,0.000000,0.579845,-0.562971,0.564505,-0.590583,0.575243,-0.561437
0.5883,0.016755,0.000000,-0.153998,0.153998,0.0000,0.0000,0.0000,-0.002351,-0.159534,0.158000,0.4263,0.4824,0.1443,0.000000,0.579845,-0.562971,0.564505,-0.590583,0.575243,-0.561437
0.6050,0.016753,0.000000,-0.153413,0.153413,0.0000,0.0000,0.0000,-0.002351,-0.159534,0.158000,0.4263,0.4824,0.1443,0.000000,0.579845,-0.562971,0.564505,-0.590583,0.575243,-0.561437
0.6218,0.016765,0.000000,-0.152828,0.152828,0.0000,0.0000,0.0000,-0.002351,-0.158000,0.158000,0.4263,0.4824,0.1443,0.000000,0.579845,-0.562971,0.564505,-0.590583,0.575243,-0.561437
0.6386,0.016752,0.000000,-0.152243,0.152243,0.0000,0.0000,0.0000,-0.002351,-0.158000,0.158000,0.4263,0.4824,0.1443,0.000000,0.579845,-0.562971,0.564505,-0.590583,0.575243,-0.561437
0.6566,0.017992,0.000000,-0.151615,0.151615,0.0000,0.0000,0.0000,-0.002351,-0.156466,0.158000,0.4263,0.4824,0.1443,0.000000,0.579845,-0.562971,0.564505,-0.590583,0.575243,-0.561437
0.6733,0.016756,0.000000,-0.151030,0.151030,0.0000,0.0000,0.0000,-0.002351,-0.156466,0.158000,0.4263,0.4824,0.1443,0.000000,0.579845,-0.562971,0.564505,-0.590583,0.575243,-0.561437
0.6903,0.016944,0.000000,-0.150439,0.150439,0.0000,0.0000,0.0000,-0.002351,-0.154932,0.158000,0.4263,0.4824,0.1443,0.000000,0.579845,-0.562971,0.564505,-0.590583,0.575243,-0.561437
0.7070,0.016753,0.000000,-0.149854,0.149854,0.0000,0.0000,0.0000,-0.002351,-0.154932,0.156466,0.4263,0.4824,0.1443,0.000000,0.579845,-0.562971,0.564505,-0.590583,0.575243,-0.561437
0.7238,0.016780,0.000000,-0.149268,0.149268,0.0000,0.0000,0.0000,-0.002351,-0.154932,0.156466,0.4263,0.4824,0.1443,0.000000,0.579845,-0.562971,0.564505,-0.590583,0.575243,-0.561437
0.7405,0.016749,0.000000,-0.148683,0.148683,0.0000,0.0000,0.0000,-0.002351,-0.153398,0.156466,0.4263,0.4824,0.1443,0.000000,0.579845,-0.562971,0.564505,-0.590583,0.575243,-0.561437
0.7573,0.016759,0.000000,-0.148098,0.148098,0.0000,0.0000,0.0000,-0.002351,-0.153398,0.156466,0.4263,0.4824,0.1443,0.000000,0.579845,-0.562971,0.564505,-0.590583,0.575243,-0.561437
0.7740,0.016756,0.000000,-0.147514,0.147514,0.0000,0.0000,0.0000,-0.002351,-0.153398,0.156466,0.4263,0.4824,0.1443,0.000000,0.579845,-0.562971,0.564505,-0.590583,0.575243,-0.561437
0.7908,0.016751,0.000000,-0.146929,0.146929,0.0000,0.0000,0.0000,-0.002351,-0.151864,0.154932,0.4263,0.4824,0.1443,0.000000,0.579845,-0.562971,0.564505,-0.590583,0.575243,-0.561437
0.8076,0.016754,0.000000,-0.146344,0.146344,0.0000,0.0000,0.0000,-0.002351,-0.151864,0.150330,0.4263,0.4824,0.1443,0.000000,0.579845,-0.562971,0.564505,-0.590583,0.575243,-0.561437
0.8243,0.016757,0.000000,-0.145759,0.145759,0.0000,0.0000,0.0000,-0.002351,-0.151864,0.150330,0.4263,0.4824,0.1443,0.000000,0.579845,-0.562971,0.564505,-0.590583,0.575243,-0.561437
0.8411,0.016758,0.000000,-0.145174,0.145174,0.0000,0.0000,0.0000,-0.002351,-0.150330,0.147262,0.4263,0.4824,0.1443,0.000000,0.579845,-0.562971,0.564505,-0.590583,0.575243,-0.561437
0.8578,0.016755,0.000000,-0.144589,0.144589,0.0000,0.0000,0.0000,-0.002351,-0.150330,0.147262,0.4263,0.4824,0.1443,0.000000,0.579845,-0.562971,0.564505,-0.590583,0.575243,-0.561437
0.8746,0.016757,0.000000,-0.144004,0.144004,0.0000,0.0000,0.0000,-0.002351,-0.148796,0.145728,0.4263,0.4824,0.1443,0.000000,0.579845,-0.562971,0.564505,-0.590583,0.575243,-0.561437
0.8913,0.016751,0.000000,-0.143420,0.143420,0.0000,0.0000,0.0000,-0.002351,-0.148796,0.145728,0.4263,0.4824,0.1443,0.000000,0.579845,-0.562971,0.564505,-0.590583,0.575243,-0.561437
0.9081,0.016758,0.000000,-0.142835,0.142835,0.0000,0.0000,0.0000,-0.002351,-0.148796,0.145728,0.4263,0.4824,0.1443,0.000000,0.579845,-0.562971,0.564505,-0.590583,0.575243,-0.561437
0.9249,0.016762,0.000000,-0.142249,0.142249,0.0000,0.0000,0.0000,-0.002351,-0.148796,0.145728,0.4263,0.4824,0.1443,0.000000,0.579845,-0.562971,0.564505,-0.590583,0.575243,-0.561437
0.9416,0.016755,0.000000,-0.141665,0.141665,0.0000,0.0000,0.0000,-0.002351,-0.148796,0.145728,0.4263,0.4824,0.1443,0.000000,0.579845,-0.562971,0.564505,-0.590583,0.575243,-0.561437
0.9584,0.016756,0.000000,-0.141080,0.141080,0.0000,0.0000,0.0000,-0.002351,-0.148796,0.145728,0.4263,0.4824,0.1443,0.000000,0.579845,-0.562971,0.564505,-0.590583,0.575243,-0.561437
0.9756,0.017223,0.000000,-0.140479,0.140479,0.0000,0.0000,0.0000,-0.002351,-0.148796,0.145728,0.4263,0.4824,0.1443,0.000000,0.579845,-0.562971,0.564505,-0.590583,0.575243,-0.561437
0.9923,0.016747,0.000000,-0.139894,0.139894,0.0000,0.0000,0.0000,-0.002351,-0.148796,0.145728,0.4263,0.4824,0.1443,0.000000,0.579845,-0.562971,0.564505,-0.590583,0.575243,-0.561437
1.0091,0.016754,0.000000,-0.139309,0.139309,0.0000,0.0000,0.0000,-0.002351,-0.148796,0.145728,0.4263,0.4824,0.1443,0.000000,0.579845,-0.562971,0.564505,-0.590583,0.575243,-0.561437
1.0258,0.016752,0.000000,-0.138724,0.138724,0.0000,0.0000,0.0000,-0.002351,-0.148796,0.145728,0.4263,0.4824,0.1443,0.000000,0.579845,-0.562971,0.564505,-0.590583,0.575243,-0.561437
1.0426,0.016748,0.000000,-0.138140,0.138140,0.0000,0.0000,0.0000,-0.002351,-0.148796,0.145728,0.4263,0.4824,0.1443,0.000000,0.579845,-0.562971,0.564505,-0.590583,0.575243,-0.561437
1.0593,0.016753,0.000000,-0.137555,0.137555,0.0000,0.0000,0.0000,-0.002351,-0.148796,0.145728,0.4263,0.4824,0.1443,0.000000,0.579845,-0.562971,0.564505,-0.590583,0.575243,-0.561437
1.0761,0.016749,0.000000,-0.136970,0.136970,0.0000,0.0000,0.0000,-0.002351,-0.147262,0.145728,0.4263,0.4824,0.1443,0.000000,0.579845,-0.562971,0.564505,-0.590583,0.575243,-0.561437
1.0928,0.016748,0.000000,-0.136386,0.136386,0.0000,0.0000,0.0000,-0.002351,-0.147262,0.145728,0.4263,0.4824,0.1443,0.000000,0.579845,-0.562971,0.564505,-0.590583,0.575243,-0.561437
1.1096,0.016758,0.000000,-0.135801,0.135801,0.0000,0.0000,0.0000,-0.002351,-0.147262,0.145728,0.4263,0.4824,0.1443,0.000000,0.579845,-0.562971,0.564505,-0.590583,0.575243,-0.561437
1.1264,0.016772,0.000000,-0.135215,0.135215,0.0000,0.0000,0.0000,-0.002351,-0.147262,0.145728,0.4263,0.4824,0.1443,0.000000,0.579845,-0.562971,0.564505,-0.590583,0.575243,-0.561437
1.1433,0.016980,0.000000,-0.134623,0.134623,0.0000,0.0000,0.0000,-0.002351,-0.147262,0.145728,0.4263,0.4824,0.1443,0.000000,0.579845,-0.562971,0.564505,-0.590583,0.575243,-0.561437
1.1601,0.016757,0.000000,-0.134038,0.134038,0.0000,0.0000,0.0000,-0.002351,-0.147262,0.145728,0.4263,0.4824,0.1443,0.000000,0.579845,-0.562971,0.564505,-0.590583,0.575243,-0.561437
1.1771,0.016976,0.000000,-0.133445,0.133445,0.0000,0.0000,0.0000,-0.002351,-0.147262,0.145728,0.4263,0.4824,0.1443,0.000000,0.579845,-0.562971,0.564505,-0.590583,0.575243,-0.561437
1.1938,0.016763,0.000000,-0.132860,0.132860,0.0000,0.0000,0.0000,-0.002351,-0.145728,0.145728,0.4263,0.4824,0.1443,0.000000,0.579845,-0.562971,0.564505,-0.590583,0.575243,-0.561437
1.2106,0.016749,0.000000,-0.132275,0.132275,0.0000,0.0000,0.0000,-0.002351,-0.142660,0.144194,0.4263,0.4824,0.1443,0.000000,0.579845,-0.562971,0.564505,-0.590583,0.575243,-0.561437
1.2273,0.016752,0.000000,-0.131691,0.131691,0.0000,0.0000,0.0000,-0.002351,-0.142660,0.144194,0.4263,0.4824,0.1443,0.000000,0.579845,-0.562971,0.564505,-0.590583,0.575243,-0.561437
1.2441,0.016756,0.000000,-0.131106,0.131106,0.0000,0.0000,0.0000,-0.002351,-0.136524,0.144194,0.4263,0.4824,0.1443,0.000000,0.579845,-0.562971,0.564505,-0.590583,0.575243,-0.561437
1.2608,0.016741,0.000000,-0.130521,0.130521,0.0000,0.0000,0.0000,-0.002351,-0.133456,0.142660,0.4263,0.4824,0.1443,0.000000,0.579845,-0.562971,0.564505,-0.590583,0.575243,-0.561437
1.2776,0.016746,0.000000,-0.129937,0.129937,0.0000,0.0000,0.0000,-0.002351,-0.133456,0.139592,0.4263,0.4824,0.1443,0.000000,0.579845,-0.562971,0.564505,-0.590583,0.575243,-0.561437
1.2943,0.016747,0.000000,-0.129352,0.129352,0.0000,0.0000,0.0000,-0.002351,-0.133456,0.136524,0.4263,0.4824,0.1443,0.000000,0.579845,-0.562971,0.564505,-0.590583,0.575243,-0.561437
1.3111,0.016761,0.000000,-0.128767,0.128767,0.0000,0.0000,0.0000,-0.002351,-0.133456,0.131922,0.4263,0.4824,0.1443,0.000000,0.579845,-0.562971,0.564505,-0.590583,0.575243,-0.561437
1.3278,0.016752,0.000000,-0.128182,0.128182,0.0000,0.0000,0.0000,-0.002351,-0.133456,0.131922,0.4263,0.4824,0.1443,0.000000,0.579845,-0.562971,0.564505,-0.590583,0.575243,-0.561437
1.3446,0.016750,0.000000,-0.127598,0.127598,0.0000,0.0000,0.0000,-0.002351,-0.133456,0.128854,0.4263,0.4824,0.1443,0.000000,0.579845,-0.562971,0.564505,-0.590583,0.575243,-0.561437
1.3613,0.016744,0.000000,-0.127013,0.127013,0.0000,0.0000,0.0000,-0.002351,-0.131922,0.128854,0.4263,0.4824,0.1443,0.000000,0.579845,-0.562971,0.564505,-0.590583,0.575243,-0.561437
1.3781,0.016750,0.000000,-0.126428,0.126428,0.0000,0.0000,0.0000,-0.002351,-0.130388,0.127320,0.4263,0.4824,0.1443,0.000000,0.579845,-0.562971,0.564505,-0.590583,0.575243,-0.561437
1.3948,0.016756,0.000000,-0.125844,0.125844,0.0000,0.0000,0.0000,-0.002351,-0.130388,0.127320,0.4263,0.4824,0.1443,0.000000,0.579845,-0.562971,0.564505,-0.590583,0.575243,-0.561437
1.4116,0.016758,0.000000,-0.125259,0.125259,0.0000,0.0000,0.0000,-0.002351,-0.128854,0.125786,0.4263,0.4824,0.1443,0.000000,0.579845,-0.562971,0.564505,-0.590583,0.575243,-0.561437
1.4284,0.016751,0.000000,-0.124674,0.124674,0.0000,0.0000,0.0000,-0.002351,-0.128854,0.125786,0.4263,0.4824,0.1443,0.000000,0.579845,-0.562971,0.564505,-0.590583,0.575243,-0.561437
1.4451,0.016750,0.000000,-0.124089,0.124089,0.0000,0.0000,0.0000,-0.002351,-0.128854,0.125786,0.4263,0.4824,0.1443,0.000000,0.579845,-0.562971,0.564505,-0.590583,0.575243,-0.561437
1.4619,0.016745,0.000000,-0.123505,0.123505,0.0000,0.0000,0.0000,-0.002351,-0.128854,0.125786,0.4263,0.4824,0.1443,0.000000,0.579845,-0.562971,0.564505,-0.590583,0.575243,-0.561437
1.4786,0.016741,0.000000,-0.122920,0.122920,0.0000,0.0000,0.0000,-0.002351,-0.127320,0.125786,0.4263,0.4824,0.1443,0.000000,0.579845,-0.562971,0.564505,-0.590583,0.575243,-0.561437
1.4954,0.016774,0.000000,-0.122335,0.122335,0.0000,0.0000,0.0000,-0.002351,-0.125786,0.122718,0.4263,0.4824,0.1443,0.000000,0.579845,-0.562971,0.564505,-0.590583,0.575243,-0.561437
1.5121,0.016745,0.000000,-0.121750,0.121750,0.0000,0.0000,0.0000,-0.002351,-0.125786,0.122718,0.4263,0.4824,0.1443,0.000000,0.579845,-0.562971,0.564505,-0.590583,0.575243,-0.561437
1.5289,0.016744,0.000000,-0.121166,0.121166,0.0000,0.0000,0.0000,-0.002351,-0.125786,0.122718,0.4263,0.4824,0.1443,0.000000,0.579845,-0.562971,0.564505,-0.590583,0.575243,-0.561437
1.5456,0.016742,0.000000,-0.120581,0.120581,0.0000,0.0000,0.0000,-0.002351,-0.125786,0.124252,0.4263,0.4824,0.1443,0.000000,0.579845,-0.562971,0.564505,-0.590583,0.575243,-0.561437
1.5623,0.016743,0.000000,-0.119997,0.119997,0.0000,0.0000,0.0000,-0.002351,-0.125786,0.122718,0.4263,0.4824,0.1443,0.000000,0.579845,-0.562971,0.564505,-0.590583,0.575243,-0.561437
1.5791,0.016746,0.000000,-0.119412,0.119412,0.0000,0.0000,0.0000,-0.002351,-0.124252,0.122718,0.4263,0.4824,0.1443,0.000000,0.579845,-0.562971,0.564505,-0.590583,0.575243,-0.561437
1.5959,0.016835,0.000000,-0.118825,0.118825,0.0000,0.0000,0.0000,-0.002351,-0.122718,0.121184,0.4263,0.4824,0.1443,0.000000,0.579845,-0.562971,0.564505,-0.590583,0.575243,-0.561437
1.6127,0.016743,0.000000,-0.118240,0.118240,0.0000,0.0000,0.0000,-0.002351,-0.122718,0.121184,0.4263,0.4824,0.1443,0.000000,0.579845,-0.562971,0.564505,-0.590583,0.575243,-0.561437
1.6294,0.016749,0.000000,-0.117656,0.117656,0.0000,0.0000,0.0000,-0.002351,-0.122718,0.121184,0.4263,0.4824,0.1443,0.000000,0.579845,-0.562971,0.564505,-0.590583,0.575243,-0.561437
1.6462,0.016740,0.000000,-0.117071,0.117071,0.0000,0.0000,0.0000,-0.002351,-0.122718,0.119651,0.4263,0.4824,0.1443,0.000000,0.579845,-0.562971,0.564505,-0.590583,0.575243,-0.561437
1.6629,0.016745,0.000000,-0.116487,0.116487,0.0000,0.0000,0.0000,-0.002351,-0.121184,0.119651,0.4263,0.4824,0.1443,0.000000,0.579845,-0.562971,0.564505,-0.590583,0.575243,-0.561437
1.6796,0.016744,0.000000,-0.115902,0.115902,0.0000,0.0000,0.0000,-0.002351,-0.121184,0.118117,0.4263,0.4824,0.1443,0.000000,0.579845,-0.562971,0.564505,-0.590583,0.575243,-0.561437
1.6964,0.016791,0.000000,-0.115316,0.115316,0.0000,0.0000,0.0000,-0.002351,-0.121184,0.118117,0.4263,0.4824,0.1443,0.000000,0.579845,-0.562971,0.564505,-0.590583,0.575243,-0.561437
1.7132,0.016745,0.000000,-0.114732,0.114732,0.0000,0.0000,0.0000,-0.002351,-0.121184,0.118117,0.4263,0.4824,0.1443,0.000000,0.579845,-0.562971,0.564505,-0.590583,0.575243,-0.561437
1.7299,0.016749,0.000000,-0.114147,0.114147,0.0000,0.0000,0.0000,-0.002351,-0.121184,0.118117,0.4263,0.4824,0.1443,0.000000,0.579845,-0.562971,0.564505,-0.590583,0.575243,-0.561437
1.7467,0.016742,0.000000,-0.113563,0.113563,0.0000,0.0000,0.0000,-0.002351,-0.121184,0.118117,0.4263,0.4824,0.1443,0.000000,0.579845,-0.562971,0.564505,-0.590583,0.575243,-0.561437
1.7634,0.016743,0.000000,-0.112978,0.112978,0.0000,0.0000,0.0000,-0.002351,-0.121184,0.118117,0.4263,0.4824,0.1443,0.000000,0.579845,-0.562971,0.564505,-0.590583,0.575243,-0.561437
1.7802,0.016745,0.000000,-0.112394,0.112394,0.0000,0.0000,0.0000,-0.002351,-0.121184,0.118117,0.4263,0.4824,0.1443,0.000000,0.579845,-0.562971,0.564505,-0.590583,0.575243,-0.561437
1.7971,0.016918,0.000000,-0.111803,0.111803,0.0000,0.0000,0.0000,-0.002351,-0.121184,0.118117,0.4263,0.4824,0.1443,0.000000,0.579845,-0.562971,0.564505,-0.590583,0.575243,-0.561437
1.8138,0.016746,0.000000,-0.111219,0.111219,0.0000,0.0000,0.0000,-0.002351,-0.121184,0.118117,0.4263,0.4824,0.1443,0.000000,0.579845,-0.562971,0.564505,-0.590583,0.575243,-0.561437
1.8306,0.016744,0.000000,-0.110634,0.110634,0.0000,0.0000,0.0000,-0.002351,-0.121184,0.118117,0.4263,0.4824,0.1443,0.000000,0.579845,-0.562971,0.564505,-0.590583,0.575243,-0.561437
1.8473,0.016743,0.000000,-0.110050,0.110050,0.0000,0.0000,0.0000,-0.002351,-0.121184,0.118117,0.4263,0.4824,0.1443,0.000000,0.579845,-0.562971,0.564505,-0.590583,0.575243,-0.561437
1.8641,0.016743,0.000000,-0.109465,0.109465,0.0000,0.0000,0.0000,-0.002351,-0.121184,0.118117,0.4263,0.4824,0.1443,0.000000,0.579845,-0.562971,0.564505,-0.590583,0.575243,-0.561437
1.8808,0.016745,0.000000,-0.108881,0.108881,0.0000,0.0000,0.0000,-0.002351,-0.121184,0.118117,0.4263,0.4824,0.1443,0.000000,0.579845,-0.562971,0.564505,-0.590583,0.575243,-0.561437
1.8979,0.017083,0.000000,-0.108284,0.108284,0.0000,0.0000,0.0000,-0.002351,-0.119651,0.118117,0.4263,0.4824,0.1443,0.000000,0.579845,-0.562971,0.564505,-0.590583,0.575243,-0.561437
1.9146,0.016755,0.000000,-0.107700,0.107700,0.0000,0.0000,0.0000,-0.002351,-0.119651,0.118117,0.4263,0.4824,0.1443,0.000000,0.579845,-0.562971,0.564505,-0.590583,0.575243,-0.561437
1.9314,0.016746,0.000000,-0.107115,0.107115,0.0000,0.0000,0.0000,-0.002351,-0.119651,0.118117,0.4263,0.4824,0.1443,0.000000,0.579845,-0.562971,0.564505,-0.590583,0.575243,-0.561437
1.9481,0.016744,0.000000,-0.106531,0.106531,0.0000,0.0000,0.0000,-0.002351,-0.116583,0.116583,0.4263,0.4824,0.1443,0.000000,0.579845,-0.562971,0.564505,-0.590583,0.575243,-0.561437
1.9649,0.016781,0.000000,-0.105945,0.105945,0.0000,0.0000,0.0000,-0.002351,-0.110447,0.116583,0.4263,0.4824,0.1443,0.000000,0.579845,-0.562971,0.564505,-0.590583,0.575243,-0.561437
1.9816,0.016726,0.000000,-0.105361,0.105361,0.0000,0.0000,0.0000,-0.002351,-0.107379,0.115049,0.4263,0.4824,0.1443,0.000000,0.579845,-0.562971,0.564505,-0.590583,0.575243,-0.561437
1.9984,0.016768,0.000000,-0.104776,0.104776,0.0000,0.0000,0.0000,-0.002351,-0.108913,0.111981,0.4263,0.4824,0.1443,0.000000,0.579845,-0.562971,0.564505,-0.590583,0.575243,-0.561437
2.0151,0.016746,0.000000,-0.104191,0.104191,0.0000,0.0000,0.0000,-0.002351,-0.108913,0.111981,0.4263,0.4824,0.1443,0.000000,0.579845,-0.562971,0.564505,-0.590583,0.575243,-0.561437
2.0319,0.016744,0.000000,-0.103607,0.103607,0.0000,0.0000,0.0000,-0.002351,-0.108913,0.110447,0.4263,0.4824,0.1443,0.000000,0.579845,-0.562971,0.564505,-0.590583,0.575243,-0.561437
2.0492,0.017290,0.000000,-0.103003,0.103003,0.0000,0.0000,0.0000,-0.002351,-0.107379,0.105845,0.4263,0.4824,0.1443,0.000000,0.579845,-0.562971,0.564505,-0.590583,0.575243,-0.561437
2.0659,0.016743,0.000000,-0.102419,0.102419,0.0000,0.0000,0.0000,-0.002351,-0.107379,0.104311,0.4263,0.4824,0.1443,0.000000,0.579845,-0.562971,0.564505,-0.590583,0.575243,-0.561437
2.0827,0.016752,0.000000,-0.101834,0.101834,0.0000,0.0000,0.0000,-0.002351,-0.107379,0.104311,0.4263,0.4824,0.1443,0.000000,0.579845,-0.562971,0.564505,-0.590583,0.575243,-0.561437
2.0994,0.016755,0.000000,-0.101249,0.101249,0.0000,0.0000,0.0000,-0.002351,-0.105845,0.102777,0.4263,0.4824,0.1443,0.000000,0.579845,-0.562971,0.564505,-0.590583,0.575243,-0.561437
2.1162,0.016764,0.000000,-0.100664,0.100664,0.0000,0.0000,0.0000,-0.002351,-0.105845,0.102777,0.4263,0.4824,0.1443,0.000000,0.579845,-0.562971,0.564505,-0.590583,0.575243,-0.561437
2.1329,0.016743,0.000000,-0.100079,0.100079,0.0000,0.0000,0.0000,-0.002351,-0.104311,0.102777,0.4263,0.4824,0.1443,0.000000,0.579845,-0.562971,0.564505,-0.590583,0.575243,-0.561437
2.1497,0.016757,0.000000,-0.099495,0.099495,0.0000,0.0000,0.0000,-0.002351,-0.104311,0.101243,0.4263,0.4824,0.1443,0.000000,0.579845,-0.562971,0.564505,-0.590583,0.575243,-0.561437
2.1666,0.016864,0.000000,-0.098906,0.098906,0.0000,0.0000,0.0000,-0.002351,-0.104311,0.101243,0.4263,0.4824,0.1443,0.000000,0.579845,-0.562971,0.564505,-0.590583,0.575243,-0.561437
2.1833,0.016751,0.000000,-0.098321,0.098321,0.0000,0.0000,0.0000,-0.002351,-0.102777,0.098175,0.4263,0.4824,0.1443,0.000000,0.579845,-0.562971,0.564505,-0.590583,0.575243,-0.561437
2.2001,0.016756,0.000000,-0.097736,0.097736,0.0000,0.0000,0.0000,-0.002351,-0.101243,0.098175,0.4263,0.4824,0.1443,0.000000,0.579845,-0.562971,0.564505,-0.590583,0.575243,-0.561437
2.2168,0.016756,0.000000,-0.097151,0.097151,0.0000,0.0000,0.0000,-0.002351,-0.101243,0.098175,0.4263,0.4824,0.1443,0.000000,0.579845,-0.562971,0.564505,-0.590583,0.575243,-0.561437
2.2336,0.016745,0.000000,-0.096567,0.096567,0.0000,0.0000,0.0000,-0.002351,-0.101243,0.098175,0.4263,0.4824,0.1443,0.000000,0.579845,-0.562971,0.564505,-0.590583,0.575243,-0.561437
2.2503,0.016752,0.000000,-0.095982,0.095982,0.0000,0.0000,0.0000,-0.002351,-0.101243,0.096641,0.4263,0.4824,0.1443,0.000000,0.579845,-0.562971,0.564505,-0.590583,0.575243,-0.561437
2.2671,0.016823,0.000000,-0.095395,0.095395,0.0000,0.0000,0.0000,-0.002351,-0.099709,0.096641,0.4263,0.4824,0.1443,0.000000,0.579845,-0.562971,0.564505,-0.590583,0.575243,-0.561437
2.2839,0.016757,0.000000,-0.094810,0.094810,0.0000,0.0000,0.0000,-0.002351,-0.096641,0.095107,0.4263,0.4824,0.1443,0.000000,0.579845,-0.562971,0.564505,-0.590583,0.575243,-0.561437
2.3008,0.016854,0.000000,-0.094222,0.094222,0.0000,0.0000,0.0000,-0.002351,-0.099709,0.095107,0.4263,0.4824,0.1443,0.000000,0.579845,-0.562971,0.564505,-0.590583,0.575243,-0.561437
2.3175,0.016752,0.000000,-0.093637,0.093637,0.0000,0.0000,0.0000,-0.002351,-0.099709,0.095107,0.4263,0.4824,0.1443,0.000000,0.579845,-0.562971,0.564505,-0.590583,0.575243,-0.561437
2.3342,0.016746,0.000000,-0.093052,0.093052,0.0000,0.0000,0.0000,-0.002351,-0.096641,0.095107,0.4263,0.4824,0.1443,0.000000,0.579845,-0.562971,0.564505,-0.590583,0.575243,-0.561437
2.3510,0.016762,0.000000,-0.092467,0.092467,0.0000,0.0000,0.0000,-0.002351,-0.096641,0.093573,0.4263,0.4824,0.1443,0.000000,0.579845,-0.562971,0.564505,-0.590583,0.575243,-0.561437
2.3678,0.016740,0.000000,-0.091883,0.091883,0.0000,0.0000,0.0000,-0.002351,-0.093573,0.093573,0.4263,0.4824,0.1443,0.000000,0.579845,-0.562971,0.564505,-0.590583,0.575243,-0.561437
2.3845,0.016757,0.000000,-0.091298,0.091298,0.0000,0.0000,0.0000,-0.002351,-0.093573,0.092039,0.4263,0.4824,0.1443,0.000000,0.579845,-0.562971,0.564505,-0.590583,0.575243,-0.561437
2.4013,0.016748,0.000000,-0.090713,0.090713,0.0000,0.0000,0.0000,-0.002351,-0.093573,0.092039,0.4263,0.4824,0.1443,0.000000,0.579845,-0.562971,0.564505,-0.590583,0.575243,-0.561437
2.4180,0.016751,0.000000,-0.090129,0.090129,0.0000,0.0000,0.0000,-0.002351,-0.093573,0.092039,0.4263,0.4824,0.1443,0.000000,0.579845,-0.562971,0.564505,-0.590583,0.575243,-0.561437
2.4347,0.016742,0.000000,-0.089544,0.089544,0.0000,0.0000,0.0000,-0.002338,-0.093573,0.092039,0.3869,0.4490,0.1970,0.000000,0.579845,-0.562971,0.564505,-0.590583,0.576777,-0.561437
2.4515,0.016744,0.000000,-0.088960,0.088960,0.0000,0.0000,0.0000,-0.002352,-0.093573,0.090505,0.4305,0.4864,0.1382,0.000000,0.579845,-0.562971,0.564505,-0.590583,0.575243,-0.561437
2.4682,0.016744,0.000000,-0.088375,0.088375,0.0000,0.0000,0.0000,-0.002350,-0.093573,0.090505,0.4260,0.4825,0.1443,0.000000,0.579845,-0.562971,0.564505,-0.590583,0.575243,-0.561437
2.4850,0.016762,0.000000,-0.087790,0.087790,0.0000,0.0000,0.0000,-0.002350,-0.093573,0.090505,0.4260,0.4825,0.1443,0.000000,0.579845,-0.562971,0.564505,-0.590583,0.575243,-0.561437
2.5022,0.017211,0.000000,-0.087189,0.087189,0.0000,0.0000,0.0000,-0.002350,-0.092039,0.090505,0.4260,0.4825,0.1443,0.000000,0.579845,-0.562971,0.564505,-0.590583,0.575243,-0.561437
2.5190,0.016754,0.000000,-0.086605,0.086605,0.0000,0.0000,0.0000,-0.002350,-0.092039,0.090505,0.4260,0.4825,0.1443,0.000000,0.579845,-0.562971,0.564505,-0.590583,0.575243,-0.561437
2.5357,0.016745,0.000000,-0.086020,0.086020,0.0000,0.0000,0.0000,-0.002350,-0.092039,0.090505,0.4260,0.4825,0.1443,0.000000,0.579845,-0.562971,0.564505,-0.590583,0.575243,-0.561437
2.5525,0.016747,0.000000,-0.085435,0.085435,0.0000,0.0000,0.0000,-0.002350,-0.092039,0.090505,0.4260,0.4825,0.1443,0.000000,0.579845,-0.562971,0.564505,-0.590583,0.575243,-0.561437
2.5692,0.016748,0.000000,-0.084851,0.084851,0.0000,0.0000,0.0000,-0.002350,-0.088971,0.090505,0.4260,0.4825,0.1443,0.000000,0.579845,-0.562971,0.564505,-0.590583,0.575243,-0.561437
2.5860,0.016751,0.000000,-0.084266,0.084266,0.0000,0.0000,0.0000,-0.002350,-0.084369,0.088971,0.4260,0.4825,0.1443,0.000000,0.579845,-0.562971,0.564505,-0.590583,0.575243,-0.561437
2.6027,0.016747,0.000000,-0.083681,0.083681,0.0000,0.0000,0.0000,-0.002350,-0.084369,0.088971,0.4260,0.4825,0.1443,0.000000,0.579845,-0.562971,0.564505,-0.590583,0.575243,-0.561437
2.6194,0.016746,0.000000,-0.083097,0.083097,0.0000,0.0000,0.0000,-0.002350,-0.084369,0.088971,0.4260,0.4825,0.1443,0.000000,0.579845,-0.562971,0.564505,-0.590583,0.575243,-0.561437
2.6362,0.016746,0.000000,-0.082512,0.082512,0.0000,0.0000,0.0000,-0.002350,-0.085903,0.087437,0.4260,0.4825,0.1443,0.000000,0.579845,-0.562971,0.564505,-0.590583,0.575243,-0.561437
2.6529,0.016741,0.000000,-0.081928,0.081928,0.0000,0.0000,0.0000,-0.002350,-0.082835,0.087437,0.4260,0.4825,0.1443,0.000000,0.579845,-0.562971,0.564505,-0.590583,0.575243,-0.561437
2.6697,0.016743,0.000000,-0.081344,0.081344,0.0000,0.0000,0.0000,-0.002350,-0.082835,0.085903,0.4260,0.4825,0.1443,0.000000,0.579845,-0.562971,0.564505,-0.590583,0.575243,-0.561437
2.6866,0.016874,0.000000,-0.080755,0.080755,0.0000,0.0000,0.0000,-0.002350,-0.084369,0.084369,0.4260,0.4825,0.1443,0.000000,0.579845,-0.562971,0.564505,-0.590583,0.575243,-0.561437
2.7033,0.016742,0.000000,-0.080170,0.080170,0.0000,0.0000,0.0000,-0.002350,-0.084369,0.084369,0.4260,0.4825,0.1443,0.000000,0.579845,-0.562971,0.564505,-0.590583,0.575243,-0.561437
2.7200,0.016751,0.000000,-0.079585,0.079585,0.0000,0.0000,0.0000,-0.002350,-0.082835,0.081301,0.4260,0.4825,0.1443,0.000000,0.579845,-0.562971,0.564505,-0.590583,0.575243,-0.561437
2.7368,0.016751,0.000000,-0.079001,0.079001,0.0000,0.0000,0.0000,-0.002350,-0.082835,0.081301,0.4260,0.4825,0.1443,0.000000,0.579845,-0.562971,0.564505,-0.590583,0.575243,-0.561437
2.7536,0.016802,0.000000,-0.078414,0.078414,0.0000,0.0000,0.0000,-0.002350,-0.081301,0.078233,0.4260,0.4825,0.1443,0.000000,0.579845,-0.562971,0.564505,-0.590583,0.575243,-0.561437
2.7703,0.016749,0.000000,-0.077830,0.077830,0.0000,0.0000,0.0000,-0.002350,-0.078233,0.078233,0.4260,0.4825,0.1443,0.000000,0.579845,-0.562971,0.564505,-0.590583,0.575243,-0.561437
2.7874,0.017039,0.000000,-0.077235,0.077235,0.0000,0.0000,0.0000,-0.002350,-0.079767,0.078233,0.4260,0.4825,0.1443,0.000000,0.579845,-0.562971,0.564505,-0.590583,0.575243,-0.561437
2.8041,0.016744,0.000000,-0.076650,0.076650,0.0000,0.0000,0.0000,-0.002350,-0.079767,0.078233,0.4260,0.4825,0.1443,0.000000,0.579845,-0.562971,0.564505,-0.590583,0.575243,-0.561437
2.8209,0.016723,0.000000,-0.076067,0.076067,0.0000,0.0000,0.0000,-0.002350,-0.079767,0.078233,0.4260,0.4825,0.1443,0.000000,0.579845,-0.562971,0.564505,-0.590583,0.575243,-0.561437
2.8376,0.016745,0.000000,-0.075482,0.075482,0.0000,0.0000,0.0000,-0.002350,-0.078233,0.076699,0.4260,0.4825,0.1443,0.000000,0.579845,-0.562971,0.564505,-0.590583,0.575243,-0.561437
2.8543,0.016749,0.000000,-0.074897,0.074897,0.0000,0.0000,0.0000,-0.002350,-0.078233,0.076699,0.4260,0.4825,0.1443,0.000000,0.579845,-0.562971,0.564505,-0.590583,0.575243,-0.561437
2.8711,0.016746,0.000000,-0.074313,0.074313,0.0000,0.0000,0.0000,-0.002350,-0.078233,0.076699,0.4260,0.4825,0.1443,0.000000,0.579845,-0.562971,0.564505,-0.590583,0.575243,-0.561437
2.8886,0.017472,0.000000,-0.073703,0.073703,0.0000,0.0000,0.0000,-0.002350,-0.075165,0.076699,0.4260,0.4825,0.1443,0.000000,0.579845,-0.562971,0.564505,-0.590583,0.575243,-0.561437
2.9053,0.016747,0.000000,-0.073118,0.073118,0.0000,0.0000,0.0000,-0.002350,-0.075165,0.076699,0.4260,0.4825,0.1443,0.000000,0.579845,-0.562971,0.564505,-0.590583,0.575243,-0.561437
2.9221,0.016746,0.000000,-0.072534,0.072534,0.0000,0.0000,0.0000,-0.002350,-0.075165,0.075165,0.4260,0.4825,0.1443,0.000000,0.579845,-0.562971,0.564505,-0.590583,0.575243,-0.561437
2.9388,0.016745,0.000000,-0.071949,0.071949,0.0000,0.0000,0.0000,-0.002350,-0.076699,0.073631,0.4260,0.4825,0.1443,0.000000,0.579845,-0.562971,0.564505,-0.590583,0.575243,-0.561437
2.9556,0.016749,0.000000,-0.071365,0.071365,0.0000,0.0000,0.0000,-0.002350,-0.075165,0.073631,0.4260,0.4825,0.1443,0.000000,0.579845,-0.562971,0.564505,-0.590583,0.575243,-0.561437
2.9723,0.016745,0.000000,-0.070780,0.070780,0.0000,0.0000,0.0000,-0.002350,-0.073631,0.072097,0.4260,0.4825,0.1443,0.000000,0.579845,-0.562971,0.564505,-0.590583,0.575243,-0.561437
2.9891,0.016790,0.000000,-0.070194,0.070194,0.0000,0.0000,0.0000,-0.002350,-0.072097,0.070563,0.4260,0.4825,0.1443,0.000000,0.579845,-0.562971,0.564505,-0.590583,0.575243,-0.561437
3.0058,0.016740,0.000000,-0.069610,0.069610,0.0000,0.0000,0.0000,-0.002350,-0.072097,0.070563,0.4260,0.4825,0.1443,0.000000,0.579845,-0.562971,0.564505,-0.590583,0.575243,-0.561437
3.0226,0.016754,0.000000,-0.069025,0.069025,0.0000,0.0000,0.0000,-0.002350,-0.072097,0.070563,0.4260,0.4825,0.1443,0.000000,0.579845,-0.562971,0.564505,-0.590583,0.575243,-0.561437
3.0393,0.016747,0.000000,-0.068440,0.068440,0.0000,0.0000,0.0000,-0.002350,-0.072097,0.070563,0.4260,0.4825,0.1443,0.000000,0.579845,-0.562971,0.564505,-0.590583,0.575243,-0.561437
3.0563,0.017010,0.000000,-0.067847,0.067847,0.0000,0.0000,0.0000,-0.002350,-0.072097,0.069029,0.4260,0.4825,0.1443,0.000000,0.579845,-0.562971,0.564505,-0.590583,0.575243,-0.561437
3.0731,0.016748,0.000000,-0.067262,0.067262,0.0000,0.0000,0.0000,-0.002350,-0.069029,0.067495,0.4260,0.4825,0.1443,0.000000,0.579845,-0.562971,0.564505,-0.590583,0.575243,-0.561437
3.0899,0.016774,0.000000,-0.066676,0.066676,0.0000,0.0000,0.0000,-0.002350,-0.069029,0.067495,0.4260,0.4825,0.1443,0.000000,0.579845,-0.562971,0.564505,-0.590583,0.575243,-0.561437
3.1066,0.016747,0.000000,-0.066092,0.066092,0.0000,0.0000,0.0000,-0.002350,-0.069029,0.067495,0.4260,0.4825,0.1443,0.000000,0.579845,-0.562971,0.564505,-0.590583,0.575243,-0.561437
3.1234,0.016753,0.000000,-0.065507,0.065507,0.0000,0.0000,0.0000,-0.002350,-0.069029,0.067495,0.4260,0.4825,0.1443,0.000000,0.579845,-0.562971,0.564505,-0.590583,0.575243,-0.561437
3.1401,0.016752,0.000000,-0.064922,0.064922,0.0000,0.0000,0.0000,-0.002350,-0.069029,0.067495,0.4260,0.4825,0.1443,0.000000,0.579845,-0.562971,0.564505,-0.590583,0.575243,-0.561437
3.1569,0.016769,0.000000,-0.064337,0.064337,0.0000,0.0000,0.0000,-0.002350,-0.069029,0.065961,0.4260,0.4825,0.1443,0.000000,0.579845,-0.562971,0.564505,-0.590583,0.575243,-0.561437
3.1736,0.016745,0.000000,-0.063752,0.063752,0.0000,0.0000,0.0000,-0.002350,-0.069029,0.065961,0.4260,0.4825,0.1443,0.000000,0.579845,-0.562971,0.564505,-0.590583,0.575243,-0.561437
3.1904,0.016767,0.000000,-0.063167,0.063167,0.0000,0.0000,0.0000,-0.002350,-0.069029,0.065961,0.4260,0.4825,0.1443,0.000000,0.579845,-0.562971,0.564505,-0.590583,0.575243,-0.561437
3.2071,0.016751,0.000000,-0.062582,0.062582,0.0000,0.0000,0.0000,-0.002350,-0.069029,0.065961,0.4260,0.4825,0.1443,0.000000,0.579845,-0.562971,0.564505,-0.590583,0.575243,-0.561437
3.2239,0.016755,0.000000,-0.061998,0.061998,0.0000,0.0000,0.0000,-0.002350,-0.067495,0.064427,0.4260,0.4825,0.1443,0.000000,0.579845,-0.562971,0.564505,-0.590583,0.575243,-0.561437
3.2407,0.016761,0.000000,-0.061413,0.061413,0.0000,0.0000,0.0000,-0.002350,-0.067495,0.064427,0.4260,0.4825,0.1443,0.000000,0.579845,-0.562971,0.564505,-0.590583,0.575243,-0.561437
3.2574,0.016764,0.000000,-0.060827,0.060827,0.0000,0.0000,0.0000,-0.002350,-0.067495,0.064427,0.4260,0.4825,0.1443,0.000000,0.579845,-0.562971,0.564505,-0.590583,0.575243,-0.561437
3.2749,0.017488,0.000000,-0.060217,0.060217,0.0000,0.0000,0.0000,-0.002350,-0.067495,0.064427,0.4260,0.4825,0.1443,0.000000,0.579845,-0.562971,0.564505,-0.590583,0.575243,-0.561437
3.2918,0.016920,0.000000,-0.059626,0.059626,0.0000,0.0000,0.0000,-0.002350,-0.065961,0.064427,0.4260,0.4825,0.1443,0.000000,0.579845,-0.562971,0.564505,-0.590583,0.575243,-0.561437
3.3086,0.016745,0.000000,-0.059042,0.059042,0.0000,0.0000,0.0000,-0.002350,-0.065961,0.064427,0.4260,0.4825,0.1443,0.000000,0.579845,-0.562971,0.564505,-0.590583,0.575243,-0.561437
3.3253,0.016743,0.000000,-0.058457,0.058457,0.0000,0.0000,0.0000,-0.002350,-0.061359,0.064427,0.4260,0.4825,0.1443,0.000000,0.579845,-0.562971,0.564505,-0.590583,0.575243,-0.561437
3.3421,0.016743,0.000000,-0.057873,0.057873,0.0000,0.0000,0.0000,-0.002350,-0.056757,0.064427,0.4260,0.4825,0.1443,0.000000,0.579845,-0.562971,0.564505,-0.590583,0.575243,-0.561437
3.3590,0.016943,0.000000,-0.057281,0.057281,0.0000,0.0000,0.0000,-0.002350,-0.058291,0.064427,0.4260,0.4825,0.1443,0.000000,0.579845,-0.562971,0.564505,-0.590583,0.575243,-0.561437
3.3757,0.016743,0.000000,-0.056697,0.056697,0.0000,0.0000,0.0000,-0.002350,-0.059825,0.062893,0.4260,0.4825,0.1443,0.000000,0.579845,-0.562971,0.564505,-0.590583,0.575243,-0.561437
3.3925,0.016771,0.000000,-0.056112,0.056112,0.0000,0.0000,0.0000,-0.002350,-0.058291,0.062893,0.4260,0.4825,0.1443,0.000000,0.579845,-0.562971,0.564505,-0.590583,0.575243,-0.561437
3.4093,0.016743,0.000000,-0.055527,0.055527,0.0000,0.0000,0.0000,-0.002350,-0.058291,0.062893,0.4260,0.4825,0.1443,0.000000,0.579845,-0.562971,0.564505,-0.590583,0.575243,-0.561437
3.4260,0.016714,0.000000,-0.054944,0.054944,0.0000,0.0000,0.0000,-0.002350,-0.056757,0.062893,0.4260,0.4825,0.1443,0.000000,0.579845,-0.562971,0.564505,-0.590583,0.575243,-0.561437
3.4427,0.016751,0.000000,-0.054359,0.054359,0.0000,0.0000,0.0000,-0.002350,-0.058291,0.059825,0.4260,0.4825,0.1443,0.000000,0.579845,-0.562971,0.564505,-0.590583,0.575243,-0.561437
3.4595,0.016748,0.000000,-0.053774,0.053774,0.0000,0.0000,0.0000,-0.002350,-0.056757,0.058291,0.4260,0.4825,0.1443,0.000000,0.579845,-0.562971,0.564505,-0.590583,0.575243,-0.561437
3.4762,0.016745,0.000000,-0.053190,0.053190,0.0000,0.0000,0.0000,-0.002350,-0.050621,0.055223,0.4260,0.4825,0.1443,0.000000,0.579845,-0.562971,0.564505,-0.590583,0.575243,-0.561437
3.4930,0.016758,0.000000,-0.052605,0.052605,0.0000,0.0000,0.0000,-0.002350,-0.053689,0.052155,0.4260,0.4825,0.1443,0.000000,0.579845,-0.562971,0.564505,-0.590583,0.575243,-0.561437
3.5097,0.016751,0.000000,-0.052020,0.052020,0.0000,0.0000,0.0000,-0.002350,-0.053689,0.052155,0.4260,0.4825,0.1443,0.000000,0.579845,-0.562971,0.564505,-0.590583,0.575243,-0.561437
3.5265,0.016747,0.000000,-0.051436,0.051436,0.0000,0.0000,0.0000,-0.002350,-0.058291,0.053689,0.4260,0.4825,0.1443,0.000000,0.579845,-0.562971,0.564505,-0.590583,0.575243,-0.561437
3.5432,0.016752,0.000000,-0.050851,0.050851,0.0000,0.0000,0.0000,-0.002350,-0.055223,0.052155,0.4260,0.4825,0.1443,0.000000,0.579845,-0.562971,0.564505,-0.590583,0.575243,-0.561437
3.5601,0.016857,0.000000,-0.050263,0.050263,0.0000,0.0000,0.0000,-0.002350,-0.049087,0.052155,0.4260,0.4825,0.1443,0.000000,0.579845,-0.562971,0.564505,-0.590583,0.575243,-0.561437
3.5768,0.016756,0.000000,-0.049678,0.049678,0.0000,0.0000,0.0000,-0.002350,-0.052155,0.052155,0.4260,0.4825,0.1443,0.000000,0.579845,-0.562971,0.564505,-0.590583,0.575243,-0.561437
3.5936,0.016751,0.000000,-0.049093,0.049093,0.0000,0.0000,0.0000,-0.002350,-0.055223,0.050621,0.4260,0.4825,0.1443,0.000000,0.579845,-0.562971,0.564505,-0.590583,0.575243,-0.561437
3.6103,0.016752,0.000000,-0.048508,0.048508,0.0000,0.0000,0.0000,-0.002350,-0.055223,0.050621,0.4260,0.4825,0.1443,0.000000,0.579845,-0.562971,0.564505,-0.590583,0.575243,-0.561437
3.6271,0.016745,0.000000,-0.047924,0.047924,0.0000,0.0000,0.0000,-0.002350,-0.050621,0.050621,0.4260,0.4825,0.1443,0.000000,0.579845,-0.562971,0.564505,-0.590583,0.575243,-0.561437
3.6438,0.016741,0.000000,-0.047339,0.047339,0.0000,0.0000,0.0000,-0.002350,-0.047553,0.050621,0.4260,0.4825,0.1443,0.000000,0.579845,-0.562971,0.564505,-0.590583,0.575243,-0.561437
3.6606,0.016784,0.000000,-0.046753,0.046753,0.0000,0.0000,0.0000,-0.002350,-0.050621,0.050621,0.4260,0.4825,0.1443,0.000000,0.579845,-0.562971,0.564505,-0.590583,0.575243,-0.561437
3.6774,0.016748,0.000000,-0.046169,0.046169,0.0000,0.0000,0.0000,-0.002350,-0.053689,0.049087,0.4260,0.4825,0.1443,0.000000,0.579845,-0.562971,0.564505,-0.590583,0.575243,-0.561437
3.6942,0.016800,0.000000,-0.045582,0.045582,0.0000,0.0000,0.0000,-0.002350,-0.049087,0.049087,0.4260,0.4825,0.1443,0.000000,0.579845,-0.562971,0.564505,-0.590583,0.575243,-0.561437
3.7109,0.016747,0.000000,-0.044998,0.044998,0.0000,0.0000,0.0000,-0.002350,-0.049087,0.049087,0.4260,0.4825,0.1443,0.000000,0.579845,-0.562971,0.564505,-0.590583,0.575243,-0.561437
3.7277,0.016744,0.000000,-0.044413,0.044413,0.0000,0.0000,0.0000,-0.002350,-0.044485,0.047553,0.4260,0.4825,0.1443,0.000000,0.579845,-0.562971,0.564505,-0.590583,0.575243,-0.561437
3.7444,0.016746,0.000000,-0.043829,0.043829,0.0000,0.0000,0.0000,-0.002350,-0.047553,0.046019,0.4260,0.4825,0.1443,0.000000,0.579845,-0.562971,0.564505,-0.590583,0.575243,-0.561437
3.7611,0.016745,0.000000,-0.043244,0.043244,0.0000,0.0000,0.0000,-0.002350,-0.050621,0.044485,0.4260,0.4825,0.1443,0.000000,0.579845,-0.562971,0.564505,-0.590583,0.575243,-0.561437
3.7779,0.016743,0.000000,-0.042660,0.042660,0.0000,0.0000,0.0000,-0.002350,-0.042951,0.042951,0.4260,0.4825,0.1443,0.000000,0.579845,-0.562971,0.564505,-0.590583,0.575243,-0.561437
3.7946,0.016749,0.000000,-0.042075,0.042075,0.0000,0.0000,0.0000,-0.002350,-0.042951,0.042951,0.4260,0.4825,0.1443,0.000000,0.579845,-0.562971,0.564505,-0.590583,0.575243,-0.561437
3.8114,0.016746,0.000000,-0.041491,0.041491,0.0000,0.0000,0.0000,-0.002350,-0.039884,0.042951,0.4260,0.4825,0.1443,0.000000,0.579845,-0.562971,0.564505,-0.590583,0.575243,-0.561437
3.8281,0.016744,0.000000,-0.040906,0.040906,0.0000,0.0000,0.0000,-0.002350,-0.046019,0.042951,0.4260,0.4825,0.1443,0.000000,0.579845,-0.562971,0.564505,-0.590583,0.575243,-0.561437
3.8449,0.016741,0.000000,-0.040322,0.040322,0.0000,0.0000,0.0000,-0.002350,-0.047553,0.041417,0.4260,0.4825,0.1443,0.000000,0.579845,-0.562971,0.564505,-0.590583,0.575243,-0.561437
3.8616,0.016758,0.000000,-0.039737,0.039737,0.0000,0.0000,0.0000,-0.002350,-0.038350,0.041417,0.4260,0.4825,0.1443,0.000000,0.579845,-0.562971,0.564505,-0.590583,0.575243,-0.561437
3.8784,0.016750,0.000000,-0.039152,0.039152,0.0000,0.0000,0.0000,-0.002350,-0.038350,0.041417,0.4260,0.4825,0.1443,0.000000,0.579845,-0.562971,0.564505,-0.590583,0.575243,-0.561437
3.8951,0.016733,0.000000,-0.038568,0.038568,0.0000,0.0000,0.0000,-0.002350,-0.046019,0.039884,0.4260,0.4825,0.1443,0.000000,0.579845,-0.562971,0.564505,-0.590583,0.575243,-0.561437
3.9119,0.016743,0.000000,-0.037984,0.037984,0.0000,0.0000,0.0000,-0.002350,-0.046019,0.039884,0.4260,0.4825,0.1443,0.000000,0.579845,-0.562971,0.564505,-0.590583,0.575243,-0.561437
3.9286,0.016745,0.000000,-0.037399,0.037399,0.0000,0.0000,0.0000,-0.002350,-0.044485,0.039884,0.4260,0.4825,0.1443,0.000000,0.579845,-0.562971,0.564505,-0.590583,0.575243,-0.561437
3.9453,0.016742,0.000000,-0.036815,0.036815,0.0000,0.0000,0.0000,-0.002350,-0.036816,0.038350,0.4260,0.4825,0.1443,0.000000,0.579845,-0.562971,0.564505,-0.590583,0.575243,-0.561437
3.9621,0.016744,0.000000,-0.036230,0.036230,0.0000,0.0000,0.0000,-0.002350,-0.036816,0.038350,0.4260,0.4825,0.1443,0.000000,0.579845,-0.562971,0.564505,-0.590583,0.575243,-0.561437
3.9788,0.016707,0.000000,-0.035647,0.035647,0.0000,0.0000,0.0000,-0.002350,-0.041417,0.036816,0.4260,0.4825,0.1443,0.000000,0.579845,-0.562971,0.564505,-0.590583,0.575243,-0.561437
3.9955,0.016746,0.000000,-0.035062,0.035062,0.0000,0.0000,0.0000,-0.002350,-0.041417,0.036816,0.4260,0.4825,0.1443,0.000000,0.579845,-0.562971,0.564505,-0.590583,0.575243,-0.561437
4.0123,0.016749,0.000000,-0.034478,0.034478,0.0000,0.0000,0.0000,-0.002350,-0.041417,0.036816,0.4260,0.4825,0.1443,0.000000,0.579845,-0.562971,0.564505,-0.590583,0.575243,-0.561437
4.0290,0.016723,0.000000,-0.033894,0.033894,0.0000,0.0000,0.0000,-0.002350,-0.036816,0.036816,0.4260,0.4825,0.1443,0.000000,0.579845,-0.562971,0.564505,-0.590583,0.575243,-0.561437
4.0457,0.016742,0.000000,-0.033310,0.033310,0.0000,0.0000,0.0000,-0.002350,-0.038350,0.036816,0.4260,0.4825,0.1443,0.000000,0.579845,-0.562971,0.564505,-0.590583,0.575243,-0.561437
4.0625,0.016741,0.000000,-0.032725,0.032725,0.0000,0.0000,0.0000,-0.002350,-0.035282,0.036816,0.4260,0.4825,0.1443,0.000000,0.579845,-0.562971,0.564505,-0.590583,0.575243,-0.561437
4.0793,0.016764,0.000000,-0.032140,0.032140,0.0000,0.0000,0.0000,-0.002350,-0.029146,0.036816,0.4260,0.4825,0.1443,0.000000,0.579845,-0.562971,0.564505,-0.590583,0.575243,-0.561437
4.0960,0.016757,0.000000,-0.031555,0.031555,0.0000,0.0000,0.0000,-0.002350,-0.029146,0.036816,0.4260,0.4825,0.1443,0.000000,0.579845,-0.562971,0.564505,-0.590583,0.575243,-0.561437
4.1128,0.016744,0.000000,-0.030971,0.030971,0.0000,0.0000,0.0000,-0.002350,-0.032214,0.036816,0.4260,0.4825,0.1443,0.000000,0.579845,-0.562971,0.564505,-0.590583,0.575243,-0.561437
4.1295,0.016745,0.000000,-0.030386,0.030386,0.0000,0.0000,0.0000,-0.002350,-0.036816,0.035282,0.4260,0.4825,0.1443,0.000000,0.579845,-0.562971,0.564505,-0.590583,0.575243,-0.561437
4.1462,0.016746,0.000000,-0.029802,0.029802,0.0000,0.0000,0.0000,-0.002350,-0.030680,0.035282,0.4260,0.4825,0.1443,0.000000,0.579845,-0.562971,0.564505,-0.590583,0.575243,-0.561437
4.1630,0.016745,0.000000,-0.029217,0.029217,0.0000,0.0000,0.0000,-0.002350,-0.026078,0.035282,0.4260,0.4825,0.1443,0.000000,0.579845,-0.562971,0.564505,-0.590583,0.575243,-0.561437
4.1797,0.016756,0.000000,-0.028632,0.028632,0.0000,0.0000,0.0000,-0.002350,-0.026078,0.035282,0.4260,0.4825,0.1443,0.000000,0.579845,-0.562971,0.564505,-0.590583,0.575243,-0.561437
4.1965,0.016766,0.000000,-0.028047,0.028047,0.0000,0.0000,0.0000,-0.002350,-0.029146,0.033748,0.4260,0.4825,0.1443,0.000000,0.579845,-0.562971,0.564505,-0.590583,0.575243,-0.561437
4.2133,0.016744,0.000000,-0.027463,0.027463,0.0000,0.0000,0.0000,-0.002350,-0.033748,0.033748,0.4260,0.4825,0.1443,0.000000,0.579845,-0.562971,0.564505,-0.590583,0.575243,-0.561437
4.2300,0.016740,0.000000,-0.026878,0.026878,0.0000,0.0000,0.0000,-0.002350,-0.029146,0.032214,0.4260,0.4825,0.1443,0.000000,0.579845,-0.562971,0.564505,-0.590583,0.575243,-0.561437
4.2467,0.016748,0.000000,-0.026294,0.026294,0.0000,0.0000,0.0000,-0.002350,-0.024544,0.030680,0.4260,0.4825,0.1443,0.000000,0.579845,-0.562971,0.564505,-0.590583,0.575243,-0.561437
4.2636,0.016814,0.000000,-0.025707,0.025707,0.0000,0.0000,0.0000,-0.002350,-0.027612,0.027612,0.4260,0.4825,0.1443,0.000000,0.579845,-0.562971,0.564505,-0.590583,0.575243,-0.561437
4.2803,0.016749,0.000000,-0.025122,0.025122,0.0000,0.0000,0.0000,-0.002350,-0.027612,0.027612,0.4260,0.4825,0.1443,0.000000,0.579845,-0.562971,0.564505,-0.590583,0.575243,-0.561437
4.2970,0.016742,0.000000,-0.024538,0.024538,0.0000,0.0000,0.0000,-0.002350,-0.029146,0.026078,0.4260,0.4825,0.1443,0.000000,0.579845,-0.562971,0.564505,-0.590583,0.575243,-0.561437
4.3138,0.016753,0.000000,-0.023953,0.023953,0.0000,0.0000,0.0000,-0.002350,-0.026078,0.026078,0.4260,0.4825,0.1443,0.000000,0.579845,-0.562971,0.564505,-0.590583,0.575243,-0.561437
4.3305,0.016742,0.000000,-0.023368,0.023368,0.0000,0.0000,0.0000,-0.002350,-0.023010,0.023010,0.4260,0.4825,0.1443,0.000000,0.579845,-0.562971,0.564505,-0.590583,0.575243,-0.561437
4.3473,0.016765,0.000000,-0.022783,0.022783,0.0000,0.0000,0.0000,-0.002350,-0.026078,0.023010,0.4260,0.4825,0.1443,0.000000,0.579845,-0.562971,0.564505,-0.590583,0.575243,-0.561437
4.3641,0.016745,0.000000,-0.022199,0.022199,0.0000,0.0000,0.0000,-0.002350,-0.026078,0.023010,0.4260,0.4825,0.1443,0.000000,0.579845,-0.562971,0.564505,-0.590583,0.575243,-0.561437
4.3811,0.017032,0.000000,-0.021604,0.021604,0.0000,0.0000,0.0000,-0.002350,-0.026078,0.023010,0.4260,0.4825,0.1443,0.000000,0.579845,-0.562971,0.564505,-0.590583,0.575243,-0.561437
4.3978,0.016744,0.000000,-0.021020,0.021020,0.0000,0.0000,0.0000,-0.002350,-0.023010,0.023010,0.4260,0.4825,0.1443,0.000000,0.579845,-0.562971,0.564505,-0.590583,0.575243,-0.561437
4.4146,0.016757,0.000000,-0.020435,0.020435,0.0000,0.0000,0.0000,-0.002350,-0.019942,0.023010,0.4260,0.4825,0.1443,0.000000,0.579845,-0.562971,0.564505,-0.590583,0.575243,-0.561437
4.4314,0.016781,0.000000,-0.019849,0.019849,0.0000,0.0000,0.0000,-0.002350,-0.023010,0.023010,0.4260,0.4825,0.1443,0.000000,0.579845,-0.562971,0.564505,-0.590583,0.575243,-0.561437
4.4481,0.016761,0.000000,-0.019264,0.019264,0.0000,0.0000,0.0000,-0.002350,-0.024544,0.021476,0.4260,0.4825,0.1443,0.000000,0.579845,-0.562971,0.564505,-0.590583,0.575243,-0.561437
4.4649,0.016749,0.000000,-0.018679,0.018679,0.0000,0.0000,0.0000,-0.002350,-0.019942,0.021476,0.4260,0.4825,0.1443,0.000000,0.579845,-0.562971,0.564505,-0.590583,0.575243,-0.561437
4.4817,0.016852,0.000000,-0.018091,0.018091,0.0000,0.0000,0.0000,-0.002350,-0.019942,0.021476,0.4260,0.4825,0.1443,0.000000,0.579845,-0.562971,0.564505,-0.590583,0.575243,-0.561437
4.4985,0.016745,0.000000,-0.017507,0.017507,0.0000,0.0000,0.0000,-0.002350,-0.015340,0.018408,0.4260,0.4825,0.1443,0.000000,0.579845,-0.562971,0.564505,-0.590583,0.575243,-0.561437
4.5152,0.016759,0.000000,-0.016921,0.016921,0.0000,0.0000,0.0000,-0.002350,-0.021476,0.018408,0.4260,0.4825,0.1443,0.000000,0.579845,-0.562971,0.564505,-0.590583,0.575243,-0.561437
4.5320,0.016743,0.000000,-0.016337,0.016337,0.0000,0.0000,0.0000,-0.002350,-0.024544,0.018408,0.4260,0.4825,0.1443,0.000000,0.579845,-0.562971,0.564505,-0.590583,0.575243,-0.561437
4.5487,0.016742,0.000000,-0.015753,0.015753,0.0000,0.0000,0.0000,-0.002350,-0.018408,0.016874,0.4260,0.4825,0.1443,0.000000,0.579845,-0.562971,0.564505,-0.590583,0.575243,-0.561437
4.5655,0.016745,0.000000,-0.015168,0.015168,0.0000,0.0000,0.0000,-0.002350,-0.013806,0.016874,0.4260,0.4825,0.1443,0.000000,0.579845,-0.562971,0.564505,-0.590583,0.575243,-0.561437
4.5822,0.016757,0.000000,-0.014583,0.014583,0.0000,0.0000,0.0000,-0.002350,-0.013806,0.016874,0.4260,0.4825,0.1443,0.000000,0.579845,-0.562971,0.564505,-0.590583,0.575243,-0.561437
4.5990,0.016744,0.000000,-0.013999,0.013999,0.0000,0.0000,0.0000,-0.002350,-0.016874,0.015340,0.4260,0.4825,0.1443,0.000000,0.579845,-0.562971,0.564505,-0.590583,0.575243,-0.561437
4.6157,0.016755,0.000000,-0.013414,0.013414,0.0000,0.0000,0.0000,-0.002350,-0.019942,0.013806,0.4260,0.4825,0.1443,0.000000,0.579845,-0.562971,0.564505,-0.590583,0.575243,-0.561437
4.6325,0.016743,0.000000,-0.012829,0.012829,0.0000,0.0000,0.0000,-0.002350,-0.013806,0.013806,0.4260,0.4825,0.1443,0.000000,0.579845,-0.562971,0.564505,-0.590583,0.575243,-0.561437
4.6492,0.016773,0.000000,-0.012244,0.012244,0.0000,0.0000,0.0000,-0.002350,-0.012272,0.013806,0.4260,0.4825,0.1443,0.000000,0.579845,-0.562971,0.564505,-0.590583,0.575243,-0.561437
4.6660,0.016740,0.000000,-0.011660,0.011660,0.0000,0.0000,0.0000,-0.002350,-0.013806,0.012272,0.4260,0.4825,0.1443,0.000000,0.579845,-0.562971,0.564505,-0.590583,0.575243,-0.561437
4.6827,0.016753,0.000000,-0.011075,0.011075,0.0000,0.0000,0.0000,-0.002350,-0.013806,0.012272,0.4260,0.4825,0.1443,0.000000,0.579845,-0.562971,0.564505,-0.590583,0.575243,-0.561437
4.6995,0.016742,0.000000,-0.010490,0.010490,0.0000,0.0000,0.0000,-0.002350,-0.015340,0.012272,0.4260,0.4825,0.1443,0.000000,0.579845,-0.562971,0.564505,-0.590583,0.575243,-0.561437
4.7162,0.016759,0.000000,-0.009905,0.009905,0.0000,0.0000,0.0000,-0.002350,-0.012272,0.010738,0.4260,0.4825,0.1443,0.000000,0.579845,-0.562971,0.564505,-0.590583,0.575243,-0.561437
4.7330,0.016746,0.000000,-0.009321,0.009321,0.0000,0.0000,0.0000,-0.002350,-0.009204,0.010738,0.4260,0.4825,0.1443,0.000000,0.579845,-0.562971,0.564505,-0.590583,0.575243,-0.561437
4.7502,0.017228,0.000000,-0.008720,0.008720,0.0000,0.0000,0.0000,-0.002350,-0.010738,0.010738,0.4260,0.4825,0.1443,0.000000,0.579845,-0.562971,0.564505,-0.590583,0.575243,-0.561437
4.7669,0.016742,0.000000,-0.008135,0.008135,0.0000,0.0000,0.0000,-0.002350,-0.012272,0.009204,0.4260,0.4825,0.1443,0.000000,0.579845,-0.562971,0.564505,-0.590583,0.575243,-0.561437
4.7837,0.016751,0.000000,-0.007550,0.007550,0.0000,0.0000,0.0000,-0.002350,-0.012272,0.009204,0.4260,0.4825,0.1443,0.000000,0.579845,-0.562971,0.564505,-0.590583,0.575243,-0.561437
4.8004,0.016742,0.000000,-0.006966,0.006966,0.0000,0.0000,0.0000,-0.002350,-0.010738,0.009204,0.4260,0.4825,0.1443,0.000000,0.579845,-0.562971,0.564505,-0.590583,0.575243,-0.561437
4.8172,0.016758,0.000000,-0.006381,0.006381,0.0000,0.0000,0.0000,-0.002350,-0.007670,0.009204,0.4260,0.4825,0.1443,0.000000,0.579845,-0.562971,0.564505,-0.590583,0.575243,-0.561437
4.8342,0.016979,0.000000,-0.005788,0.005788,0.0000,0.0000,0.0000,-0.002350,-0.006136,0.007670,0.4260,0.4825,0.1443,0.000000,0.579845,-0.562971,0.564505,-0.590583,0.575243,-0.561437
4.8509,0.016748,0.000000,-0.005204,0.005204,0.0000,0.0000,0.0000,-0.002350,-0.006136,0.007670,0.4260,0.4825,0.1443,0.000000,0.579845,-0.562971,0.564505,-0.590583,0.575243,-0.561437
4.8677,0.016742,0.000000,-0.004619,0.004619,0.0000,0.0000,0.0000,-0.002350,-0.006136,0.007670,0.4260,0.4825,0.1443,0.000000,0.579845,-0.562971,0.564505,-0.590583,0.575243,-0.561437
4.8844,0.016752,0.000000,-0.004035,0.004035,0.0000,0.0000,0.0000,-0.002350,-0.006136,0.007670,0.4260,0.4825,0.1443,0.000000,0.579845,-0.562971,0.564505,-0.590583,0.575243,-0.561437
4.9012,0.016745,0.000000,-0.003450,0.003450,0.0000,0.0000,0.0000,-0.002350,-0.006136,0.006136,0.4260,0.4825,0.1443,0.000000,0.579845,-0.562971,0.564505,-0.590583,0.575243,-0.561437
4.9179,0.016741,0.000000,-0.002866,0.002866,0.0000,0.0000,0.0000,-0.002350,-0.007670,0.006136,0.4260,0.4825,0.1443,0.000000,0.579845,-0.562971,0.564505,-0.590583,0.575243,-0.561437
4.9347,0.016748,0.000000,-0.002281,0.002281,0.0000,0.0000,0.0000,-0.002350,-0.004602,0.006136,0.4260,0.4825,0.1443,0.000000,0.579845,-0.562971,0.564505,-0.590583,0.575243,-0.561437
4.9514,0.016758,0.000000,-0.001696,0.001696,0.0000,0.0000,0.0000,-0.002350,-0.003068,0.004602,0.4260,0.4825,0.1443,0.000000,0.579845,-0.562971,0.564505,-0.590583,0.575243,-0.561437
4.9686,0.017213,0.000000,-0.001095,0.001095,0.0000,0.0000,0.0000,-0.002350,-0.001534,0.004602,0.4260,0.4825,0.1443,0.000000,0.579845,-0.562971,0.564505,-0.590583,0.575243,-0.561437
4.9854,0.016748,0.000000,-0.000511,0.000511,0.0000,0.0000,0.0000,-0.002350,-0.001534,0.004602,0.4260,0.4825,0.1443,0.000000,0.579845,-0.562971,0.564505,-0.590583,0.575243,-0.561437
5.0021,0.016748,0.000000,0.000074,-0.000074,0.0000,0.0000,0.0000,-0.002350,-0.001534,0.001534,0.4260,0.4825,0.1443,0.000000,0.579845,-0.562971,0.564505,-0.590583,0.575243,-0.561437
5.0189,0.016771,0.000000,0.000659,-0.000659,0.0000,0.0000,0.0000,-0.002350,-0.003068,0.001534,0.4260,0.4825,0.1443,0.000000,0.579845,-0.562971,0.564505,-0.590583,0.575243,-0.561437
5.0356,0.016746,0.000000,0.001244,-0.001244,0.0000,0.0000,0.0000,-0.002350,-0.003068,0.000000,0.4260,0.4825,0.1443,0.000000,0.579845,-0.562971,0.564505,-0.590583,0.575243,-0.561437
5.0524,0.016749,0.000000,0.001829,-0.001829,0.0000,0.0000,0.0000,-0.002350,0.000000,-0.001534,0.4260,0.4825,0.1443,0.000000,0.579845,-0.562971,0.564505,-0.590583,0.575243,-0.561437
5.0691,0.016752,0.000000,0.002413,-0.002413,0.0000,0.0000,0.0000,-0.002350,0.004602,-0.001534,0.4260,0.4825,0.1443,0.000000,0.579845,-0.562971,0.564505,-0.590583,0.575243,-0.561437
5.0860,0.016905,0.000000,0.003003,-0.003003,0.0000,0.0000,0.0000,-0.002350,0.004602,-0.001534,0.4260,0.4825,0.1443,0.000000,0.579845,-0.562971,0.564505,-0.590583,0.575243,-0.561437
5.1028,0.016745,0.000000,0.003588,-0.003588,0.0000,0.0000,0.0000,-0.002350,0.001534,-0.001534,0.4260,0.4825,0.1443,0.000000,0.579845,-0.562971,0.564505,-0.590583,0.575243,-0.561437
5.1195,0.016749,0.000000,0.004173,-0.004173,0.0000,0.0000,0.0000,-0.002350,-0.003068,-0.001534,0.4260,0.4825,0.1443,0.000000,0.579845,-0.562971,0.564505,-0.590583,0.575243,-0.561437
5.1363,0.016742,0.000000,0.004757,-0.004757,0.0000,0.0000,0.0000,-0.002350,0.000000,-0.001534,0.4260,0.4825,0.1443,0.000000,0.579845,-0.562971,0.564505,-0.590583,0.575243,-0.561437
5.1530,0.016757,0.000000,0.005342,-0.005342,0.0000,0.0000,0.0000,-0.002350,0.007670,-0.003068,0.4260,0.4825,0.1443,0.000000,0.579845,-0.562971,0.564505,-0.590583,0.575243,-0.561437
5.1698,0.016740,0.000000,0.005926,-0.005926,0.0000,0.0000,0.0000,-0.002350,0.003068,-0.003068,0.4260,0.4825,0.1443,0.000000,0.579845,-0.562971,0.564505,-0.590583,0.575243,-0.561437
5.1865,0.016755,0.000000,0.006511,-0.006511,0.0000,0.0000,0.0000,-0.002350,0.003068,-0.003068,0.4260,0.4825,0.1443,0.000000,0.579845,-0.562971,0.564505,-0.590583,0.575243,-0.561437
5.2033,0.016742,0.000000,0.007096,-0.007096,0.0000,0.0000,0.0000,-0.002350,-0.001534,-0.003068,0.4260,0.4825,0.1443,0.000000,0.579845,-0.562971,0.564505,-0.590583,0.575243,-0.561437
5.2200,0.016745,0.000000,0.007680,-0.007680,0.0000,0.0000,0.0000,-0.002350,0.003068,-0.003068,0.4260,0.4825,0.1443,0.000000,0.579845,-0.562971,0.564505,-0.590583,0.575243,-0.561437
5.2368,0.016742,0.000000,0.008264,-0.008264,0.0000,0.0000,0.0000,-0.002350,0.007670,-0.004602,0.4260,0.4825,0.1443,0.000000,0.579845,-0.562971,0.564505,-0.590583,0.575243,-0.561437
5.2535,0.016752,0.000000,0.008849,-0.008849,0.0000,0.0000,0.0000,-0.002350,0.004602,-0.004602,0.4260,0.4825,0.1443,0.000000,0.579845,-0.562971,0.564505,-0.590583,0.575243,-0.561437
5.2703,0.016746,0.000000,0.009434,-0.009434,0.0000,0.0000,0.0000,-0.002350,0.001534,-0.007670,0.4260,0.4825,0.1443,0.000000,0.579845,-0.562971,0.564505,-0.590583,0.575243,-0.561437
5.2870,0.016757,0.000000,0.010019,-0.010019,0.0000,0.0000,0.0000,-0.002350,0.001534,-0.007670,0.4260,0.4825,0.1443,0.000000,0.579845,-0.562971,0.564505,-0.590583,0.575243,-0.561437
5.3038,0.016744,0.000000,0.010603,-0.010603,0.0000,0.0000,0.0000,-0.002350,0.007670,-0.009204,0.4260,0.4825,0.1443,0.000000,0.579845,-0.562971,0.564505,-0.590583,0.575243,-0.561437
5.3205,0.016754,0.000000,0.011188,-0.011188,0.0000,0.0000,0.0000,-0.002350,0.010738,-0.007670,0.4260,0.4825,0.1443,0.000000,0.579845,-0.562971,0.564505,-0.590583,0.575243,-0.561437
5.3373,0.016740,0.000000,0.011772,-0.011772,0.0000,0.0000,0.0000,-0.002350,0.007670,-0.009204,0.4260,0.4825,0.1443,0.000000,0.579845,-0.562971,0.564505,-0.590583,0.575243,-0.561437
5.3540,0.016749,0.000000,0.012357,-0.012357,0.0000,0.0000,0.0000,-0.002350,0.004602,-0.009204,0.4260,0.4825,0.1443,0.000000,0.579845,-0.562971,0.564505,-0.590583,0.575243,-0.561437
5.3707,0.016741,0.000000,0.012941,-0.012941,0.0000,0.0000,0.0000,-0.002350,0.010738,-0.010738,0.4260,0.4825,0.1443,0.000000,0.579845,-0.562971,0.564505,-0.590583,0.575243,-0.561437
5.3875,0.016761,0.000000,0.013526,-0.013526,0.0000,0.0000,0.0000,-0.002350,0.010738,-0.010738,0.4260,0.4825,0.1443,0.000000,0.579845,-0.562971,0.564505,-0.590583,0.575243,-0.561437
5.4042,0.016738,0.000000,0.014111,-0.014111,0.0000,0.0000,0.0000,-0.002350,0.013806,-0.010738,0.4260,0.4825,0.1443,0.000000,0.579845,-0.562971,0.564505,-0.590583,0.575243,-0.561437
5.4210,0.016752,0.000000,0.014695,-0.014695,0.0000,0.0000,0.0000,-0.002350,0.010738,-0.012272,0.4260,0.4825,0.1443,0.000000,0.579845,-0.562971,0.564505,-0.590583,0.575243,-0.561437
5.4377,0.016740,0.000000,0.015280,-0.015280,0.0000,0.0000,0.0000,-0.002350,0.007670,-0.012272,0.4260,0.4825,0.1443,0.000000,0.579845,-0.562971,0.564505,-0.590583,0.575243,-0.561437
5.4545,0.016745,0.000000,0.015864,-0.015864,0.0000,0.0000,0.0000,-0.002350,0.013806,-0.013806,0.4260,0.4825,0.1443,0.000000,0.579845,-0.562971,0.564505,-0.590583,0.575243,-0.561437
5.4712,0.016742,0.000000,0.016449,-0.016449,0.0000,0.0000,0.0000,-0.002350,0.016874,-0.013806,0.4260,0.4825,0.1443,0.000000,0.579845,-0.562971,0.564505,-0.590583,0.575243,-0.561437
5.4880,0.016760,0.000000,0.017034,-0.017034,0.0000,0.0000,0.0000,-0.002350,0.016874,-0.013806,0.4260,0.4825,0.1443,0.000000,0.579845,-0.562971,0.564505,-0.590583,0.575243,-0.561437
