t,loop_dt,cmd_z,cmd_ant_l,cmd_ant_r,cmd_roll,cmd_pitch,cmd_yaw,pres_z,pres_ant_l,pres_ant_r,pres_roll,pres_pitch,pres_yaw,pres_j0,pres_j1,pres_j2,pres_j3,pres_j4,pres_j5,pres_j6
0.0000,0.000001,0.000000,-1.745329,1.745329,0.0000,0.0000,0.0000,-0.002499,-1.569262,1.567728,0.5397,0.7581,0.2923,0.000000,0.572175,-0.561437,0.564505,-0.592117,0.575243,-0.549165
0.0168,0.016751,0.000000,-1.744744,1.744744,0.0000,0.0000,0.0000,-0.002500,-1.570796,1.567728,0.5340,0.7599,0.2861,0.000000,0.572175,-0.561437,0.564505,-0.592117,0.575243,-0.549165
0.0335,0.016752,0.000000,-1.744160,1.744160,0.0000,0.0000,0.0000,-0.002500,-1.570796,1.567728,0.5340,0.7599,0.2861,0.000000,0.572175,-0.561437,0.564505,-0.592117,0.575243,-0.549165
0.0503,0.016764,0.000000,-1.743575,1.743575,0.0000,0.0000,0.0000,-0.002500,-1.586136,1.578466,0.5340,0.7599,0.2861,0.000000,0.572175,-0.561437,0.564505,-0.592117,0.575243,-0.549165
0.0670,0.016761,0.000000,-1.742990,1.742990,0.0000,0.0000,0.0000,-0.002487,-1.635224,1.635224,0.4848,0.7419,0.2334,0.000000,0.572175,-0.561437,0.564505,-0.592117,0.575243,-0.550699
0.0838,0.016757,0.000000,-1.742405,1.742405,0.0000,0.0000,0.0000,-0.002502,-1.733398,1.727262,0.5397,0.7615,0.2922,0.000000,0.572175,-0.561437,0.564505,-0.592117,0.575243,-0.549165
0.1006,0.016768,0.000000,-1.741819,1.741819,0.0000,0.0000,0.0000,-0.002487,-1.784020,1.776350,0.5731,0.7238,0.2329,0.000000,0.572175,-0.562971,0.564505,-0.592117,0.575243,-0.549165
0.1173,0.016761,0.000000,-1.741234,1.741234,0.0000,0.0000,0.0000,-0.002487,-1.784020,1.776350,0.5731,0.7238,0.2329,0.000000,0.572175,-0.562971,0.564505,-0.592117,0.575243,-0.549165
0.1341,0.016768,0.000000,-1.740649,1.740649,0.0000,0.0000,0.0000,-0.002488,-1.790156,1.784020,0.4807,0.7456,0.2389,0.000000,0.572175,-0.561437,0.564505,-0.592117,0.575243,-0.550699
0.1511,0.016999,0.000000,-1.740055,1.740055,0.0000,0.0000,0.0000,-0.002475,-1.780952,1.776350,0.5295,0.7077,0.1852,0.000000,0.572175,-0.562971,0.564505,-0.592117,0.575243,-0.550699
0.1678,0.016766,0.000000,-1.739470,1.739470,0.0000,0.0000,0.0000,-0.002489,-1.767146,1.767146,0.4853,0.7473,0.2439,0.000000,0.572175,-0.561437,0.564505,-0.592117,0.575243,-0.550699
0.1846,0.016768,0.000000,-1.738885,1.738885,0.0000,0.0000,0.0000,-0.002475,-1.761010,1.765612,0.4401,0.7255,0.1844,0.000000,0.572175,-0.561437,0.564505,-0.592117,0.575243,-0.552233
0.2014,0.016775,0.000000,-1.738299,1.738299,0.0000,0.0000,0.0000,-0.002476,-1.754874,1.765612,0.4448,0.7277,0.1906,0.000000,0.572175,-0.561437,0.564505,-0.592117,0.575243,-0.552233
0.2185,0.017068,0.000000,-1.737704,1.737704,0.0000,0.0000,0.0000,-0.002476,-1.754874,1.765612,0.4448,0.7277,0.1906,0.000000,0.572175,-0.561437,0.564505,-0.592117,0.575243,-0.552233
0.2352,0.016758,0.000000,-1.737119,1.737119,0.0000,0.0000,0.0000,-0.002474,-1.754874,1.765612,0.3841,0.6590,0.1903,0.000000,0.572175,-0.561437,0.564505,-0.590583,0.575243,-0.553767
0.2520,0.016761,0.000000,-1.736534,1.736534,0.0000,0.0000,0.0000,-0.002424,-1.754874,1.765612,0.3408,0.6462,-0.0233,0.000000,0.572175,-0.562971,0.564505,-0.592117,0.575243,-0.556835
0.2687,0.016751,0.000000,-1.735949,1.735949,0.0000,0.0000,0.0000,-0.002429,-1.754874,1.765612,0.2566,0.6656,-0.0014,0.000000,0.572175,-0.561437,0.564505,-0.592117,0.575243,-0.558369
0.2855,0.016765,0.000000,-1.735364,1.735364,0.0000,0.0000,0.0000,-0.002405,-1.753340,1.765612,0.3653,0.6322,0.1039,0.000000,0.575243,-0.561437,0.564505,-0.592117,0.575243,-0.558369
0.3022,0.016755,0.000000,-1.734779,1.734779,0.0000,0.0000,0.0000,-0.002370,-1.753340,1.765612,0.3934,0.5669,0.0400,0.000000,0.576777,-0.562971,0.564505,-0.592117,0.575243,-0.559903
0.3190,0.016772,0.000000,-1.734193,1.734193,0.0000,0.0000,0.0000,-0.002370,-1.753340,1.765612,0.3934,0.5669,0.0400,0.000000,0.576777,-0.561437,0.564505,-0.590583,0.575243,-0.559903
0.3358,0.016756,0.000000,-1.733608,1.733608,0.0000,0.0000,0.0000,-0.002398,-1.753340,1.765612,0.3406,0.5585,0.1536,0.000000,0.576777,-0.561437,0.564505,-0.590583,0.575243,-0.559903
0.3525,0.016771,0.000000,-1.733023,1.733023,0.0000,0.0000,0.0000,-0.002370,-1.753340,1.765612,0.4351,0.5082,0.1424,0.000000,0.578311,-0.562971,0.564505,-0.590583,0.575243,-0.559903
0.3693,0.016756,0.000000,-1.732438,1.732438,0.0000,0.0000,0.0000,-0.002374,-1.753340,1.764078,0.3968,0.5998,0.1430,0.000000,0.578311,-0.561437,0.564505,-0.592117,0.575243,-0.559903
0.3862,0.016887,0.000000,-1.731849,1.731849,0.0000,0.0000,0.0000,-0.002361,-1.753340,1.764078,0.4400,0.5547,0.0898,0.000000,0.578311,-0.562971,0.564505,-0.592117,0.575243,-0.559903
0.4030,0.016765,0.000000,-1.731263,1.731263,0.0000,0.0000,0.0000,-0.002361,-1.753340,1.764078,0.4400,0.5547,0.0898,0.000000,0.578311,-0.562971,0.564505,-0.592117,0.575243,-0.559903
0.4197,0.016767,0.000000,-1.730678,1.730678,0.0000,0.0000,0.0000,-0.002387,-1.753340,1.764078,0.3855,0.5442,0.2022,0.000000,0.578311,-0.561437,0.564505,-0.590583,0.575243,-0.559903
0.4365,0.016752,0.000000,-1.730093,1.730093,0.0000,0.0000,0.0000,-0.002371,-1.753340,1.764078,0.4304,0.5097,0.1373,0.000000,0.578311,-0.562971,0.564505,-0.590583,0.575243,-0.559903
0.4538,0.017284,0.000000,-1.729490,1.729490,0.0000,0.0000,0.0000,-0.002386,-1.753340,1.764078,0.3865,0.5488,0.1973,0.000000,0.578311,-0.561437,0.564505,-0.590583,0.575243,-0.559903
0.4705,0.016751,0.000000,-1.728905,1.728905,0.0000,0.0000,0.0000,-0.002371,-1.753340,1.764078,0.4303,0.5092,0.1378,0.000000,0.578311,-0.562971,0.564505,-0.590583,0.575243,-0.559903
0.4874,0.016865,0.000000,-1.728317,1.728317,0.0000,0.0000,0.0000,-0.002371,-1.753340,1.762544,0.4303,0.5092,0.1378,0.000000,0.578311,-0.562971,0.564505,-0.590583,0.575243,-0.559903
0.5041,0.016761,0.000000,-1.727732,1.727732,0.0000,0.0000,0.0000,-0.002373,-1.753340,1.762544,0.4257,0.5134,0.1440,0.000000,0.578311,-0.562971,0.564505,-0.590583,0.575243,-0.559903
0.5209,0.016755,0.000000,-1.727147,1.727147,0.0000,0.0000,0.0000,-0.002374,-1.753340,1.762544,0.3978,0.5993,0.1428,0.000000,0.578311,-0.561437,0.564505,-0.592117,0.575243,-0.559903
0.5376,0.016746,0.000000,-1.726562,1.726562,0.0000,0.0000,0.0000,-0.002361,-1.753340,1.761010,0.4399,0.5548,0.0898,0.000000,0.578311,-0.562971,0.564505,-0.592117,0.575243,-0.559903
0.5544,0.016792,0.000000,-1.725976,1.725976,0.0000,0.0000,0.0000,-0.002375,-1.753340,1.761010,0.3963,0.5949,0.1485,0.000000,0.578311,-0.561437,0.564505,-0.592117,0.575243,-0.559903
0.5712,0.016759,0.000000,-1.725391,1.725391,0.0000,0.0000,0.0000,-0.002349,-1.753340,1.759476,0.4898,0.5397,0.1430,0.000000,0.579845,-0.562971,0.564505,-0.592117,0.575243,-0.559903
0.5880,0.016770,0.000000,-1.724806,1.724806,0.0000,0.0000,0.0000,-0.002349,-1.753340,1.754874,0.4898,0.5397,0.1430,0.000000,0.578311,-0.562971,0.564505,-0.590583,0.575243,-0.559903
0.6047,0.016762,0.000000,-1.724221,1.724221,0.0000,0.0000,0.0000,-0.002375,-1.753340,1.754874,0.4195,0.5102,0.1435,0.000000,0.578311,-0.562971,0.564505,-0.590583,0.575243,-0.559903
0.6215,0.016756,0.000000,-1.723636,1.723636,0.0000,0.0000,0.0000,-0.002374,-1.753340,1.754874,0.3984,0.5996,0.1429,0.000000,0.578311,-0.561437,0.564505,-0.592117,0.575243,-0.559903
0.6382,0.016747,0.000000,-1.723051,1.723051,0.0000,0.0000,0.0000,-0.002361,-1.751806,1.754874,0.4398,0.5547,0.0898,0.000000,0.578311,-0.562971,0.564505,-0.592117,0.575243,-0.559903
0.6550,0.016750,0.000000,-1.722466,1.722466,0.0000,0.0000,0.0000,-0.002375,-1.751806,1.754874,0.3963,0.5950,0.1485,0.000000,0.578311,-0.561437,0.564505,-0.592117,0.575243,-0.559903
0.6717,0.016748,0.000000,-1.721882,1.721882,0.0000,0.0000,0.0000,-0.002373,-1.751806,1.754874,0.4293,0.5044,0.1429,0.000000,0.578311,-0.562971,0.564505,-0.590583,0.575243,-0.559903
0.6885,0.016760,0.000000,-1.721297,1.721297,0.0000,0.0000,0.0000,-0.002373,-1.751806,1.754874,0.4293,0.5044,0.1429,0.000000,0.578311,-0.561437,0.564505,-0.592117,0.575243,-0.559903
0.7052,0.016750,0.000000,-1.720712,1.720712,0.0000,0.0000,0.0000,-0.002374,-1.751806,1.754874,0.3974,0.6002,0.1429,0.000000,0.578311,-0.561437,0.564505,-0.592117,0.575243,-0.559903
0.7220,0.016754,0.000000,-1.720127,1.720127,0.0000,0.0000,0.0000,-0.002361,-1.751806,1.754874,0.4399,0.5547,0.0898,0.000000,0.578311,-0.562971,0.564505,-0.592117,0.575243,-0.559903
0.7387,0.016755,0.000000,-1.719542,1.719542,0.0000,0.0000,0.0000,-0.002375,-1.751806,1.754874,0.3963,0.5950,0.1485,0.000000,0.578311,-0.561437,0.564505,-0.592117,0.575243,-0.559903
0.7555,0.016758,0.000000,-1.718957,1.718957,0.0000,0.0000,0.0000,-0.002361,-1.751806,1.754874,0.4400,0.5552,0.0892,0.000000,0.578311,-0.562971,0.564505,-0.592117,0.575243,-0.559903
0.7723,0.016752,0.000000,-1.718373,1.718373,0.0000,0.0000,0.0000,-0.002375,-1.750272,1.754874,0.3963,0.5949,0.1485,0.000000,0.578311,-0.561437,0.564505,-0.592117,0.575243,-0.559903
0.7890,0.016765,0.000000,-1.717787,1.717787,0.0000,0.0000,0.0000,-0.002362,-1.750272,1.754874,0.4506,0.5752,0.1962,0.000000,0.579845,-0.561437,0.564505,-0.592117,0.575243,-0.559903
0.8058,0.016742,0.000000,-1.717203,1.717203,0.0000,0.0000,0.0000,-0.002362,-1.750272,1.754874,0.4506,0.5752,0.1962,0.000000,0.579845,-0.561437,0.564505,-0.592117,0.575243,-0.559903
0.8227,0.016961,0.000000,-1.716611,1.716611,0.0000,0.0000,0.0000,-0.002387,-1.750272,1.754874,0.3844,0.5420,0.1911,0.000000,0.578311,-0.561437,0.564505,-0.590583,0.575243,-0.559903
0.8395,0.016748,0.000000,-1.716026,1.716026,0.0000,0.0000,0.0000,-0.002373,-1.750272,1.754874,0.4020,0.5963,0.1379,0.000000,0.578311,-0.561437,0.564505,-0.592117,0.575243,-0.559903
0.8562,0.016765,0.000000,-1.715441,1.715441,0.0000,0.0000,0.0000,-0.002361,-1.750272,1.754874,0.4394,0.5551,0.0903,0.000000,0.578311,-0.562971,0.564505,-0.592117,0.575243,-0.559903
0.8730,0.016754,0.000000,-1.714856,1.714856,0.0000,0.0000,0.0000,-0.002375,-1.750272,1.754874,0.3963,0.5949,0.1484,0.000000,0.578311,-0.561437,0.564505,-0.592117,0.575243,-0.559903
0.8898,0.016776,0.000000,-1.714271,1.714271,0.0000,0.0000,0.0000,-0.002375,-1.750272,1.754874,0.3963,0.5949,0.1484,0.000000,0.578311,-0.562971,0.564505,-0.590583,0.575243,-0.559903
0.9065,0.016752,0.000000,-1.713686,1.713686,0.0000,0.0000,0.0000,-0.002373,-1.750272,1.754874,0.4293,0.5044,0.1429,0.000000,0.578311,-0.562971,0.564505,-0.590583,0.575243,-0.559903
0.9233,0.016755,0.000000,-1.713101,1.713101,0.0000,0.0000,0.0000,-0.002373,-1.750272,1.754874,0.4258,0.5139,0.1435,0.000000,0.578311,-0.562971,0.564505,-0.590583,0.575243,-0.559903
0.9400,0.016754,0.000000,-1.712516,1.712516,0.0000,0.0000,0.0000,-0.002361,-1.750272,1.754874,0.4369,0.5637,0.0897,0.000000,0.578311,-0.562971,0.564505,-0.592117,0.575243,-0.559903
0.9568,0.016757,0.000000,-1.711931,1.711931,0.0000,0.0000,0.0000,-0.002363,-1.750272,1.754874,0.4358,0.5585,0.0953,0.000000,0.578311,-0.562971,0.564505,-0.592117,0.575243,-0.559903
0.9736,0.016822,0.000000,-1.711344,1.711344,0.0000,0.0000,0.0000,-0.002363,-1.750272,1.754874,0.4358,0.5585,0.0953,0.000000,0.578311,-0.562971,0.564505,-0.592117,0.575243,-0.559903
0.9904,0.016751,0.000000,-1.710759,1.710759,0.0000,0.0000,0.0000,-0.002351,-1.750272,1.754874,0.4857,0.5435,0.1486,0.000000,0.579845,-0.562971,0.564505,-0.592117,0.575243,-0.559903
1.0071,0.016752,0.000000,-1.710175,1.710175,0.0000,0.0000,0.0000,-0.002351,-1.750272,1.754874,0.4857,0.5435,0.1486,0.000000,0.579845,-0.562971,0.564505,-0.592117,0.575243,-0.559903
1.0239,0.016750,0.000000,-1.709590,1.709590,0.0000,0.0000,0.0000,-0.002364,-1.748738,1.754874,0.4697,0.4943,0.1967,0.000000,0.579845,-0.562971,0.564505,-0.590583,0.575243,-0.559903
1.0406,0.016755,0.000000,-1.709005,1.709005,0.0000,0.0000,0.0000,-0.002374,-1.748738,1.754874,0.4216,0.5149,0.1379,0.000000,0.578311,-0.562971,0.564505,-0.590583,0.575243,-0.559903
1.0574,0.016759,0.000000,-1.708420,1.708420,0.0000,0.0000,0.0000,-0.002374,-1.748738,1.754874,0.4372,0.5327,0.2510,0.000000,0.579845,-0.561437,0.564505,-0.590583,0.575243,-0.559903
1.0741,0.016757,0.000000,-1.707835,1.707835,0.0000,0.0000,0.0000,-0.002386,-1.748738,1.753340,0.3858,0.5464,0.1854,0.000000,0.578311,-0.561437,0.564505,-0.590583,0.575243,-0.559903
1.0909,0.016761,0.000000,-1.707250,1.707250,0.0000,0.0000,0.0000,-0.002386,-1.748738,1.753340,0.3858,0.5464,0.1854,0.000000,0.578311,-0.561437,0.564505,-0.590583,0.575243,-0.559903
1.1076,0.016750,0.000000,-1.706665,1.706665,0.0000,0.0000,0.0000,-0.002361,-1.748738,1.753340,0.4517,0.5803,0.1924,0.000000,0.579845,-0.561437,0.564505,-0.592117,0.575243,-0.559903
1.1244,0.016752,0.000000,-1.706081,1.706081,0.0000,0.0000,0.0000,-0.002374,-1.748738,1.753340,0.4235,0.5059,0.1384,0.000000,0.578311,-0.562971,0.564505,-0.590583,0.575243,-0.559903
1.1411,0.016750,0.000000,-1.705496,1.705496,0.0000,0.0000,0.0000,-0.002350,-1.748738,1.750272,0.4870,0.5489,0.1441,0.000000,0.579845,-0.562971,0.564505,-0.592117,0.575243,-0.559903
1.1579,0.016759,0.000000,-1.704911,1.704911,0.0000,0.0000,0.0000,-0.002364,-1.748738,1.745670,0.4306,0.5600,0.0897,0.000000,0.578311,-0.562971,0.564505,-0.592117,0.575243,-0.559903
1.1747,0.016762,0.000000,-1.704326,1.704326,0.0000,0.0000,0.0000,-0.002362,-1.748738,1.739534,0.4364,0.5589,0.0953,0.000000,0.578311,-0.562971,0.564505,-0.592117,0.575243,-0.559903
1.1914,0.016762,0.000000,-1.703741,1.703741,0.0000,0.0000,0.0000,-0.002362,-1.748738,1.739534,0.4364,0.5589,0.0953,0.000000,0.579845,-0.562971,0.564505,-0.592117,0.575243,-0.559903
1.2082,0.016742,0.000000,-1.703156,1.703156,0.0000,0.0000,0.0000,-0.002351,-1.748738,1.739534,0.4856,0.5434,0.1486,0.000000,0.579845,-0.562971,0.564505,-0.592117,0.575243,-0.559903
1.2249,0.016757,0.000000,-1.702571,1.702571,0.0000,0.0000,0.0000,-0.002375,-1.748738,1.739534,0.4200,0.5098,0.1429,0.000000,0.578311,-0.562971,0.564505,-0.590583,0.575243,-0.559903
1.2417,0.016818,0.000000,-1.701984,1.701984,0.0000,0.0000,0.0000,-0.002361,-1.745670,1.739534,0.4375,0.5641,0.0898,0.000000,0.578311,-0.562971,0.564505,-0.592117,0.575243,-0.559903
1.2585,0.016749,0.000000,-1.701400,1.701400,0.0000,0.0000,0.0000,-0.002363,-1.739534,1.739534,0.4357,0.5584,0.0953,0.000000,0.578311,-0.562971,0.564505,-0.592117,0.575243,-0.559903
1.2753,0.016818,0.000000,-1.700813,1.700813,0.0000,0.0000,0.0000,-0.002362,-1.731864,1.739534,0.4750,0.4927,0.2023,0.000000,0.579845,-0.562971,0.564505,-0.590583,0.575243,-0.559903
1.2921,0.016755,0.000000,-1.700228,1.700228,0.0000,0.0000,0.0000,-0.002362,-1.731864,1.739534,0.4750,0.4927,0.2023,0.000000,0.579845,-0.562971,0.564505,-0.590583,0.575243,-0.559903
1.3088,0.016762,0.000000,-1.699643,1.699643,0.0000,0.0000,0.0000,-0.002362,-1.724194,1.739534,0.4318,0.5659,0.0836,0.000000,0.578311,-0.562971,0.564505,-0.592117,0.575243,-0.559903
1.3256,0.016760,0.000000,-1.699058,1.699058,0.0000,0.0000,0.0000,-0.002375,-1.724194,1.739534,0.3971,0.5938,0.1491,0.000000,0.578311,-0.561437,0.564505,-0.592117,0.575243,-0.559903
1.3425,0.016890,0.000000,-1.698468,1.698468,0.0000,0.0000,0.0000,-0.002373,-1.724194,1.739534,0.4292,0.5046,0.1428,0.000000,0.578311,-0.562971,0.564505,-0.590583,0.575243,-0.559903
1.3592,0.016763,0.000000,-1.697883,1.697883,0.0000,0.0000,0.0000,-0.002374,-1.724194,1.739534,0.3974,0.6002,0.1429,0.000000,0.578311,-0.561437,0.564505,-0.592117,0.575243,-0.559903
1.3760,0.016761,0.000000,-1.697298,1.697298,0.0000,0.0000,0.0000,-0.002374,-1.724194,1.739534,0.3974,0.6002,0.1429,0.000000,0.578311,-0.561437,0.564505,-0.592117,0.575243,-0.559903
1.3928,0.016766,0.000000,-1.696713,1.696713,0.0000,0.0000,0.0000,-0.002373,-1.724194,1.739534,0.4292,0.5039,0.1435,0.000000,0.578311,-0.562971,0.564505,-0.590583,0.575243,-0.559903
1.4095,0.016758,0.000000,-1.696128,1.696128,0.0000,0.0000,0.0000,-0.002386,-1.724194,1.739534,0.3867,0.5494,0.1966,0.000000,0.578311,-0.561437,0.564505,-0.590583,0.575243,-0.559903
1.4264,0.016909,0.000000,-1.695537,1.695537,0.0000,0.0000,0.0000,-0.002372,-1.724194,1.739534,0.4303,0.5092,0.1379,0.000000,0.578311,-0.562971,0.564505,-0.590583,0.575243,-0.559903
1.4432,0.016766,0.000000,-1.694952,1.694952,0.0000,0.0000,0.0000,-0.002373,-1.724194,1.739534,0.4257,0.5134,0.1440,0.000000,0.578311,-0.562971,0.564505,-0.590583,0.575243,-0.559903
1.4600,0.016761,0.000000,-1.694367,1.694367,0.0000,0.0000,0.0000,-0.002374,-1.724194,1.739534,0.4368,0.5329,0.2504,0.000000,0.579845,-0.561437,0.564505,-0.590583,0.575243,-0.559903
1.4767,0.016768,0.000000,-1.693782,1.693782,0.0000,0.0000,0.0000,-0.002374,-1.724194,1.739534,0.4368,0.5329,0.2504,0.000000,0.579845,-0.561437,0.564505,-0.590583,0.575243,-0.559903
1.4935,0.016765,0.000000,-1.693197,1.693197,0.0000,0.0000,0.0000,-0.002374,-1.724194,1.739534,0.3966,0.5972,0.1317,0.000000,0.578311,-0.561437,0.564505,-0.592117,0.575243,-0.559903
1.5102,0.016757,0.000000,-1.692612,1.692612,0.0000,0.0000,0.0000,-0.002386,-1.722660,1.739534,0.3900,0.5397,0.1978,0.000000,0.578311,-0.561437,0.564505,-0.590583,0.575243,-0.559903
1.5270,0.016776,0.000000,-1.692026,1.692026,0.0000,0.0000,0.0000,-0.002348,-1.724194,1.739534,0.4905,0.5454,0.1379,0.000000,0.579845,-0.562971,0.564505,-0.592117,0.575243,-0.559903
1.5438,0.016760,0.000000,-1.691441,1.691441,0.0000,0.0000,0.0000,-0.002377,-1.724194,1.739534,0.3910,0.5959,0.1435,0.000000,0.578311,-0.561437,0.564505,-0.592117,0.575243,-0.559903
1.5606,0.016773,0.000000,-1.690856,1.690856,0.0000,0.0000,0.0000,-0.002385,-1.724194,1.739534,0.3906,0.5399,0.1966,0.000000,0.578311,-0.561437,0.564505,-0.590583,0.575243,-0.559903
1.5773,0.016761,0.000000,-1.690270,1.690270,0.0000,0.0000,0.0000,-0.002385,-1.724194,1.739534,0.3906,0.5399,0.1966,0.000000,0.578311,-0.561437,0.564505,-0.590583,0.575243,-0.559903
1.5941,0.016759,0.000000,-1.689685,1.689685,0.0000,0.0000,0.0000,-0.002373,-1.724194,1.739534,0.4014,0.5965,0.1373,0.000000,0.578311,-0.561437,0.564505,-0.592117,0.575243,-0.559903
1.6108,0.016753,0.000000,-1.689101,1.689101,0.0000,0.0000,0.0000,-0.002386,-1.722660,1.739534,0.3895,0.5398,0.1973,0.000000,0.578311,-0.561437,0.564505,-0.590583,0.575243,-0.559903
1.6276,0.016758,0.000000,-1.688516,1.688516,0.0000,0.0000,0.0000,-0.002373,-1.724194,1.738000,0.4015,0.5965,0.1373,0.000000,0.578311,-0.561437,0.564505,-0.592117,0.575243,-0.559903
1.6443,0.016757,0.000000,-1.687931,1.687931,0.0000,0.0000,0.0000,-0.002373,-1.722660,1.734932,0.4287,0.5043,0.1441,0.000000,0.578311,-0.562971,0.564505,-0.590583,0.575243,-0.559903
1.6611,0.016772,0.000000,-1.687345,1.687345,0.0000,0.0000,0.0000,-0.002373,-1.722660,1.727262,0.4287,0.5043,0.1441,0.000000,0.578311,-0.561437,0.564505,-0.592117,0.575243,-0.559903
1.6779,0.016751,0.000000,-1.686761,1.686761,0.0000,0.0000,0.0000,-0.002374,-1.722660,1.727262,0.3974,0.6002,0.1428,0.000000,0.578311,-0.561437,0.564505,-0.592117,0.575243,-0.559903
1.6946,0.016757,0.000000,-1.686176,1.686176,0.0000,0.0000,0.0000,-0.002350,-1.722660,1.719592,0.4897,0.5391,0.1436,0.000000,0.579845,-0.562971,0.564505,-0.592117,0.575243,-0.559903
1.7114,0.016767,0.000000,-1.685590,1.685590,0.0000,0.0000,0.0000,-0.002377,-1.722660,1.711923,0.3911,0.5966,0.1429,0.000000,0.578311,-0.561437,0.564505,-0.592117,0.575243,-0.559903
1.7281,0.016756,0.000000,-1.685006,1.685006,0.0000,0.0000,0.0000,-0.002385,-1.722660,1.710389,0.3906,0.5398,0.1967,0.000000,0.578311,-0.561437,0.564505,-0.590583,0.575243,-0.559903
1.7449,0.016748,0.000000,-1.684421,1.684421,0.0000,0.0000,0.0000,-0.002372,-1.722660,1.710389,0.4299,0.5102,0.1379,0.000000,0.578311,-0.562971,0.564505,-0.590583,0.575243,-0.559903
1.7617,0.016772,0.000000,-1.683835,1.683835,0.0000,0.0000,0.0000,-0.002372,-1.722660,1.710389,0.4299,0.5102,0.1379,0.000000,0.578311,-0.562971,0.564505,-0.592117,0.575243,-0.559903
1.7784,0.016756,0.000000,-1.683251,1.683251,0.0000,0.0000,0.0000,-0.002362,-1.722660,1.710389,0.4365,0.5641,0.0903,0.000000,0.578311,-0.562971,0.564505,-0.592117,0.575243,-0.559903
1.7952,0.016758,0.000000,-1.682666,1.682666,0.0000,0.0000,0.0000,-0.002374,-1.722660,1.710389,0.4251,0.5077,0.1490,0.000000,0.578311,-0.562971,0.564505,-0.590583,0.575243,-0.559903
1.8119,0.016754,0.000000,-1.682081,1.682081,0.0000,0.0000,0.0000,-0.002361,-1.722660,1.710389,0.4370,0.5643,0.0891,0.000000,0.578311,-0.562971,0.564505,-0.592117,0.575243,-0.559903
1.8287,0.016756,0.000000,-1.681496,1.681496,0.0000,0.0000,0.0000,-0.002387,-1.722660,1.708855,0.3858,0.5432,0.2023,0.000000,0.578311,-0.561437,0.564505,-0.590583,0.575243,-0.559903
1.8454,0.016749,0.000000,-1.680911,1.680911,0.0000,0.0000,0.0000,-0.002373,-1.722660,1.708855,0.4019,0.5962,0.1368,0.000000,0.578311,-0.561437,0.564505,-0.592117,0.575243,-0.559903
1.8622,0.016760,0.000000,-1.680326,1.680326,0.0000,0.0000,0.0000,-0.002373,-1.722660,1.708855,0.4019,0.5962,0.1368,0.000000,0.578311,-0.561437,0.564505,-0.592117,0.575243,-0.559903
1.8790,0.016759,0.000000,-1.679741,1.679741,0.0000,0.0000,0.0000,-0.002361,-1.722660,1.707321,0.4394,0.5551,0.0904,0.000000,0.578311,-0.562971,0.564505,-0.592117,0.575243,-0.559903
1.8957,0.016757,0.000000,-1.679156,1.679156,0.0000,0.0000,0.0000,-0.002363,-1.722660,1.705787,0.4355,0.5594,0.0953,0.000000,0.578311,-0.562971,0.564505,-0.592117,0.575243,-0.559903
1.9125,0.016751,0.000000,-1.678572,1.678572,0.0000,0.0000,0.0000,-0.002362,-1.722660,1.702719,0.4750,0.4926,0.2023,0.000000,0.579845,-0.562971,0.564505,-0.590583,0.575243,-0.559903
1.9292,0.016765,0.000000,-1.677986,1.677986,0.0000,0.0000,0.0000,-0.002362,-1.722660,1.702719,0.4318,0.5659,0.0836,0.000000,0.578311,-0.562971,0.564505,-0.592117,0.575243,-0.559903
1.9460,0.016757,0.000000,-1.677401,1.677401,0.0000,0.0000,0.0000,-0.002375,-1.722660,1.702719,0.3971,0.5938,0.1491,0.000000,0.578311,-0.561437,0.564505,-0.592117,0.575243,-0.559903
1.9628,0.016765,0.000000,-1.676816,1.676816,0.0000,0.0000,0.0000,-0.002375,-1.722660,1.702719,0.3971,0.5938,0.1491,0.000000,0.578311,-0.561437,0.564505,-0.592117,0.575243,-0.559903
1.9795,0.016759,0.000000,-1.676231,1.676231,0.0000,0.0000,0.0000,-0.002361,-1.721126,1.702719,0.4399,0.5553,0.0891,0.000000,0.578311,-0.562971,0.564505,-0.592117,0.575243,-0.559903
1.9963,0.016751,0.000000,-1.675646,1.675646,0.0000,0.0000,0.0000,-0.002375,-1.721126,1.702719,0.3963,0.5949,0.1485,0.000000,0.578311,-0.561437,0.564505,-0.592117,0.575243,-0.559903
2.0131,0.016814,0.000000,-1.675060,1.675060,0.0000,0.0000,0.0000,-0.002361,-1.721126,1.701185,0.4400,0.5552,0.0892,0.000000,0.578311,-0.562971,0.564505,-0.592117,0.575243,-0.559903
2.0298,0.016761,0.000000,-1.674474,1.674474,0.0000,0.0000,0.0000,-0.002387,-1.718058,1.702719,0.3855,0.5441,0.2023,0.000000,0.578311,-0.561437,0.564505,-0.590583,0.575243,-0.559903
2.0466,0.016760,0.000000,-1.673889,1.673889,0.0000,0.0000,0.0000,-0.002387,-1.710389,1.702719,0.3855,0.5441,0.2023,0.000000,0.579845,-0.561437,0.564505,-0.592117,0.575243,-0.559903
2.0634,0.016754,0.000000,-1.673305,1.673305,0.0000,0.0000,0.0000,-0.002361,-1.710389,1.702719,0.4517,0.5805,0.1906,0.000000,0.579845,-0.561437,0.564505,-0.592117,0.575243,-0.559903
2.0801,0.016749,0.000000,-1.672720,1.672720,0.0000,0.0000,0.0000,-0.002363,-1.702719,1.702719,0.4343,0.5567,0.0848,0.000000,0.578311,-0.562971,0.564505,-0.592117,0.575243,-0.559903
2.0969,0.016755,0.000000,-1.672135,1.672135,0.0000,0.0000,0.0000,-0.002362,-1.696583,1.702719,0.4751,0.4929,0.2034,0.000000,0.579845,-0.562971,0.564505,-0.590583,0.575243,-0.559903
2.1136,0.016764,0.000000,-1.671550,1.671550,0.0000,0.0000,0.0000,-0.002374,-1.695049,1.701185,0.4211,0.5151,0.1372,0.000000,0.578311,-0.562971,0.564505,-0.590583,0.575243,-0.559903
2.1304,0.016757,0.000000,-1.670965,1.670965,0.0000,0.0000,0.0000,-0.002374,-1.695049,1.701185,0.3982,0.5991,0.1435,0.000000,0.578311,-0.561437,0.564505,-0.592117,0.575243,-0.559903
2.1472,0.016772,0.000000,-1.670380,1.670380,0.0000,0.0000,0.0000,-0.002361,-1.695049,1.701185,0.4398,0.5548,0.0897,0.000000,0.578311,-0.562971,0.564505,-0.592117,0.575243,-0.559903
2.1639,0.016763,0.000000,-1.669794,1.669794,0.0000,0.0000,0.0000,-0.002361,-1.695049,1.701185,0.4398,0.5548,0.0897,0.000000,0.578311,-0.562971,0.564505,-0.592117,0.575243,-0.559903
2.1807,0.016755,0.000000,-1.669210,1.669210,0.0000,0.0000,0.0000,-0.002363,-1.695049,1.701185,0.4355,0.5594,0.0953,0.000000,0.578311,-0.562971,0.564505,-0.592117,0.575243,-0.559903
2.1974,0.016754,0.000000,-1.668625,1.668625,0.0000,0.0000,0.0000,-0.002363,-1.695049,1.701185,0.4355,0.5594,0.0953,0.000000,0.578311,-0.562971,0.564505,-0.592117,0.575243,-0.559903
2.2142,0.016750,0.000000,-1.668040,1.668040,0.0000,0.0000,0.0000,-0.002375,-1.695049,1.701185,0.3967,0.5945,0.1479,0.000000,0.578311,-0.561437,0.564505,-0.592117,0.575243,-0.559903
2.2313,0.017105,0.000000,-1.667443,1.667443,0.0000,0.0000,0.0000,-0.002362,-1.695049,1.702719,0.4506,0.5753,0.1963,0.000000,0.579845,-0.561437,0.564505,-0.592117,0.575243,-0.559903
2.2480,0.016762,0.000000,-1.666858,1.666858,0.0000,0.0000,0.0000,-0.002362,-1.695049,1.702719,0.4506,0.5753,0.1963,0.000000,0.579845,-0.561437,0.564505,-0.592117,0.575243,-0.559903
2.2648,0.016758,0.000000,-1.666273,1.666273,0.0000,0.0000,0.0000,-0.002375,-1.695049,1.701185,0.3952,0.5928,0.1374,0.000000,0.578311,-0.561437,0.564505,-0.592117,0.575243,-0.559903
2.2816,0.016756,0.000000,-1.665688,1.665688,0.0000,0.0000,0.0000,-0.002361,-1.695049,1.702719,0.4401,0.5554,0.0904,0.000000,0.578311,-0.562971,0.564505,-0.592117,0.575243,-0.559903
2.2986,0.017027,0.000000,-1.665094,1.665094,0.0000,0.0000,0.0000,-0.002363,-1.695049,1.701185,0.4354,0.5593,0.0953,0.000000,0.578311,-0.562971,0.564505,-0.592117,0.575243,-0.559903
2.3155,0.016952,0.000000,-1.664502,1.664502,0.0000,0.0000,0.0000,-0.002363,-1.695049,1.702719,0.4354,0.5593,0.0953,0.000000,0.578311,-0.562971,0.564505,-0.592117,0.575243,-0.559903
2.3323,0.016766,0.000000,-1.663917,1.663917,0.0000,0.0000,0.0000,-0.002364,-1.695049,1.702719,0.4466,0.5789,0.2018,0.000000,0.579845,-0.561437,0.564505,-0.592117,0.575243,-0.559903
2.3491,0.016847,0.000000,-1.663329,1.663329,0.0000,0.0000,0.0000,-0.002364,-1.695049,1.702719,0.4466,0.5789,0.2018,0.000000,0.579845,-0.561437,0.564505,-0.592117,0.575243,-0.559903
2.3659,0.016754,0.000000,-1.662744,1.662744,0.0000,0.0000,0.0000,-0.002364,-1.695049,1.701185,0.4454,0.5769,0.1907,0.000000,0.579845,-0.561437,0.564505,-0.592117,0.575243,-0.559903
2.3827,0.016762,0.000000,-1.662159,1.662159,0.0000,0.0000,0.0000,-0.002362,-1.695049,1.702719,0.4349,0.5571,0.0848,0.000000,0.578311,-0.562971,0.564505,-0.592117,0.575243,-0.559903
2.3994,0.016773,0.000000,-1.661573,1.661573,0.0000,0.0000,0.0000,-0.002362,-1.695049,1.702719,0.4349,0.5571,0.0848,0.000000,0.579845,-0.561437,0.564505,-0.590583,0.575243,-0.559903
2.4162,0.016790,0.000000,-1.660987,1.660987,0.0000,0.0000,0.0000,-0.002375,-1.695049,1.702719,0.4358,0.5284,0.2566,0.000000,0.579845,-0.561437,0.564505,-0.590583,0.575243,-0.559903
2.4330,0.016755,0.000000,-1.660402,1.660402,0.0000,0.0000,0.0000,-0.002373,-1.695049,1.702719,0.4252,0.5114,0.1317,0.000000,0.578311,-0.562971,0.564505,-0.590583,0.575243,-0.559903
2.4502,0.017189,0.000000,-1.659802,1.659802,0.0000,0.0000,0.0000,-0.002361,-1.695049,1.701185,0.4370,0.5639,0.0909,0.000000,0.578311,-0.562971,0.564505,-0.592117,0.575243,-0.559903
2.4671,0.016916,0.000000,-1.659212,1.659212,0.0000,0.0000,0.0000,-0.002363,-1.695049,1.701185,0.4358,0.5585,0.0952,0.000000,0.578311,-0.562971,0.564505,-0.592117,0.575243,-0.559903
2.4839,0.016772,0.000000,-1.658626,1.658626,0.0000,0.0000,0.0000,-0.002363,-1.695049,1.701185,0.4358,0.5585,0.0952,0.000000,0.578311,-0.562971,0.564505,-0.592117,0.575243,-0.559903
2.5007,0.016811,0.000000,-1.658040,1.658040,0.0000,0.0000,0.0000,-0.002374,-1.695049,1.701185,0.4252,0.5083,0.1485,0.000000,0.578311,-0.562971,0.564505,-0.590583,0.575243,-0.559903
2.5174,0.016758,0.000000,-1.657455,1.657455,0.0000,0.0000,0.0000,-0.002374,-1.695049,1.701185,0.4252,0.5083,0.1485,0.000000,0.578311,-0.562971,0.564505,-0.590583,0.575243,-0.559903
2.5342,0.016763,0.000000,-1.656869,1.656869,0.0000,0.0000,0.0000,-0.002374,-1.695049,1.701185,0.4369,0.5334,0.2499,0.000000,0.579845,-0.561437,0.564505,-0.590583,0.575243,-0.559903
2.5509,0.016760,0.000000,-1.656284,1.656284,0.0000,0.0000,0.0000,-0.002374,-1.695049,1.699651,0.3966,0.5972,0.1318,0.000000,0.578311,-0.561437,0.564505,-0.592117,0.575243,-0.559903
2.5677,0.016715,0.000000,-1.655701,1.655701,0.0000,0.0000,0.0000,-0.002374,-1.695049,1.693515,0.4398,0.5242,0.2517,0.000000,0.579845,-0.561437,0.564505,-0.590583,0.575243,-0.559903
2.5846,0.016965,0.000000,-1.655109,1.655109,0.0000,0.0000,0.0000,-0.002373,-1.695049,1.687379,0.4248,0.5118,0.1322,0.000000,0.578311,-0.562971,0.564505,-0.590583,0.575243,-0.559903
2.6014,0.016778,0.000000,-1.654523,1.654523,0.0000,0.0000,0.0000,-0.002363,-1.695049,1.685845,0.4477,0.5839,0.1979,0.000000,0.579845,-0.561437,0.564505,-0.592117,0.575243,-0.559903
2.6182,0.016765,0.000000,-1.653938,1.653938,0.0000,0.0000,0.0000,-0.002363,-1.695049,1.685845,0.4477,0.5839,0.1979,0.000000,0.579845,-0.561437,0.564505,-0.592117,0.575243,-0.559903
2.6349,0.016755,0.000000,-1.653353,1.653353,0.0000,0.0000,0.0000,-0.002362,-1.695049,1.685845,0.4347,0.5563,0.0840,0.000000,0.578311,-0.562971,0.564505,-0.592117,0.575243,-0.559903
2.6517,0.016760,0.000000,-1.652768,1.652768,0.0000,0.0000,0.0000,-0.002375,-1.695049,1.685845,0.3968,0.5948,0.1491,0.000000,0.578311,-0.561437,0.564505,-0.592117,0.575243,-0.559903
2.6685,0.016764,0.000000,-1.652183,1.652183,0.0000,0.0000,0.0000,-0.002385,-1.693515,1.685845,0.3900,0.5400,0.1960,0.000000,0.578311,-0.561437,0.564505,-0.590583,0.575243,-0.559903
2.6852,0.016767,0.000000,-1.651597,1.651597,0.0000,0.0000,0.0000,-0.002372,-1.688913,1.685845,0.4300,0.5102,0.1380,0.000000,0.578311,-0.562971,0.564505,-0.590583,0.575243,-0.559903
2.7020,0.016763,0.000000,-1.651012,1.651012,0.0000,0.0000,0.0000,-0.002386,-1.682777,1.685845,0.3866,0.5488,0.1972,0.000000,0.578311,-0.561437,0.564505,-0.590583,0.575243,-0.559903
2.7187,0.016765,0.000000,-1.650427,1.650427,0.0000,0.0000,0.0000,-0.002386,-1.682777,1.685845,0.3866,0.5488,0.1972,0.000000,0.578311,-0.561437,0.564505,-0.590583,0.575243,-0.559903
2.7355,0.016751,0.000000,-1.649842,1.649842,0.0000,0.0000,0.0000,-0.002360,-1.676641,1.685845,0.4410,0.5601,0.0841,0.000000,0.578311,-0.562971,0.564505,-0.592117,0.575243,-0.559903
2.7523,0.016759,0.000000,-1.649257,1.649257,0.0000,0.0000,0.0000,-0.002363,-1.672039,1.685845,0.4353,0.5589,0.0959,0.000000,0.578311,-0.562971,0.564505,-0.592117,0.575243,-0.559903
2.7690,0.016750,0.000000,-1.648673,1.648673,0.0000,0.0000,0.0000,-0.002351,-1.672039,1.685845,0.4858,0.5434,0.1485,0.000000,0.579845,-0.562971,0.564505,-0.592117,0.575243,-0.559903
2.7858,0.016761,0.000000,-1.648088,1.648088,0.0000,0.0000,0.0000,-0.002364,-1.672039,1.684311,0.4307,0.5606,0.0892,0.000000,0.578311,-0.562971,0.564505,-0.592117,0.575243,-0.559903
2.8025,0.016756,0.000000,-1.647503,1.647503,0.0000,0.0000,0.0000,-0.002364,-1.672039,1.684311,0.4307,0.5606,0.0892,0.000000,0.578311,-0.562971,0.564505,-0.592117,0.575243,-0.559903
2.8193,0.016767,0.000000,-1.646917,1.646917,0.0000,0.0000,0.0000,-0.002362,-1.672039,1.684311,0.4364,0.5588,0.0954,0.000000,0.578311,-0.562971,0.564505,-0.592117,0.575243,-0.559903
2.8360,0.016752,0.000000,-1.646333,1.646333,0.0000,0.0000,0.0000,-0.002362,-1.672039,1.681243,0.4749,0.4926,0.2023,0.000000,0.579845,-0.562971,0.564505,-0.590583,0.575243,-0.559903
2.8528,0.016754,0.000000,-1.645748,1.645748,0.0000,0.0000,0.0000,-0.002374,-1.672039,1.675107,0.4211,0.5151,0.1373,0.000000,0.578311,-0.562971,0.564505,-0.590583,0.575243,-0.559903
2.8696,0.016754,0.000000,-1.645163,1.645163,0.0000,0.0000,0.0000,-0.002374,-1.672039,1.672039,0.4373,0.5327,0.2511,0.000000,0.579845,-0.561437,0.564505,-0.590583,0.575243,-0.559903
2.8863,0.016765,0.000000,-1.644578,1.644578,0.0000,0.0000,0.0000,-0.002373,-1.670505,1.668971,0.4251,0.5109,0.1322,0.000000,0.578311,-0.562971,0.564505,-0.590583,0.575243,-0.559903
2.9031,0.016766,0.000000,-1.643993,1.643993,0.0000,0.0000,0.0000,-0.002374,-1.670505,1.667437,0.4369,0.5331,0.2516,0.000000,0.579845,-0.561437,0.564505,-0.590583,0.575243,-0.559903
2.9199,0.016770,0.000000,-1.643407,1.643407,0.0000,0.0000,0.0000,-0.002374,-1.670505,1.667437,0.4369,0.5331,0.2516,0.000000,0.579845,-0.561437,0.564505,-0.590583,0.575243,-0.559903
2.9366,0.016750,0.000000,-1.642823,1.642823,0.0000,0.0000,0.0000,-0.002361,-1.670505,1.667437,0.4749,0.4953,0.1860,0.000000,0.579845,-0.562971,0.564505,-0.590583,0.575243,-0.559903
2.9534,0.016770,0.000000,-1.642237,1.642237,0.0000,0.0000,0.0000,-0.002375,-1.670505,1.667437,0.3926,0.6011,0.1384,0.000000,0.578311,-0.561437,0.564505,-0.592117,0.575243,-0.559903
2.9701,0.016749,0.000000,-1.641652,1.641652,0.0000,0.0000,0.0000,-0.002361,-1.670505,1.667437,0.4404,0.5546,0.0902,0.000000,0.578311,-0.562971,0.564505,-0.592117,0.575243,-0.559903
2.9869,0.016762,0.000000,-1.641067,1.641067,0.0000,0.0000,0.0000,-0.002374,-1.670505,1.667437,0.4247,0.5087,0.1490,0.000000,0.578311,-0.562971,0.564505,-0.590583,0.575243,-0.559903
3.0036,0.016757,0.000000,-1.640482,1.640482,0.0000,0.0000,0.0000,-0.002374,-1.667437,1.665903,0.4247,0.5087,0.1490,0.000000,0.578311,-0.561437,0.564505,-0.592117,0.575243,-0.559903
3.0204,0.016759,0.000000,-1.639897,1.639897,0.0000,0.0000,0.0000,-0.002374,-1.667437,1.665903,0.3979,0.5998,0.1423,0.000000,0.578311,-0.561437,0.564505,-0.592117,0.575243,-0.559903
3.0372,0.016762,0.000000,-1.639312,1.639312,0.0000,0.0000,0.0000,-0.002361,-1.667437,1.665903,0.4399,0.5547,0.0898,0.000000,0.578311,-0.562971,0.564505,-0.592117,0.575243,-0.559903
3.0539,0.016754,0.000000,-1.638728,1.638728,0.0000,0.0000,0.0000,-0.002363,-1.667437,1.665903,0.4355,0.5594,0.0953,0.000000,0.578311,-0.562971,0.564505,-0.592117,0.575243,-0.559903
3.0707,0.016761,0.000000,-1.638142,1.638142,0.0000,0.0000,0.0000,-0.002375,-1.667437,1.665903,0.3967,0.5945,0.1479,0.000000,0.578311,-0.561437,0.564505,-0.592117,0.575243,-0.559903
3.0875,0.016797,0.000000,-1.637556,1.637556,0.0000,0.0000,0.0000,-0.002385,-1.667437,1.665903,0.3900,0.5400,0.1962,0.000000,0.578311,-0.561437,0.564505,-0.590583,0.575243,-0.559903
3.1042,0.016763,0.000000,-1.636971,1.636971,0.0000,0.0000,0.0000,-0.002385,-1.667437,1.665903,0.3900,0.5400,0.1962,0.000000,0.578311,-0.561437,0.564505,-0.590583,0.575243,-0.559903
3.1210,0.016763,0.000000,-1.636386,1.636386,0.0000,0.0000,0.0000,-0.002372,-1.667437,1.665903,0.4300,0.5102,0.1380,0.000000,0.578311,-0.562971,0.564505,-0.590583,0.575243,-0.559903
3.1378,0.016754,0.000000,-1.635801,1.635801,0.0000,0.0000,0.0000,-0.002374,-1.667437,1.665903,0.4364,0.5332,0.2510,0.000000,0.579845,-0.561437,0.564505,-0.590583,0.575243,-0.559903
3.1545,0.016759,0.000000,-1.635216,1.635216,0.0000,0.0000,0.0000,-0.002350,-1.667437,1.664369,0.4857,0.5461,0.1323,0.000000,0.579845,-0.562971,0.564505,-0.592117,0.575243,-0.559903
3.1713,0.016760,0.000000,-1.634631,1.634631,0.0000,0.0000,0.0000,-0.002375,-1.667437,1.664369,0.4200,0.5095,0.1446,0.000000,0.578311,-0.562971,0.564505,-0.590583,0.575243,-0.559903
3.1880,0.016764,0.000000,-1.634046,1.634046,0.0000,0.0000,0.0000,-0.002349,-1.667437,1.664369,0.4874,0.5486,0.1434,0.000000,0.579845,-0.562971,0.564505,-0.592117,0.575243,-0.559903
3.2048,0.016756,0.000000,-1.633461,1.633461,0.0000,0.0000,0.0000,-0.002349,-1.667437,1.664369,0.4874,0.5486,0.1434,0.000000,0.579845,-0.562971,0.564505,-0.592117,0.575243,-0.559903
3.2215,0.016756,0.000000,-1.632876,1.632876,0.0000,0.0000,0.0000,-0.002364,-1.667437,1.664369,0.4305,0.5600,0.0897,0.000000,0.578311,-0.562971,0.564505,-0.592117,0.575243,-0.559903
3.2383,0.016753,0.000000,-1.632291,1.632291,0.0000,0.0000,0.0000,-0.002351,-1.667437,1.664369,0.4863,0.5433,0.1492,0.000000,0.579845,-0.562971,0.564505,-0.592117,0.575243,-0.559903
3.2551,0.016750,0.000000,-1.631707,1.631707,0.0000,0.0000,0.0000,-0.002375,-1.667437,1.664369,0.4199,0.5098,0.1429,0.000000,0.578311,-0.562971,0.564505,-0.590583,0.575243,-0.559903
3.2718,0.016742,0.000000,-1.631122,1.631122,0.0000,0.0000,0.0000,-0.002374,-1.667437,1.664369,0.3984,0.5996,0.1429,0.000000,0.578311,-0.561437,0.564505,-0.592117,0.575243,-0.559903
3.2885,0.016750,0.000000,-1.630537,1.630537,0.0000,0.0000,0.0000,-0.002374,-1.667437,1.662835,0.4006,0.5903,0.1429,0.000000,0.578311,-0.561437,0.564505,-0.592117,0.575243,-0.559903
3.3053,0.016746,0.000000,-1.629953,1.629953,0.0000,0.0000,0.0000,-0.002374,-1.667437,1.662835,0.4006,0.5903,0.1429,0.000000,0.578311,-0.561437,0.564505,-0.592117,0.575243,-0.559903
3.3220,0.016754,0.000000,-1.629368,1.629368,0.0000,0.0000,0.0000,-0.002361,-1.667437,1.662835,0.4396,0.5557,0.0898,0.000000,0.578311,-0.562971,0.564505,-0.592117,0.575243,-0.559903
3.3388,0.016743,0.000000,-1.628784,1.628784,0.0000,0.0000,0.0000,-0.002351,-1.667437,1.662835,0.4853,0.5437,0.1491,0.000000,0.579845,-0.562971,0.564505,-0.592117,0.575243,-0.559903
3.3555,0.016759,0.000000,-1.628199,1.628199,0.0000,0.0000,0.0000,-0.002364,-1.667437,1.662835,0.4307,0.5605,0.0891,0.000000,0.578311,-0.562971,0.564505,-0.592117,0.575243,-0.559903
3.3723,0.016742,0.000000,-1.627614,1.627614,0.0000,0.0000,0.0000,-0.002375,-1.665903,1.662835,0.3972,0.5943,0.1485,0.000000,0.578311,-0.561437,0.564505,-0.592117,0.575243,-0.559903
3.3891,0.016783,0.000000,-1.627028,1.627028,0.0000,0.0000,0.0000,-0.002375,-1.665903,1.662835,0.3972,0.5943,0.1485,0.000000,0.578311,-0.562971,0.564505,-0.592117,0.575243,-0.559903
3.4058,0.016754,0.000000,-1.626444,1.626444,0.0000,0.0000,0.0000,-0.002361,-1.665903,1.662835,0.4399,0.5553,0.0892,0.000000,0.578311,-0.562971,0.564505,-0.592117,0.575243,-0.559903
3.4226,0.016760,0.000000,-1.625859,1.625859,0.0000,0.0000,0.0000,-0.002387,-1.665903,1.662835,0.3855,0.5441,0.2023,0.000000,0.578311,-0.561437,0.564505,-0.590583,0.575243,-0.559903
3.4396,0.017035,0.000000,-1.625264,1.625264,0.0000,0.0000,0.0000,-0.002348,-1.665903,1.662835,0.4910,0.5450,0.1374,0.000000,0.579845,-0.562971,0.564505,-0.592117,0.575243,-0.559903
3.4564,0.016750,0.000000,-1.624679,1.624679,0.0000,0.0000,0.0000,-0.002364,-1.665903,1.662835,0.4302,0.5604,0.0904,0.000000,0.578311,-0.562971,0.564505,-0.592117,0.575243,-0.559903
3.4731,0.016750,0.000000,-1.624095,1.624095,0.0000,0.0000,0.0000,-0.002362,-1.665903,1.662835,0.4365,0.5588,0.0953,0.000000,0.578311,-0.562971,0.564505,-0.592117,0.575243,-0.559903
3.4899,0.016777,0.000000,-1.623509,1.623509,0.0000,0.0000,0.0000,-0.002362,-1.665903,1.662835,0.4365,0.5588,0.0953,0.000000,0.578311,-0.562971,0.564505,-0.592117,0.575243,-0.559903
3.5066,0.016750,0.000000,-1.622924,1.622924,0.0000,0.0000,0.0000,-0.002374,-1.665903,1.662835,0.4251,0.5082,0.1485,0.000000,0.578311,-0.562971,0.564505,-0.590583,0.575243,-0.559903
3.5234,0.016758,0.000000,-1.622339,1.622339,0.0000,0.0000,0.0000,-0.002374,-1.665903,1.662835,0.3978,0.5998,0.1424,0.000000,0.578311,-0.561437,0.564505,-0.592117,0.575243,-0.559903
3.5402,0.016752,0.000000,-1.621754,1.621754,0.0000,0.0000,0.0000,-0.002373,-1.665903,1.662835,0.4291,0.5039,0.1436,0.000000,0.578311,-0.562971,0.564505,-0.590583,0.575243,-0.559903
3.5569,0.016758,0.000000,-1.621170,1.621170,0.0000,0.0000,0.0000,-0.002373,-1.665903,1.662835,0.4259,0.5139,0.1434,0.000000,0.578311,-0.562971,0.564505,-0.590583,0.575243,-0.559903
3.5737,0.016745,0.000000,-1.620585,1.620585,0.0000,0.0000,0.0000,-0.002350,-1.664369,1.661301,0.4867,0.5481,0.1436,0.000000,0.579845,-0.562971,0.564505,-0.592117,0.575243,-0.559903
3.5905,0.016798,0.000000,-1.619999,1.619999,0.0000,0.0000,0.0000,-0.002350,-1.664369,1.661301,0.4867,0.5481,0.1436,0.000000,0.579845,-0.562971,0.564505,-0.592117,0.575243,-0.559903
3.6072,0.016741,0.000000,-1.619414,1.619414,0.0000,0.0000,0.0000,-0.002377,-1.659767,1.661301,0.3914,0.5956,0.1429,0.000000,0.578311,-0.561437,0.564505,-0.592117,0.575243,-0.559903
3.6239,0.016748,0.000000,-1.618830,1.618830,0.0000,0.0000,0.0000,-0.002361,-1.652097,1.661301,0.4405,0.5551,0.0898,0.000000,0.578311,-0.562971,0.564505,-0.592117,0.575243,-0.559903
3.6407,0.016745,0.000000,-1.618245,1.618245,0.0000,0.0000,0.0000,-0.002375,-1.644427,1.661301,0.4353,0.5286,0.2560,0.000000,0.579845,-0.561437,0.564505,-0.590583,0.575243,-0.559903
3.6575,0.016762,0.000000,-1.617660,1.617660,0.0000,0.0000,0.0000,-0.002374,-1.642893,1.661301,0.3968,0.5977,0.1312,0.000000,0.578311,-0.561437,0.564505,-0.592117,0.575243,-0.559903
3.6742,0.016741,0.000000,-1.617076,1.617076,0.0000,0.0000,0.0000,-0.002374,-1.641359,1.661301,0.4008,0.5905,0.1442,0.000000,0.578311,-0.561437,0.564505,-0.592117,0.575243,-0.559903
3.6910,0.016763,0.000000,-1.616491,1.616491,0.0000,0.0000,0.0000,-0.002374,-1.641359,1.661301,0.4008,0.5905,0.1442,0.000000,0.578311,-0.561437,0.564505,-0.592117,0.575243,-0.559903
3.7077,0.016742,0.000000,-1.615906,1.615906,0.0000,0.0000,0.0000,-0.002374,-1.642893,1.661301,0.4002,0.5915,0.1424,0.000000,0.578311,-0.561437,0.564505,-0.592117,0.575243,-0.559903
3.7245,0.016753,0.000000,-1.615321,1.615321,0.0000,0.0000,0.0000,-0.002361,-1.641359,1.661301,0.4787,0.4892,0.1974,0.000000,0.579845,-0.562971,0.564505,-0.590583,0.575243,-0.559903
3.7412,0.016742,0.000000,-1.614737,1.614737,0.0000,0.0000,0.0000,-0.002363,-1.641359,1.661301,0.4314,0.5662,0.0841,0.000000,0.578311,-0.562971,0.564505,-0.592117,0.575243,-0.559903
3.7580,0.016759,0.000000,-1.614152,1.614152,0.0000,0.0000,0.0000,-0.002374,-1.642893,1.661301,0.4256,0.5074,0.1496,0.000000,0.578311,-0.562971,0.564505,-0.590583,0.575243,-0.559903
3.7747,0.016784,0.000000,-1.613566,1.613566,0.0000,0.0000,0.0000,-0.002374,-1.642893,1.661301,0.3978,0.5999,0.1422,0.000000,0.578311,-0.561437,0.564505,-0.592117,0.575243,-0.559903
3.7915,0.016758,0.000000,-1.612981,1.612981,0.0000,0.0000,0.0000,-0.002374,-1.642893,1.661301,0.3978,0.5999,0.1422,0.000000,0.578311,-0.561437,0.564505,-0.592117,0.575243,-0.559903
3.8082,0.016745,0.000000,-1.612397,1.612397,0.0000,0.0000,0.0000,-0.002373,-1.642893,1.661301,0.4291,0.5039,0.1436,0.000000,0.578311,-0.562971,0.564505,-0.590583,0.575243,-0.559903
3.8250,0.016754,0.000000,-1.611812,1.611812,0.0000,0.0000,0.0000,-0.002374,-1.641359,1.661301,0.3974,0.6003,0.1429,0.000000,0.578311,-0.561437,0.564505,-0.592117,0.575243,-0.559903
3.8417,0.016741,0.000000,-1.611227,1.611227,0.0000,0.0000,0.0000,-0.002361,-1.642893,1.659767,0.4790,0.4883,0.1973,0.000000,0.579845,-0.562971,0.564505,-0.590583,0.575243,-0.559903
3.8585,0.016751,0.000000,-1.610643,1.610643,0.0000,0.0000,0.0000,-0.002387,-1.641359,1.658233,0.3815,0.5511,0.1910,0.000000,0.578311,-0.561437,0.564505,-0.590583,0.575243,-0.559903
3.8753,0.016789,0.000000,-1.610057,1.610057,0.0000,0.0000,0.0000,-0.002371,-1.641359,1.645961,0.4308,0.5090,0.1385,0.000000,0.578311,-0.562971,0.564505,-0.590583,0.575243,-0.559903
3.8920,0.016757,0.000000,-1.609472,1.609472,0.0000,0.0000,0.0000,-0.002371,-1.641359,1.645961,0.4308,0.5090,0.1385,0.000000,0.578311,-0.562971,0.564505,-0.590583,0.575243,-0.559903
3.9088,0.016745,0.000000,-1.608887,1.608887,0.0000,0.0000,0.0000,-0.002362,-1.641359,1.639825,0.4364,0.5642,0.0902,0.000000,0.578311,-0.562971,0.564505,-0.592117,0.575243,-0.559903
3.9255,0.016751,0.000000,-1.608302,1.608302,0.0000,0.0000,0.0000,-0.002363,-1.641359,1.636758,0.4358,0.5584,0.0953,0.000000,0.578311,-0.562971,0.564505,-0.592117,0.575243,-0.559903
3.9423,0.016739,0.000000,-1.607718,1.607718,0.0000,0.0000,0.0000,-0.002374,-1.641359,1.633690,0.4252,0.5083,0.1485,0.000000,0.578311,-0.562971,0.564505,-0.590583,0.575243,-0.559903
3.9590,0.016754,0.000000,-1.607133,1.607133,0.0000,0.0000,0.0000,-0.002361,-1.641359,1.633690,0.4370,0.5643,0.0892,0.000000,0.578311,-0.562971,0.564505,-0.592117,0.575243,-0.559903
3.9758,0.016744,0.000000,-1.606549,1.606549,0.0000,0.0000,0.0000,-0.002375,-1.639825,1.633690,0.3966,0.5940,0.1485,0.000000,0.578311,-0.561437,0.564505,-0.592117,0.575243,-0.559903
3.9925,0.016743,0.000000,-1.605964,1.605964,0.0000,0.0000,0.0000,-0.002375,-1.639825,1.633690,0.3966,0.5940,0.1485,0.000000,0.578311,-0.561437,0.564505,-0.592117,0.575243,-0.559903
4.0093,0.016743,0.000000,-1.605380,1.605380,0.0000,0.0000,0.0000,-0.002361,-1.639825,1.633690,0.4400,0.5553,0.0892,0.000000,0.578311,-0.562971,0.564505,-0.592117,0.575243,-0.559903
4.0260,0.016744,0.000000,-1.604796,1.604796,0.0000,0.0000,0.0000,-0.002374,-1.639825,1.633690,0.4247,0.5086,0.1491,0.000000,0.578311,-0.562971,0.564505,-0.590583,0.575243,-0.559903
4.0428,0.016814,0.000000,-1.604209,1.604209,0.0000,0.0000,0.0000,-0.002386,-1.639825,1.633690,0.3871,0.5490,0.1960,0.000000,0.578311,-0.561437,0.564505,-0.590583,0.575243,-0.559903
4.0596,0.016752,0.000000,-1.603624,1.603624,0.0000,0.0000,0.0000,-0.002384,-1.639825,1.633690,0.3910,0.5448,0.1912,0.000000,0.578311,-0.561437,0.564505,-0.590583,0.575243,-0.559903
4.0764,0.016877,0.000000,-1.603035,1.603035,0.0000,0.0000,0.0000,-0.002361,-1.639825,1.633690,0.4512,0.5805,0.1918,0.000000,0.579845,-0.561437,0.564505,-0.592117,0.575243,-0.559903
4.0932,0.016744,0.000000,-1.602450,1.602450,0.0000,0.0000,0.0000,-0.002361,-1.639825,1.633690,0.4512,0.5805,0.1918,0.000000,0.579845,-0.561437,0.564505,-0.592117,0.575243,-0.559903
4.1099,0.016741,0.000000,-1.601866,1.601866,0.0000,0.0000,0.0000,-0.002351,-1.639825,1.633690,0.4841,0.5412,0.1385,0.000000,0.579845,-0.562971,0.564505,-0.592117,0.575243,-0.559903
4.1267,0.016743,0.000000,-1.601281,1.601281,0.0000,0.0000,0.0000,-0.002364,-1.639825,1.633690,0.4309,0.5608,0.0902,0.000000,0.578311,-0.562971,0.564505,-0.592117,0.575243,-0.559903
4.1434,0.016741,0.000000,-1.600697,1.600697,0.0000,0.0000,0.0000,-0.002362,-1.639825,1.633690,0.4364,0.5588,0.0953,0.000000,0.578311,-0.562971,0.564505,-0.592117,0.575243,-0.559903
4.1602,0.016746,0.000000,-1.600112,1.600112,0.0000,0.0000,0.0000,-0.002374,-1.639825,1.633690,0.4251,0.5082,0.1485,0.000000,0.578311,-0.562971,0.564505,-0.590583,0.575243,-0.559903
4.1771,0.016934,0.000000,-1.599521,1.599521,0.0000,0.0000,0.0000,-0.002386,-1.639825,1.633690,0.3871,0.5490,0.1961,0.000000,0.578311,-0.561437,0.564505,-0.590583,0.575243,-0.559903
4.1938,0.016745,0.000000,-1.598937,1.598937,0.0000,0.0000,0.0000,-0.002386,-1.639825,1.633690,0.3871,0.5490,0.1961,0.000000,0.578311,-0.561437,0.564505,-0.590583,0.575243,-0.559903
4.2106,0.016745,0.000000,-1.598352,1.598352,0.0000,0.0000,0.0000,-0.002348,-1.639825,1.633690,0.4908,0.5445,0.1381,0.000000,0.579845,-0.562971,0.564505,-0.592117,0.575243,-0.559903
4.2273,0.016747,0.000000,-1.597768,1.597768,0.0000,0.0000,0.0000,-0.002364,-1.639825,1.633690,0.4302,0.5605,0.0903,0.000000,0.578311,-0.562971,0.564505,-0.592117,0.575243,-0.559903
4.2441,0.016749,0.000000,-1.597183,1.597183,0.0000,0.0000,0.0000,-0.002362,-1.639825,1.633690,0.4755,0.4925,0.2028,0.000000,0.579845,-0.562971,0.564505,-0.590583,0.575243,-0.559903
4.2608,0.016748,0.000000,-1.596599,1.596599,0.0000,0.0000,0.0000,-0.002374,-1.639825,1.633690,0.4210,0.5151,0.1373,0.000000,0.578311,-0.562971,0.564505,-0.590583,0.575243,-0.559903
4.2776,0.016750,0.000000,-1.596014,1.596014,0.0000,0.0000,0.0000,-0.002374,-1.639825,1.633690,0.4373,0.5327,0.2511,0.000000,0.579845,-0.561437,0.564505,-0.590583,0.575243,-0.559903
4.2943,0.016762,0.000000,-1.595429,1.595429,0.0000,0.0000,0.0000,-0.002374,-1.639825,1.633690,0.4373,0.5327,0.2511,0.000000,0.579845,-0.561437,0.564505,-0.590583,0.575243,-0.559903
4.3111,0.016748,0.000000,-1.594844,1.594844,0.0000,0.0000,0.0000,-0.002361,-1.639825,1.633690,0.4748,0.4954,0.1860,0.000000,0.579845,-0.562971,0.564505,-0.590583,0.575243,-0.559903
4.3278,0.016748,0.000000,-1.594260,1.594260,0.0000,0.0000,0.0000,-0.002363,-1.639825,1.635224,0.4318,0.5656,0.0853,0.000000,0.578311,-0.562971,0.564505,-0.592117,0.575243,-0.559903
4.3446,0.016740,0.000000,-1.593675,1.593675,0.0000,0.0000,0.0000,-0.002375,-1.639825,1.633690,0.3971,0.5938,0.1489,0.000000,0.578311,-0.561437,0.564505,-0.592117,0.575243,-0.559903
4.3613,0.016749,0.000000,-1.593091,1.593091,0.0000,0.0000,0.0000,-0.002361,-1.638291,1.633690,0.4399,0.5553,0.0891,0.000000,0.578311,-0.562971,0.564505,-0.592117,0.575243,-0.559903
4.3781,0.016747,0.000000,-1.592506,1.592506,0.0000,0.0000,0.0000,-0.002363,-1.633690,1.633690,0.4355,0.5593,0.0954,0.000000,0.578311,-0.562971,0.564505,-0.592117,0.575243,-0.559903
4.3948,0.016745,0.000000,-1.591921,1.591921,0.0000,0.0000,0.0000,-0.002363,-1.633690,1.633690,0.4355,0.5593,0.0954,0.000000,0.578311,-0.562971,0.564505,-0.592117,0.575243,-0.559903
4.4116,0.016745,0.000000,-1.591337,1.591337,0.0000,0.0000,0.0000,-0.002374,-1.627554,1.633690,0.4252,0.5082,0.1485,0.000000,0.578311,-0.562971,0.564505,-0.590583,0.575243,-0.559903
4.4283,0.016746,0.000000,-1.590752,1.590752,0.0000,0.0000,0.0000,-0.002374,-1.621418,1.633690,0.3978,0.5998,0.1424,0.000000,0.578311,-0.561437,0.564505,-0.592117,0.575243,-0.559903
4.4450,0.016745,0.000000,-1.590168,1.590168,0.0000,0.0000,0.0000,-0.002386,-1.616816,1.633690,0.3899,0.5395,0.1967,0.000000,0.578311,-0.561437,0.564505,-0.590583,0.575243,-0.559903
4.4619,0.016836,0.000000,-1.589580,1.589580,0.0000,0.0000,0.0000,-0.002360,-1.615282,1.633690,0.4798,0.4946,0.1917,0.000000,0.579845,-0.562971,0.564505,-0.590583,0.575243,-0.559903
4.4786,0.016758,0.000000,-1.588995,1.588995,0.0000,0.0000,0.0000,-0.002360,-1.615282,1.633690,0.4798,0.4946,0.1917,0.000000,0.579845,-0.562971,0.564505,-0.590583,0.575243,-0.559903
4.4954,0.016742,0.000000,-1.588411,1.588411,0.0000,0.0000,0.0000,-0.002351,-1.615282,1.633690,0.4811,0.5501,0.1385,0.000000,0.579845,-0.562971,0.564505,-0.592117,0.575243,-0.559903
4.5121,0.016767,0.000000,-1.587826,1.587826,0.0000,0.0000,0.0000,-0.002376,-1.615282,1.633690,0.4310,0.5291,0.2510,0.000000,0.579845,-0.561437,0.564505,-0.590583,0.575243,-0.559903
4.5289,0.016748,0.000000,-1.587241,1.587241,0.0000,0.0000,0.0000,-0.002361,-1.615282,1.633690,0.4364,0.5621,0.0785,0.000000,0.578311,-0.562971,0.564505,-0.592117,0.575243,-0.559903
4.5456,0.016744,0.000000,-1.586656,1.586656,0.0000,0.0000,0.0000,-0.002363,-1.615282,1.632156,0.4358,0.5586,0.0965,0.000000,0.578311,-0.562971,0.564505,-0.592117,0.575243,-0.559903
4.5624,0.016747,0.000000,-1.586072,1.586072,0.0000,0.0000,0.0000,-0.002387,-1.615282,1.629088,0.3860,0.5438,0.2015,0.000000,0.578311,-0.561437,0.564505,-0.590583,0.575243,-0.559903
4.5791,0.016745,0.000000,-1.585487,1.585487,0.0000,0.0000,0.0000,-0.002387,-1.615282,1.629088,0.3860,0.5438,0.2015,0.000000,0.578311,-0.561437,0.564505,-0.590583,0.575243,-0.559903
4.5959,0.016746,0.000000,-1.584903,1.584903,0.0000,0.0000,0.0000,-0.002360,-1.615282,1.626020,0.4411,0.5606,0.0837,0.000000,0.578311,-0.562971,0.564505,-0.592117,0.575243,-0.559903
4.6126,0.016752,0.000000,-1.584318,1.584318,0.0000,0.0000,0.0000,-0.002363,-1.615282,1.618350,0.4353,0.5588,0.0960,0.000000,0.578311,-0.562971,0.564505,-0.592117,0.575243,-0.559903
4.6294,0.016743,0.000000,-1.583734,1.583734,0.0000,0.0000,0.0000,-0.002364,-1.615282,1.612214,0.4466,0.5790,0.2017,0.000000,0.579845,-0.561437,0.564505,-0.592117,0.575243,-0.559903
4.6461,0.016743,0.000000,-1.583149,1.583149,0.0000,0.0000,0.0000,-0.002374,-1.615282,1.607612,0.4241,0.5061,0.1374,0.000000,0.578311,-0.562971,0.564505,-0.590583,0.575243,-0.559903
4.6629,0.016745,0.000000,-1.582565,1.582565,0.0000,0.0000,0.0000,-0.002374,-1.615282,1.607612,0.3979,0.6000,0.1435,0.000000,0.578311,-0.561437,0.564505,-0.592117,0.575243,-0.559903
4.6796,0.016756,0.000000,-1.581980,1.581980,0.0000,0.0000,0.0000,-0.002374,-1.615282,1.607612,0.3979,0.6000,0.1435,0.000000,0.578311,-0.561437,0.564505,-0.592117,0.575243,-0.559903
4.6964,0.016742,0.000000,-1.581395,1.581395,0.0000,0.0000,0.0000,-0.002386,-1.615282,1.607612,0.3899,0.5394,0.1966,0.000000,0.578311,-0.561437,0.564505,-0.590583,0.575243,-0.559903
4.7131,0.016745,0.000000,-1.580811,1.580811,0.0000,0.0000,0.0000,-0.002348,-1.615282,1.607612,0.4905,0.5455,0.1380,0.000000,0.579845,-0.562971,0.564505,-0.592117,0.575243,-0.559903
4.7298,0.016743,0.000000,-1.580226,1.580226,0.0000,0.0000,0.0000,-0.002364,-1.615282,1.607612,0.4692,0.4940,0.1978,0.000000,0.579845,-0.562971,0.564505,-0.590583,0.575243,-0.559903
4.7466,0.016753,0.000000,-1.579642,1.579642,0.0000,0.0000,0.0000,-0.002351,-1.615282,1.607612,0.4822,0.5502,0.1379,0.000000,0.579845,-0.562971,0.564505,-0.592117,0.575243,-0.559903
4.7633,0.016743,0.000000,-1.579057,1.579057,0.0000,0.0000,0.0000,-0.002364,-1.613748,1.607612,0.4311,0.5599,0.0903,0.000000,0.578311,-0.562971,0.564505,-0.592117,0.575243,-0.559903
4.7801,0.016746,0.000000,-1.578473,1.578473,0.0000,0.0000,0.0000,-0.002364,-1.613748,1.607612,0.4311,0.5599,0.0903,0.000000,0.578311,-0.562971,0.564505,-0.592117,0.575243,-0.559903
4.7968,0.016742,0.000000,-1.577888,1.577888,0.0000,0.0000,0.0000,-0.002351,-1.613748,1.607612,0.4862,0.5433,0.1491,0.000000,0.579845,-0.562971,0.564505,-0.592117,0.575243,-0.559903
4.8136,0.016756,0.000000,-1.577303,1.577303,0.0000,0.0000,0.0000,-0.002388,-1.613748,1.607612,0.3807,0.5454,0.1960,0.000000,0.578311,-0.561437,0.564505,-0.590583,0.575243,-0.559903
4.8303,0.016739,0.000000,-1.576719,1.576719,0.0000,0.0000,0.0000,-0.002371,-1.613748,1.607612,0.4309,0.5096,0.1380,0.000000,0.578311,-0.562971,0.564505,-0.590583,0.575243,-0.559903
4.8473,0.016987,0.000000,-1.576126,1.576126,0.0000,0.0000,0.0000,-0.002362,-1.613748,1.607612,0.4364,0.5641,0.0903,0.000000,0.578311,-0.562971,0.564505,-0.592117,0.575243,-0.559903
4.8641,0.016747,0.000000,-1.575541,1.575541,0.0000,0.0000,0.0000,-0.002363,-1.613748,1.607612,0.4358,0.5584,0.0953,0.000000,0.578311,-0.562971,0.564505,-0.592117,0.575243,-0.559903
4.8808,0.016753,0.000000,-1.574957,1.574957,0.0000,0.0000,0.0000,-0.002363,-1.613748,1.607612,0.4358,0.5584,0.0953,0.000000,0.578311,-0.562971,0.564505,-0.592117,0.575243,-0.559903
4.8976,0.016745,0.000000,-1.574372,1.574372,0.0000,0.0000,0.0000,-0.002375,-1.613748,1.607612,0.3967,0.5946,0.1479,0.000000,0.578311,-0.561437,0.564505,-0.592117,0.575243,-0.559903
4.9143,0.016755,0.000000,-1.573787,1.573787,0.0000,0.0000,0.0000,-0.002361,-1.613748,1.607612,0.4400,0.5553,0.0893,0.000000,0.578311,-0.562971,0.564505,-0.592117,0.575243,-0.559903
4.9311,0.016742,0.000000,-1.573203,1.573203,0.0000,0.0000,0.0000,-0.002387,-1.613748,1.607612,0.3855,0.5441,0.2023,0.000000,0.578311,-0.561437,0.564505,-0.590583,0.575243,-0.559903
4.9478,0.016769,0.000000,-1.572618,1.572618,0.0000,0.0000,0.0000,-0.002373,-1.613748,1.607612,0.4019,0.5961,0.1368,0.000000,0.578311,-0.561437,0.564505,-0.592117,0.575243,-0.559903
4.9646,0.016745,0.000000,-1.572033,1.572033,0.0000,0.0000,0.0000,-0.002350,-1.613748,1.607612,0.4893,0.5395,0.1442,0.000000,0.579845,-0.562971,0.564505,-0.592117,0.575243,-0.559903
4.9813,0.016759,0.000000,-1.571448,1.571448,0.0000,0.0000,0.0000,-0.002350,-1.613748,1.607612,0.4893,0.5395,0.1442,0.000000,0.579845,-0.562971,0.564505,-0.592117,0.575243,-0.559903
4.9981,0.016744,0.000000,-1.570864,1.570864,0.0000,0.0000,0.0000,-0.002352,-1.613748,1.607612,0.4801,0.5454,0.1435,0.000000,0.579845,-0.562971,0.564505,-0.592117,0.575243,-0.559903
5.0148,0.016749,0.000000,-1.570279,1.570279,0.0000,0.0000,0.0000,-0.002375,-1.613748,1.607612,0.4205,0.5096,0.1435,0.000000,0.578311,-0.562971,0.564505,-0.590583,0.575243,-0.559903
5.0315,0.016713,0.000000,-1.569696,1.569696,0.0000,0.0000,0.0000,-0.002374,-1.613748,1.607612,0.4373,0.5333,0.2505,0.000000,0.579845,-0.561437,0.564505,-0.590583,0.575243,-0.559903
5.0483,0.016749,0.000000,-1.569111,1.569111,0.0000,0.0000,0.0000,-0.002361,-1.612214,1.607612,0.4358,0.5616,0.0786,0.000000,0.578311,-0.562971,0.564505,-0.592117,0.575243,-0.559903
5.0650,0.016758,0.000000,-1.568526,1.568526,0.0000,0.0000,0.0000,-0.002387,-1.613748,1.607612,0.3860,0.5435,0.2034,0.000000,0.578311,-0.561437,0.564505,-0.590583,0.575243,-0.559903
5.0818,0.016740,0.000000,-1.567942,1.567942,0.0000,0.0000,0.0000,-0.002387,-1.613748,1.607612,0.3860,0.5435,0.2034,0.000000,0.578311,-0.561437,0.564505,-0.590583,0.575243,-0.559903
5.0985,0.016756,0.000000,-1.567357,1.567357,0.0000,0.0000,0.0000,-0.002360,-1.612214,1.607612,0.4411,0.5606,0.0835,0.000000,0.578311,-0.562971,0.564505,-0.592117,0.575243,-0.559903
5.1153,0.016778,0.000000,-1.566771,1.566771,0.0000,0.0000,0.0000,-0.002376,-1.612214,1.607612,0.3962,0.5943,0.1491,0.000000,0.578311,-0.561437,0.564505,-0.592117,0.575243,-0.559903
5.1322,0.016852,0.000000,-1.566183,1.566183,0.0000,0.0000,0.0000,-0.002374,-1.612214,1.607612,0.4008,0.5908,0.1423,0.000000,0.578311,-0.561437,0.564505,-0.592117,0.575243,-0.559903
5.1489,0.016746,0.000000,-1.565598,1.565598,0.0000,0.0000,0.0000,-0.002386,-1.612214,1.607612,0.3896,0.5404,0.1967,0.000000,0.578311,-0.561437,0.564505,-0.590583,0.575243,-0.559903
5.1662,0.017273,0.000000,-1.564995,1.564995,0.0000,0.0000,0.0000,-0.002373,-1.612214,1.607612,0.4015,0.5965,0.1373,0.000000,0.578311,-0.561437,0.564505,-0.592117,0.575243,-0.559903
5.1865,0.020318,0.000000,-1.564286,1.564286,0.0000,0.0000,0.0000,-0.002373,-1.612214,1.607612,0.4015,0.5965,0.1373,0.000000,0.578311,-0.561437,0.564505,-0.590583,0.575243,-0.559903
5.2033,0.016747,0.000000,-1.563702,1.563702,0.0000,0.0000,0.0000,-0.002386,-1.612214,1.607612,0.3895,0.5398,0.1973,0.000000,0.578311,-0.561437,0.564505,-0.590583,0.575243,-0.559903
5.2200,0.016756,0.000000,-1.563117,1.563117,0.0000,0.0000,0.0000,-0.002373,-1.612214,1.607612,0.4015,0.5965,0.1373,0.000000,0.578311,-0.561437,0.564505,-0.592117,0.575243,-0.559903
5.2367,0.016743,0.000000,-1.562532,1.562532,0.0000,0.0000,0.0000,-0.002361,-1.612214,1.607612,0.4395,0.5551,0.0904,0.000000,0.578311,-0.562971,0.564505,-0.592117,0.575243,-0.559903
5.2535,0.016750,0.000000,-1.561948,1.561948,0.0000,0.0000,0.0000,-0.002351,-1.610680,1.607612,0.4853,0.5438,0.1491,0.000000,0.579845,-0.562971,0.564505,-0.592117,0.575243,-0.559903
5.2705,0.016957,0.000000,-1.561356,1.561356,0.0000,0.0000,0.0000,-0.002376,-1.603010,1.607612,0.4306,0.5298,0.2499,0.000000,0.579845,-0.561437,0.564505,-0.590583,0.575243,-0.559903
5.2874,0.016983,0.000000,-1.560763,1.560763,0.0000,0.0000,0.0000,-0.002361,-1.596874,1.607612,0.4365,0.5620,0.0786,0.000000,0.578311,-0.562971,0.564505,-0.592117,0.575243,-0.559903
5.3042,0.016747,0.000000,-1.560178,1.560178,0.0000,0.0000,0.0000,-0.002361,-1.596874,1.607612,0.4365,0.5620,0.0786,0.000000,0.578311,-0.562971,0.564505,-0.592117,0.575243,-0.559903
5.3209,0.016757,0.000000,-1.559593,1.559593,0.0000,0.0000,0.0000,-0.002363,-1.587670,1.606078,0.4358,0.5587,0.0965,0.000000,0.578311,-0.562971,0.564505,-0.592117,0.575243,-0.559903
5.3377,0.016742,0.000000,-1.559009,1.559009,0.0000,0.0000,0.0000,-0.002362,-1.586136,1.607612,0.4359,0.5591,0.0940,0.000000,0.578311,-0.562971,0.564505,-0.592117,0.575243,-0.559903
5.3545,0.016764,0.000000,-1.558424,1.558424,0.0000,0.0000,0.0000,-0.002362,-1.586136,1.607612,0.4359,0.5591,0.0940,0.000000,0.578311,-0.562971,0.564505,-0.592117,0.575243,-0.559903
5.3712,0.016741,0.000000,-1.557839,1.557839,0.0000,0.0000,0.0000,-0.002364,-1.586136,1.607612,0.4465,0.5789,0.2019,0.000000,0.579845,-0.561437,0.564505,-0.592117,0.575243,-0.559903
5.3879,0.016755,0.000000,-1.557254,1.557254,0.0000,0.0000,0.0000,-0.002364,-1.586136,1.607612,0.4465,0.5789,0.2019,0.000000,0.579845,-0.562971,0.564505,-0.592117,0.575243,-0.559903
5.4047,0.016742,0.000000,-1.556670,1.556670,0.0000,0.0000,0.0000,-0.002351,-1.586136,1.607612,0.4846,0.5413,0.1375,0.000000,0.579845,-0.562971,0.564505,-0.592117,0.575243,-0.559903
5.4215,0.016858,0.000000,-1.556082,1.556082,0.0000,0.0000,0.0000,-0.002388,-1.586136,1.606078,0.3809,0.5456,0.1973,0.000000,0.578311,-0.561437,0.564505,-0.590583,0.575243,-0.559903
5.4383,0.016748,0.000000,-1.555497,1.555497,0.0000,0.0000,0.0000,-0.002384,-1.586136,1.606078,0.3917,0.5451,0.1910,0.000000,0.578311,-0.561437,0.564505,-0.590583,0.575243,-0.559903
5.4550,0.016752,0.000000,-1.554912,1.554912,0.0000,0.0000,0.0000,-0.002360,-1.586136,1.606078,0.4796,0.4941,0.1923,0.000000,0.579845,-0.562971,0.564505,-0.590583,0.575243,-0.559903
5.4718,0.016751,0.000000,-1.554328,1.554328,0.0000,0.0000,0.0000,-0.002374,-1.586136,1.606078,0.4206,0.5149,0.1384,0.000000,0.578311,-0.562971,0.564505,-0.590583,0.575243,-0.559903
5.4886,0.016778,0.000000,-1.553742,1.553742,0.0000,0.0000,0.0000,-0.002361,-1.586136,1.606078,0.4375,0.5636,0.0903,0.000000,0.578311,-0.562971,0.564505,-0.592117,0.575243,-0.559903
