t,loop_dt,cmd_z,cmd_ant_l,cmd_ant_r,cmd_roll,cmd_pitch,cmd_yaw,pres_z,pres_ant_l,pres_ant_r,pres_roll,pres_pitch,pres_yaw,pres_j0,pres_j1,pres_j2,pres_j3,pres_j4,pres_j5,pres_j6
0.0000,0.000002,0.000000,-0.349065,0.349065,0.0000,0.0000,0.0000,-0.002486,-0.164136,0.165670,0.4350,0.6821,0.2382,0.000000,0.572175,-0.561437,0.564505,-0.590583,0.575243,-0.552233
0.0167,0.016744,0.000000,-0.340298,0.340298,0.0000,0.0000,0.0000,-0.002486,-0.170272,0.165670,0.4350,0.6821,0.2382,0.000000,0.572175,-0.561437,0.564505,-0.590583,0.575243,-0.552233
0.0335,0.016765,0.000000,-0.331520,0.331520,0.0000,0.0000,0.0000,-0.002486,-0.173340,0.167204,0.4350,0.6821,0.2382,0.000000,0.572175,-0.561437,0.564505,-0.590583,0.575243,-0.552233
0.0503,0.016744,0.000000,-0.322752,0.322752,0.0000,0.0000,0.0000,-0.002486,-0.173340,0.167204,0.4350,0.6821,0.2382,0.000000,0.572175,-0.561437,0.564505,-0.590583,0.575243,-0.552233
0.0670,0.016741,0.000000,-0.313987,0.313987,0.0000,0.0000,0.0000,-0.002473,-0.202485,0.202485,0.3851,0.6638,0.1854,0.000000,0.572175,-0.561437,0.564505,-0.590583,0.575243,-0.553767
0.0837,0.016742,0.000000,-0.305221,0.305221,0.0000,0.0000,0.0000,-0.002462,-0.273049,0.280718,0.4295,0.6301,0.1378,0.000000,0.572175,-0.562971,0.564505,-0.590583,0.575243,-0.553767
0.1005,0.016748,0.000000,-0.296451,0.296451,0.0000,0.0000,0.0000,-0.002463,-0.345146,0.348214,0.4248,0.6336,0.1427,0.000000,0.572175,-0.562971,0.564505,-0.590583,0.575243,-0.553767
0.1172,0.016752,0.000000,-0.287680,0.287680,0.0000,0.0000,0.0000,-0.002464,-0.362019,0.363553,0.3967,0.7196,0.1416,0.000000,0.572175,-0.561437,0.564505,-0.592117,0.575243,-0.553767
0.1340,0.016777,0.000000,-0.278896,0.278896,0.0000,0.0000,0.0000,-0.002464,-0.348214,0.351282,0.3967,0.7196,0.1416,0.000000,0.572175,-0.562971,0.564505,-0.592117,0.575243,-0.555301
0.1508,0.016750,0.000000,-0.270125,0.270125,0.0000,0.0000,0.0000,-0.002438,-0.348214,0.351282,0.3891,0.6574,0.0352,0.000000,0.572175,-0.562971,0.564505,-0.592117,0.575243,-0.555301
0.1675,0.016748,0.000000,-0.261356,0.261356,0.0000,0.0000,0.0000,-0.002439,-0.322136,0.326738,0.3297,0.5956,0.0466,0.000000,0.572175,-0.562971,0.564505,-0.590583,0.575243,-0.556835
0.1843,0.016745,0.000000,-0.252589,0.252589,0.0000,0.0000,0.0000,-0.002440,-0.297592,0.302194,0.3074,0.6884,0.0448,0.000000,0.572175,-0.561437,0.564505,-0.592117,0.575243,-0.556835
0.2010,0.016751,0.000000,-0.243818,0.243818,0.0000,0.0000,0.0000,-0.002439,-0.276117,0.282252,0.3382,0.5924,0.0456,0.000000,0.572175,-0.562971,0.564505,-0.590583,0.575243,-0.556835
0.2178,0.016744,0.000000,-0.235051,0.235051,0.0000,0.0000,0.0000,-0.002427,-0.262311,0.268447,0.2962,0.6047,0.0990,0.000000,0.573709,-0.561437,0.564505,-0.590583,0.575243,-0.558369
0.2345,0.016751,0.000000,-0.226280,0.226280,0.0000,0.0000,0.0000,-0.002427,-0.262311,0.268447,0.2962,0.6047,0.0990,0.000000,0.573709,-0.561437,0.564505,-0.590583,0.575243,-0.558369
0.2513,0.016748,0.000000,-0.217510,0.217510,0.0000,0.0000,0.0000,-0.002379,-0.253107,0.256175,0.3507,0.5855,-0.0132,0.000000,0.575243,-0.562971,0.564505,-0.592117,0.575243,-0.559903
0.2680,0.016750,0.000000,-0.208740,0.208740,0.0000,0.0000,0.0000,-0.002372,-0.245437,0.248505,0.3949,0.5718,0.0523,0.000000,0.576777,-0.562971,0.564505,-0.592117,0.575243,-0.559903
0.2847,0.016741,0.000000,-0.199975,0.199975,0.0000,0.0000,0.0000,-0.002385,-0.239301,0.242369,0.3796,0.5225,0.0992,0.000000,0.576777,-0.562971,0.564505,-0.590583,0.575243,-0.559903
0.3015,0.016745,0.000000,-0.191207,0.191207,0.0000,0.0000,0.0000,-0.002372,-0.231631,0.236233,0.3919,0.5784,0.0405,0.000000,0.576777,-0.562971,0.564505,-0.592117,0.575243,-0.559903
0.3184,0.016911,0.000000,-0.182353,0.182353,0.0000,0.0000,0.0000,-0.002373,-0.222427,0.223961,0.4297,0.5062,0.1542,0.000000,0.578311,-0.562971,0.564505,-0.590583,0.575243,-0.559903
0.3356,0.017243,0.000000,-0.173324,0.173324,0.0000,0.0000,0.0000,-0.002373,-0.222427,0.223961,0.4297,0.5062,0.1542,0.000000,0.578311,-0.562971,0.564505,-0.590583,0.575243,-0.559903
0.3524,0.016751,0.000000,-0.164553,0.164553,0.0000,0.0000,0.0000,-0.002360,-0.208621,0.214757,0.3762,0.4961,0.0889,0.000000,0.578311,-0.562971,0.564505,-0.590583,0.575243,-0.561437
0.3692,0.016761,0.000000,-0.155777,0.155777,0.0000,0.0000,0.0000,-0.002350,-0.197884,0.202485,0.3926,0.5479,0.0419,0.000000,0.578311,-0.562971,0.564505,-0.592117,0.575243,-0.561437
0.3859,0.016769,0.000000,-0.146997,0.146997,0.0000,0.0000,0.0000,-0.002364,-0.185612,0.191748,0.4404,0.5601,0.1003,0.000000,0.578311,-0.562971,0.564505,-0.592117,0.575243,-0.559903
0.4029,0.016935,0.000000,-0.138130,0.138130,0.0000,0.0000,0.0000,-0.002362,-0.176408,0.181010,0.3467,0.5767,0.0939,0.000000,0.578311,-0.561437,0.564505,-0.592117,0.575243,-0.561437
0.4196,0.016763,0.000000,-0.129353,0.129353,0.0000,0.0000,0.0000,-0.002362,-0.176408,0.181010,0.3467,0.5767,0.0939,0.000000,0.578311,-0.561437,0.564505,-0.592117,0.575243,-0.561437
0.4364,0.016763,0.000000,-0.120576,0.120576,0.0000,0.0000,0.0000,-0.002361,-0.151864,0.154932,0.3849,0.4887,0.0951,0.000000,0.578311,-0.562971,0.564505,-0.590583,0.575243,-0.561437
0.4531,0.016760,0.000000,-0.111800,0.111800,0.0000,0.0000,0.0000,-0.002361,-0.144194,0.144194,0.3809,0.4979,0.0950,0.000000,0.578311,-0.562971,0.564505,-0.590583,0.575243,-0.561437
0.4703,0.017116,0.000000,-0.102838,0.102838,0.0000,0.0000,0.0000,-0.002374,-0.139592,0.136524,0.4309,0.5145,0.1485,0.000000,0.578311,-0.562971,0.564505,-0.590583,0.575243,-0.559903
0.4870,0.016750,0.000000,-0.094068,0.094068,0.0000,0.0000,0.0000,-0.002374,-0.139592,0.136524,0.4309,0.5145,0.1485,0.000000,0.578311,-0.562971,0.564505,-0.590583,0.575243,-0.559903
0.5037,0.016735,0.000000,-0.085305,0.085305,0.0000,0.0000,0.0000,-0.002361,-0.130388,0.127320,0.4755,0.4972,0.1967,0.000000,0.579845,-0.562971,0.564505,-0.590583,0.575243,-0.559903
0.5205,0.016749,0.000000,-0.076536,0.076536,0.0000,0.0000,0.0000,-0.002375,-0.116583,0.116583,0.3926,0.6009,0.1373,0.000000,0.578311,-0.561437,0.564505,-0.592117,0.575243,-0.559903
0.5374,0.016890,0.000000,-0.067692,0.067692,0.0000,0.0000,0.0000,-0.002373,-0.104311,0.105845,0.4297,0.5038,0.1441,0.000000,0.578311,-0.562971,0.564505,-0.590583,0.575243,-0.559903
0.5541,0.016753,0.000000,-0.058920,0.058920,0.0000,0.0000,0.0000,-0.002348,-0.090505,0.093573,0.3870,0.5471,0.0362,0.000000,0.578311,-0.562971,0.564505,-0.592117,0.575243,-0.561437
0.5709,0.016784,0.000000,-0.050132,0.050132,0.0000,0.0000,0.0000,-0.002348,-0.090505,0.093573,0.3870,0.5471,0.0362,0.000000,0.578311,-0.562971,0.564505,-0.592117,0.575243,-0.561437
0.5877,0.016750,0.000000,-0.041362,0.041362,0.0000,0.0000,0.0000,-0.002339,-0.075165,0.078233,0.4413,0.5270,0.1012,0.000000,0.579845,-0.562971,0.564505,-0.592117,0.575243,-0.561437
0.6044,0.016740,0.000000,-0.032596,0.032596,0.0000,0.0000,0.0000,-0.002363,-0.065961,0.067495,0.3751,0.4939,0.0944,0.000000,0.578311,-0.562971,0.564505,-0.590583,0.575243,-0.561437
0.6212,0.016749,0.000000,-0.023826,0.023826,0.0000,0.0000,0.0000,-0.002374,-0.056757,0.056757,0.3428,0.5329,0.1483,0.000000,0.578311,-0.561437,0.564505,-0.590583,0.575243,-0.561437
0.6379,0.016751,0.000000,-0.015055,0.015055,0.0000,0.0000,0.0000,-0.002373,-0.050621,0.049087,0.4349,0.5109,0.1429,0.000000,0.578311,-0.562971,0.564505,-0.590583,0.575243,-0.559903
0.6547,0.016754,0.000000,-0.006283,0.006283,0.0000,0.0000,0.0000,-0.002361,-0.039884,0.038350,0.4360,0.5640,0.0898,0.000000,0.578311,-0.562971,0.564505,-0.592117,0.575243,-0.559903
0.6714,0.016749,0.000000,-0.002487,0.002487,0.0000,0.0000,0.0000,-0.002361,-0.039884,0.038350,0.4360,0.5640,0.0898,0.000000,0.578311,-0.562971,0.564505,-0.592117,0.575243,-0.559903
0.6882,0.016747,0.000000,-0.011255,0.011255,0.0000,0.0000,0.0000,-0.002363,-0.026078,0.027612,0.4359,0.5584,0.0953,0.000000,0.578311,-0.562971,0.564505,-0.592117,0.575243,-0.559903
0.7049,0.016742,0.000000,-0.020021,0.020021,0.0000,0.0000,0.0000,-0.002338,-0.012272,0.016874,0.4362,0.5258,0.0951,0.000000,0.579845,-0.562971,0.564505,-0.592117,0.575243,-0.561437
0.7217,0.016751,0.000000,-0.028792,0.028792,0.0000,0.0000,0.0000,-0.002376,-0.003068,0.006136,0.4251,0.5117,0.1485,0.000000,0.578311,-0.562971,0.564505,-0.590583,0.575243,-0.559903
0.7384,0.016748,0.000000,-0.037562,0.037562,0.0000,0.0000,0.0000,-0.002348,-0.003068,0.004602,0.3875,0.5463,0.0357,0.000000,0.578311,-0.562971,0.564505,-0.592117,0.575243,-0.561437
0.7552,0.016753,0.000000,-0.046334,0.046334,0.0000,0.0000,0.0000,-0.002351,-0.012272,0.015340,0.4304,0.4763,0.1550,0.000000,0.579845,-0.562971,0.564505,-0.590583,0.575243,-0.561437
0.7719,0.016743,0.000000,-0.055100,0.055100,0.0000,0.0000,0.0000,-0.002351,-0.012272,0.015340,0.4304,0.4763,0.1550,0.000000,0.579845,-0.562971,0.564505,-0.590583,0.575243,-0.561437
0.7887,0.016750,0.000000,-0.063870,0.063870,0.0000,0.0000,0.0000,-0.002375,-0.026078,0.027612,0.4257,0.5168,0.1422,0.000000,0.578311,-0.562971,0.564505,-0.590583,0.575243,-0.559903
0.8054,0.016742,0.000000,-0.072636,0.072636,0.0000,0.0000,0.0000,-0.002361,-0.041417,0.038350,0.4369,0.5634,0.0898,0.000000,0.578311,-0.562971,0.564505,-0.592117,0.575243,-0.559903
0.8221,0.016751,0.000000,-0.081407,0.081407,0.0000,0.0000,0.0000,-0.002374,-0.050621,0.046019,0.4250,0.5077,0.1490,0.000000,0.578311,-0.562971,0.564505,-0.590583,0.575243,-0.559903
0.8389,0.016749,0.000000,-0.090177,0.090177,0.0000,0.0000,0.0000,-0.002373,-0.053689,0.052155,0.4263,0.5135,0.1429,0.000000,0.578311,-0.562971,0.564505,-0.590583,0.575243,-0.559903
0.8558,0.016921,0.000000,-0.099037,0.099037,0.0000,0.0000,0.0000,-0.002373,-0.061359,0.061359,0.3374,0.5308,0.1432,0.000000,0.578311,-0.561437,0.564505,-0.590583,0.575243,-0.561437
0.8726,0.016744,0.000000,-0.107804,0.107804,0.0000,0.0000,0.0000,-0.002373,-0.061359,0.061359,0.3374,0.5308,0.1432,0.000000,0.578311,-0.561437,0.564505,-0.590583,0.575243,-0.561437
0.8893,0.016722,0.000000,-0.116560,0.116560,0.0000,0.0000,0.0000,-0.002361,-0.078233,0.079767,0.4462,0.5619,0.0897,0.000000,0.578311,-0.562971,0.564505,-0.592117,0.575243,-0.559903
0.9060,0.016743,0.000000,-0.125326,0.125326,0.0000,0.0000,0.0000,-0.002361,-0.093573,0.095107,0.3745,0.4903,0.0956,0.000000,0.578311,-0.562971,0.564505,-0.590583,0.575243,-0.561437
0.9228,0.016765,0.000000,-0.134105,0.134105,0.0000,0.0000,0.0000,-0.002350,-0.102777,0.098175,0.3927,0.5485,0.0412,0.000000,0.578311,-0.562971,0.564505,-0.592117,0.575243,-0.561437
0.9399,0.017091,0.000000,-0.143053,0.143053,0.0000,0.0000,0.0000,-0.002375,-0.108913,0.101243,0.4296,0.5093,0.1541,0.000000,0.578311,-0.562971,0.564505,-0.590583,0.575243,-0.559903
0.9568,0.016917,0.000000,-0.151911,0.151911,0.0000,0.0000,0.0000,-0.002373,-0.118117,0.113515,0.4258,0.5134,0.1423,0.000000,0.578311,-0.562971,0.564505,-0.590583,0.575243,-0.559903
0.9735,0.016742,0.000000,-0.160677,0.160677,0.0000,0.0000,0.0000,-0.002373,-0.118117,0.113515,0.4258,0.5134,0.1423,0.000000,0.578311,-0.562971,0.564505,-0.590583,0.575243,-0.559903
0.9903,0.016747,0.000000,-0.169446,0.169446,0.0000,0.0000,0.0000,-0.002360,-0.134990,0.133456,0.3767,0.4953,0.0901,0.000000,0.578311,-0.562971,0.564505,-0.590583,0.575243,-0.561437
1.0070,0.016745,0.000000,-0.178213,0.178213,0.0000,0.0000,0.0000,-0.002376,-0.148796,0.148796,0.4029,0.6011,0.1484,0.000000,0.578311,-0.561437,0.564505,-0.592117,0.575243,-0.559903
1.0240,0.016952,0.000000,-0.187089,0.187089,0.0000,0.0000,0.0000,-0.002361,-0.156466,0.153398,0.4393,0.5546,0.0892,0.000000,0.578311,-0.562971,0.564505,-0.592117,0.575243,-0.559903
1.0407,0.016749,0.000000,-0.195859,0.195859,0.0000,0.0000,0.0000,-0.002350,-0.161068,0.154932,0.3860,0.5418,0.0419,0.000000,0.578311,-0.562971,0.564505,-0.592117,0.575243,-0.561437
1.0575,0.016808,0.000000,-0.204660,0.204660,0.0000,0.0000,0.0000,-0.002364,-0.168738,0.164136,0.4411,0.5607,0.1003,0.000000,0.578311,-0.562971,0.564505,-0.592117,0.575243,-0.559903
1.0743,0.016744,0.000000,-0.213427,0.213427,0.0000,0.0000,0.0000,-0.002364,-0.168738,0.164136,0.4411,0.5607,0.1003,0.000000,0.578311,-0.562971,0.564505,-0.592117,0.575243,-0.559903
1.0910,0.016755,0.000000,-0.222200,0.222200,0.0000,0.0000,0.0000,-0.002374,-0.190214,0.187146,0.4246,0.5080,0.1479,0.000000,0.578311,-0.562971,0.564505,-0.590583,0.575243,-0.559903
1.1078,0.016745,0.000000,-0.230968,0.230968,0.0000,0.0000,0.0000,-0.002348,-0.200951,0.199418,0.3875,0.5467,0.0358,0.000000,0.578311,-0.562971,0.564505,-0.592117,0.575243,-0.561437
1.1247,0.016966,0.000000,-0.239851,0.239851,0.0000,0.0000,0.0000,-0.002351,-0.205553,0.204019,0.3914,0.5426,0.0475,0.000000,0.578311,-0.562971,0.564505,-0.592117,0.575243,-0.561437
1.1415,0.016748,0.000000,-0.248620,0.248620,0.0000,0.0000,0.0000,-0.002362,-0.208621,0.208621,0.3802,0.4923,0.1000,0.000000,0.578311,-0.562971,0.564505,-0.590583,0.575243,-0.561437
1.1583,0.016835,0.000000,-0.257435,0.257435,0.0000,0.0000,0.0000,-0.002349,-0.222427,0.219359,0.4312,0.4819,0.1483,0.000000,0.579845,-0.562971,0.564505,-0.590583,0.575243,-0.561437
1.1751,0.016745,0.000000,-0.266203,0.266203,0.0000,0.0000,0.0000,-0.002349,-0.222427,0.219359,0.4312,0.4819,0.1483,0.000000,0.579845,-0.562971,0.564505,-0.590583,0.575243,-0.561437
1.1918,0.016758,0.000000,-0.274978,0.274978,0.0000,0.0000,0.0000,-0.002364,-0.240835,0.239301,0.4364,0.5670,0.0892,0.000000,0.578311,-0.562971,0.564505,-0.592117,0.575243,-0.559903
1.2086,0.016743,0.000000,-0.283744,0.283744,0.0000,0.0000,0.0000,-0.002361,-0.253107,0.253107,0.3755,0.4898,0.0956,0.000000,0.578311,-0.562971,0.564505,-0.590583,0.575243,-0.561437
1.2253,0.016760,0.000000,-0.292520,0.292520,0.0000,0.0000,0.0000,-0.002350,-0.257709,0.254641,0.3926,0.5486,0.0412,0.000000,0.578311,-0.562971,0.564505,-0.592117,0.575243,-0.561437
1.2421,0.016749,0.000000,-0.301290,0.301290,0.0000,0.0000,0.0000,-0.002375,-0.262311,0.259243,0.3409,0.5272,0.1538,0.000000,0.578311,-0.561437,0.564505,-0.590583,0.575243,-0.561437
1.2595,0.017439,0.000000,-0.310421,0.310421,0.0000,0.0000,0.0000,-0.002361,-0.277651,0.273049,0.4848,0.4959,0.1962,0.000000,0.579845,-0.562971,0.564505,-0.590583,0.575243,-0.559903
1.2763,0.016747,0.000000,-0.319189,0.319189,0.0000,0.0000,0.0000,-0.002361,-0.277651,0.273049,0.4848,0.4959,0.1962,0.000000,0.579845,-0.562971,0.564505,-0.590583,0.575243,-0.559903
1.2930,0.016756,0.000000,-0.327963,0.327963,0.0000,0.0000,0.0000,-0.002362,-0.296058,0.292990,0.3811,0.5170,0.1915,0.000000,0.579845,-0.561437,0.564505,-0.590583,0.575243,-0.561437
1.3098,0.016748,0.000000,-0.336732,0.336732,0.0000,0.0000,0.0000,-0.002361,-0.306796,0.305262,0.3814,0.4949,0.0850,0.000000,0.578311,-0.562971,0.564505,-0.590583,0.575243,-0.561437
1.3266,0.016860,0.000000,-0.345559,0.345559,0.0000,0.0000,0.0000,-0.002361,-0.309864,0.309864,0.3813,0.4973,0.0961,0.000000,0.578311,-0.562971,0.564505,-0.590583,0.575243,-0.561437
1.3436,0.016932,0.000000,-0.343706,0.343706,0.0000,0.0000,0.0000,-0.002361,-0.317534,0.319068,0.3813,0.4973,0.0961,0.000000,0.578311,-0.562971,0.564505,-0.590583,0.575243,-0.561437
1.3606,0.016983,0.000000,-0.334814,0.334814,0.0000,0.0000,0.0000,-0.002374,-0.337476,0.332874,0.4308,0.5146,0.1484,0.000000,0.578311,-0.562971,0.564505,-0.590583,0.575243,-0.559903
1.3773,0.016739,0.000000,-0.326050,0.326050,0.0000,0.0000,0.0000,-0.002374,-0.337476,0.332874,0.4308,0.5146,0.1484,0.000000,0.578311,-0.562971,0.564505,-0.590583,0.575243,-0.559903
1.3940,0.016754,0.000000,-0.317277,0.317277,0.0000,0.0000,0.0000,-0.002361,-0.354350,0.349748,0.4755,0.4972,0.1967,0.000000,0.579845,-0.562971,0.564505,-0.590583,0.575243,-0.559903
1.4108,0.016743,0.000000,-0.308510,0.308510,0.0000,0.0000,0.0000,-0.002350,-0.354350,0.349748,0.3822,0.5477,0.0307,0.000000,0.578311,-0.562971,0.564505,-0.592117,0.575243,-0.561437
1.4276,0.016778,0.000000,-0.299725,0.299725,0.0000,0.0000,0.0000,-0.002351,-0.349748,0.345146,0.3920,0.5425,0.0480,0.000000,0.578311,-0.562971,0.564505,-0.592117,0.575243,-0.561437
1.4443,0.016749,0.000000,-0.290956,0.290956,0.0000,0.0000,0.0000,-0.002351,-0.349748,0.345146,0.3920,0.5425,0.0480,0.000000,0.578311,-0.562971,0.564505,-0.592117,0.575243,-0.561437
1.4611,0.016760,0.000000,-0.282180,0.282180,0.0000,0.0000,0.0000,-0.002352,-0.328272,0.326738,0.4903,0.5451,0.1535,0.000000,0.579845,-0.562971,0.564505,-0.592117,0.575243,-0.559903
1.4778,0.016742,0.000000,-0.273414,0.273414,0.0000,0.0000,0.0000,-0.002350,-0.316000,0.316000,0.3807,0.5427,0.0352,0.000000,0.578311,-0.562971,0.564505,-0.592117,0.575243,-0.561437
1.4946,0.016773,0.000000,-0.264632,0.264632,0.0000,0.0000,0.0000,-0.002350,-0.303728,0.306796,0.4311,0.4766,0.1551,0.000000,0.579845,-0.562971,0.564505,-0.590583,0.575243,-0.561437
1.5113,0.016747,0.000000,-0.255863,0.255863,0.0000,0.0000,0.0000,-0.002351,-0.288388,0.294524,0.3869,0.5499,0.0350,0.000000,0.578311,-0.562971,0.564505,-0.592117,0.575243,-0.561437
1.5281,0.016768,0.000000,-0.247083,0.247083,0.0000,0.0000,0.0000,-0.002351,-0.279185,0.285320,0.3869,0.5499,0.0350,0.000000,0.578311,-0.562971,0.564505,-0.590583,0.575243,-0.559903
1.5448,0.016742,0.000000,-0.238317,0.238317,0.0000,0.0000,0.0000,-0.002375,-0.279185,0.285320,0.4302,0.5091,0.1547,0.000000,0.578311,-0.562971,0.564505,-0.590583,0.575243,-0.559903
1.5616,0.016750,0.000000,-0.229547,0.229547,0.0000,0.0000,0.0000,-0.002348,-0.268447,0.273049,0.3869,0.5465,0.0350,0.000000,0.578311,-0.562971,0.564505,-0.592117,0.575243,-0.561437
1.5783,0.016743,0.000000,-0.220780,0.220780,0.0000,0.0000,0.0000,-0.002362,-0.259243,0.262311,0.3807,0.4919,0.1013,0.000000,0.578311,-0.562971,0.564505,-0.590583,0.575243,-0.561437
1.5951,0.016761,0.000000,-0.212004,0.212004,0.0000,0.0000,0.0000,-0.002362,-0.253107,0.251573,0.4416,0.5660,0.0941,0.000000,0.578311,-0.562971,0.564505,-0.592117,0.575243,-0.559903
1.6118,0.016743,0.000000,-0.203237,0.203237,0.0000,0.0000,0.0000,-0.002349,-0.242369,0.242369,0.3858,0.5406,0.0414,0.000000,0.578311,-0.562971,0.564505,-0.592117,0.575243,-0.561437
1.6286,0.016785,0.000000,-0.194448,0.194448,0.0000,0.0000,0.0000,-0.002349,-0.242369,0.242369,0.3858,0.5406,0.0414,0.000000,0.578311,-0.562971,0.564505,-0.592117,0.575243,-0.561437
1.6454,0.016745,0.000000,-0.185681,0.185681,0.0000,0.0000,0.0000,-0.002351,-0.228563,0.231631,0.4306,0.4769,0.1544,0.000000,0.579845,-0.562971,0.564505,-0.590583,0.575243,-0.561437
1.6621,0.016758,0.000000,-0.176906,0.176906,0.0000,0.0000,0.0000,-0.002364,-0.216291,0.220893,0.4364,0.5675,0.0886,0.000000,0.578311,-0.562971,0.564505,-0.592117,0.575243,-0.559903
1.6789,0.016749,0.000000,-0.168137,0.168137,0.0000,0.0000,0.0000,-0.002362,-0.204019,0.211689,0.4749,0.4917,0.2030,0.000000,0.579845,-0.562971,0.564505,-0.590583,0.575243,-0.559903
1.6956,0.016753,0.000000,-0.159365,0.159365,0.0000,0.0000,0.0000,-0.002374,-0.193282,0.202485,0.3323,0.5330,0.1369,0.000000,0.578311,-0.561437,0.564505,-0.590583,0.575243,-0.561437
1.7124,0.016748,0.000000,-0.150595,0.150595,0.0000,0.0000,0.0000,-0.002373,-0.182544,0.190214,0.3472,0.5288,0.1438,0.000000,0.578311,-0.561437,0.564505,-0.590583,0.575243,-0.561437
1.7292,0.016780,0.000000,-0.141809,0.141809,0.0000,0.0000,0.0000,-0.002373,-0.182544,0.190214,0.3472,0.5288,0.1438,0.000000,0.578311,-0.561437,0.564505,-0.590583,0.575243,-0.561437
1.7459,0.016749,0.000000,-0.133039,0.133039,0.0000,0.0000,0.0000,-0.002348,-0.171806,0.176408,0.3956,0.5445,0.0362,0.000000,0.578311,-0.562971,0.564505,-0.592117,0.575243,-0.561437
1.7627,0.016752,0.000000,-0.124268,0.124268,0.0000,0.0000,0.0000,-0.002375,-0.159534,0.165670,0.4293,0.5097,0.1546,0.000000,0.578311,-0.562971,0.564505,-0.590583,0.575243,-0.559903
1.7794,0.016744,0.000000,-0.115500,0.115500,0.0000,0.0000,0.0000,-0.002361,-0.150330,0.151864,0.4366,0.5641,0.0886,0.000000,0.578311,-0.562971,0.564505,-0.592117,0.575243,-0.559903
1.7962,0.016751,0.000000,-0.106729,0.106729,0.0000,0.0000,0.0000,-0.002361,-0.144194,0.142660,0.3755,0.4901,0.0957,0.000000,0.578311,-0.562971,0.564505,-0.590583,0.575243,-0.561437
1.8129,0.016748,0.000000,-0.097960,0.097960,0.0000,0.0000,0.0000,-0.002362,-0.134990,0.133456,0.4812,0.4997,0.2022,0.000000,0.579845,-0.562971,0.564505,-0.590583,0.575243,-0.559903
1.8297,0.016767,0.000000,-0.089181,0.089181,0.0000,0.0000,0.0000,-0.002362,-0.134990,0.133456,0.4812,0.4997,0.2022,0.000000,0.579845,-0.562971,0.564505,-0.590583,0.575243,-0.559903
1.8464,0.016745,0.000000,-0.080413,0.080413,0.0000,0.0000,0.0000,-0.002362,-0.121184,0.119651,0.4311,0.5651,0.0836,0.000000,0.578311,-0.562971,0.564505,-0.592117,0.575243,-0.559903
1.8632,0.016750,0.000000,-0.071643,0.071643,0.0000,0.0000,0.0000,-0.002374,-0.108913,0.110447,0.4256,0.5076,0.1497,0.000000,0.578311,-0.562971,0.564505,-0.590583,0.575243,-0.559903
1.8799,0.016745,0.000000,-0.062875,0.062875,0.0000,0.0000,0.0000,-0.002373,-0.096641,0.099709,0.4262,0.5135,0.1428,0.000000,0.578311,-0.562971,0.564505,-0.590583,0.575243,-0.559903
1.8967,0.016760,0.000000,-0.054100,0.054100,0.0000,0.0000,0.0000,-0.002360,-0.085903,0.085903,0.3766,0.4953,0.0900,0.000000,0.578311,-0.562971,0.564505,-0.590583,0.575243,-0.561437
1.9134,0.016756,0.000000,-0.045327,0.045327,0.0000,0.0000,0.0000,-0.002374,-0.073631,0.075165,0.4313,0.5148,0.1490,0.000000,0.578311,-0.562971,0.564505,-0.590583,0.575243,-0.559903
1.9302,0.016763,0.000000,-0.036549,0.036549,0.0000,0.0000,0.0000,-0.002374,-0.073631,0.075165,0.4313,0.5148,0.1490,0.000000,0.578311,-0.562971,0.564505,-0.590583,0.575243,-0.559903
1.9469,0.016750,0.000000,-0.027779,0.027779,0.0000,0.0000,0.0000,-0.002348,-0.061359,0.062893,0.3868,0.5460,0.0356,0.000000,0.578311,-0.562971,0.564505,-0.592117,0.575243,-0.561437
1.9637,0.016755,0.000000,-0.019006,0.019006,0.0000,0.0000,0.0000,-0.002351,-0.052155,0.053689,0.4305,0.4763,0.1550,0.000000,0.579845,-0.562971,0.564505,-0.590583,0.575243,-0.561437
1.9804,0.016749,0.000000,-0.010236,0.010236,0.0000,0.0000,0.0000,-0.002362,-0.044485,0.044485,0.3762,0.4992,0.0888,0.000000,0.578311,-0.562971,0.564505,-0.590583,0.575243,-0.561437
1.9972,0.016755,0.000000,-0.001464,0.001464,0.0000,0.0000,0.0000,-0.002362,-0.033748,0.033748,0.4421,0.5652,0.0954,0.000000,0.578311,-0.562971,0.564505,-0.592117,0.575243,-0.559903
2.0140,0.016754,0.000000,-0.007309,0.007309,0.0000,0.0000,0.0000,-0.002362,-0.021476,0.023010,0.4352,0.5583,0.0947,0.000000,0.578311,-0.562971,0.564505,-0.592117,0.575243,-0.559903
2.0307,0.016765,0.000000,-0.016087,0.016087,0.0000,0.0000,0.0000,-0.002362,-0.021476,0.023010,0.4352,0.5583,0.0947,0.000000,0.578311,-0.562971,0.564505,-0.592117,0.575243,-0.559903
2.0475,0.016745,0.000000,-0.024855,0.024855,0.0000,0.0000,0.0000,-0.002362,-0.007670,0.012272,0.4352,0.5583,0.0947,0.000000,0.578311,-0.562971,0.564505,-0.592117,0.575243,-0.559903
2.0642,0.016754,0.000000,-0.033627,0.033627,0.0000,0.0000,0.0000,-0.002349,0.001534,0.001534,0.3864,0.5414,0.0413,0.000000,0.578311,-0.562971,0.564505,-0.592117,0.575243,-0.561437
2.0810,0.016741,0.000000,-0.042393,0.042393,0.0000,0.0000,0.0000,-0.002364,0.001534,0.001534,0.4410,0.5608,0.1004,0.000000,0.578311,-0.562971,0.564505,-0.592117,0.575243,-0.559903
2.0977,0.016748,0.000000,-0.051162,0.051162,0.0000,0.0000,0.0000,-0.002374,-0.009204,0.015340,0.4246,0.5080,0.1479,0.000000,0.578311,-0.562971,0.564505,-0.590583,0.575243,-0.559903
2.1145,0.016743,0.000000,-0.059928,0.059928,0.0000,0.0000,0.0000,-0.002363,-0.026078,0.032214,0.4477,0.5843,0.1963,0.000000,0.579845,-0.561437,0.564505,-0.592117,0.575243,-0.559903
2.1312,0.016757,0.000000,-0.068702,0.068702,0.0000,0.0000,0.0000,-0.002363,-0.026078,0.032214,0.4477,0.5843,0.1963,0.000000,0.579845,-0.561437,0.564505,-0.592117,0.575243,-0.559903
2.1480,0.016748,0.000000,-0.077471,0.077471,0.0000,0.0000,0.0000,-0.002361,-0.042951,0.046019,0.3744,0.4879,0.0845,0.000000,0.578311,-0.562971,0.564505,-0.590583,0.575243,-0.561437
2.1647,0.016746,0.000000,-0.086240,0.086240,0.0000,0.0000,0.0000,-0.002374,-0.058291,0.050621,0.4315,0.5156,0.1496,0.000000,0.578311,-0.562971,0.564505,-0.590583,0.575243,-0.559903
2.1814,0.016741,0.000000,-0.095006,0.095006,0.0000,0.0000,0.0000,-0.002360,-0.059825,0.052155,0.3760,0.4951,0.0893,0.000000,0.578311,-0.562971,0.564505,-0.590583,0.575243,-0.561437
2.1982,0.016751,0.000000,-0.103776,0.103776,0.0000,0.0000,0.0000,-0.002350,-0.061359,0.059825,0.4316,0.4816,0.1494,0.000000,0.579845,-0.562971,0.564505,-0.590583,0.575243,-0.561437
2.2149,0.016749,0.000000,-0.112546,0.112546,0.0000,0.0000,0.0000,-0.002351,-0.073631,0.076699,0.3868,0.5494,0.0356,0.000000,0.578311,-0.562971,0.564505,-0.592117,0.575243,-0.561437
2.2317,0.016741,0.000000,-0.121312,0.121312,0.0000,0.0000,0.0000,-0.002351,-0.073631,0.076699,0.3868,0.5494,0.0356,0.000000,0.578311,-0.562971,0.564505,-0.592117,0.575243,-0.561437
2.2485,0.016798,0.000000,-0.130107,0.130107,0.0000,0.0000,0.0000,-0.002362,-0.092039,0.096641,0.3807,0.4916,0.1012,0.000000,0.578311,-0.562971,0.564505,-0.590583,0.575243,-0.561437
2.2652,0.016756,0.000000,-0.138881,0.138881,0.0000,0.0000,0.0000,-0.002362,-0.110447,0.105845,0.4416,0.5660,0.0941,0.000000,0.578311,-0.562971,0.564505,-0.592117,0.575243,-0.559903
2.2820,0.016725,0.000000,-0.147638,0.147638,0.0000,0.0000,0.0000,-0.002375,-0.115049,0.108913,0.3961,0.5938,0.1480,0.000000,0.578311,-0.561437,0.564505,-0.592117,0.575243,-0.559903
2.2987,0.016739,0.000000,-0.156402,0.156402,0.0000,0.0000,0.0000,-0.002373,-0.119651,0.119651,0.4293,0.5046,0.1430,0.000000,0.578311,-0.562971,0.564505,-0.590583,0.575243,-0.559903
2.3155,0.016765,0.000000,-0.165181,0.165181,0.0000,0.0000,0.0000,-0.002373,-0.119651,0.119651,0.4293,0.5046,0.1430,0.000000,0.578311,-0.562971,0.564505,-0.590583,0.575243,-0.559903
2.3322,0.016758,0.000000,-0.173955,0.173955,0.0000,0.0000,0.0000,-0.002360,-0.131922,0.138058,0.3763,0.4962,0.0900,0.000000,0.578311,-0.562971,0.564505,-0.590583,0.575243,-0.561437
2.3490,0.016742,0.000000,-0.182721,0.182721,0.0000,0.0000,0.0000,-0.002374,-0.150330,0.151864,0.3426,0.5326,0.1487,0.000000,0.578311,-0.561437,0.564505,-0.590583,0.575243,-0.561437
2.3657,0.016737,0.000000,-0.191484,0.191484,0.0000,0.0000,0.0000,-0.002361,-0.162602,0.153398,0.3569,0.5796,0.0888,0.000000,0.578311,-0.561437,0.564505,-0.592117,0.575243,-0.561437
2.3825,0.016761,0.000000,-0.200261,0.200261,0.0000,0.0000,0.0000,-0.002363,-0.167204,0.154932,0.4441,0.5568,0.0954,0.000000,0.578311,-0.562971,0.564505,-0.592117,0.575243,-0.559903
2.3992,0.016751,0.000000,-0.209031,0.209031,0.0000,0.0000,0.0000,-0.002374,-0.168738,0.165670,0.4243,0.5084,0.1485,0.000000,0.578311,-0.562971,0.564505,-0.590583,0.575243,-0.559903
2.4160,0.016753,0.000000,-0.217803,0.217803,0.0000,0.0000,0.0000,-0.002361,-0.185612,0.188680,0.4371,0.5643,0.0892,0.000000,0.578311,-0.562971,0.564505,-0.592117,0.575243,-0.559903
2.4327,0.016752,0.000000,-0.226575,0.226575,0.0000,0.0000,0.0000,-0.002361,-0.185612,0.188680,0.4371,0.5643,0.0892,0.000000,0.578311,-0.562971,0.564505,-0.592117,0.575243,-0.559903
2.4495,0.016764,0.000000,-0.235353,0.235353,0.0000,0.0000,0.0000,-0.002374,-0.204019,0.205553,0.4250,0.5077,0.1491,0.000000,0.578311,-0.562971,0.564505,-0.590583,0.575243,-0.559903
2.4663,0.016767,0.000000,-0.244132,0.244132,0.0000,0.0000,0.0000,-0.002374,-0.204019,0.205553,0.4250,0.5077,0.1491,0.000000,0.578311,-0.562971,0.564505,-0.590583,0.575243,-0.559903
2.4830,0.016742,0.000000,-0.252898,0.252898,0.0000,0.0000,0.0000,-0.002361,-0.216291,0.208621,0.4370,0.5643,0.0891,0.000000,0.578311,-0.562971,0.564505,-0.592117,0.575243,-0.559903
2.4997,0.016742,0.000000,-0.261664,0.261664,0.0000,0.0000,0.0000,-0.002363,-0.217825,0.217825,0.4358,0.5584,0.0954,0.000000,0.578311,-0.562971,0.564505,-0.592117,0.575243,-0.559903
2.5165,0.016745,0.000000,-0.270431,0.270431,0.0000,0.0000,0.0000,-0.002361,-0.225495,0.231631,0.3756,0.4906,0.0950,0.000000,0.578311,-0.562971,0.564505,-0.590583,0.575243,-0.561437
2.5332,0.016748,0.000000,-0.279200,0.279200,0.0000,0.0000,0.0000,-0.002362,-0.242369,0.246971,0.4812,0.4997,0.2023,0.000000,0.579845,-0.562971,0.564505,-0.590583,0.575243,-0.559903
2.5500,0.016741,0.000000,-0.287966,0.287966,0.0000,0.0000,0.0000,-0.002362,-0.260777,0.265379,0.4312,0.5651,0.0836,0.000000,0.578311,-0.562971,0.564505,-0.592117,0.575243,-0.559903
2.5667,0.016745,0.000000,-0.296734,0.296734,0.0000,0.0000,0.0000,-0.002362,-0.260777,0.265379,0.4312,0.5651,0.0836,0.000000,0.578311,-0.562971,0.564505,-0.592117,0.575243,-0.559903
2.5835,0.016760,0.000000,-0.305509,0.305509,0.0000,0.0000,0.0000,-0.002374,-0.279185,0.276117,0.4256,0.5076,0.1497,0.000000,0.578311,-0.562971,0.564505,-0.590583,0.575243,-0.559903
2.6002,0.016742,0.000000,-0.314275,0.314275,0.0000,0.0000,0.0000,-0.002373,-0.286854,0.282252,0.4262,0.5135,0.1428,0.000000,0.578311,-0.562971,0.564505,-0.590583,0.575243,-0.559903
2.6170,0.016746,0.000000,-0.323044,0.323044,0.0000,0.0000,0.0000,-0.002361,-0.286854,0.286854,0.4369,0.5637,0.0898,0.000000,0.578311,-0.562971,0.564505,-0.592117,0.575243,-0.559903
2.6337,0.016743,0.000000,-0.331810,0.331810,0.0000,0.0000,0.0000,-0.002363,-0.292990,0.299126,0.4358,0.5585,0.0953,0.000000,0.578311,-0.562971,0.564505,-0.592117,0.575243,-0.559903
2.6507,0.016984,0.000000,-0.340703,0.340703,0.0000,0.0000,0.0000,-0.002363,-0.311398,0.312932,0.4358,0.5585,0.0953,0.000000,0.578311,-0.562971,0.564505,-0.592117,0.575243,-0.559903
2.6674,0.016749,0.000000,-0.348659,0.348659,0.0000,0.0000,0.0000,-0.002363,-0.311398,0.312932,0.4358,0.5585,0.0953,0.000000,0.578311,-0.562971,0.564505,-0.592117,0.575243,-0.559903
2.6842,0.016755,0.000000,-0.339886,0.339886,0.0000,0.0000,0.0000,-0.002362,-0.331340,0.329806,0.3472,0.5769,0.0944,0.000000,0.578311,-0.561437,0.564505,-0.592117,0.575243,-0.561437
2.7010,0.016753,0.000000,-0.331114,0.331114,0.0000,0.0000,0.0000,-0.002349,-0.340544,0.335942,0.3956,0.5395,0.0413,0.000000,0.578311,-0.562971,0.564505,-0.592117,0.575243,-0.561437
2.7177,0.016743,0.000000,-0.322347,0.322347,0.0000,0.0000,0.0000,-0.002364,-0.345146,0.342078,0.4401,0.5610,0.1004,0.000000,0.578311,-0.562971,0.564505,-0.592117,0.575243,-0.559903
2.7344,0.016753,0.000000,-0.313576,0.313576,0.0000,0.0000,0.0000,-0.002362,-0.352816,0.348214,0.4354,0.5588,0.0942,0.000000,0.578311,-0.562971,0.564505,-0.592117,0.575243,-0.559903
2.7512,0.016743,0.000000,-0.304809,0.304809,0.0000,0.0000,0.0000,-0.002362,-0.352816,0.345146,0.4354,0.5588,0.0942,0.000000,0.578311,-0.562971,0.564505,-0.592117,0.575243,-0.559903
2.7679,0.016749,0.000000,-0.296039,0.296039,0.0000,0.0000,0.0000,-0.002362,-0.352816,0.345146,0.4354,0.5588,0.0942,0.000000,0.578311,-0.562971,0.564505,-0.592117,0.575243,-0.559903
2.7847,0.016751,0.000000,-0.287268,0.287268,0.0000,0.0000,0.0000,-0.002361,-0.342078,0.334408,0.3756,0.4906,0.0951,0.000000,0.578311,-0.562971,0.564505,-0.590583,0.575243,-0.561437
2.8014,0.016748,0.000000,-0.278499,0.278499,0.0000,0.0000,0.0000,-0.002338,-0.328272,0.323670,0.4425,0.5329,0.0951,0.000000,0.579845,-0.562971,0.564505,-0.592117,0.575243,-0.561437
2.8182,0.016750,0.000000,-0.269729,0.269729,0.0000,0.0000,0.0000,-0.002365,-0.312932,0.312932,0.4352,0.5617,0.0948,0.000000,0.578311,-0.562971,0.564505,-0.592117,0.575243,-0.559903
2.8349,0.016751,0.000000,-0.260958,0.260958,0.0000,0.0000,0.0000,-0.002349,-0.299126,0.300660,0.3864,0.5411,0.0413,0.000000,0.578311,-0.562971,0.564505,-0.592117,0.575243,-0.561437
2.8517,0.016750,0.000000,-0.252188,0.252188,0.0000,0.0000,0.0000,-0.002375,-0.285320,0.289922,0.4303,0.5100,0.1541,0.000000,0.578311,-0.562971,0.564505,-0.590583,0.575243,-0.559903
2.8684,0.016751,0.000000,-0.243417,0.243417,0.0000,0.0000,0.0000,-0.002375,-0.285320,0.289922,0.4303,0.5100,0.1541,0.000000,0.578311,-0.562971,0.564505,-0.590583,0.575243,-0.559903
2.8852,0.016747,0.000000,-0.234648,0.234648,0.0000,0.0000,0.0000,-0.002348,-0.273049,0.277651,0.3869,0.5465,0.0351,0.000000,0.578311,-0.562971,0.564505,-0.592117,0.575243,-0.561437
2.9020,0.016769,0.000000,-0.225868,0.225868,0.0000,0.0000,0.0000,-0.002375,-0.263845,0.269981,0.4302,0.5095,0.1547,0.000000,0.578311,-0.562971,0.564505,-0.590583,0.575243,-0.559903
2.9187,0.016748,0.000000,-0.217099,0.217099,0.0000,0.0000,0.0000,-0.002373,-0.256175,0.259243,0.4257,0.5133,0.1423,0.000000,0.578311,-0.562971,0.564505,-0.590583,0.575243,-0.559903
2.9355,0.016748,0.000000,-0.208330,0.208330,0.0000,0.0000,0.0000,-0.002361,-0.248505,0.248505,0.3482,0.5816,0.0895,0.000000,0.578311,-0.561437,0.564505,-0.592117,0.575243,-0.561437
2.9522,0.016792,0.000000,-0.199538,0.199538,0.0000,0.0000,0.0000,-0.002350,-0.236233,0.237767,0.3955,0.5390,0.0418,0.000000,0.578311,-0.562971,0.564505,-0.592117,0.575243,-0.561437
2.9690,0.016742,0.000000,-0.190771,0.190771,0.0000,0.0000,0.0000,-0.002350,-0.236233,0.237767,0.3955,0.5390,0.0418,0.000000,0.578311,-0.562971,0.564505,-0.592117,0.575243,-0.561437
2.9857,0.016745,0.000000,-0.182004,0.182004,0.0000,0.0000,0.0000,-0.002375,-0.222427,0.227029,0.4293,0.5103,0.1540,0.000000,0.578311,-0.562971,0.564505,-0.590583,0.575243,-0.559903
3.0025,0.016744,0.000000,-0.173237,0.173237,0.0000,0.0000,0.0000,-0.002360,-0.211689,0.217825,0.3763,0.4956,0.0889,0.000000,0.578311,-0.562971,0.564505,-0.590583,0.575243,-0.561437
3.0192,0.016746,0.000000,-0.164469,0.164469,0.0000,0.0000,0.0000,-0.002363,-0.199418,0.208621,0.4421,0.5656,0.0954,0.000000,0.578311,-0.562971,0.564505,-0.592117,0.575243,-0.559903
3.0360,0.016742,0.000000,-0.155702,0.155702,0.0000,0.0000,0.0000,-0.002361,-0.188680,0.196350,0.3750,0.4899,0.0950,0.000000,0.578311,-0.562971,0.564505,-0.590583,0.575243,-0.561437
3.0528,0.016868,0.000000,-0.146870,0.146870,0.0000,0.0000,0.0000,-0.002361,-0.177942,0.184078,0.3820,0.4978,0.0950,0.000000,0.578311,-0.562971,0.564505,-0.590583,0.575243,-0.561437
3.0696,0.016739,0.000000,-0.138106,0.138106,0.0000,0.0000,0.0000,-0.002361,-0.177942,0.184078,0.3820,0.4978,0.0950,0.000000,0.578311,-0.562971,0.564505,-0.590583,0.575243,-0.561437
3.0863,0.016746,0.000000,-0.129337,0.129337,0.0000,0.0000,0.0000,-0.002350,-0.168738,0.171806,0.3920,0.5477,0.0413,0.000000,0.578311,-0.562971,0.564505,-0.592117,0.575243,-0.561437
3.1031,0.016742,0.000000,-0.120571,0.120571,0.0000,0.0000,0.0000,-0.002364,-0.158000,0.159534,0.4404,0.5601,0.1004,0.000000,0.578311,-0.562971,0.564505,-0.592117,0.575243,-0.559903
3.1198,0.016745,0.000000,-0.111804,0.111804,0.0000,0.0000,0.0000,-0.002362,-0.148796,0.148796,0.4354,0.5588,0.0942,0.000000,0.578311,-0.562971,0.564505,-0.592117,0.575243,-0.559903
3.1365,0.016742,0.000000,-0.103038,0.103038,0.0000,0.0000,0.0000,-0.002349,-0.138058,0.138058,0.3864,0.5414,0.0414,0.000000,0.578311,-0.562971,0.564505,-0.592117,0.575243,-0.561437
3.1533,0.016759,0.000000,-0.094263,0.094263,0.0000,0.0000,0.0000,-0.002349,-0.138058,0.138058,0.3864,0.5414,0.0414,0.000000,0.578311,-0.562971,0.564505,-0.592117,0.575243,-0.561437
3.1700,0.016742,0.000000,-0.085497,0.085497,0.0000,0.0000,0.0000,-0.002351,-0.125786,0.125786,0.3915,0.5432,0.0469,0.000000,0.578311,-0.562971,0.564505,-0.592117,0.575243,-0.561437
3.1868,0.016759,0.000000,-0.076722,0.076722,0.0000,0.0000,0.0000,-0.002375,-0.115049,0.116583,0.4297,0.5098,0.1535,0.000000,0.578311,-0.562971,0.564505,-0.590583,0.575243,-0.559903
3.2036,0.016815,0.000000,-0.067918,0.067918,0.0000,0.0000,0.0000,-0.002360,-0.104311,0.104311,0.3762,0.4957,0.0889,0.000000,0.578311,-0.562971,0.564505,-0.590583,0.575243,-0.561437
3.2204,0.016762,0.000000,-0.059141,0.059141,0.0000,0.0000,0.0000,-0.002350,-0.095107,0.095107,0.3926,0.5480,0.0419,0.000000,0.578311,-0.562971,0.564505,-0.592117,0.575243,-0.561437
3.2371,0.016748,0.000000,-0.050372,0.050372,0.0000,0.0000,0.0000,-0.002351,-0.087437,0.084369,0.3909,0.5425,0.0468,0.000000,0.578311,-0.562971,0.564505,-0.592117,0.575243,-0.561437
3.2539,0.016783,0.000000,-0.041584,0.041584,0.0000,0.0000,0.0000,-0.002351,-0.075165,0.073631,0.3909,0.5425,0.0468,0.000000,0.578311,-0.562971,0.564505,-0.592117,0.575243,-0.559903
3.2707,0.016748,0.000000,-0.032815,0.032815,0.0000,0.0000,0.0000,-0.002364,-0.075165,0.073631,0.4406,0.5607,0.0998,0.000000,0.578311,-0.562971,0.564505,-0.592117,0.575243,-0.559903
3.2874,0.016755,0.000000,-0.024042,0.024042,0.0000,0.0000,0.0000,-0.002349,-0.061359,0.061359,0.4249,0.4748,0.1483,0.000000,0.579845,-0.562971,0.564505,-0.590583,0.575243,-0.561437
3.3042,0.016740,0.000000,-0.015277,0.015277,0.0000,0.0000,0.0000,-0.002362,-0.049087,0.050621,0.3768,0.4993,0.0895,0.000000,0.578311,-0.562971,0.564505,-0.590583,0.575243,-0.561437
3.3209,0.016763,0.000000,-0.006500,0.006500,0.0000,0.0000,0.0000,-0.002361,-0.036816,0.039884,0.3818,0.4968,0.0956,0.000000,0.578311,-0.562971,0.564505,-0.590583,0.575243,-0.561437
3.3377,0.016742,0.000000,-0.002266,0.002266,0.0000,0.0000,0.0000,-0.002374,-0.024544,0.029146,0.4308,0.5147,0.1484,0.000000,0.578311,-0.562971,0.564505,-0.590583,0.575243,-0.559903
3.3544,0.016757,0.000000,-0.011040,0.011040,0.0000,0.0000,0.0000,-0.002374,-0.024544,0.029146,0.4308,0.5147,0.1484,0.000000,0.578311,-0.562971,0.564505,-0.590583,0.575243,-0.559903
3.3712,0.016741,0.000000,-0.019806,0.019806,0.0000,0.0000,0.0000,-0.002373,-0.012272,0.018408,0.4257,0.5128,0.1429,0.000000,0.578311,-0.562971,0.564505,-0.590583,0.575243,-0.559903
3.3879,0.016758,0.000000,-0.028580,0.028580,0.0000,0.0000,0.0000,-0.002373,-0.004602,0.006136,0.4257,0.5128,0.1429,0.000000,0.578311,-0.562971,0.564505,-0.590583,0.575243,-0.559903
3.4047,0.016743,0.000000,-0.037347,0.037347,0.0000,0.0000,0.0000,-0.002361,-0.003068,-0.001534,0.4369,0.5638,0.0898,0.000000,0.578311,-0.562971,0.564505,-0.592117,0.575243,-0.559903
3.4214,0.016760,0.000000,-0.046122,0.046122,0.0000,0.0000,0.0000,-0.002350,-0.007670,0.004602,0.3862,0.5408,0.0418,0.000000,0.578311,-0.562971,0.564505,-0.592117,0.575243,-0.561437
3.4382,0.016745,0.000000,-0.054890,0.054890,0.0000,0.0000,0.0000,-0.002375,-0.016874,0.018408,0.4303,0.5101,0.1540,0.000000,0.578311,-0.562971,0.564505,-0.590583,0.575243,-0.559903
3.4550,0.016790,0.000000,-0.063681,0.063681,0.0000,0.0000,0.0000,-0.002375,-0.016874,0.018408,0.4303,0.5101,0.1540,0.000000,0.578311,-0.562971,0.564505,-0.590583,0.575243,-0.559903
3.4717,0.016749,0.000000,-0.072451,0.072451,0.0000,0.0000,0.0000,-0.002361,-0.033748,0.035282,0.4365,0.5641,0.0886,0.000000,0.578311,-0.562971,0.564505,-0.592117,0.575243,-0.559903
3.4885,0.016758,0.000000,-0.081225,0.081225,0.0000,0.0000,0.0000,-0.002374,-0.047553,0.049087,0.4251,0.5077,0.1492,0.000000,0.578311,-0.562971,0.564505,-0.590583,0.575243,-0.559903
3.5052,0.016749,0.000000,-0.089995,0.089995,0.0000,0.0000,0.0000,-0.002360,-0.058291,0.052155,0.3767,0.4959,0.0894,0.000000,0.578311,-0.562971,0.564505,-0.590583,0.575243,-0.561437
3.5220,0.016766,0.000000,-0.098773,0.098773,0.0000,0.0000,0.0000,-0.002374,-0.056757,0.053689,0.4313,0.5147,0.1491,0.000000,0.578311,-0.562971,0.564505,-0.590583,0.575243,-0.559903
3.5387,0.016745,0.000000,-0.107541,0.107541,0.0000,0.0000,0.0000,-0.002374,-0.056757,0.053689,0.4313,0.5147,0.1491,0.000000,0.578311,-0.562971,0.564505,-0.590583,0.575243,-0.559903
3.5555,0.016762,0.000000,-0.116318,0.116318,0.0000,0.0000,0.0000,-0.002360,-0.061359,0.062893,0.3761,0.4952,0.0894,0.000000,0.578311,-0.562971,0.564505,-0.590583,0.575243,-0.561437
3.5722,0.016750,0.000000,-0.125088,0.125088,0.0000,0.0000,0.0000,-0.002350,-0.078233,0.082835,0.3926,0.5480,0.0419,0.000000,0.578311,-0.562971,0.564505,-0.592117,0.575243,-0.561437
3.5890,0.016775,0.000000,-0.133871,0.133871,0.0000,0.0000,0.0000,-0.002362,-0.095107,0.099709,0.3801,0.4917,0.1006,0.000000,0.578311,-0.562971,0.564505,-0.590583,0.575243,-0.561437
3.6060,0.016980,0.000000,-0.142762,0.142762,0.0000,0.0000,0.0000,-0.002374,-0.111981,0.105845,0.4310,0.5152,0.1479,0.000000,0.578311,-0.562971,0.564505,-0.590583,0.575243,-0.559903
3.6227,0.016753,0.000000,-0.151534,0.151534,0.0000,0.0000,0.0000,-0.002374,-0.124252,0.113515,0.4310,0.5152,0.1479,0.000000,0.578311,-0.562971,0.564505,-0.592117,0.575243,-0.559903
3.6395,0.016742,0.000000,-0.160300,0.160300,0.0000,0.0000,0.0000,-0.002361,-0.124252,0.113515,0.4364,0.5635,0.0893,0.000000,0.578311,-0.562971,0.564505,-0.592117,0.575243,-0.559903
3.6562,0.016756,0.000000,-0.169074,0.169074,0.0000,0.0000,0.0000,-0.002363,-0.134990,0.128854,0.4358,0.5585,0.0954,0.000000,0.578311,-0.562971,0.564505,-0.592117,0.575243,-0.559903
3.6730,0.016746,0.000000,-0.177842,0.177842,0.0000,0.0000,0.0000,-0.002361,-0.141126,0.142660,0.3756,0.4906,0.0950,0.000000,0.578311,-0.562971,0.564505,-0.590583,0.575243,-0.561437
3.6897,0.016757,0.000000,-0.186616,0.186616,0.0000,0.0000,0.0000,-0.002362,-0.145728,0.148796,0.4812,0.4997,0.2023,0.000000,0.579845,-0.562971,0.564505,-0.590583,0.575243,-0.559903
3.7065,0.016786,0.000000,-0.195405,0.195405,0.0000,0.0000,0.0000,-0.002361,-0.158000,0.154932,0.3709,0.4967,0.0838,0.000000,0.578311,-0.562971,0.564505,-0.590583,0.575243,-0.561437
3.7236,0.017100,0.000000,-0.204359,0.204359,0.0000,0.0000,0.0000,-0.002362,-0.190214,0.184078,0.4817,0.4990,0.2035,0.000000,0.579845,-0.562971,0.564505,-0.590583,0.575243,-0.559903
3.7404,0.016750,0.000000,-0.213129,0.213129,0.0000,0.0000,0.0000,-0.002362,-0.190214,0.184078,0.4817,0.4990,0.2035,0.000000,0.579845,-0.562971,0.564505,-0.590583,0.575243,-0.559903
3.7571,0.016759,0.000000,-0.221904,0.221904,0.0000,0.0000,0.0000,-0.002362,-0.194816,0.194816,0.4702,0.4989,0.1910,0.000000,0.579845,-0.562971,0.564505,-0.590583,0.575243,-0.559903
3.7739,0.016744,0.000000,-0.230671,0.230671,0.0000,0.0000,0.0000,-0.002362,-0.197884,0.200951,0.4323,0.5652,0.0848,0.000000,0.578311,-0.562971,0.564505,-0.592117,0.575243,-0.559903
3.7906,0.016744,0.000000,-0.239438,0.239438,0.0000,0.0000,0.0000,-0.002361,-0.208621,0.208621,0.3760,0.4899,0.0961,0.000000,0.578311,-0.562971,0.564505,-0.590583,0.575243,-0.561437
3.8074,0.016741,0.000000,-0.248203,0.248203,0.0000,0.0000,0.0000,-0.002363,-0.225495,0.222427,0.4421,0.5662,0.0947,0.000000,0.578311,-0.562971,0.564505,-0.592117,0.575243,-0.559903
3.8243,0.016909,0.000000,-0.257057,0.257057,0.0000,0.0000,0.0000,-0.002362,-0.242369,0.239301,0.4743,0.4919,0.2023,0.000000,0.579845,-0.562971,0.564505,-0.590583,0.575243,-0.559903
3.8410,0.016740,0.000000,-0.265822,0.265822,0.0000,0.0000,0.0000,-0.002362,-0.242369,0.239301,0.4743,0.4919,0.2023,0.000000,0.579845,-0.562971,0.564505,-0.590583,0.575243,-0.559903
3.8578,0.016756,0.000000,-0.274595,0.274595,0.0000,0.0000,0.0000,-0.002361,-0.248505,0.248505,0.3716,0.4975,0.0838,0.000000,0.578311,-0.562971,0.564505,-0.590583,0.575243,-0.561437
3.8745,0.016696,0.000000,-0.283338,0.283338,0.0000,0.0000,0.0000,-0.002374,-0.248505,0.251573,0.4318,0.5146,0.1497,0.000000,0.578311,-0.562971,0.564505,-0.590583,0.575243,-0.559903
3.8912,0.016747,0.000000,-0.292106,0.292106,0.0000,0.0000,0.0000,-0.002348,-0.254641,0.262311,0.3868,0.5460,0.0356,0.000000,0.578311,-0.562971,0.564505,-0.592117,0.575243,-0.561437
3.9080,0.016740,0.000000,-0.300871,0.300871,0.0000,0.0000,0.0000,-0.002351,-0.273049,0.279185,0.3915,0.5427,0.0475,0.000000,0.578311,-0.562971,0.564505,-0.592117,0.575243,-0.561437
3.9247,0.016771,0.000000,-0.309652,0.309652,0.0000,0.0000,0.0000,-0.002363,-0.292990,0.294524,0.4796,0.4943,0.2073,0.000000,0.579845,-0.562971,0.564505,-0.590583,0.575243,-0.559903
3.9415,0.016739,0.000000,-0.318417,0.318417,0.0000,0.0000,0.0000,-0.002363,-0.292990,0.294524,0.4796,0.4943,0.2073,0.000000,0.579845,-0.562971,0.564505,-0.590583,0.575243,-0.559903
3.9582,0.016753,0.000000,-0.327189,0.327189,0.0000,0.0000,0.0000,-0.002349,-0.303728,0.297592,0.3818,0.5480,0.0296,0.000000,0.578311,-0.562971,0.564505,-0.592117,0.575243,-0.561437
3.9750,0.016740,0.000000,-0.335954,0.335954,0.0000,0.0000,0.0000,-0.002364,-0.305262,0.300660,0.4415,0.5601,0.1016,0.000000,0.578311,-0.562971,0.564505,-0.592117,0.575243,-0.559903
3.9917,0.016755,0.000000,-0.344726,0.344726,0.0000,0.0000,0.0000,-0.002374,-0.311398,0.317534,0.4246,0.5081,0.1478,0.000000,0.578311,-0.562971,0.564505,-0.590583,0.575243,-0.559903
4.0084,0.016738,0.000000,-0.344641,0.344641,0.0000,0.0000,0.0000,-0.002373,-0.328272,0.331340,0.4263,0.5135,0.1430,0.000000,0.578311,-0.562971,0.564505,-0.590583,0.575243,-0.559903
4.0252,0.016770,0.000000,-0.335861,0.335861,0.0000,0.0000,0.0000,-0.002348,-0.348214,0.345146,0.4264,0.4797,0.1438,0.000000,0.579845,-0.562971,0.564505,-0.590583,0.575243,-0.561437
4.0419,0.016730,0.000000,-0.327101,0.327101,0.0000,0.0000,0.0000,-0.002348,-0.348214,0.345146,0.4264,0.4797,0.1438,0.000000,0.579845,-0.562971,0.564505,-0.590583,0.575243,-0.561437
4.0587,0.016754,0.000000,-0.318328,0.318328,0.0000,0.0000,0.0000,-0.002364,-0.354350,0.343612,0.4369,0.5672,0.0897,0.000000,0.578311,-0.562971,0.564505,-0.592117,0.575243,-0.559903
4.0755,0.016747,0.000000,-0.309560,0.309560,0.0000,0.0000,0.0000,-0.002362,-0.351282,0.340544,0.4358,0.5581,0.0953,0.000000,0.578311,-0.562971,0.564505,-0.592117,0.575243,-0.559903
4.0923,0.016843,0.000000,-0.300740,0.300740,0.0000,0.0000,0.0000,-0.002374,-0.343612,0.337476,0.4252,0.5083,0.1485,0.000000,0.578311,-0.562971,0.564505,-0.590583,0.575243,-0.559903
4.1090,0.016742,0.000000,-0.291974,0.291974,0.0000,0.0000,0.0000,-0.002373,-0.334408,0.332874,0.4263,0.5135,0.1429,0.000000,0.578311,-0.562971,0.564505,-0.590583,0.575243,-0.559903
4.1258,0.016760,0.000000,-0.283199,0.283199,0.0000,0.0000,0.0000,-0.002386,-0.320602,0.322136,0.3870,0.5484,0.1967,0.000000,0.578311,-0.561437,0.564505,-0.590583,0.575243,-0.559903
4.1425,0.016740,0.000000,-0.274434,0.274434,0.0000,0.0000,0.0000,-0.002386,-0.320602,0.322136,0.3870,0.5484,0.1967,0.000000,0.578311,-0.561437,0.564505,-0.590583,0.575243,-0.559903
4.1593,0.016751,0.000000,-0.265663,0.265663,0.0000,0.0000,0.0000,-0.002347,-0.308330,0.312932,0.4305,0.4761,0.1382,0.000000,0.579845,-0.562971,0.564505,-0.590583,0.575243,-0.561437
4.1760,0.016742,0.000000,-0.256896,0.256896,0.0000,0.0000,0.0000,-0.002364,-0.292990,0.300660,0.4364,0.5676,0.0903,0.000000,0.578311,-0.562971,0.564505,-0.592117,0.575243,-0.559903
4.1928,0.016765,0.000000,-0.248118,0.248118,0.0000,0.0000,0.0000,-0.002362,-0.283786,0.289922,0.4358,0.5581,0.0953,0.000000,0.578311,-0.562971,0.564505,-0.592117,0.575243,-0.559903
4.2095,0.016739,0.000000,-0.239354,0.239354,0.0000,0.0000,0.0000,-0.002363,-0.274583,0.277651,0.4359,0.5594,0.0946,0.000000,0.578311,-0.562971,0.564505,-0.592117,0.575243,-0.559903
4.2263,0.016764,0.000000,-0.230576,0.230576,0.0000,0.0000,0.0000,-0.002362,-0.262311,0.265379,0.3472,0.5768,0.0945,0.000000,0.578311,-0.561437,0.564505,-0.592117,0.575243,-0.561437
4.2430,0.016741,0.000000,-0.221810,0.221810,0.0000,0.0000,0.0000,-0.002362,-0.262311,0.265379,0.3472,0.5768,0.0945,0.000000,0.578311,-0.561437,0.564505,-0.592117,0.575243,-0.561437
4.2598,0.016766,0.000000,-0.213032,0.213032,0.0000,0.0000,0.0000,-0.002349,-0.251573,0.253107,0.3956,0.5395,0.0413,0.000000,0.578311,-0.562971,0.564505,-0.592117,0.575243,-0.561437
4.2765,0.016741,0.000000,-0.204266,0.204266,0.0000,0.0000,0.0000,-0.002352,-0.242369,0.243903,0.4899,0.5454,0.1542,0.000000,0.579845,-0.562971,0.564505,-0.592117,0.575243,-0.559903
4.2933,0.016757,0.000000,-0.195493,0.195493,0.0000,0.0000,0.0000,-0.002364,-0.231631,0.234699,0.4303,0.5604,0.0886,0.000000,0.578311,-0.562971,0.564505,-0.592117,0.575243,-0.559903
4.3100,0.016742,0.000000,-0.186726,0.186726,0.0000,0.0000,0.0000,-0.002362,-0.220893,0.225495,0.4365,0.5588,0.0954,0.000000,0.578311,-0.562971,0.564505,-0.592117,0.575243,-0.559903
4.3268,0.016782,0.000000,-0.177939,0.177939,0.0000,0.0000,0.0000,-0.002362,-0.207087,0.214757,0.4365,0.5588,0.0954,0.000000,0.578311,-0.562971,0.564505,-0.590583,0.575243,-0.559903
4.3436,0.016740,0.000000,-0.169174,0.169174,0.0000,0.0000,0.0000,-0.002374,-0.207087,0.214757,0.4251,0.5082,0.1485,0.000000,0.578311,-0.562971,0.564505,-0.590583,0.575243,-0.559903
4.3603,0.016748,0.000000,-0.160405,0.160405,0.0000,0.0000,0.0000,-0.002348,-0.196350,0.204019,0.3875,0.5466,0.0357,0.000000,0.578311,-0.562971,0.564505,-0.592117,0.575243,-0.561437
4.3771,0.016741,0.000000,-0.151639,0.151639,0.0000,0.0000,0.0000,-0.002351,-0.185612,0.193282,0.3914,0.5426,0.0475,0.000000,0.578311,-0.562971,0.564505,-0.592117,0.575243,-0.561437
4.3938,0.016755,0.000000,-0.142866,0.142866,0.0000,0.0000,0.0000,-0.002351,-0.177942,0.184078,0.3914,0.5426,0.0475,0.000000,0.578311,-0.562971,0.564505,-0.592117,0.575243,-0.561437
4.4106,0.016741,0.000000,-0.134101,0.134101,0.0000,0.0000,0.0000,-0.002351,-0.168738,0.170272,0.3914,0.5426,0.0475,0.000000,0.578311,-0.562971,0.564505,-0.592117,0.575243,-0.561437
4.4273,0.016770,0.000000,-0.125320,0.125320,0.0000,0.0000,0.0000,-0.002351,-0.168738,0.170272,0.3914,0.5426,0.0475,0.000000,0.578311,-0.562971,0.564505,-0.592117,0.575243,-0.561437
4.4441,0.016740,0.000000,-0.116555,0.116555,0.0000,0.0000,0.0000,-0.002351,-0.156466,0.156466,0.3914,0.5426,0.0475,0.000000,0.578311,-0.562971,0.564505,-0.592117,0.575243,-0.561437
4.4608,0.016750,0.000000,-0.107785,0.107785,0.0000,0.0000,0.0000,-0.002364,-0.144194,0.145728,0.4405,0.5607,0.0997,0.000000,0.578311,-0.562971,0.564505,-0.592117,0.575243,-0.559903
4.4776,0.016777,0.000000,-0.099000,0.099000,0.0000,0.0000,0.0000,-0.002349,-0.133456,0.133456,0.3859,0.5412,0.0408,0.000000,0.578311,-0.562971,0.564505,-0.592117,0.575243,-0.561437
4.4944,0.016851,0.000000,-0.090177,0.090177,0.0000,0.0000,0.0000,-0.002375,-0.122718,0.122718,0.4303,0.5100,0.1541,0.000000,0.578311,-0.562971,0.564505,-0.590583,0.575243,-0.559903
4.5112,0.016744,0.000000,-0.081410,0.081410,0.0000,0.0000,0.0000,-0.002375,-0.122718,0.122718,0.4303,0.5100,0.1541,0.000000,0.578311,-0.562971,0.564505,-0.590583,0.575243,-0.559903
4.5279,0.016755,0.000000,-0.072637,0.072637,0.0000,0.0000,0.0000,-0.002348,-0.108913,0.110447,0.3869,0.5465,0.0351,0.000000,0.578311,-0.562971,0.564505,-0.592117,0.575243,-0.561437
4.5447,0.016740,0.000000,-0.063872,0.063872,0.0000,0.0000,0.0000,-0.002351,-0.099709,0.099709,0.3915,0.5427,0.0475,0.000000,0.578311,-0.562971,0.564505,-0.592117,0.575243,-0.561437
4.5614,0.016762,0.000000,-0.055095,0.055095,0.0000,0.0000,0.0000,-0.002375,-0.090505,0.090505,0.4298,0.5099,0.1534,0.000000,0.578311,-0.562971,0.564505,-0.590583,0.575243,-0.559903
4.5782,0.016744,0.000000,-0.046328,0.046328,0.0000,0.0000,0.0000,-0.002360,-0.081301,0.079767,0.3762,0.4957,0.0889,0.000000,0.578311,-0.562971,0.564505,-0.590583,0.575243,-0.561437
4.5950,0.016766,0.000000,-0.037549,0.037549,0.0000,0.0000,0.0000,-0.002374,-0.069029,0.069029,0.4314,0.5148,0.1491,0.000000,0.578311,-0.562971,0.564505,-0.590583,0.575243,-0.559903
4.6117,0.016740,0.000000,-0.028784,0.028784,0.0000,0.0000,0.0000,-0.002374,-0.069029,0.069029,0.4314,0.5148,0.1491,0.000000,0.578311,-0.562971,0.564505,-0.590583,0.575243,-0.559903
4.6284,0.016750,0.000000,-0.020014,0.020014,0.0000,0.0000,0.0000,-0.002361,-0.056757,0.056757,0.4363,0.5636,0.0891,0.000000,0.578311,-0.562971,0.564505,-0.592117,0.575243,-0.559903
4.6452,0.016743,0.000000,-0.011247,0.011247,0.0000,0.0000,0.0000,-0.002363,-0.046019,0.047553,0.4358,0.5585,0.0954,0.000000,0.578311,-0.562971,0.564505,-0.592117,0.575243,-0.559903
4.6620,0.016804,0.000000,-0.002449,0.002449,0.0000,0.0000,0.0000,-0.002361,-0.036816,0.036816,0.3756,0.4906,0.0950,0.000000,0.578311,-0.562971,0.564505,-0.590583,0.575243,-0.561437
4.6787,0.016742,0.000000,-0.006318,0.006318,0.0000,0.0000,0.0000,-0.002338,-0.030680,0.027612,0.4425,0.5329,0.0951,0.000000,0.579845,-0.562971,0.564505,-0.592117,0.575243,-0.561437
4.6955,0.016773,0.000000,-0.015100,0.015100,0.0000,0.0000,0.0000,-0.002338,-0.018408,0.018408,0.4425,0.5329,0.0951,0.000000,0.579845,-0.562971,0.564505,-0.592117,0.575243,-0.561437
4.7122,0.016743,0.000000,-0.023867,0.023867,0.0000,0.0000,0.0000,-0.002340,-0.018408,0.018408,0.4355,0.5285,0.0951,0.000000,0.579845,-0.562971,0.564505,-0.592117,0.575243,-0.561437
4.7290,0.016753,0.000000,-0.032639,0.032639,0.0000,0.0000,0.0000,-0.002376,-0.003068,0.004602,0.4252,0.5114,0.1485,0.000000,0.578311,-0.562971,0.564505,-0.590583,0.575243,-0.559903
4.7458,0.016748,0.000000,-0.041408,0.041408,0.0000,0.0000,0.0000,-0.002359,0.001534,0.001534,0.3767,0.4955,0.0894,0.000000,0.578311,-0.562971,0.564505,-0.590583,0.575243,-0.561437
4.7625,0.016758,0.000000,-0.050183,0.050183,0.0000,0.0000,0.0000,-0.002363,-0.001534,0.009204,0.4420,0.5656,0.0953,0.000000,0.578311,-0.562971,0.564505,-0.592117,0.575243,-0.559903
4.7793,0.016750,0.000000,-0.058953,0.058953,0.0000,0.0000,0.0000,-0.002338,-0.015340,0.026078,0.4355,0.5251,0.0951,0.000000,0.579845,-0.562971,0.564505,-0.592117,0.575243,-0.561437
4.7960,0.016769,0.000000,-0.067733,0.067733,0.0000,0.0000,0.0000,-0.002338,-0.015340,0.026078,0.4355,0.5251,0.0951,0.000000,0.579845,-0.562971,0.564505,-0.592117,0.575243,-0.561437
4.8128,0.016750,0.000000,-0.076504,0.076504,0.0000,0.0000,0.0000,-0.002363,-0.032214,0.039884,0.3757,0.4941,0.0950,0.000000,0.578311,-0.562971,0.564505,-0.590583,0.575243,-0.561437
4.8295,0.016751,0.000000,-0.085274,0.085274,0.0000,0.0000,0.0000,-0.002361,-0.053689,0.052155,0.3819,0.4973,0.0950,0.000000,0.578311,-0.562971,0.564505,-0.590583,0.575243,-0.561437
4.8463,0.016744,0.000000,-0.094041,0.094041,0.0000,0.0000,0.0000,-0.002375,-0.061359,0.055223,0.4023,0.6009,0.1479,0.000000,0.578311,-0.561437,0.564505,-0.592117,0.575243,-0.559903
4.8630,0.016766,0.000000,-0.102820,0.102820,0.0000,0.0000,0.0000,-0.002373,-0.061359,0.059825,0.4287,0.5038,0.1430,0.000000,0.578311,-0.562971,0.564505,-0.590583,0.575243,-0.559903
4.8798,0.016746,0.000000,-0.111588,0.111588,0.0000,0.0000,0.0000,-0.002361,-0.067495,0.076699,0.4757,0.4984,0.1973,0.000000,0.579845,-0.562971,0.564505,-0.590583,0.575243,-0.559903
4.8966,0.016766,0.000000,-0.120367,0.120367,0.0000,0.0000,0.0000,-0.002361,-0.067495,0.076699,0.4757,0.4984,0.1973,0.000000,0.579845,-0.562971,0.564505,-0.590583,0.575243,-0.559903
4.9133,0.016740,0.000000,-0.129132,0.129132,0.0000,0.0000,0.0000,-0.002361,-0.084369,0.093573,0.3715,0.4968,0.0844,0.000000,0.578311,-0.562971,0.564505,-0.590583,0.575243,-0.561437
4.9300,0.016748,0.000000,-0.137901,0.137901,0.0000,0.0000,0.0000,-0.002338,-0.102777,0.105845,0.4429,0.5322,0.0962,0.000000,0.579845,-0.562971,0.564505,-0.592117,0.575243,-0.561437
4.9468,0.016742,0.000000,-0.146668,0.146668,0.0000,0.0000,0.0000,-0.002352,-0.116583,0.110447,0.3856,0.5441,0.0412,0.000000,0.578311,-0.562971,0.564505,-0.592117,0.575243,-0.561437
4.9635,0.016750,0.000000,-0.155438,0.155438,0.0000,0.0000,0.0000,-0.002364,-0.122718,0.115049,0.4411,0.5605,0.1004,0.000000,0.578311,-0.562971,0.564505,-0.592117,0.575243,-0.559903
4.9803,0.016738,0.000000,-0.164202,0.164202,0.0000,0.0000,0.0000,-0.002361,-0.130388,0.130388,0.3751,0.4904,0.0945,0.000000,0.578311,-0.562971,0.564505,-0.590583,0.575243,-0.561437
4.9970,0.016766,0.000000,-0.172980,0.172980,0.0000,0.0000,0.0000,-0.002361,-0.130388,0.130388,0.3751,0.4904,0.0945,0.000000,0.578311,-0.562971,0.564505,-0.590583,0.575243,-0.561437
5.0138,0.016743,0.000000,-0.181747,0.181747,0.0000,0.0000,0.0000,-0.002350,-0.147262,0.147262,0.3927,0.5485,0.0413,0.000000,0.578311,-0.562971,0.564505,-0.592117,0.575243,-0.561437
5.0305,0.016754,0.000000,-0.190520,0.190520,0.0000,0.0000,0.0000,-0.002364,-0.161068,0.156466,0.4404,0.5600,0.1004,0.000000,0.578311,-0.562971,0.564505,-0.592117,0.575243,-0.559903
5.0473,0.016740,0.000000,-0.199285,0.199285,0.0000,0.0000,0.0000,-0.002374,-0.167204,0.161068,0.4247,0.5081,0.1479,0.000000,0.578311,-0.562971,0.564505,-0.590583,0.575243,-0.559903
5.0640,0.016742,0.000000,-0.208051,0.208051,0.0000,0.0000,0.0000,-0.002373,-0.168738,0.168738,0.4263,0.5135,0.1430,0.000000,0.578311,-0.562971,0.564505,-0.590583,0.575243,-0.559903
5.0808,0.016743,0.000000,-0.216817,0.216817,0.0000,0.0000,0.0000,-0.002373,-0.182544,0.188680,0.4263,0.5135,0.1430,0.000000,0.578311,-0.562971,0.564505,-0.590583,0.575243,-0.559903
5.0975,0.016746,0.000000,-0.225586,0.225586,0.0000,0.0000,0.0000,-0.002373,-0.182544,0.188680,0.4263,0.5135,0.1430,0.000000,0.578311,-0.562971,0.564505,-0.590583,0.575243,-0.559903
5.1143,0.016749,0.000000,-0.234355,0.234355,0.0000,0.0000,0.0000,-0.002360,-0.200951,0.204019,0.3766,0.4953,0.0900,0.000000,0.578311,-0.562971,0.564505,-0.590583,0.575243,-0.561437
5.1310,0.016741,0.000000,-0.243121,0.243121,0.0000,0.0000,0.0000,-0.002361,-0.211689,0.207087,0.3818,0.4972,0.0955,0.000000,0.578311,-0.562971,0.564505,-0.590583,0.575243,-0.561437
5.1477,0.016744,0.000000,-0.251888,0.251888,0.0000,0.0000,0.0000,-0.002350,-0.214757,0.210155,0.3920,0.5478,0.0412,0.000000,0.578311,-0.562971,0.564505,-0.592117,0.575243,-0.561437
5.1645,0.016750,0.000000,-0.260658,0.260658,0.0000,0.0000,0.0000,-0.002364,-0.220893,0.219359,0.4404,0.5601,0.1004,0.000000,0.578311,-0.562971,0.564505,-0.592117,0.575243,-0.559903
5.1812,0.016755,0.000000,-0.269431,0.269431,0.0000,0.0000,0.0000,-0.002361,-0.239301,0.236233,0.3751,0.4905,0.0945,0.000000,0.578311,-0.562971,0.564505,-0.590583,0.575243,-0.561437
5.1980,0.016747,0.000000,-0.278199,0.278199,0.0000,0.0000,0.0000,-0.002361,-0.239301,0.236233,0.3751,0.4905,0.0945,0.000000,0.578311,-0.562971,0.564505,-0.590583,0.575243,-0.561437
5.2147,0.016748,0.000000,-0.286968,0.286968,0.0000,0.0000,0.0000,-0.002350,-0.256175,0.254641,0.3927,0.5485,0.0413,0.000000,0.578311,-0.562971,0.564505,-0.592117,0.575243,-0.561437
5.2315,0.016741,0.000000,-0.295734,0.295734,0.0000,0.0000,0.0000,-0.002364,-0.262311,0.262311,0.4404,0.5600,0.1004,0.000000,0.578311,-0.562971,0.564505,-0.592117,0.575243,-0.559903
5.2482,0.016740,0.000000,-0.304499,0.304499,0.0000,0.0000,0.0000,-0.002349,-0.262311,0.263845,0.4249,0.4749,0.1483,0.000000,0.579845,-0.562971,0.564505,-0.590583,0.575243,-0.561437
5.2650,0.016742,0.000000,-0.313265,0.313265,0.0000,0.0000,0.0000,-0.002352,-0.271515,0.268447,0.4868,0.5522,0.1430,0.000000,0.579845,-0.562971,0.564505,-0.592117,0.575243,-0.559903
5.2817,0.016744,0.000000,-0.322032,0.322032,0.0000,0.0000,0.0000,-0.002363,-0.288388,0.286854,0.4696,0.4933,0.1973,0.000000,0.579845,-0.562971,0.564505,-0.590583,0.575243,-0.559903
5.2984,0.016743,0.000000,-0.330799,0.330799,0.0000,0.0000,0.0000,-0.002363,-0.288388,0.286854,0.4696,0.4933,0.1973,0.000000,0.579845,-0.562971,0.564505,-0.590583,0.575243,-0.559903
5.3152,0.016746,0.000000,-0.339567,0.339567,0.0000,0.0000,0.0000,-0.002349,-0.308330,0.305262,0.3828,0.5482,0.0306,0.000000,0.578311,-0.562971,0.564505,-0.592117,0.575243,-0.561437
5.3319,0.016748,0.000000,-0.348336,0.348336,0.0000,0.0000,0.0000,-0.002351,-0.317534,0.312932,0.3919,0.5425,0.0480,0.000000,0.578311,-0.562971,0.564505,-0.592117,0.575243,-0.561437
5.3487,0.016744,0.000000,-0.341028,0.341028,0.0000,0.0000,0.0000,-0.002364,-0.320602,0.316000,0.4405,0.5607,0.0997,0.000000,0.578311,-0.562971,0.564505,-0.592117,0.575243,-0.559903
5.3654,0.016745,0.000000,-0.332261,0.332261,0.0000,0.0000,0.0000,-0.002374,-0.328272,0.323670,0.4247,0.5080,0.1480,0.000000,0.578311,-0.562971,0.564505,-0.590583,0.575243,-0.559903
5.3822,0.016747,0.000000,-0.323492,0.323492,0.0000,0.0000,0.0000,-0.002361,-0.343612,0.340544,0.4761,0.4979,0.1968,0.000000,0.579845,-0.562971,0.564505,-0.590583,0.575243,-0.559903
5.3989,0.016747,0.000000,-0.314724,0.314724,0.0000,0.0000,0.0000,-0.002361,-0.343612,0.340544,0.4761,0.4979,0.1968,0.000000,0.579845,-0.562971,0.564505,-0.590583,0.575243,-0.559903
5.4157,0.016742,0.000000,-0.305958,0.305958,0.0000,0.0000,0.0000,-0.002351,-0.355884,0.352816,0.4815,0.5498,0.1380,0.000000,0.579845,-0.562971,0.564505,-0.592117,0.575243,-0.559903
5.4324,0.016744,0.000000,-0.297190,0.297190,0.0000,0.0000,0.0000,-0.002375,-0.354350,0.349748,0.4204,0.5092,0.1440,0.000000,0.578311,-0.562971,0.564505,-0.590583,0.575243,-0.559903
5.4492,0.016743,0.000000,-0.288424,0.288424,0.0000,0.0000,0.0000,-0.002360,-0.343612,0.337476,0.3772,0.4958,0.0899,0.000000,0.578311,-0.562971,0.564505,-0.590583,0.575243,-0.561437
5.4659,0.016740,0.000000,-0.279659,0.279659,0.0000,0.0000,0.0000,-0.002363,-0.316000,0.314466,0.4420,0.5656,0.0953,0.000000,0.578311,-0.562971,0.564505,-0.592117,0.575243,-0.559903
5.4828,0.016911,0.000000,-0.270804,0.270804,0.0000,0.0000,0.0000,-0.002351,-0.302194,0.303728,0.4851,0.5427,0.1486,0.000000,0.579845,-0.562971,0.564505,-0.592117,0.575243,-0.559903
