t,loop_dt,cmd_z,cmd_ant_l,cmd_ant_r,cmd_roll,cmd_pitch,cmd_yaw,pres_z,pres_ant_l,pres_ant_r,pres_roll,pres_pitch,pres_yaw,pres_j0,pres_j1,pres_j2,pres_j3,pres_j4,pres_j5,pres_j6
0.0000,0.000001,0.000000,-0.349066,0.349066,0.0000,0.0000,0.0000,-0.002476,-0.181010,0.190214,0.3893,0.6610,0.1959,0.000000,0.572175,-0.561437,0.564505,-0.590583,0.575243,-0.553767
0.0168,0.016763,0.000000,-0.346725,0.346725,0.0000,0.0000,0.0000,-0.002476,-0.179476,0.184078,0.3893,0.6610,0.1959,0.000000,0.572175,-0.561437,0.564505,-0.592117,0.575243,-0.552233
0.0335,0.016761,0.000000,-0.344385,0.344385,0.0000,0.0000,0.0000,-0.002476,-0.179476,0.184078,0.4501,0.7345,0.1894,0.000000,0.572175,-0.561437,0.564505,-0.592117,0.575243,-0.552233
0.0503,0.016756,0.000000,-0.342045,0.342045,0.0000,0.0000,0.0000,-0.002462,-0.179476,0.177942,0.4227,0.6227,0.1373,0.000000,0.572175,-0.562971,0.564505,-0.590583,0.575243,-0.553767
0.0670,0.016757,0.000000,-0.339706,0.339706,0.0000,0.0000,0.0000,-0.002463,-0.202485,0.196350,0.4255,0.6344,0.1428,0.000000,0.572175,-0.562971,0.564505,-0.590583,0.575243,-0.553767
0.0838,0.016769,0.000000,-0.337364,0.337364,0.0000,0.0000,0.0000,-0.002463,-0.271515,0.266913,0.4251,0.6328,0.1420,0.000000,0.572175,-0.562971,0.564505,-0.590583,0.575243,-0.553767
0.1006,0.016761,0.000000,-0.335024,0.335024,0.0000,0.0000,0.0000,-0.002476,-0.345146,0.339010,0.3862,0.6689,0.1954,0.000000,0.572175,-0.561437,0.564505,-0.590583,0.575243,-0.553767
0.1174,0.016794,0.000000,-0.332679,0.332679,0.0000,0.0000,0.0000,-0.002476,-0.345146,0.339010,0.3862,0.6689,0.1954,0.000000,0.572175,-0.561437,0.564505,-0.590583,0.575243,-0.553767
0.1342,0.016841,0.000000,-0.330327,0.330327,0.0000,0.0000,0.0000,-0.002450,-0.377359,0.371223,0.4399,0.6804,0.0830,0.000000,0.572175,-0.562971,0.564505,-0.592117,0.575243,-0.553767
0.1510,0.016760,0.000000,-0.327987,0.327987,0.0000,0.0000,0.0000,-0.002428,-0.372757,0.368155,0.4346,0.6459,0.0950,0.000000,0.573709,-0.562971,0.564505,-0.592117,0.575243,-0.555301
0.1677,0.016751,0.000000,-0.325648,0.325648,0.0000,0.0000,0.0000,-0.002417,-0.354350,0.354350,0.3855,0.6319,0.0404,0.000000,0.573709,-0.562971,0.564505,-0.592117,0.575243,-0.556835
0.1845,0.016773,0.000000,-0.323306,0.323306,0.0000,0.0000,0.0000,-0.002418,-0.339010,0.342078,0.4299,0.5670,0.1535,0.000000,0.575243,-0.562971,0.564505,-0.590583,0.575243,-0.556835
0.2012,0.016754,0.000000,-0.320967,0.320967,0.0000,0.0000,0.0000,-0.002406,-0.328272,0.331340,0.4752,0.5582,0.1955,0.000000,0.576777,-0.562971,0.564505,-0.590583,0.575243,-0.556835
0.2180,0.016774,0.000000,-0.318625,0.318625,0.0000,0.0000,0.0000,-0.002406,-0.328272,0.331340,0.4752,0.5582,0.1955,0.000000,0.576777,-0.562971,0.564505,-0.590583,0.575243,-0.556835
0.2348,0.016759,0.000000,-0.316285,0.316285,0.0000,0.0000,0.0000,-0.002382,-0.326738,0.328272,0.4706,0.5259,0.1915,0.000000,0.578311,-0.562971,0.564505,-0.590583,0.575243,-0.558369
0.2515,0.016759,0.000000,-0.313945,0.313945,0.0000,0.0000,0.0000,-0.002372,-0.325204,0.322136,0.4215,0.5116,0.1384,0.000000,0.578311,-0.562971,0.564505,-0.590583,0.575243,-0.559903
0.2683,0.016751,0.000000,-0.311606,0.311606,0.0000,0.0000,0.0000,-0.002361,-0.325204,0.322136,0.4765,0.4975,0.1978,0.000000,0.579845,-0.562971,0.564505,-0.590583,0.575243,-0.559903
0.2850,0.016762,0.000000,-0.309266,0.309266,0.0000,0.0000,0.0000,-0.002364,-0.325204,0.322136,0.4423,0.5854,0.1911,0.000000,0.579845,-0.561437,0.564505,-0.592117,0.575243,-0.559903
0.3018,0.016773,0.000000,-0.306924,0.306924,0.0000,0.0000,0.0000,-0.002362,-0.323670,0.322136,0.4743,0.4899,0.1923,0.000000,0.579845,-0.562971,0.564505,-0.590583,0.575243,-0.559903
0.3186,0.016762,0.000000,-0.304583,0.304583,0.0000,0.0000,0.0000,-0.002362,-0.323670,0.322136,0.4743,0.4899,0.1923,0.000000,0.579845,-0.562971,0.564505,-0.590583,0.575243,-0.559903
0.3353,0.016752,0.000000,-0.302244,0.302244,0.0000,0.0000,0.0000,-0.002351,-0.320602,0.320602,0.4817,0.5506,0.1385,0.000000,0.579845,-0.562971,0.564505,-0.592117,0.575243,-0.559903
0.3521,0.016758,0.000000,-0.299905,0.299905,0.0000,0.0000,0.0000,-0.002364,-0.314466,0.317534,0.4702,0.4935,0.1978,0.000000,0.579845,-0.562971,0.564505,-0.590583,0.575243,-0.559903
0.3689,0.016761,0.000000,-0.297564,0.297564,0.0000,0.0000,0.0000,-0.002362,-0.312932,0.312932,0.4714,0.4994,0.1916,0.000000,0.579845,-0.562971,0.564505,-0.590583,0.575243,-0.559903
0.3858,0.016987,0.000000,-0.295193,0.295193,0.0000,0.0000,0.0000,-0.002351,-0.311398,0.308330,0.4820,0.5496,0.1385,0.000000,0.579845,-0.562971,0.564505,-0.592117,0.575243,-0.559903
0.4026,0.016773,0.000000,-0.292851,0.292851,0.0000,0.0000,0.0000,-0.002351,-0.311398,0.308330,0.4820,0.5496,0.1385,0.000000,0.579845,-0.562971,0.564505,-0.592117,0.575243,-0.559903
0.4194,0.016762,0.000000,-0.290510,0.290510,0.0000,0.0000,0.0000,-0.002364,-0.311398,0.308330,0.4701,0.4936,0.1978,0.000000,0.579845,-0.562971,0.564505,-0.590583,0.575243,-0.559903
0.4363,0.016913,0.000000,-0.288149,0.288149,0.0000,0.0000,0.0000,-0.002349,-0.311398,0.306796,0.4218,0.4818,0.1381,0.000000,0.579845,-0.562971,0.564505,-0.590583,0.575243,-0.561437
0.4531,0.016763,0.000000,-0.285808,0.285808,0.0000,0.0000,0.0000,-0.002364,-0.311398,0.305262,0.4764,0.5006,0.1978,0.000000,0.579845,-0.562971,0.564505,-0.590583,0.575243,-0.559903
0.4698,0.016762,0.000000,-0.283468,0.283468,0.0000,0.0000,0.0000,-0.002351,-0.309864,0.302194,0.4815,0.5495,0.1379,0.000000,0.579845,-0.562971,0.564505,-0.592117,0.575243,-0.559903
0.4866,0.016764,0.000000,-0.281127,0.281127,0.0000,0.0000,0.0000,-0.002351,-0.309864,0.302194,0.4815,0.5495,0.1379,0.000000,0.579845,-0.562971,0.564505,-0.592117,0.575243,-0.559903
0.5033,0.016751,0.000000,-0.278788,0.278788,0.0000,0.0000,0.0000,-0.002352,-0.299126,0.297592,0.4809,0.5444,0.1441,0.000000,0.579845,-0.562971,0.564505,-0.592117,0.575243,-0.559903
0.5201,0.016768,0.000000,-0.276447,0.276447,0.0000,0.0000,0.0000,-0.002363,-0.291456,0.292990,0.4702,0.4942,0.1972,0.000000,0.579845,-0.562971,0.564505,-0.590583,0.575243,-0.559903
0.5369,0.016754,0.000000,-0.274107,0.274107,0.0000,0.0000,0.0000,-0.002351,-0.285320,0.286854,0.4821,0.5502,0.1379,0.000000,0.579845,-0.562971,0.564505,-0.592117,0.575243,-0.559903
0.5536,0.016767,0.000000,-0.271766,0.271766,0.0000,0.0000,0.0000,-0.002364,-0.282252,0.285320,0.4701,0.4936,0.1978,0.000000,0.579845,-0.562971,0.564505,-0.590583,0.575243,-0.559903
0.5704,0.016769,0.000000,-0.269425,0.269425,0.0000,0.0000,0.0000,-0.002364,-0.282252,0.282252,0.4701,0.4936,0.1978,0.000000,0.579845,-0.562971,0.564505,-0.592117,0.575243,-0.559903
0.5872,0.016767,0.000000,-0.267084,0.267084,0.0000,0.0000,0.0000,-0.002351,-0.282252,0.282252,0.4821,0.5503,0.1379,0.000000,0.579845,-0.562971,0.564505,-0.592117,0.575243,-0.559903
0.6039,0.016749,0.000000,-0.264745,0.264745,0.0000,0.0000,0.0000,-0.002364,-0.282252,0.282252,0.4701,0.4935,0.1978,0.000000,0.579845,-0.562971,0.564505,-0.590583,0.575243,-0.559903
0.6207,0.016753,0.000000,-0.262406,0.262406,0.0000,0.0000,0.0000,-0.002362,-0.282252,0.282252,0.4714,0.4994,0.1916,0.000000,0.579845,-0.562971,0.564505,-0.590583,0.575243,-0.559903
0.6374,0.016754,0.000000,-0.260067,0.260067,0.0000,0.0000,0.0000,-0.002362,-0.282252,0.280718,0.4714,0.4994,0.1916,0.000000,0.579845,-0.562971,0.564505,-0.590583,0.575243,-0.559903
0.6542,0.016763,0.000000,-0.257726,0.257726,0.0000,0.0000,0.0000,-0.002362,-0.282252,0.280718,0.4714,0.4994,0.1916,0.000000,0.579845,-0.562971,0.564505,-0.590583,0.575243,-0.559903
0.6710,0.016814,0.000000,-0.255378,0.255378,0.0000,0.0000,0.0000,-0.002362,-0.279185,0.279185,0.4714,0.4994,0.1916,0.000000,0.579845,-0.562971,0.564505,-0.590583,0.575243,-0.559903
0.6878,0.016768,0.000000,-0.253037,0.253037,0.0000,0.0000,0.0000,-0.002362,-0.279185,0.279185,0.4714,0.4994,0.1916,0.000000,0.579845,-0.562971,0.564505,-0.590583,0.575243,-0.559903
0.7045,0.016755,0.000000,-0.250698,0.250698,0.0000,0.0000,0.0000,-0.002351,-0.271515,0.274583,0.4820,0.5496,0.1385,0.000000,0.579845,-0.562971,0.564505,-0.592117,0.575243,-0.559903
0.7229,0.018384,0.000000,-0.248131,0.248131,0.0000,0.0000,0.0000,-0.002364,-0.263845,0.269981,0.4701,0.4936,0.1978,0.000000,0.579845,-0.562971,0.564505,-0.590583,0.575243,-0.559903
0.7396,0.016752,0.000000,-0.245792,0.245792,0.0000,0.0000,0.0000,-0.002338,-0.257709,0.262311,0.4326,0.5326,0.0844,0.000000,0.579845,-0.562971,0.564505,-0.592117,0.575243,-0.561437
0.7564,0.016753,0.000000,-0.243453,0.243453,0.0000,0.0000,0.0000,-0.002353,-0.256175,0.254641,0.4860,0.5462,0.1497,0.000000,0.579845,-0.562971,0.564505,-0.592117,0.575243,-0.559903
0.7732,0.016766,0.000000,-0.241112,0.241112,0.0000,0.0000,0.0000,-0.002363,-0.254641,0.253107,0.4697,0.4940,0.1966,0.000000,0.579845,-0.562971,0.564505,-0.590583,0.575243,-0.559903
0.7899,0.016758,0.000000,-0.238772,0.238772,0.0000,0.0000,0.0000,-0.002363,-0.254641,0.253107,0.4697,0.4940,0.1966,0.000000,0.579845,-0.562971,0.564505,-0.590583,0.575243,-0.559903
0.8067,0.016754,0.000000,-0.236432,0.236432,0.0000,0.0000,0.0000,-0.002375,-0.254641,0.251573,0.4322,0.5349,0.2449,0.000000,0.579845,-0.561437,0.564505,-0.590583,0.575243,-0.559903
0.8234,0.016752,0.000000,-0.234093,0.234093,0.0000,0.0000,0.0000,-0.002350,-0.254641,0.251573,0.4861,0.5459,0.1330,0.000000,0.579845,-0.562971,0.564505,-0.592117,0.575243,-0.559903
0.8402,0.016756,0.000000,-0.231754,0.231754,0.0000,0.0000,0.0000,-0.002364,-0.254641,0.251573,0.4697,0.4940,0.1983,0.000000,0.579845,-0.562971,0.564505,-0.590583,0.575243,-0.559903
0.8569,0.016754,0.000000,-0.229415,0.229415,0.0000,0.0000,0.0000,-0.002351,-0.251573,0.251573,0.4822,0.5502,0.1378,0.000000,0.579845,-0.562971,0.564505,-0.592117,0.575243,-0.559903
0.8737,0.016761,0.000000,-0.227074,0.227074,0.0000,0.0000,0.0000,-0.002351,-0.243903,0.248505,0.4822,0.5502,0.1378,0.000000,0.579845,-0.562971,0.564505,-0.590583,0.575243,-0.559903
0.8905,0.016763,0.000000,-0.224734,0.224734,0.0000,0.0000,0.0000,-0.002364,-0.243903,0.248505,0.4701,0.4936,0.1978,0.000000,0.579845,-0.562971,0.564505,-0.590583,0.575243,-0.559903
0.9072,0.016754,0.000000,-0.222394,0.222394,0.0000,0.0000,0.0000,-0.002362,-0.234699,0.243903,0.4714,0.4994,0.1916,0.000000,0.579845,-0.562971,0.564505,-0.590583,0.575243,-0.559903
0.9240,0.016761,0.000000,-0.220054,0.220054,0.0000,0.0000,0.0000,-0.002351,-0.230097,0.236233,0.4820,0.5496,0.1385,0.000000,0.579845,-0.562971,0.564505,-0.592117,0.575243,-0.559903
0.9407,0.016761,0.000000,-0.217714,0.217714,0.0000,0.0000,0.0000,-0.002364,-0.228563,0.231631,0.4701,0.4936,0.1978,0.000000,0.579845,-0.562971,0.564505,-0.590583,0.575243,-0.559903
0.9576,0.016883,0.000000,-0.215357,0.215357,0.0000,0.0000,0.0000,-0.002362,-0.230097,0.228563,0.4714,0.4994,0.1916,0.000000,0.579845,-0.562971,0.564505,-0.590583,0.575243,-0.559903
0.9744,0.016761,0.000000,-0.213016,0.213016,0.0000,0.0000,0.0000,-0.002362,-0.228563,0.227029,0.4714,0.4994,0.1916,0.000000,0.579845,-0.562971,0.564505,-0.590583,0.575243,-0.559903
0.9911,0.016757,0.000000,-0.210677,0.210677,0.0000,0.0000,0.0000,-0.002362,-0.228563,0.227029,0.4714,0.4994,0.1916,0.000000,0.579845,-0.562971,0.564505,-0.590583,0.575243,-0.559903
1.0079,0.016754,0.000000,-0.208337,0.208337,0.0000,0.0000,0.0000,-0.002362,-0.228563,0.227029,0.4714,0.4994,0.1916,0.000000,0.579845,-0.562971,0.564505,-0.590583,0.575243,-0.559903
1.0246,0.016749,0.000000,-0.205999,0.205999,0.0000,0.0000,0.0000,-0.002362,-0.228563,0.227029,0.4714,0.4994,0.1916,0.000000,0.579845,-0.562971,0.564505,-0.590583,0.575243,-0.559903
1.0414,0.016757,0.000000,-0.203659,0.203659,0.0000,0.0000,0.0000,-0.002351,-0.225495,0.227029,0.4820,0.5496,0.1385,0.000000,0.579845,-0.562971,0.564505,-0.592117,0.575243,-0.559903
1.0582,0.016758,0.000000,-0.201319,0.201319,0.0000,0.0000,0.0000,-0.002352,-0.219359,0.225495,0.4809,0.5444,0.1441,0.000000,0.579845,-0.562971,0.564505,-0.592117,0.575243,-0.559903
1.0749,0.016758,0.000000,-0.198979,0.198979,0.0000,0.0000,0.0000,-0.002363,-0.210155,0.222427,0.4703,0.4942,0.1972,0.000000,0.579845,-0.562971,0.564505,-0.590583,0.575243,-0.559903
1.0917,0.016759,0.000000,-0.196639,0.196639,0.0000,0.0000,0.0000,-0.002363,-0.210155,0.222427,0.4703,0.4942,0.1972,0.000000,0.579845,-0.562971,0.564505,-0.590583,0.575243,-0.559903
1.1084,0.016758,0.000000,-0.194299,0.194299,0.0000,0.0000,0.0000,-0.002362,-0.202485,0.216291,0.4714,0.4994,0.1917,0.000000,0.579845,-0.562971,0.564505,-0.590583,0.575243,-0.559903
1.1252,0.016750,0.000000,-0.191961,0.191961,0.0000,0.0000,0.0000,-0.002362,-0.202485,0.210155,0.4714,0.4994,0.1917,0.000000,0.579845,-0.562971,0.564505,-0.590583,0.575243,-0.559903
1.1419,0.016758,0.000000,-0.189621,0.189621,0.0000,0.0000,0.0000,-0.002362,-0.202485,0.204019,0.4714,0.4994,0.1917,0.000000,0.579845,-0.562971,0.564505,-0.590583,0.575243,-0.559903
1.1587,0.016796,0.000000,-0.187276,0.187276,0.0000,0.0000,0.0000,-0.002362,-0.202485,0.199418,0.4714,0.4994,0.1917,0.000000,0.579845,-0.562971,0.564505,-0.590583,0.575243,-0.559903
1.1755,0.016757,0.000000,-0.184936,0.184936,0.0000,0.0000,0.0000,-0.002362,-0.202485,0.199418,0.4714,0.4994,0.1917,0.000000,0.579845,-0.562971,0.564505,-0.590583,0.575243,-0.559903
1.1923,0.016760,0.000000,-0.182596,0.182596,0.0000,0.0000,0.0000,-0.002351,-0.200951,0.197884,0.4820,0.5496,0.1385,0.000000,0.579845,-0.562971,0.564505,-0.592117,0.575243,-0.559903
1.2090,0.016750,0.000000,-0.180257,0.180257,0.0000,0.0000,0.0000,-0.002352,-0.200951,0.196350,0.4809,0.5444,0.1441,0.000000,0.579845,-0.562971,0.564505,-0.592117,0.575243,-0.559903
1.2258,0.016751,0.000000,-0.177918,0.177918,0.0000,0.0000,0.0000,-0.002352,-0.199418,0.196350,0.4809,0.5444,0.1441,0.000000,0.579845,-0.562971,0.564505,-0.592117,0.575243,-0.559903
1.2425,0.016753,0.000000,-0.175579,0.175579,0.0000,0.0000,0.0000,-0.002363,-0.197884,0.196350,0.4703,0.4942,0.1972,0.000000,0.579845,-0.562971,0.564505,-0.590583,0.575243,-0.559903
1.2593,0.016758,0.000000,-0.173239,0.173239,0.0000,0.0000,0.0000,-0.002362,-0.190214,0.194816,0.4714,0.4994,0.1917,0.000000,0.579845,-0.562971,0.564505,-0.590583,0.575243,-0.559903
1.2760,0.016767,0.000000,-0.170898,0.170898,0.0000,0.0000,0.0000,-0.002362,-0.190214,0.194816,0.4714,0.4994,0.1917,0.000000,0.579845,-0.562971,0.564505,-0.590583,0.575243,-0.559903
1.2928,0.016763,0.000000,-0.168557,0.168557,0.0000,0.0000,0.0000,-0.002362,-0.181010,0.190214,0.4714,0.4994,0.1917,0.000000,0.579845,-0.562971,0.564505,-0.590583,0.575243,-0.559903
1.3096,0.016764,0.000000,-0.166217,0.166217,0.0000,0.0000,0.0000,-0.002351,-0.176408,0.182544,0.4820,0.5496,0.1385,0.000000,0.579845,-0.562971,0.564505,-0.592117,0.575243,-0.559903
1.3263,0.016769,0.000000,-0.163875,0.163875,0.0000,0.0000,0.0000,-0.002352,-0.176408,0.176408,0.4809,0.5444,0.1441,0.000000,0.579845,-0.562971,0.564505,-0.592117,0.575243,-0.559903
1.3431,0.016759,0.000000,-0.161535,0.161535,0.0000,0.0000,0.0000,-0.002363,-0.176408,0.171806,0.4703,0.4942,0.1972,0.000000,0.579845,-0.562971,0.564505,-0.590583,0.575243,-0.559903
1.3599,0.016770,0.000000,-0.159194,0.159194,0.0000,0.0000,0.0000,-0.002362,-0.174874,0.170272,0.4714,0.4994,0.1917,0.000000,0.579845,-0.562971,0.564505,-0.590583,0.575243,-0.559903
1.3766,0.016754,0.000000,-0.156855,0.156855,0.0000,0.0000,0.0000,-0.002362,-0.174874,0.170272,0.4714,0.4994,0.1917,0.000000,0.579845,-0.562971,0.564505,-0.590583,0.575243,-0.559903
1.3934,0.016752,0.000000,-0.154516,0.154516,0.0000,0.0000,0.0000,-0.002362,-0.174874,0.170272,0.4714,0.4994,0.1917,0.000000,0.579845,-0.562971,0.564505,-0.590583,0.575243,-0.559903
1.4101,0.016749,0.000000,-0.152177,0.152177,0.0000,0.0000,0.0000,-0.002362,-0.168738,0.168738,0.4714,0.4994,0.1917,0.000000,0.579845,-0.562971,0.564505,-0.590583,0.575243,-0.559903
1.4269,0.016752,0.000000,-0.149838,0.149838,0.0000,0.0000,0.0000,-0.002362,-0.161068,0.167204,0.4714,0.4994,0.1917,0.000000,0.579845,-0.562971,0.564505,-0.590583,0.575243,-0.559903
1.4436,0.016750,0.000000,-0.147499,0.147499,0.0000,0.0000,0.0000,-0.002351,-0.153398,0.162602,0.4820,0.5496,0.1385,0.000000,0.579845,-0.562971,0.564505,-0.592117,0.575243,-0.559903
1.4604,0.016766,0.000000,-0.145158,0.145158,0.0000,0.0000,0.0000,-0.002351,-0.151864,0.154932,0.4820,0.5496,0.1385,0.000000,0.579845,-0.562971,0.564505,-0.590583,0.575243,-0.559903
1.4771,0.016754,0.000000,-0.142819,0.142819,0.0000,0.0000,0.0000,-0.002364,-0.151864,0.154932,0.4701,0.4936,0.1978,0.000000,0.579845,-0.562971,0.564505,-0.590583,0.575243,-0.559903
1.4939,0.016765,0.000000,-0.140478,0.140478,0.0000,0.0000,0.0000,-0.002362,-0.151864,0.148796,0.4714,0.4994,0.1916,0.000000,0.579845,-0.562971,0.564505,-0.590583,0.575243,-0.559903
1.5107,0.016759,0.000000,-0.138138,0.138138,0.0000,0.0000,0.0000,-0.002362,-0.151864,0.145728,0.4714,0.4994,0.1916,0.000000,0.579845,-0.562971,0.564505,-0.590583,0.575243,-0.559903
1.5274,0.016756,0.000000,-0.135799,0.135799,0.0000,0.0000,0.0000,-0.002351,-0.148796,0.144194,0.4820,0.5496,0.1385,0.000000,0.579845,-0.562971,0.564505,-0.592117,0.575243,-0.559903
1.5442,0.016765,0.000000,-0.133458,0.133458,0.0000,0.0000,0.0000,-0.002351,-0.145728,0.144194,0.4820,0.5496,0.1385,0.000000,0.579845,-0.562971,0.564505,-0.592117,0.575243,-0.559903
1.5609,0.016752,0.000000,-0.131119,0.131119,0.0000,0.0000,0.0000,-0.002352,-0.145728,0.144194,0.4809,0.5444,0.1441,0.000000,0.579845,-0.562971,0.564505,-0.592117,0.575243,-0.559903
1.5777,0.016754,0.000000,-0.128779,0.128779,0.0000,0.0000,0.0000,-0.002352,-0.145728,0.144194,0.4809,0.5444,0.1441,0.000000,0.579845,-0.562971,0.564505,-0.592117,0.575243,-0.559903
1.5944,0.016753,0.000000,-0.126440,0.126440,0.0000,0.0000,0.0000,-0.002352,-0.142660,0.144194,0.4809,0.5444,0.1441,0.000000,0.579845,-0.562971,0.564505,-0.592117,0.575243,-0.559903
1.6112,0.016750,0.000000,-0.124102,0.124102,0.0000,0.0000,0.0000,-0.002363,-0.134990,0.141126,0.4703,0.4942,0.1972,0.000000,0.579845,-0.562971,0.564505,-0.590583,0.575243,-0.559903
1.6280,0.016771,0.000000,-0.121760,0.121760,0.0000,0.0000,0.0000,-0.002375,-0.127320,0.138058,0.4321,0.5349,0.2448,0.000000,0.579845,-0.561437,0.564505,-0.590583,0.575243,-0.559903
1.6447,0.016754,0.000000,-0.119421,0.119421,0.0000,0.0000,0.0000,-0.002375,-0.127320,0.138058,0.4321,0.5349,0.2448,0.000000,0.579845,-0.561437,0.564505,-0.590583,0.575243,-0.559903
1.6615,0.016764,0.000000,-0.117080,0.117080,0.0000,0.0000,0.0000,-0.002361,-0.125786,0.130388,0.4754,0.4951,0.1867,0.000000,0.579845,-0.562971,0.564505,-0.590583,0.575243,-0.559903
1.6782,0.016752,0.000000,-0.114741,0.114741,0.0000,0.0000,0.0000,-0.002362,-0.125786,0.122718,0.4708,0.4993,0.1928,0.000000,0.579845,-0.562971,0.564505,-0.590583,0.575243,-0.559903
1.6950,0.016763,0.000000,-0.112400,0.112400,0.0000,0.0000,0.0000,-0.002338,-0.124252,0.119651,0.4325,0.5320,0.0849,0.000000,0.579845,-0.562971,0.564505,-0.592117,0.575243,-0.561437
1.7117,0.016750,0.000000,-0.110061,0.110061,0.0000,0.0000,0.0000,-0.002365,-0.121184,0.118117,0.4753,0.4954,0.2033,0.000000,0.579845,-0.562971,0.564505,-0.590583,0.575243,-0.559903
1.7285,0.016767,0.000000,-0.107720,0.107720,0.0000,0.0000,0.0000,-0.002365,-0.121184,0.118117,0.4753,0.4954,0.2033,0.000000,0.579845,-0.562971,0.564505,-0.590583,0.575243,-0.559903
1.7453,0.016753,0.000000,-0.105381,0.105381,0.0000,0.0000,0.0000,-0.002351,-0.119651,0.118117,0.4816,0.5501,0.1373,0.000000,0.579845,-0.562971,0.564505,-0.592117,0.575243,-0.559903
1.7620,0.016758,0.000000,-0.103041,0.103041,0.0000,0.0000,0.0000,-0.002364,-0.118117,0.116583,0.4702,0.4936,0.1979,0.000000,0.579845,-0.562971,0.564505,-0.590583,0.575243,-0.559903
1.7788,0.016756,0.000000,-0.100702,0.100702,0.0000,0.0000,0.0000,-0.002362,-0.111981,0.115049,0.4714,0.4994,0.1916,0.000000,0.579845,-0.562971,0.564505,-0.590583,0.575243,-0.559903
1.7955,0.016757,0.000000,-0.098362,0.098362,0.0000,0.0000,0.0000,-0.002362,-0.107379,0.113515,0.4714,0.4994,0.1916,0.000000,0.579845,-0.562971,0.564505,-0.590583,0.575243,-0.559903
1.8123,0.016749,0.000000,-0.096023,0.096023,0.0000,0.0000,0.0000,-0.002362,-0.107379,0.110447,0.4714,0.4994,0.1916,0.000000,0.579845,-0.562971,0.564505,-0.590583,0.575243,-0.559903
1.8291,0.016778,0.000000,-0.093681,0.093681,0.0000,0.0000,0.0000,-0.002362,-0.107379,0.110447,0.4714,0.4994,0.1916,0.000000,0.579845,-0.562971,0.564505,-0.590583,0.575243,-0.559903
1.8458,0.016759,0.000000,-0.091341,0.091341,0.0000,0.0000,0.0000,-0.002374,-0.105845,0.104311,0.4215,0.5144,0.1384,0.000000,0.578311,-0.562971,0.564505,-0.590583,0.575243,-0.559903
1.8626,0.016756,0.000000,-0.089001,0.089001,0.0000,0.0000,0.0000,-0.002350,-0.102777,0.096641,0.4872,0.5481,0.1441,0.000000,0.579845,-0.562971,0.564505,-0.592117,0.575243,-0.559903
1.8793,0.016751,0.000000,-0.086662,0.086662,0.0000,0.0000,0.0000,-0.002364,-0.096641,0.093573,0.4696,0.4938,0.1972,0.000000,0.579845,-0.562971,0.564505,-0.590583,0.575243,-0.559903
1.8961,0.016762,0.000000,-0.084322,0.084322,0.0000,0.0000,0.0000,-0.002362,-0.095107,0.095107,0.4714,0.4994,0.1917,0.000000,0.579845,-0.562971,0.564505,-0.590583,0.575243,-0.559903
1.9130,0.016865,0.000000,-0.081967,0.081967,0.0000,0.0000,0.0000,-0.002351,-0.093573,0.092039,0.4820,0.5496,0.1385,0.000000,0.579845,-0.562971,0.564505,-0.592117,0.575243,-0.559903
1.9297,0.016768,0.000000,-0.079626,0.079626,0.0000,0.0000,0.0000,-0.002351,-0.093573,0.092039,0.4820,0.5496,0.1385,0.000000,0.579845,-0.562971,0.564505,-0.592117,0.575243,-0.559903
1.9465,0.016752,0.000000,-0.077287,0.077287,0.0000,0.0000,0.0000,-0.002364,-0.092039,0.088971,0.4701,0.4936,0.1978,0.000000,0.579845,-0.562971,0.564505,-0.590583,0.575243,-0.559903
1.9632,0.016757,0.000000,-0.074947,0.074947,0.0000,0.0000,0.0000,-0.002362,-0.090505,0.085903,0.4714,0.4994,0.1916,0.000000,0.579845,-0.562971,0.564505,-0.590583,0.575243,-0.559903
1.9801,0.016893,0.000000,-0.072588,0.072588,0.0000,0.0000,0.0000,-0.002351,-0.082835,0.082835,0.4820,0.5496,0.1385,0.000000,0.579845,-0.562971,0.564505,-0.592117,0.575243,-0.559903
1.9969,0.016759,0.000000,-0.070248,0.070248,0.0000,0.0000,0.0000,-0.002364,-0.075165,0.076699,0.4701,0.4936,0.1978,0.000000,0.579845,-0.562971,0.564505,-0.590583,0.575243,-0.559903
2.0145,0.017578,0.000000,-0.067794,0.067794,0.0000,0.0000,0.0000,-0.002362,-0.075165,0.072097,0.4714,0.4994,0.1916,0.000000,0.579845,-0.562971,0.564505,-0.590583,0.575243,-0.559903
2.0312,0.016761,0.000000,-0.065454,0.065454,0.0000,0.0000,0.0000,-0.002362,-0.075165,0.072097,0.4714,0.4994,0.1916,0.000000,0.579845,-0.562971,0.564505,-0.590583,0.575243,-0.559903
2.0480,0.016792,0.000000,-0.063109,0.063109,0.0000,0.0000,0.0000,-0.002351,-0.075165,0.072097,0.4820,0.5496,0.1385,0.000000,0.579845,-0.562971,0.564505,-0.592117,0.575243,-0.559903
2.0648,0.016763,0.000000,-0.060769,0.060769,0.0000,0.0000,0.0000,-0.002352,-0.070563,0.070563,0.4809,0.5444,0.1441,0.000000,0.579845,-0.562971,0.564505,-0.592117,0.575243,-0.559903
2.0815,0.016764,0.000000,-0.058428,0.058428,0.0000,0.0000,0.0000,-0.002352,-0.067495,0.067495,0.4809,0.5444,0.1441,0.000000,0.579845,-0.562971,0.564505,-0.592117,0.575243,-0.559903
2.0983,0.016765,0.000000,-0.056087,0.056087,0.0000,0.0000,0.0000,-0.002352,-0.069029,0.065961,0.4809,0.5444,0.1441,0.000000,0.579845,-0.562971,0.564505,-0.592117,0.575243,-0.559903
2.1151,0.016784,0.000000,-0.053744,0.053744,0.0000,0.0000,0.0000,-0.002363,-0.065961,0.064427,0.4703,0.4942,0.1972,0.000000,0.579845,-0.562971,0.564505,-0.590583,0.575243,-0.559903
2.1319,0.016767,0.000000,-0.051402,0.051402,0.0000,0.0000,0.0000,-0.002363,-0.065961,0.064427,0.4703,0.4942,0.1972,0.000000,0.579845,-0.562971,0.564505,-0.590583,0.575243,-0.559903
2.1486,0.016751,0.000000,-0.049064,0.049064,0.0000,0.0000,0.0000,-0.002362,-0.059825,0.061359,0.4714,0.4994,0.1917,0.000000,0.579845,-0.562971,0.564505,-0.590583,0.575243,-0.559903
2.1654,0.016757,0.000000,-0.046724,0.046724,0.0000,0.0000,0.0000,-0.002351,-0.055223,0.059825,0.4820,0.5496,0.1385,0.000000,0.579845,-0.562971,0.564505,-0.592117,0.575243,-0.559903
2.1821,0.016776,0.000000,-0.044381,0.044381,0.0000,0.0000,0.0000,-0.002352,-0.052155,0.056757,0.4809,0.5444,0.1441,0.000000,0.579845,-0.562971,0.564505,-0.592117,0.575243,-0.559903
2.1989,0.016744,0.000000,-0.042044,0.042044,0.0000,0.0000,0.0000,-0.002350,-0.055223,0.052155,0.4207,0.4765,0.1437,0.000000,0.579845,-0.562971,0.564505,-0.590583,0.575243,-0.561437
2.2157,0.016796,0.000000,-0.039698,0.039698,0.0000,0.0000,0.0000,-0.002364,-0.050621,0.047553,0.4765,0.5012,0.1972,0.000000,0.579845,-0.562971,0.564505,-0.590583,0.575243,-0.559903
2.2324,0.016751,0.000000,-0.037360,0.037360,0.0000,0.0000,0.0000,-0.002364,-0.050621,0.047553,0.4765,0.5012,0.1972,0.000000,0.579845,-0.562971,0.564505,-0.590583,0.575243,-0.559903
2.2492,0.016759,0.000000,-0.035020,0.035020,0.0000,0.0000,0.0000,-0.002362,-0.042951,0.042951,0.4707,0.4986,0.1917,0.000000,0.579845,-0.562971,0.564505,-0.590583,0.575243,-0.559903
2.2659,0.016755,0.000000,-0.032680,0.032680,0.0000,0.0000,0.0000,-0.002362,-0.039884,0.041417,0.4707,0.4986,0.1917,0.000000,0.579845,-0.562971,0.564505,-0.590583,0.575243,-0.559903
2.2827,0.016761,0.000000,-0.030340,0.030340,0.0000,0.0000,0.0000,-0.002362,-0.041417,0.041417,0.4707,0.4986,0.1917,0.000000,0.579845,-0.562971,0.564505,-0.590583,0.575243,-0.559903
2.2995,0.016754,0.000000,-0.028001,0.028001,0.0000,0.0000,0.0000,-0.002362,-0.039884,0.038350,0.4707,0.4986,0.1917,0.000000,0.579845,-0.562971,0.564505,-0.590583,0.575243,-0.559903
2.3162,0.016768,0.000000,-0.025659,0.025659,0.0000,0.0000,0.0000,-0.002362,-0.035282,0.035282,0.4707,0.4986,0.1917,0.000000,0.579845,-0.562971,0.564505,-0.592117,0.575243,-0.559903
2.3330,0.016754,0.000000,-0.023320,0.023320,0.0000,0.0000,0.0000,-0.002351,-0.035282,0.035282,0.4821,0.5497,0.1385,0.000000,0.579845,-0.562971,0.564505,-0.592117,0.575243,-0.559903
2.3498,0.016839,0.000000,-0.020969,0.020969,0.0000,0.0000,0.0000,-0.002352,-0.027612,0.032214,0.4809,0.5444,0.1441,0.000000,0.579845,-0.562971,0.564505,-0.592117,0.575243,-0.559903
2.3666,0.016750,0.000000,-0.018630,0.018630,0.0000,0.0000,0.0000,-0.002352,-0.026078,0.029146,0.4809,0.5444,0.1441,0.000000,0.579845,-0.562971,0.564505,-0.592117,0.575243,-0.559903
2.3833,0.016775,0.000000,-0.016288,0.016288,0.0000,0.0000,0.0000,-0.002363,-0.027612,0.026078,0.4703,0.4942,0.1972,0.000000,0.579845,-0.562971,0.564505,-0.590583,0.575243,-0.559903
2.4001,0.016755,0.000000,-0.013948,0.013948,0.0000,0.0000,0.0000,-0.002351,-0.026078,0.021476,0.4821,0.5502,0.1379,0.000000,0.579845,-0.562971,0.564505,-0.592117,0.575243,-0.559903
2.4169,0.016766,0.000000,-0.011607,0.011607,0.0000,0.0000,0.0000,-0.002351,-0.026078,0.021476,0.4821,0.5502,0.1379,0.000000,0.579845,-0.562971,0.564505,-0.592117,0.575243,-0.559903
2.4336,0.016763,0.000000,-0.009267,0.009267,0.0000,0.0000,0.0000,-0.002364,-0.021476,0.016874,0.4701,0.4936,0.1978,0.000000,0.579845,-0.562971,0.564505,-0.590583,0.575243,-0.559903
2.4504,0.016758,0.000000,-0.006927,0.006927,0.0000,0.0000,0.0000,-0.002362,-0.015340,0.015340,0.4714,0.4994,0.1916,0.000000,0.579845,-0.562971,0.564505,-0.590583,0.575243,-0.559903
2.4671,0.016746,0.000000,-0.004589,0.004589,0.0000,0.0000,0.0000,-0.002362,-0.013806,0.013806,0.4714,0.4994,0.1916,0.000000,0.579845,-0.562971,0.564505,-0.590583,0.575243,-0.559903
2.4839,0.016759,0.000000,-0.002249,0.002249,0.0000,0.0000,0.0000,-0.002362,-0.013806,0.012272,0.4714,0.4994,0.1916,0.000000,0.579845,-0.562971,0.564505,-0.590583,0.575243,-0.559903
2.5006,0.016752,0.000000,-0.000090,0.000090,0.0000,0.0000,0.0000,-0.002362,-0.012272,0.009204,0.4714,0.4994,0.1916,0.000000,0.579845,-0.562971,0.564505,-0.590583,0.575243,-0.559903
2.5174,0.016767,0.000000,-0.002431,0.002431,0.0000,0.0000,0.0000,-0.002362,-0.012272,0.009204,0.4714,0.4994,0.1916,0.000000,0.579845,-0.562971,0.564505,-0.590583,0.575243,-0.559903
2.5342,0.016752,0.000000,-0.004770,0.004770,0.0000,0.0000,0.0000,-0.002362,-0.007670,0.004602,0.4714,0.4994,0.1916,0.000000,0.579845,-0.562971,0.564505,-0.590583,0.575243,-0.559903
2.5509,0.016761,0.000000,-0.007111,0.007111,0.0000,0.0000,0.0000,-0.002362,0.001534,0.001534,0.4714,0.4994,0.1916,0.000000,0.579845,-0.562971,0.564505,-0.590583,0.575243,-0.559903
2.5677,0.016770,0.000000,-0.009452,0.009452,0.0000,0.0000,0.0000,-0.002362,0.001534,0.000000,0.4714,0.4994,0.1916,0.000000,0.579845,-0.562971,0.564505,-0.590583,0.575243,-0.559903
2.5845,0.016767,0.000000,-0.011793,0.011793,0.0000,0.0000,0.0000,-0.002362,-0.003068,0.000000,0.4714,0.4994,0.1916,0.000000,0.579845,-0.562971,0.564505,-0.590583,0.575243,-0.559903
2.6015,0.017057,0.000000,-0.014175,0.014175,0.0000,0.0000,0.0000,-0.002362,-0.006136,0.001534,0.4714,0.4994,0.1916,0.000000,0.579845,-0.562971,0.564505,-0.590583,0.575243,-0.559903
2.6183,0.016770,0.000000,-0.016516,0.016516,0.0000,0.0000,0.0000,-0.002362,-0.006136,0.009204,0.4714,0.4994,0.1916,0.000000,0.579845,-0.562971,0.564505,-0.590583,0.575243,-0.559903
2.6350,0.016759,0.000000,-0.018856,0.018856,0.0000,0.0000,0.0000,-0.002362,-0.006136,0.009204,0.4714,0.4994,0.1916,0.000000,0.579845,-0.562971,0.564505,-0.590583,0.575243,-0.559903
2.6518,0.016771,0.000000,-0.021198,0.021198,0.0000,0.0000,0.0000,-0.002351,-0.007670,0.012272,0.4820,0.5496,0.1385,0.000000,0.579845,-0.562971,0.564505,-0.592117,0.575243,-0.559903
2.6686,0.016800,0.000000,-0.023544,0.023544,0.0000,0.0000,0.0000,-0.002352,-0.013806,0.010738,0.4809,0.5444,0.1441,0.000000,0.579845,-0.562971,0.564505,-0.592117,0.575243,-0.559903
2.6854,0.016769,0.000000,-0.025885,0.025885,0.0000,0.0000,0.0000,-0.002363,-0.019942,0.012272,0.4703,0.4942,0.1972,0.000000,0.579845,-0.562971,0.564505,-0.590583,0.575243,-0.559903
2.7021,0.016754,0.000000,-0.028224,0.028224,0.0000,0.0000,0.0000,-0.002362,-0.018408,0.019942,0.4714,0.4994,0.1917,0.000000,0.579845,-0.562971,0.564505,-0.590583,0.575243,-0.559903
2.7189,0.016777,0.000000,-0.030567,0.030567,0.0000,0.0000,0.0000,-0.002362,-0.018408,0.019942,0.4714,0.4994,0.1917,0.000000,0.579845,-0.562971,0.564505,-0.590583,0.575243,-0.559903
2.7357,0.016751,0.000000,-0.032906,0.032906,0.0000,0.0000,0.0000,-0.002351,-0.024544,0.021476,0.4820,0.5496,0.1385,0.000000,0.579845,-0.562971,0.564505,-0.592117,0.575243,-0.559903
2.7524,0.016754,0.000000,-0.035245,0.035245,0.0000,0.0000,0.0000,-0.002364,-0.029146,0.026078,0.4701,0.4936,0.1978,0.000000,0.579845,-0.562971,0.564505,-0.590583,0.575243,-0.559903
2.7693,0.016830,0.000000,-0.037595,0.037595,0.0000,0.0000,0.0000,-0.002362,-0.029146,0.027612,0.4714,0.4994,0.1916,0.000000,0.579845,-0.562971,0.564505,-0.590583,0.575243,-0.559903
2.7860,0.016757,0.000000,-0.039935,0.039935,0.0000,0.0000,0.0000,-0.002362,-0.029146,0.032214,0.4714,0.4994,0.1916,0.000000,0.579845,-0.562971,0.564505,-0.590583,0.575243,-0.559903
2.8032,0.017238,0.000000,-0.042342,0.042342,0.0000,0.0000,0.0000,-0.002362,-0.035282,0.036816,0.4714,0.4994,0.1916,0.000000,0.579845,-0.562971,0.564505,-0.590583,0.575243,-0.559903
2.8200,0.016712,0.000000,-0.044675,0.044675,0.0000,0.0000,0.0000,-0.002362,-0.035282,0.036816,0.4714,0.4994,0.1916,0.000000,0.579845,-0.562971,0.564505,-0.590583,0.575243,-0.559903
2.8367,0.016755,0.000000,-0.047015,0.047015,0.0000,0.0000,0.0000,-0.002351,-0.042951,0.036816,0.4820,0.5496,0.1385,0.000000,0.579845,-0.562971,0.564505,-0.592117,0.575243,-0.559903
2.8535,0.016774,0.000000,-0.049357,0.049357,0.0000,0.0000,0.0000,-0.002352,-0.042951,0.038350,0.4809,0.5444,0.1441,0.000000,0.579845,-0.562971,0.564505,-0.592117,0.575243,-0.559903
2.8702,0.016752,0.000000,-0.051696,0.051696,0.0000,0.0000,0.0000,-0.002363,-0.038350,0.044485,0.4703,0.4942,0.1972,0.000000,0.579845,-0.562971,0.564505,-0.590583,0.575243,-0.559903
2.8870,0.016764,0.000000,-0.054036,0.054036,0.0000,0.0000,0.0000,-0.002351,-0.042951,0.046019,0.4821,0.5502,0.1379,0.000000,0.579845,-0.562971,0.564505,-0.592117,0.575243,-0.559903
2.9038,0.016764,0.000000,-0.056377,0.056377,0.0000,0.0000,0.0000,-0.002364,-0.053689,0.046019,0.4701,0.4936,0.1978,0.000000,0.579845,-0.562971,0.564505,-0.590583,0.575243,-0.559903
2.9205,0.016771,0.000000,-0.058719,0.058719,0.0000,0.0000,0.0000,-0.002364,-0.053689,0.046019,0.4701,0.4936,0.1978,0.000000,0.579845,-0.562971,0.564505,-0.590583,0.575243,-0.559903
2.9373,0.016763,0.000000,-0.061059,0.061059,0.0000,0.0000,0.0000,-0.002362,-0.055223,0.050621,0.4714,0.4994,0.1916,0.000000,0.579845,-0.562971,0.564505,-0.590583,0.575243,-0.559903
2.9541,0.016762,0.000000,-0.063400,0.063400,0.0000,0.0000,0.0000,-0.002351,-0.050621,0.053689,0.4820,0.5496,0.1385,0.000000,0.579845,-0.562971,0.564505,-0.592117,0.575243,-0.559903
2.9708,0.016768,0.000000,-0.065741,0.065741,0.0000,0.0000,0.0000,-0.002364,-0.053689,0.053689,0.4701,0.4936,0.1978,0.000000,0.579845,-0.562971,0.564505,-0.590583,0.575243,-0.559903
2.9876,0.016753,0.000000,-0.068080,0.068080,0.0000,0.0000,0.0000,-0.002351,-0.059825,0.058291,0.4821,0.5502,0.1379,0.000000,0.579845,-0.562971,0.564505,-0.592117,0.575243,-0.559903
3.0043,0.016756,0.000000,-0.070420,0.070420,0.0000,0.0000,0.0000,-0.002351,-0.069029,0.067495,0.4821,0.5502,0.1379,0.000000,0.579845,-0.562971,0.564505,-0.590583,0.575243,-0.559903
3.0211,0.016760,0.000000,-0.072760,0.072760,0.0000,0.0000,0.0000,-0.002364,-0.069029,0.067495,0.4701,0.4935,0.1978,0.000000,0.579845,-0.562971,0.564505,-0.590583,0.575243,-0.559903
3.0378,0.016746,0.000000,-0.075098,0.075098,0.0000,0.0000,0.0000,-0.002362,-0.067495,0.067495,0.4714,0.4994,0.1916,0.000000,0.579845,-0.562971,0.564505,-0.590583,0.575243,-0.559903
3.0546,0.016756,0.000000,-0.077438,0.077438,0.0000,0.0000,0.0000,-0.002362,-0.064427,0.064427,0.4714,0.4994,0.1916,0.000000,0.579845,-0.562971,0.564505,-0.590583,0.575243,-0.559903
3.0714,0.016759,0.000000,-0.079778,0.079778,0.0000,0.0000,0.0000,-0.002351,-0.069029,0.072097,0.4820,0.5496,0.1385,0.000000,0.579845,-0.562971,0.564505,-0.592117,0.575243,-0.559903
3.0881,0.016755,0.000000,-0.082117,0.082117,0.0000,0.0000,0.0000,-0.002352,-0.078233,0.075165,0.4809,0.5444,0.1441,0.000000,0.579845,-0.562971,0.564505,-0.592117,0.575243,-0.559903
3.1049,0.016753,0.000000,-0.084456,0.084456,0.0000,0.0000,0.0000,-0.002352,-0.081301,0.075165,0.4809,0.5444,0.1441,0.000000,0.579845,-0.562971,0.564505,-0.592117,0.575243,-0.559903
3.1216,0.016756,0.000000,-0.086796,0.086796,0.0000,0.0000,0.0000,-0.002352,-0.081301,0.075165,0.4809,0.5444,0.1441,0.000000,0.579845,-0.562971,0.564505,-0.592117,0.575243,-0.559903
3.1384,0.016750,0.000000,-0.089134,0.089134,0.0000,0.0000,0.0000,-0.002363,-0.079767,0.078233,0.4703,0.4942,0.1972,0.000000,0.579845,-0.562971,0.564505,-0.590583,0.575243,-0.559903
3.1551,0.016752,0.000000,-0.091473,0.091473,0.0000,0.0000,0.0000,-0.002351,-0.079767,0.081301,0.4821,0.5502,0.1379,0.000000,0.579845,-0.562971,0.564505,-0.592117,0.575243,-0.559903
3.1719,0.016752,0.000000,-0.093812,0.093812,0.0000,0.0000,0.0000,-0.002352,-0.085903,0.084369,0.4809,0.5443,0.1441,0.000000,0.579845,-0.562971,0.564505,-0.592117,0.575243,-0.559903
3.1886,0.016752,0.000000,-0.096151,0.096151,0.0000,0.0000,0.0000,-0.002363,-0.090505,0.092039,0.4703,0.4942,0.1972,0.000000,0.579845,-0.562971,0.564505,-0.590583,0.575243,-0.559903
3.2054,0.016761,0.000000,-0.098492,0.098492,0.0000,0.0000,0.0000,-0.002363,-0.092039,0.092039,0.4703,0.4942,0.1972,0.000000,0.579845,-0.562971,0.564505,-0.590583,0.575243,-0.559903
3.2222,0.016760,0.000000,-0.100832,0.100832,0.0000,0.0000,0.0000,-0.002362,-0.092039,0.092039,0.4714,0.4994,0.1917,0.000000,0.579845,-0.562971,0.564505,-0.590583,0.575243,-0.559903
3.2389,0.016754,0.000000,-0.103171,0.103171,0.0000,0.0000,0.0000,-0.002362,-0.093573,0.090505,0.4714,0.4994,0.1917,0.000000,0.579845,-0.562971,0.564505,-0.590583,0.575243,-0.559903
3.2558,0.016905,0.000000,-0.105531,0.105531,0.0000,0.0000,0.0000,-0.002362,-0.101243,0.093573,0.4714,0.4994,0.1917,0.000000,0.579845,-0.562971,0.564505,-0.590583,0.575243,-0.559903
3.2726,0.016756,0.000000,-0.107871,0.107871,0.0000,0.0000,0.0000,-0.002351,-0.101243,0.099709,0.4820,0.5496,0.1385,0.000000,0.579845,-0.562971,0.564505,-0.592117,0.575243,-0.559903
3.2893,0.016756,0.000000,-0.110211,0.110211,0.0000,0.0000,0.0000,-0.002364,-0.102777,0.101243,0.4701,0.4936,0.1978,0.000000,0.579845,-0.562971,0.564505,-0.590583,0.575243,-0.559903
3.3061,0.016767,0.000000,-0.112552,0.112552,0.0000,0.0000,0.0000,-0.002364,-0.102777,0.101243,0.4701,0.4936,0.1978,0.000000,0.579845,-0.562971,0.564505,-0.590583,0.575243,-0.559903
3.3229,0.016764,0.000000,-0.114893,0.114893,0.0000,0.0000,0.0000,-0.002351,-0.108913,0.102777,0.4821,0.5502,0.1379,0.000000,0.579845,-0.562971,0.564505,-0.592117,0.575243,-0.559903
3.3396,0.016755,0.000000,-0.117232,0.117232,0.0000,0.0000,0.0000,-0.002352,-0.110447,0.107379,0.4809,0.5443,0.1441,0.000000,0.579845,-0.562971,0.564505,-0.592117,0.575243,-0.559903
3.3568,0.017218,0.000000,-0.119636,0.119636,0.0000,0.0000,0.0000,-0.002363,-0.108913,0.107379,0.4703,0.4942,0.1972,0.000000,0.579845,-0.562971,0.564505,-0.590583,0.575243,-0.559903
3.3736,0.016764,0.000000,-0.121977,0.121977,0.0000,0.0000,0.0000,-0.002351,-0.113515,0.108913,0.4821,0.5502,0.1379,0.000000,0.579845,-0.562971,0.564505,-0.592117,0.575243,-0.559903
3.3904,0.016764,0.000000,-0.124318,0.124318,0.0000,0.0000,0.0000,-0.002351,-0.119651,0.119651,0.4821,0.5502,0.1379,0.000000,0.579845,-0.562971,0.564505,-0.590583,0.575243,-0.559903
3.4071,0.016761,0.000000,-0.126658,0.126658,0.0000,0.0000,0.0000,-0.002364,-0.119651,0.119651,0.4701,0.4936,0.1978,0.000000,0.579845,-0.562971,0.564505,-0.590583,0.575243,-0.559903
3.4239,0.016768,0.000000,-0.128999,0.128999,0.0000,0.0000,0.0000,-0.002338,-0.122718,0.121184,0.4326,0.5326,0.0844,0.000000,0.579845,-0.562971,0.564505,-0.592117,0.575243,-0.561437
3.4407,0.016762,0.000000,-0.131340,0.131340,0.0000,0.0000,0.0000,-0.002365,-0.122718,0.118117,0.4753,0.4954,0.2034,0.000000,0.579845,-0.562971,0.564505,-0.590583,0.575243,-0.559903
3.4575,0.016873,0.000000,-0.133695,0.133695,0.0000,0.0000,0.0000,-0.002362,-0.125786,0.124252,0.4708,0.4992,0.1910,0.000000,0.579845,-0.562971,0.564505,-0.590583,0.575243,-0.559903
3.4743,0.016764,0.000000,-0.136036,0.136036,0.0000,0.0000,0.0000,-0.002362,-0.131922,0.127320,0.4715,0.4987,0.1927,0.000000,0.579845,-0.562971,0.564505,-0.590583,0.575243,-0.559903
3.4910,0.016755,0.000000,-0.138376,0.138376,0.0000,0.0000,0.0000,-0.002362,-0.131922,0.127320,0.4715,0.4987,0.1927,0.000000,0.579845,-0.562971,0.564505,-0.590583,0.575243,-0.559903
3.5078,0.016764,0.000000,-0.140716,0.140716,0.0000,0.0000,0.0000,-0.002362,-0.131922,0.127320,0.4715,0.4987,0.1927,0.000000,0.579845,-0.562971,0.564505,-0.590583,0.575243,-0.559903
3.5246,0.016763,0.000000,-0.143057,0.143057,0.0000,0.0000,0.0000,-0.002362,-0.133456,0.133456,0.4715,0.4987,0.1927,0.000000,0.579845,-0.562971,0.564505,-0.590583,0.575243,-0.559903
3.5413,0.016759,0.000000,-0.145397,0.145397,0.0000,0.0000,0.0000,-0.002362,-0.139592,0.134990,0.4715,0.4987,0.1927,0.000000,0.579845,-0.562971,0.564505,-0.590583,0.575243,-0.559903
3.5581,0.016763,0.000000,-0.147737,0.147737,0.0000,0.0000,0.0000,-0.002351,-0.139592,0.136524,0.4820,0.5497,0.1384,0.000000,0.579845,-0.562971,0.564505,-0.592117,0.575243,-0.559903
3.5752,0.017145,0.000000,-0.150131,0.150131,0.0000,0.0000,0.0000,-0.002364,-0.141126,0.142660,0.4701,0.4936,0.1978,0.000000,0.579845,-0.562971,0.564505,-0.590583,0.575243,-0.559903
3.5920,0.016767,0.000000,-0.152473,0.152473,0.0000,0.0000,0.0000,-0.002364,-0.141126,0.142660,0.4701,0.4936,0.1978,0.000000,0.579845,-0.562971,0.564505,-0.590583,0.575243,-0.559903
3.6088,0.016754,0.000000,-0.154812,0.154812,0.0000,0.0000,0.0000,-0.002362,-0.148796,0.144194,0.4714,0.4994,0.1916,0.000000,0.579845,-0.562971,0.564505,-0.590583,0.575243,-0.559903
3.6255,0.016756,0.000000,-0.157151,0.157151,0.0000,0.0000,0.0000,-0.002351,-0.151864,0.144194,0.4820,0.5496,0.1385,0.000000,0.579845,-0.562971,0.564505,-0.592117,0.575243,-0.559903
3.6424,0.016850,0.000000,-0.159504,0.159504,0.0000,0.0000,0.0000,-0.002364,-0.151864,0.151864,0.4701,0.4936,0.1978,0.000000,0.579845,-0.562971,0.564505,-0.590583,0.575243,-0.559903
3.6595,0.017171,0.000000,-0.161902,0.161902,0.0000,0.0000,0.0000,-0.002374,-0.153398,0.150330,0.4216,0.5150,0.1378,0.000000,0.578311,-0.562971,0.564505,-0.590583,0.575243,-0.559903
3.6763,0.016761,0.000000,-0.164242,0.164242,0.0000,0.0000,0.0000,-0.002350,-0.159534,0.150330,0.4872,0.5480,0.1441,0.000000,0.579845,-0.562971,0.564505,-0.592117,0.575243,-0.559903
3.6931,0.016766,0.000000,-0.166583,0.166583,0.0000,0.0000,0.0000,-0.002350,-0.159534,0.150330,0.4872,0.5480,0.1441,0.000000,0.579845,-0.562971,0.564505,-0.592117,0.575243,-0.559903
3.7098,0.016762,0.000000,-0.168923,0.168923,0.0000,0.0000,0.0000,-0.002364,-0.161068,0.158000,0.4696,0.4938,0.1972,0.000000,0.579845,-0.562971,0.564505,-0.590583,0.575243,-0.559903
3.7266,0.016755,0.000000,-0.171263,0.171263,0.0000,0.0000,0.0000,-0.002351,-0.161068,0.161068,0.4822,0.5502,0.1379,0.000000,0.579845,-0.562971,0.564505,-0.592117,0.575243,-0.559903
3.7434,0.016845,0.000000,-0.173615,0.173615,0.0000,0.0000,0.0000,-0.002352,-0.165670,0.161068,0.4809,0.5443,0.1441,0.000000,0.579845,-0.562971,0.564505,-0.592117,0.575243,-0.559903
3.7602,0.016753,0.000000,-0.175954,0.175954,0.0000,0.0000,0.0000,-0.002352,-0.170272,0.165670,0.4809,0.5443,0.1441,0.000000,0.579845,-0.562971,0.564505,-0.592117,0.575243,-0.559903
3.7771,0.016962,0.000000,-0.178322,0.178322,0.0000,0.0000,0.0000,-0.002363,-0.173340,0.173340,0.4703,0.4942,0.1972,0.000000,0.579845,-0.562971,0.564505,-0.590583,0.575243,-0.559903
3.7939,0.016761,0.000000,-0.180662,0.180662,0.0000,0.0000,0.0000,-0.002363,-0.173340,0.173340,0.4703,0.4942,0.1972,0.000000,0.579845,-0.562971,0.564505,-0.590583,0.575243,-0.559903
3.8106,0.016748,0.000000,-0.183001,0.183001,0.0000,0.0000,0.0000,-0.002362,-0.173340,0.173340,0.4714,0.4994,0.1917,0.000000,0.579845,-0.562971,0.564505,-0.590583,0.575243,-0.559903
3.8274,0.016758,0.000000,-0.185341,0.185341,0.0000,0.0000,0.0000,-0.002351,-0.177942,0.171806,0.4820,0.5496,0.1385,0.000000,0.579845,-0.562971,0.564505,-0.592117,0.575243,-0.559903
3.8442,0.016752,0.000000,-0.187680,0.187680,0.0000,0.0000,0.0000,-0.002364,-0.179476,0.177942,0.4701,0.4936,0.1978,0.000000,0.579845,-0.562971,0.564505,-0.590583,0.575243,-0.559903
3.8609,0.016757,0.000000,-0.190019,0.190019,0.0000,0.0000,0.0000,-0.002362,-0.181010,0.181010,0.4714,0.4994,0.1916,0.000000,0.579845,-0.562971,0.564505,-0.590583,0.575243,-0.559903
3.8777,0.016759,0.000000,-0.192359,0.192359,0.0000,0.0000,0.0000,-0.002351,-0.188680,0.182544,0.4820,0.5496,0.1385,0.000000,0.579845,-0.562971,0.564505,-0.592117,0.575243,-0.559903
3.8944,0.016754,0.000000,-0.194699,0.194699,0.0000,0.0000,0.0000,-0.002351,-0.188680,0.182544,0.4820,0.5496,0.1385,0.000000,0.579845,-0.562971,0.564505,-0.592117,0.575243,-0.559903
3.9112,0.016746,0.000000,-0.197037,0.197037,0.0000,0.0000,0.0000,-0.002352,-0.190214,0.184078,0.4809,0.5444,0.1441,0.000000,0.579845,-0.562971,0.564505,-0.592117,0.575243,-0.559903
3.9279,0.016750,0.000000,-0.199376,0.199376,0.0000,0.0000,0.0000,-0.002363,-0.188680,0.185612,0.4703,0.4942,0.1972,0.000000,0.579845,-0.562971,0.564505,-0.590583,0.575243,-0.559903
3.9447,0.016755,0.000000,-0.201715,0.201715,0.0000,0.0000,0.0000,-0.002351,-0.191748,0.190214,0.4821,0.5502,0.1379,0.000000,0.579845,-0.562971,0.564505,-0.592117,0.575243,-0.559903
3.9614,0.016760,0.000000,-0.204055,0.204055,0.0000,0.0000,0.0000,-0.002364,-0.197884,0.191748,0.4701,0.4936,0.1978,0.000000,0.579845,-0.562971,0.564505,-0.590583,0.575243,-0.559903
3.9782,0.016766,0.000000,-0.206396,0.206396,0.0000,0.0000,0.0000,-0.002351,-0.200951,0.197884,0.4821,0.5503,0.1379,0.000000,0.579845,-0.562971,0.564505,-0.592117,0.575243,-0.559903
3.9950,0.016752,0.000000,-0.208735,0.208735,0.0000,0.0000,0.0000,-0.002351,-0.200951,0.197884,0.4821,0.5503,0.1379,0.000000,0.579845,-0.562971,0.564505,-0.592117,0.575243,-0.559903
4.0117,0.016744,0.000000,-0.211073,0.211073,0.0000,0.0000,0.0000,-0.002364,-0.200951,0.202485,0.4701,0.4935,0.1978,0.000000,0.579845,-0.562971,0.564505,-0.590583,0.575243,-0.559903
4.0285,0.016755,0.000000,-0.213412,0.213412,0.0000,0.0000,0.0000,-0.002351,-0.202485,0.199418,0.4821,0.5503,0.1379,0.000000,0.579845,-0.562971,0.564505,-0.592117,0.575243,-0.559903
4.0452,0.016747,0.000000,-0.215751,0.215751,0.0000,0.0000,0.0000,-0.002364,-0.210155,0.208621,0.4701,0.4935,0.1978,0.000000,0.579845,-0.562971,0.564505,-0.590583,0.575243,-0.559903
4.0620,0.016758,0.000000,-0.218091,0.218091,0.0000,0.0000,0.0000,-0.002351,-0.211689,0.208621,0.4821,0.5503,0.1379,0.000000,0.579845,-0.562971,0.564505,-0.592117,0.575243,-0.559903
4.0787,0.016766,0.000000,-0.220432,0.220432,0.0000,0.0000,0.0000,-0.002351,-0.216291,0.210155,0.4821,0.5503,0.1379,0.000000,0.579845,-0.562971,0.564505,-0.590583,0.575243,-0.559903
4.0955,0.016751,0.000000,-0.222770,0.222770,0.0000,0.0000,0.0000,-0.002364,-0.216291,0.210155,0.4701,0.4935,0.1978,0.000000,0.579845,-0.562971,0.564505,-0.590583,0.575243,-0.559903
4.1122,0.016746,0.000000,-0.225109,0.225109,0.0000,0.0000,0.0000,-0.002362,-0.217825,0.217825,0.4714,0.4994,0.1916,0.000000,0.579845,-0.562971,0.564505,-0.590583,0.575243,-0.559903
4.1290,0.016753,0.000000,-0.227448,0.227448,0.0000,0.0000,0.0000,-0.002351,-0.219359,0.219359,0.4820,0.5496,0.1385,0.000000,0.579845,-0.562971,0.564505,-0.592117,0.575243,-0.559903
4.1457,0.016747,0.000000,-0.229786,0.229786,0.0000,0.0000,0.0000,-0.002352,-0.222427,0.220893,0.4809,0.5444,0.1441,0.000000,0.579845,-0.562971,0.564505,-0.592117,0.575243,-0.559903
4.1625,0.016756,0.000000,-0.232126,0.232126,0.0000,0.0000,0.0000,-0.002363,-0.227029,0.228563,0.4703,0.4942,0.1972,0.000000,0.579845,-0.562971,0.564505,-0.590583,0.575243,-0.559903
4.1792,0.016755,0.000000,-0.234465,0.234465,0.0000,0.0000,0.0000,-0.002363,-0.227029,0.228563,0.4703,0.4942,0.1972,0.000000,0.579845,-0.562971,0.564505,-0.590583,0.575243,-0.559903
4.1960,0.016753,0.000000,-0.236804,0.236804,0.0000,0.0000,0.0000,-0.002351,-0.231631,0.230097,0.4821,0.5502,0.1379,0.000000,0.579845,-0.562971,0.564505,-0.592117,0.575243,-0.559903
4.2127,0.016749,0.000000,-0.239143,0.239143,0.0000,0.0000,0.0000,-0.002364,-0.230097,0.227029,0.4701,0.4936,0.1978,0.000000,0.579845,-0.562971,0.564505,-0.590583,0.575243,-0.559903
4.2295,0.016763,0.000000,-0.241483,0.241483,0.0000,0.0000,0.0000,-0.002351,-0.231631,0.234699,0.4821,0.5503,0.1379,0.000000,0.579845,-0.562971,0.564505,-0.592117,0.575243,-0.559903
4.2463,0.016761,0.000000,-0.243824,0.243824,0.0000,0.0000,0.0000,-0.002364,-0.239301,0.236233,0.4701,0.4935,0.1978,0.000000,0.579845,-0.562971,0.564505,-0.590583,0.575243,-0.559903
4.2632,0.016896,0.000000,-0.246183,0.246183,0.0000,0.0000,0.0000,-0.002351,-0.240835,0.236233,0.4821,0.5503,0.1379,0.000000,0.579845,-0.562971,0.564505,-0.592117,0.575243,-0.559903
4.2799,0.016765,0.000000,-0.248524,0.248524,0.0000,0.0000,0.0000,-0.002351,-0.240835,0.236233,0.4821,0.5503,0.1379,0.000000,0.579845,-0.562971,0.564505,-0.592117,0.575243,-0.559903
4.2967,0.016753,0.000000,-0.250863,0.250863,0.0000,0.0000,0.0000,-0.002364,-0.240835,0.242369,0.4701,0.4935,0.1978,0.000000,0.579845,-0.562971,0.564505,-0.590583,0.575243,-0.559903
4.3134,0.016747,0.000000,-0.253201,0.253201,0.0000,0.0000,0.0000,-0.002351,-0.245437,0.243903,0.4821,0.5503,0.1379,0.000000,0.579845,-0.562971,0.564505,-0.592117,0.575243,-0.559903
4.3302,0.016766,0.000000,-0.255542,0.255542,0.0000,0.0000,0.0000,-0.002364,-0.248505,0.243903,0.4701,0.4935,0.1978,0.000000,0.579845,-0.562971,0.564505,-0.590583,0.575243,-0.559903
4.3469,0.016755,0.000000,-0.257882,0.257882,0.0000,0.0000,0.0000,-0.002362,-0.248505,0.248505,0.4714,0.4994,0.1916,0.000000,0.579845,-0.562971,0.564505,-0.590583,0.575243,-0.559903
4.3640,0.017080,0.000000,-0.260266,0.260266,0.0000,0.0000,0.0000,-0.002351,-0.254641,0.256175,0.4820,0.5496,0.1385,0.000000,0.579845,-0.562971,0.564505,-0.592117,0.575243,-0.559903
4.3808,0.016754,0.000000,-0.262606,0.262606,0.0000,0.0000,0.0000,-0.002351,-0.254641,0.256175,0.4820,0.5496,0.1385,0.000000,0.579845,-0.562971,0.564505,-0.592117,0.575243,-0.559903
4.3975,0.016756,0.000000,-0.264945,0.264945,0.0000,0.0000,0.0000,-0.002364,-0.257709,0.256175,0.4701,0.4936,0.1978,0.000000,0.579845,-0.562971,0.564505,-0.590583,0.575243,-0.559903
4.4143,0.016754,0.000000,-0.267285,0.267285,0.0000,0.0000,0.0000,-0.002351,-0.257709,0.254641,0.4821,0.5502,0.1379,0.000000,0.579845,-0.562971,0.564505,-0.592117,0.575243,-0.559903
4.4310,0.016758,0.000000,-0.269625,0.269625,0.0000,0.0000,0.0000,-0.002364,-0.262311,0.262311,0.4701,0.4935,0.1978,0.000000,0.579845,-0.562971,0.564505,-0.590583,0.575243,-0.559903
4.4478,0.016755,0.000000,-0.271964,0.271964,0.0000,0.0000,0.0000,-0.002362,-0.268447,0.265379,0.4714,0.4994,0.1916,0.000000,0.579845,-0.562971,0.564505,-0.590583,0.575243,-0.559903
4.4646,0.016774,0.000000,-0.274306,0.274306,0.0000,0.0000,0.0000,-0.002351,-0.268447,0.265379,0.4820,0.5496,0.1385,0.000000,0.579845,-0.562971,0.564505,-0.592117,0.575243,-0.559903
4.4813,0.016763,0.000000,-0.276647,0.276647,0.0000,0.0000,0.0000,-0.002351,-0.268447,0.265379,0.4820,0.5496,0.1385,0.000000,0.579845,-0.562971,0.564505,-0.592117,0.575243,-0.559903
4.4981,0.016757,0.000000,-0.278986,0.278986,0.0000,0.0000,0.0000,-0.002352,-0.268447,0.266913,0.4809,0.5444,0.1441,0.000000,0.579845,-0.562971,0.564505,-0.592117,0.575243,-0.559903
4.5148,0.016750,0.000000,-0.281325,0.281325,0.0000,0.0000,0.0000,-0.002352,-0.271515,0.271515,0.4809,0.5444,0.1441,0.000000,0.579845,-0.562971,0.564505,-0.592117,0.575243,-0.559903
4.5316,0.016763,0.000000,-0.283666,0.283666,0.0000,0.0000,0.0000,-0.002363,-0.274583,0.273049,0.4703,0.4942,0.1972,0.000000,0.579845,-0.562971,0.564505,-0.590583,0.575243,-0.559903
4.5489,0.017252,0.000000,-0.286074,0.286074,0.0000,0.0000,0.0000,-0.002363,-0.274583,0.273049,0.4703,0.4942,0.1972,0.000000,0.579845,-0.562971,0.564505,-0.590583,0.575243,-0.559903
4.5656,0.016748,0.000000,-0.288413,0.288413,0.0000,0.0000,0.0000,-0.002362,-0.277651,0.279185,0.4714,0.4994,0.1917,0.000000,0.579845,-0.562971,0.564505,-0.590583,0.575243,-0.559903
4.5824,0.016759,0.000000,-0.290753,0.290753,0.0000,0.0000,0.0000,-0.002362,-0.283786,0.285320,0.4714,0.4994,0.1917,0.000000,0.579845,-0.562971,0.564505,-0.590583,0.575243,-0.559903
4.5991,0.016749,0.000000,-0.293091,0.293091,0.0000,0.0000,0.0000,-0.002351,-0.283786,0.283786,0.4820,0.5496,0.1385,0.000000,0.579845,-0.562971,0.564505,-0.592117,0.575243,-0.559903
4.6159,0.016779,0.000000,-0.295434,0.295434,0.0000,0.0000,0.0000,-0.002352,-0.283786,0.283786,0.4809,0.5444,0.1441,0.000000,0.579845,-0.562971,0.564505,-0.592117,0.575243,-0.559903
4.6326,0.016752,0.000000,-0.297773,0.297773,0.0000,0.0000,0.0000,-0.002363,-0.296058,0.291456,0.4703,0.4942,0.1972,0.000000,0.579845,-0.562971,0.564505,-0.590583,0.575243,-0.559903
4.6495,0.016835,0.000000,-0.300124,0.300124,0.0000,0.0000,0.0000,-0.002363,-0.299126,0.291456,0.4703,0.4942,0.1972,0.000000,0.579845,-0.562971,0.564505,-0.592117,0.575243,-0.559903
4.6662,0.016755,0.000000,-0.302463,0.302463,0.0000,0.0000,0.0000,-0.002351,-0.299126,0.291456,0.4821,0.5502,0.1379,0.000000,0.579845,-0.562971,0.564505,-0.592117,0.575243,-0.559903
4.6830,0.016764,0.000000,-0.304804,0.304804,0.0000,0.0000,0.0000,-0.002352,-0.297592,0.291456,0.4809,0.5443,0.1441,0.000000,0.579845,-0.562971,0.564505,-0.592117,0.575243,-0.559903
4.7003,0.017268,0.000000,-0.307215,0.307215,0.0000,0.0000,0.0000,-0.002363,-0.300660,0.297592,0.4703,0.4942,0.1972,0.000000,0.579845,-0.562971,0.564505,-0.590583,0.575243,-0.559903
4.7175,0.017226,0.000000,-0.309620,0.309620,0.0000,0.0000,0.0000,-0.002351,-0.300660,0.299126,0.4821,0.5502,0.1379,0.000000,0.579845,-0.562971,0.564505,-0.592117,0.575243,-0.559903
4.7342,0.016755,0.000000,-0.311960,0.311960,0.0000,0.0000,0.0000,-0.002364,-0.302194,0.299126,0.4701,0.4936,0.1978,0.000000,0.579845,-0.562971,0.564505,-0.590583,0.575243,-0.559903
4.7510,0.016775,0.000000,-0.314302,0.314302,0.0000,0.0000,0.0000,-0.002351,-0.311398,0.309864,0.4821,0.5503,0.1379,0.000000,0.579845,-0.562971,0.564505,-0.592117,0.575243,-0.559903
4.7678,0.016751,0.000000,-0.316641,0.316641,0.0000,0.0000,0.0000,-0.002351,-0.311398,0.309864,0.4821,0.5503,0.1379,0.000000,0.579845,-0.562971,0.564505,-0.592117,0.575243,-0.559903
4.7845,0.016760,0.000000,-0.318981,0.318981,0.0000,0.0000,0.0000,-0.002364,-0.314466,0.311398,0.4701,0.4935,0.1978,0.000000,0.579845,-0.562971,0.564505,-0.590583,0.575243,-0.559903
4.8013,0.016749,0.000000,-0.321320,0.321320,0.0000,0.0000,0.0000,-0.002362,-0.312932,0.308330,0.4714,0.4994,0.1916,0.000000,0.579845,-0.562971,0.564505,-0.590583,0.575243,-0.559903
4.8180,0.016765,0.000000,-0.323660,0.323660,0.0000,0.0000,0.0000,-0.002362,-0.317534,0.312932,0.4714,0.4994,0.1916,0.000000,0.579845,-0.562971,0.564505,-0.590583,0.575243,-0.559903
4.8348,0.016752,0.000000,-0.325999,0.325999,0.0000,0.0000,0.0000,-0.002351,-0.322136,0.317534,0.4820,0.5496,0.1385,0.000000,0.579845,-0.562971,0.564505,-0.592117,0.575243,-0.559903
4.8516,0.016773,0.000000,-0.328341,0.328341,0.0000,0.0000,0.0000,-0.002375,-0.322136,0.319068,0.4204,0.5092,0.1440,0.000000,0.578311,-0.562971,0.564505,-0.590583,0.575243,-0.559903
4.8683,0.016753,0.000000,-0.330680,0.330680,0.0000,0.0000,0.0000,-0.002375,-0.322136,0.319068,0.4204,0.5092,0.1440,0.000000,0.578311,-0.562971,0.564505,-0.590583,0.575243,-0.559903
4.8851,0.016791,0.000000,-0.333025,0.333025,0.0000,0.0000,0.0000,-0.002350,-0.325204,0.320602,0.4873,0.5486,0.1435,0.000000,0.579845,-0.562971,0.564505,-0.592117,0.575243,-0.559903
4.9019,0.016764,0.000000,-0.335365,0.335365,0.0000,0.0000,0.0000,-0.002352,-0.328272,0.325204,0.4803,0.5445,0.1435,0.000000,0.579845,-0.562971,0.564505,-0.592117,0.575243,-0.559903
4.9187,0.016775,0.000000,-0.337708,0.337708,0.0000,0.0000,0.0000,-0.002363,-0.329806,0.328272,0.4703,0.4941,0.1972,0.000000,0.579845,-0.562971,0.564505,-0.590583,0.575243,-0.559903
4.9358,0.017126,0.000000,-0.340099,0.340099,0.0000,0.0000,0.0000,-0.002351,-0.331340,0.331340,0.4821,0.5502,0.1379,0.000000,0.579845,-0.562971,0.564505,-0.592117,0.575243,-0.559903
4.9525,0.016758,0.000000,-0.342439,0.342439,0.0000,0.0000,0.0000,-0.002352,-0.339010,0.337476,0.4809,0.5443,0.1441,0.000000,0.579845,-0.562971,0.564505,-0.592117,0.575243,-0.559903
4.9693,0.016752,0.000000,-0.344778,0.344778,0.0000,0.0000,0.0000,-0.002352,-0.339010,0.337476,0.4809,0.5443,0.1441,0.000000,0.579845,-0.562971,0.564505,-0.592117,0.575243,-0.559903
4.9860,0.016759,0.000000,-0.347118,0.347118,0.0000,0.0000,0.0000,-0.002363,-0.340544,0.337476,0.4703,0.4942,0.1972,0.000000,0.579845,-0.562971,0.564505,-0.590583,0.575243,-0.559903
5.0028,0.016757,0.000000,-0.348674,0.348674,0.0000,0.0000,0.0000,-0.002362,-0.340544,0.339010,0.4714,0.4994,0.1917,0.000000,0.579845,-0.562971,0.564505,-0.590583,0.575243,-0.559903
5.0197,0.016890,0.000000,-0.346316,0.346316,0.0000,0.0000,0.0000,-0.002362,-0.343612,0.342078,0.4714,0.4994,0.1917,0.000000,0.579845,-0.562971,0.564505,-0.590583,0.575243,-0.559903
5.0365,0.016756,0.000000,-0.343976,0.343976,0.0000,0.0000,0.0000,-0.002362,-0.352816,0.346680,0.4714,0.4994,0.1917,0.000000,0.579845,-0.562971,0.564505,-0.590583,0.575243,-0.559903
5.0533,0.016840,0.000000,-0.341625,0.341625,0.0000,0.0000,0.0000,-0.002351,-0.352816,0.346680,0.4820,0.5496,0.1385,0.000000,0.579845,-0.562971,0.564505,-0.592117,0.575243,-0.559903
5.0700,0.016750,0.000000,-0.339286,0.339286,0.0000,0.0000,0.0000,-0.002351,-0.352816,0.346680,0.4820,0.5496,0.1385,0.000000,0.579845,-0.562971,0.564505,-0.592117,0.575243,-0.559903
5.0869,0.016810,0.000000,-0.336939,0.336939,0.0000,0.0000,0.0000,-0.002352,-0.349748,0.345146,0.4809,0.5444,0.1441,0.000000,0.579845,-0.562971,0.564505,-0.592117,0.575243,-0.559903
5.1036,0.016728,0.000000,-0.334604,0.334604,0.0000,0.0000,0.0000,-0.002363,-0.346680,0.343612,0.4703,0.4942,0.1972,0.000000,0.579845,-0.562971,0.564505,-0.590583,0.575243,-0.559903
5.1203,0.016767,0.000000,-0.332262,0.332262,0.0000,0.0000,0.0000,-0.002362,-0.345146,0.343612,0.4714,0.4994,0.1917,0.000000,0.579845,-0.562971,0.564505,-0.590583,0.575243,-0.559903
5.1371,0.016770,0.000000,-0.329921,0.329921,0.0000,0.0000,0.0000,-0.002351,-0.343612,0.340544,0.4820,0.5496,0.1385,0.000000,0.579845,-0.562971,0.564505,-0.592117,0.575243,-0.559903
5.1539,0.016766,0.000000,-0.327580,0.327580,0.0000,0.0000,0.0000,-0.002364,-0.343612,0.339010,0.4701,0.4936,0.1978,0.000000,0.579845,-0.562971,0.564505,-0.590583,0.575243,-0.559903
5.1706,0.016754,0.000000,-0.325241,0.325241,0.0000,0.0000,0.0000,-0.002364,-0.343612,0.339010,0.4701,0.4936,0.1978,0.000000,0.579845,-0.562971,0.564505,-0.590583,0.575243,-0.559903
5.1874,0.016761,0.000000,-0.322900,0.322900,0.0000,0.0000,0.0000,-0.002351,-0.342078,0.337476,0.4821,0.5502,0.1379,0.000000,0.579845,-0.562971,0.564505,-0.592117,0.575243,-0.559903
5.2041,0.016750,0.000000,-0.320562,0.320562,0.0000,0.0000,0.0000,-0.002364,-0.340544,0.335942,0.4701,0.4935,0.1978,0.000000,0.579845,-0.562971,0.564505,-0.590583,0.575243,-0.559903
5.2209,0.016762,0.000000,-0.318221,0.318221,0.0000,0.0000,0.0000,-0.002362,-0.340544,0.335942,0.4714,0.4994,0.1916,0.000000,0.579845,-0.562971,0.564505,-0.590583,0.575243,-0.559903
5.2377,0.016757,0.000000,-0.315882,0.315882,0.0000,0.0000,0.0000,-0.002362,-0.339010,0.335942,0.4714,0.4994,0.1916,0.000000,0.579845,-0.562971,0.564505,-0.590583,0.575243,-0.559903
5.2544,0.016772,0.000000,-0.313540,0.313540,0.0000,0.0000,0.0000,-0.002362,-0.339010,0.335942,0.4714,0.4994,0.1916,0.000000,0.579845,-0.562971,0.564505,-0.590583,0.575243,-0.559903
5.2712,0.016755,0.000000,-0.311200,0.311200,0.0000,0.0000,0.0000,-0.002351,-0.337476,0.334408,0.4820,0.5496,0.1385,0.000000,0.579845,-0.562971,0.564505,-0.592117,0.575243,-0.559903
5.2879,0.016754,0.000000,-0.308861,0.308861,0.0000,0.0000,0.0000,-0.002364,-0.329806,0.331340,0.4701,0.4936,0.1978,0.000000,0.579845,-0.562971,0.564505,-0.590583,0.575243,-0.559903
5.3047,0.016755,0.000000,-0.306522,0.306522,0.0000,0.0000,0.0000,-0.002351,-0.323670,0.328272,0.4821,0.5502,0.1379,0.000000,0.579845,-0.562971,0.564505,-0.592117,0.575243,-0.559903
5.3216,0.016926,0.000000,-0.304158,0.304158,0.0000,0.0000,0.0000,-0.002364,-0.316000,0.322136,0.4701,0.4935,0.1978,0.000000,0.579845,-0.562971,0.564505,-0.590583,0.575243,-0.559903
5.3384,0.016764,0.000000,-0.301817,0.301817,0.0000,0.0000,0.0000,-0.002351,-0.312932,0.316000,0.4821,0.5503,0.1379,0.000000,0.579845,-0.562971,0.564505,-0.592117,0.575243,-0.559903
5.3552,0.016763,0.000000,-0.299477,0.299477,0.0000,0.0000,0.0000,-0.002351,-0.312932,0.316000,0.4821,0.5503,0.1379,0.000000,0.579845,-0.562971,0.564505,-0.592117,0.575243,-0.559903
5.3719,0.016777,0.000000,-0.297134,0.297134,0.0000,0.0000,0.0000,-0.002364,-0.311398,0.311398,0.4701,0.4935,0.1978,0.000000,0.579845,-0.562971,0.564505,-0.590583,0.575243,-0.559903
5.3887,0.016754,0.000000,-0.294795,0.294795,0.0000,0.0000,0.0000,-0.002362,-0.311398,0.308330,0.4714,0.4994,0.1916,0.000000,0.579845,-0.562971,0.564505,-0.590583,0.575243,-0.559903
5.4054,0.016751,0.000000,-0.292456,0.292456,0.0000,0.0000,0.0000,-0.002351,-0.311398,0.308330,0.4820,0.5496,0.1385,0.000000,0.579845,-0.562971,0.564505,-0.592117,0.575243,-0.559903
5.4222,0.016757,0.000000,-0.290117,0.290117,0.0000,0.0000,0.0000,-0.002352,-0.312932,0.308330,0.4809,0.5444,0.1441,0.000000,0.579845,-0.562971,0.564505,-0.592117,0.575243,-0.559903
5.4390,0.016760,0.000000,-0.287776,0.287776,0.0000,0.0000,0.0000,-0.002352,-0.311398,0.308330,0.4809,0.5444,0.1441,0.000000,0.579845,-0.562971,0.564505,-0.592117,0.575243,-0.559903
5.4557,0.016755,0.000000,-0.285437,0.285437,0.0000,0.0000,0.0000,-0.002352,-0.311398,0.308330,0.4809,0.5444,0.1441,0.000000,0.579845,-0.562971,0.564505,-0.592117,0.575243,-0.559903
5.4725,0.016761,0.000000,-0.283097,0.283097,0.0000,0.0000,0.0000,-0.002363,-0.309864,0.306796,0.4703,0.4942,0.1972,0.000000,0.579845,-0.562971,0.564505,-0.590583,0.575243,-0.559903
5.4892,0.016752,0.000000,-0.280758,0.280758,0.0000,0.0000,0.0000,-0.002362,-0.303728,0.303728,0.4714,0.4994,0.1917,0.000000,0.579845,-0.562971,0.564505,-0.590583,0.575243,-0.559903
