t,loop_dt,cmd_z,cmd_ant_l,cmd_ant_r,cmd_roll,cmd_pitch,cmd_yaw,pres_z,pres_ant_l,pres_ant_r,pres_roll,pres_pitch,pres_yaw,pres_j0,pres_j1,pres_j2,pres_j3,pres_j4,pres_j5,pres_j6
0.0000,0.000001,0.000000,-1.745329,1.745329,0.0000,0.0000,0.0000,-0.002487,-1.612214,1.607612,0.3991,0.7411,0.1421,0.000000,0.570641,-0.561437,0.564505,-0.592117,0.575243,-0.552233
0.0171,0.017117,0.000000,-1.743835,1.743835,0.0000,0.0000,0.0000,-0.002462,-1.612214,1.606078,0.3994,0.7084,0.1417,0.000000,0.572175,-0.561437,0.564505,-0.592117,0.575243,-0.553767
0.0339,0.016746,0.000000,-1.742374,1.742374,0.0000,0.0000,0.0000,-0.002478,-1.616816,1.612214,0.4491,0.7295,0.1951,0.000000,0.572175,-0.561437,0.564505,-0.592117,0.575243,-0.552233
0.0506,0.016766,0.000000,-1.740911,1.740911,0.0000,0.0000,0.0000,-0.002478,-1.616816,1.612214,0.4491,0.7295,0.1951,0.000000,0.572175,-0.561437,0.564505,-0.592117,0.575243,-0.552233
0.0674,0.016751,0.000000,-1.739449,1.739449,0.0000,0.0000,0.0000,-0.002474,-1.659767,1.661301,0.3837,0.6588,0.1899,0.000000,0.572175,-0.561437,0.564505,-0.590583,0.575243,-0.553767
0.0841,0.016755,0.000000,-1.737987,1.737987,0.0000,0.0000,0.0000,-0.002476,-1.731864,1.728796,0.4507,0.7347,0.1901,0.000000,0.572175,-0.561437,0.564505,-0.592117,0.575243,-0.552233
0.1009,0.016745,0.000000,-1.736526,1.736526,0.0000,0.0000,0.0000,-0.002476,-1.777884,1.771748,0.4437,0.7268,0.1901,0.000000,0.572175,-0.561437,0.564505,-0.592117,0.575243,-0.552233
0.1179,0.017060,0.000000,-1.735037,1.735037,0.0000,0.0000,0.0000,-0.002476,-1.777884,1.773282,0.4447,0.7279,0.1901,0.000000,0.572175,-0.561437,0.564505,-0.592117,0.575243,-0.552233
0.1347,0.016749,0.000000,-1.733575,1.733575,0.0000,0.0000,0.0000,-0.002474,-1.770214,1.767146,0.3841,0.6590,0.1904,0.000000,0.572175,-0.561437,0.564505,-0.590583,0.575243,-0.553767
0.1515,0.016761,0.000000,-1.732113,1.732113,0.0000,0.0000,0.0000,-0.002474,-1.770214,1.767146,0.3841,0.6590,0.1904,0.000000,0.572175,-0.561437,0.564505,-0.590583,0.575243,-0.553767
0.1682,0.016753,0.000000,-1.730651,1.730651,0.0000,0.0000,0.0000,-0.002463,-1.761010,1.762544,0.4010,0.7170,0.1366,0.000000,0.572175,-0.561437,0.564505,-0.592117,0.575243,-0.553767
0.1850,0.016747,0.000000,-1.729189,1.729189,0.0000,0.0000,0.0000,-0.002464,-1.754874,1.761010,0.3992,0.7109,0.1422,0.000000,0.572175,-0.561437,0.564505,-0.592117,0.575243,-0.553767
0.2017,0.016744,0.000000,-1.727728,1.727728,0.0000,0.0000,0.0000,-0.002477,-1.751806,1.757942,0.4491,0.7292,0.1950,0.000000,0.572175,-0.561437,0.564505,-0.592117,0.575243,-0.552233
0.2185,0.016757,0.000000,-1.726266,1.726266,0.0000,0.0000,0.0000,-0.002476,-1.751806,1.756408,0.4439,0.7274,0.1895,0.000000,0.572175,-0.561437,0.564505,-0.592117,0.575243,-0.552233
0.2352,0.016743,0.000000,-1.724805,1.724805,0.0000,0.0000,0.0000,-0.002463,-1.751806,1.754874,0.3947,0.7099,0.1367,0.000000,0.572175,-0.561437,0.564505,-0.592117,0.575243,-0.553767
0.2520,0.016760,0.000000,-1.723342,1.723342,0.0000,0.0000,0.0000,-0.002463,-1.751806,1.754874,0.3947,0.7099,0.1367,0.000000,0.572175,-0.561437,0.564505,-0.592117,0.575243,-0.553767
0.2687,0.016754,0.000000,-1.721880,1.721880,0.0000,0.0000,0.0000,-0.002452,-1.751806,1.754874,0.4390,0.6761,0.0891,0.000000,0.572175,-0.562971,0.564505,-0.592117,0.575243,-0.553767
0.2855,0.016759,0.000000,-1.720417,1.720417,0.0000,0.0000,0.0000,-0.002477,-1.751806,1.754874,0.3847,0.6644,0.2009,0.000000,0.572175,-0.561437,0.564505,-0.590583,0.575243,-0.553767
0.3022,0.016767,0.000000,-1.718954,1.718954,0.0000,0.0000,0.0000,-0.002474,-1.751806,1.753340,0.3904,0.6656,0.1893,0.000000,0.572175,-0.561437,0.564505,-0.590583,0.575243,-0.553767
0.3190,0.016757,0.000000,-1.717492,1.717492,0.0000,0.0000,0.0000,-0.002450,-1.750272,1.753340,0.4394,0.6807,0.0836,0.000000,0.572175,-0.562971,0.564505,-0.592117,0.575243,-0.553767
0.3358,0.016772,0.000000,-1.716028,1.716028,0.0000,0.0000,0.0000,-0.002450,-1.750272,1.753340,0.4394,0.6807,0.0836,0.000000,0.572175,-0.562971,0.564505,-0.592117,0.575243,-0.553767
0.3525,0.016761,0.000000,-1.714566,1.714566,0.0000,0.0000,0.0000,-0.002453,-1.750272,1.753340,0.4343,0.6791,0.0946,0.000000,0.572175,-0.562971,0.564505,-0.592117,0.575243,-0.553767
0.3693,0.016749,0.000000,-1.713104,1.713104,0.0000,0.0000,0.0000,-0.002465,-1.750272,1.753340,0.3958,0.7149,0.1466,0.000000,0.572175,-0.561437,0.564505,-0.592117,0.575243,-0.553767
0.3860,0.016754,0.000000,-1.711642,1.711642,0.0000,0.0000,0.0000,-0.002464,-1.750272,1.753340,0.3998,0.7112,0.1412,0.000000,0.572175,-0.561437,0.564505,-0.592117,0.575243,-0.553767
0.4028,0.016750,0.000000,-1.710180,1.710180,0.0000,0.0000,0.0000,-0.002476,-1.750272,1.753340,0.3888,0.6608,0.1955,0.000000,0.572175,-0.561437,0.564505,-0.590583,0.575243,-0.553767
0.4195,0.016756,0.000000,-1.708718,1.708718,0.0000,0.0000,0.0000,-0.002450,-1.750272,1.751806,0.3508,0.6992,0.0827,0.000000,0.572175,-0.561437,0.564505,-0.592117,0.575243,-0.555301
0.4363,0.016768,0.000000,-1.707255,1.707255,0.0000,0.0000,0.0000,-0.002450,-1.750272,1.751806,0.3508,0.6992,0.0827,0.000000,0.572175,-0.561437,0.564505,-0.592117,0.575243,-0.555301
0.4531,0.016748,0.000000,-1.705793,1.705793,0.0000,0.0000,0.0000,-0.002451,-1.748738,1.747204,0.2946,0.6268,0.0948,0.000000,0.572175,-0.561437,0.564505,-0.590583,0.575243,-0.556835
0.4698,0.016750,0.000000,-1.704331,1.704331,0.0000,0.0000,0.0000,-0.002439,-1.748738,1.742602,0.3110,0.6851,0.0398,0.000000,0.572175,-0.561437,0.564505,-0.592117,0.575243,-0.556835
0.4866,0.016763,0.000000,-1.702869,1.702869,0.0000,0.0000,0.0000,-0.002452,-1.747204,1.741068,0.2987,0.6283,0.0993,0.000000,0.572175,-0.561437,0.564505,-0.590583,0.575243,-0.556835
0.5033,0.016753,0.000000,-1.701407,1.701407,0.0000,0.0000,0.0000,-0.002438,-1.747204,1.741068,0.3391,0.5987,0.0400,0.000000,0.572175,-0.562971,0.564505,-0.590583,0.575243,-0.556835
0.5205,0.017191,0.000000,-1.699906,1.699906,0.0000,0.0000,0.0000,-0.002428,-1.739534,1.741068,0.3455,0.6525,-0.0076,0.000000,0.572175,-0.562971,0.564505,-0.592117,0.575243,-0.556835
0.5373,0.016751,0.000000,-1.698445,1.698445,0.0000,0.0000,0.0000,-0.002428,-1.739534,1.741068,0.3455,0.6525,-0.0076,0.000000,0.572175,-0.562971,0.564505,-0.592117,0.575243,-0.556835
0.5540,0.016764,0.000000,-1.696982,1.696982,0.0000,0.0000,0.0000,-0.002429,-1.731864,1.741068,0.3448,0.6469,-0.0027,0.000000,0.572175,-0.562971,0.564505,-0.592117,0.575243,-0.556835
0.5708,0.016755,0.000000,-1.695519,1.695519,0.0000,0.0000,0.0000,-0.002440,-1.725728,1.741068,0.3343,0.5967,0.0506,0.000000,0.572175,-0.562971,0.564505,-0.590583,0.575243,-0.556835
0.5875,0.016771,0.000000,-1.694056,1.694056,0.0000,0.0000,0.0000,-0.002440,-1.724194,1.741068,0.3069,0.6883,0.0444,0.000000,0.572175,-0.561437,0.564505,-0.592117,0.575243,-0.556835
0.6043,0.016752,0.000000,-1.692594,1.692594,0.0000,0.0000,0.0000,-0.002428,-1.722660,1.741068,0.3489,0.6432,-0.0081,0.000000,0.572175,-0.562971,0.564505,-0.592117,0.575243,-0.556835
0.6213,0.017010,0.000000,-1.691110,1.691110,0.0000,0.0000,0.0000,-0.002442,-1.722660,1.741068,0.3054,0.6834,0.0505,0.000000,0.572175,-0.561437,0.564505,-0.592117,0.575243,-0.556835
0.6381,0.016751,0.000000,-1.689648,1.689648,0.0000,0.0000,0.0000,-0.002442,-1.722660,1.741068,0.3054,0.6834,0.0505,0.000000,0.572175,-0.561437,0.564505,-0.592117,0.575243,-0.556835
0.6548,0.016758,0.000000,-1.688185,1.688185,0.0000,0.0000,0.0000,-0.002439,-1.722660,1.741068,0.3384,0.5929,0.0450,0.000000,0.572175,-0.562971,0.564505,-0.590583,0.575243,-0.556835
0.6716,0.016748,0.000000,-1.686724,1.686724,0.0000,0.0000,0.0000,-0.002428,-1.722660,1.739534,0.3455,0.6531,-0.0082,0.000000,0.572175,-0.562971,0.564505,-0.592117,0.575243,-0.556835
0.6883,0.016758,0.000000,-1.685262,1.685262,0.0000,0.0000,0.0000,-0.002442,-1.722660,1.739534,0.3057,0.6824,0.0505,0.000000,0.572175,-0.561437,0.564505,-0.592117,0.575243,-0.556835
0.7051,0.016749,0.000000,-1.683800,1.683800,0.0000,0.0000,0.0000,-0.002440,-1.722660,1.738000,0.3099,0.6793,0.0444,0.000000,0.572175,-0.561437,0.564505,-0.592117,0.575243,-0.556835
0.7218,0.016771,0.000000,-1.682336,1.682336,0.0000,0.0000,0.0000,-0.002428,-1.722660,1.731864,0.3485,0.6441,-0.0081,0.000000,0.572175,-0.562971,0.564505,-0.592117,0.575243,-0.556835
0.7386,0.016751,0.000000,-1.680875,1.680875,0.0000,0.0000,0.0000,-0.002428,-1.722660,1.731864,0.3485,0.6441,-0.0081,0.000000,0.572175,-0.562971,0.564505,-0.592117,0.575243,-0.556835
0.7553,0.016726,0.000000,-1.679415,1.679415,0.0000,0.0000,0.0000,-0.002429,-1.722660,1.721126,0.3445,0.6478,-0.0026,0.000000,0.572175,-0.562971,0.564505,-0.592117,0.575243,-0.556835
0.7721,0.016753,0.000000,-1.677953,1.677953,0.0000,0.0000,0.0000,-0.002441,-1.722660,1.711923,0.3058,0.6829,0.0499,0.000000,0.572175,-0.561437,0.564505,-0.592117,0.575243,-0.556835
0.7898,0.017709,0.000000,-1.676408,1.676408,0.0000,0.0000,0.0000,-0.002427,-1.722660,1.704253,0.3490,0.6437,-0.0087,0.000000,0.572175,-0.562971,0.564505,-0.592117,0.575243,-0.556835
0.8065,0.016754,0.000000,-1.674945,1.674945,0.0000,0.0000,0.0000,-0.002453,-1.722660,1.699651,0.2948,0.6326,0.1043,0.000000,0.572175,-0.561437,0.564505,-0.590583,0.575243,-0.556835
0.8233,0.016786,0.000000,-1.673481,1.673481,0.0000,0.0000,0.0000,-0.002438,-1.721126,1.698117,0.3395,0.5982,0.0394,0.000000,0.572175,-0.562971,0.564505,-0.590583,0.575243,-0.556835
0.8401,0.016758,0.000000,-1.672018,1.672018,0.0000,0.0000,0.0000,-0.002438,-1.721126,1.698117,0.3395,0.5982,0.0394,0.000000,0.572175,-0.562971,0.564505,-0.590583,0.575243,-0.556835
0.8568,0.016761,0.000000,-1.670556,1.670556,0.0000,0.0000,0.0000,-0.002440,-1.719592,1.696583,0.3064,0.6881,0.0455,0.000000,0.572175,-0.561437,0.564505,-0.592117,0.575243,-0.556835
0.8736,0.016753,0.000000,-1.669094,1.669094,0.0000,0.0000,0.0000,-0.002427,-1.711923,1.693515,0.3489,0.6432,-0.0082,0.000000,0.572175,-0.562971,0.564505,-0.592117,0.575243,-0.556835
0.8904,0.016769,0.000000,-1.667630,1.667630,0.0000,0.0000,0.0000,-0.002429,-1.704253,1.691981,0.3445,0.6479,-0.0026,0.000000,0.572175,-0.562971,0.564505,-0.592117,0.575243,-0.556835
0.9071,0.016755,0.000000,-1.666168,1.666168,0.0000,0.0000,0.0000,-0.002440,-1.696583,1.691981,0.3343,0.5966,0.0506,0.000000,0.572175,-0.562971,0.564505,-0.590583,0.575243,-0.556835
0.9239,0.016781,0.000000,-1.664704,1.664704,0.0000,0.0000,0.0000,-0.002440,-1.693515,1.691981,0.3343,0.5966,0.0506,0.000000,0.572175,-0.561437,0.564505,-0.590583,0.575243,-0.556835
0.9407,0.016751,0.000000,-1.663242,1.663242,0.0000,0.0000,0.0000,-0.002452,-1.693515,1.691981,0.2963,0.6375,0.0981,0.000000,0.572175,-0.561437,0.564505,-0.590583,0.575243,-0.556835
0.9574,0.016753,0.000000,-1.661780,1.661780,0.0000,0.0000,0.0000,-0.002439,-1.693515,1.691981,0.3108,0.6840,0.0394,0.000000,0.572175,-0.561437,0.564505,-0.592117,0.575243,-0.556835
0.9742,0.016758,0.000000,-1.660317,1.660317,0.0000,0.0000,0.0000,-0.002440,-1.693515,1.691981,0.3093,0.6792,0.0455,0.000000,0.572175,-0.561437,0.564505,-0.592117,0.575243,-0.556835
0.9909,0.016754,0.000000,-1.658855,1.658855,0.0000,0.0000,0.0000,-0.002440,-1.691981,1.691981,0.3093,0.6792,0.0455,0.000000,0.572175,-0.561437,0.564505,-0.592117,0.575243,-0.556835
1.0077,0.016752,0.000000,-1.657394,1.657394,0.0000,0.0000,0.0000,-0.002440,-1.688913,1.691981,0.3093,0.6792,0.0455,0.000000,0.572175,-0.562971,0.564505,-0.590583,0.575243,-0.556835
1.0244,0.016761,0.000000,-1.655931,1.655931,0.0000,0.0000,0.0000,-0.002439,-1.688913,1.691981,0.3380,0.5934,0.0455,0.000000,0.572175,-0.562971,0.564505,-0.590583,0.575243,-0.556835
1.0412,0.016750,0.000000,-1.654469,1.654469,0.0000,0.0000,0.0000,-0.002428,-1.681243,1.690447,0.3456,0.6531,-0.0082,0.000000,0.572175,-0.562971,0.564505,-0.592117,0.575243,-0.556835
1.0580,0.016804,0.000000,-1.653003,1.653003,0.0000,0.0000,0.0000,-0.002442,-1.679709,1.690447,0.3057,0.6824,0.0505,0.000000,0.572175,-0.561437,0.564505,-0.592117,0.575243,-0.556835
1.0751,0.017121,0.000000,-1.651509,1.651509,0.0000,0.0000,0.0000,-0.002427,-1.681243,1.690447,0.3490,0.6438,-0.0087,0.000000,0.572175,-0.562971,0.564505,-0.592117,0.575243,-0.556835
1.0919,0.016755,0.000000,-1.650046,1.650046,0.0000,0.0000,0.0000,-0.002453,-1.679709,1.688913,0.2948,0.6326,0.1043,0.000000,0.572175,-0.561437,0.564505,-0.590583,0.575243,-0.556835
1.1088,0.016929,0.000000,-1.648569,1.648569,0.0000,0.0000,0.0000,-0.002453,-1.679709,1.688913,0.2948,0.6326,0.1043,0.000000,0.572175,-0.561437,0.564505,-0.590583,0.575243,-0.556835
1.1255,0.016756,0.000000,-1.647107,1.647107,0.0000,0.0000,0.0000,-0.002439,-1.679709,1.688913,0.3110,0.6845,0.0388,0.000000,0.572175,-0.561437,0.564505,-0.592117,0.575243,-0.556835
1.1428,0.017264,0.000000,-1.645600,1.645600,0.0000,0.0000,0.0000,-0.002439,-1.679709,1.688913,0.3378,0.5928,0.0462,0.000000,0.572175,-0.562971,0.564505,-0.590583,0.575243,-0.556835
1.1596,0.016747,0.000000,-1.644139,1.644139,0.0000,0.0000,0.0000,-0.002452,-1.679709,1.688913,0.2959,0.6379,0.0986,0.000000,0.572175,-0.561437,0.564505,-0.590583,0.575243,-0.556835
1.1763,0.016751,0.000000,-1.642677,1.642677,0.0000,0.0000,0.0000,-0.002439,-1.678175,1.687379,0.3109,0.6840,0.0394,0.000000,0.572175,-0.561437,0.564505,-0.592117,0.575243,-0.556835
1.1931,0.016750,0.000000,-1.641215,1.641215,0.0000,0.0000,0.0000,-0.002428,-1.675107,1.687379,0.3484,0.6436,-0.0076,0.000000,0.572175,-0.562971,0.564505,-0.592117,0.575243,-0.556835
1.2098,0.016763,0.000000,-1.639752,1.639752,0.0000,0.0000,0.0000,-0.002428,-1.675107,1.687379,0.3484,0.6436,-0.0076,0.000000,0.572175,-0.562971,0.564505,-0.592117,0.575243,-0.556835
1.2266,0.016754,0.000000,-1.638290,1.638290,0.0000,0.0000,0.0000,-0.002442,-1.670505,1.685845,0.3054,0.6834,0.0504,0.000000,0.572175,-0.561437,0.564505,-0.592117,0.575243,-0.556835
1.2433,0.016758,0.000000,-1.636828,1.636828,0.0000,0.0000,0.0000,-0.002452,-1.665903,1.681243,0.2993,0.6285,0.0982,0.000000,0.572175,-0.561437,0.564505,-0.590583,0.575243,-0.556835
1.2601,0.016759,0.000000,-1.635366,1.635366,0.0000,0.0000,0.0000,-0.002426,-1.665903,1.673573,0.3496,0.6494,-0.0137,0.000000,0.572175,-0.562971,0.564505,-0.592117,0.575243,-0.556835
1.2768,0.016755,0.000000,-1.633903,1.633903,0.0000,0.0000,0.0000,-0.002429,-1.665903,1.665903,0.3444,0.6472,-0.0020,0.000000,0.572175,-0.562971,0.564505,-0.592117,0.575243,-0.556835
1.2936,0.016767,0.000000,-1.632440,1.632440,0.0000,0.0000,0.0000,-0.002441,-1.665903,1.661301,0.3059,0.6830,0.0499,0.000000,0.572175,-0.561437,0.564505,-0.592117,0.575243,-0.556835
1.3104,0.016763,0.000000,-1.630977,1.630977,0.0000,0.0000,0.0000,-0.002441,-1.665903,1.661301,0.3059,0.6830,0.0499,0.000000,0.572175,-0.561437,0.564505,-0.592117,0.575243,-0.556835
1.3271,0.016758,0.000000,-1.629515,1.629515,0.0000,0.0000,0.0000,-0.002427,-1.665903,1.661301,0.3490,0.6437,-0.0087,0.000000,0.572175,-0.562971,0.564505,-0.592117,0.575243,-0.556835
1.3441,0.016976,0.000000,-1.628033,1.628033,0.0000,0.0000,0.0000,-0.002442,-1.665903,1.661301,0.3054,0.6834,0.0505,0.000000,0.572175,-0.561437,0.564505,-0.592117,0.575243,-0.556835
1.3609,0.016754,0.000000,-1.626571,1.626571,0.0000,0.0000,0.0000,-0.002440,-1.665903,1.661301,0.3099,0.6792,0.0444,0.000000,0.572175,-0.561437,0.564505,-0.592117,0.575243,-0.556835
1.3776,0.016756,0.000000,-1.625109,1.625109,0.0000,0.0000,0.0000,-0.002439,-1.665903,1.661301,0.3380,0.5934,0.0457,0.000000,0.572175,-0.562971,0.564505,-0.590583,0.575243,-0.556835
1.3944,0.016757,0.000000,-1.623647,1.623647,0.0000,0.0000,0.0000,-0.002440,-1.665903,1.661301,0.3065,0.6886,0.0449,0.000000,0.572175,-0.561437,0.564505,-0.592117,0.575243,-0.556835
1.4111,0.016768,0.000000,-1.622184,1.622184,0.0000,0.0000,0.0000,-0.002440,-1.665903,1.661301,0.3065,0.6886,0.0449,0.000000,0.572175,-0.561437,0.564505,-0.592117,0.575243,-0.556835
1.4279,0.016763,0.000000,-1.620721,1.620721,0.0000,0.0000,0.0000,-0.002428,-1.665903,1.661301,0.3489,0.6431,-0.0081,0.000000,0.572175,-0.562971,0.564505,-0.592117,0.575243,-0.556835
1.4449,0.017001,0.000000,-1.619237,1.619237,0.0000,0.0000,0.0000,-0.002442,-1.665903,1.661301,0.3054,0.6834,0.0505,0.000000,0.572175,-0.561437,0.564505,-0.592117,0.575243,-0.556835
1.4617,0.016752,0.000000,-1.617775,1.617775,0.0000,0.0000,0.0000,-0.002439,-1.664369,1.661301,0.3384,0.5929,0.0450,0.000000,0.572175,-0.562971,0.564505,-0.590583,0.575243,-0.556835
1.4784,0.016754,0.000000,-1.616313,1.616313,0.0000,0.0000,0.0000,-0.002439,-1.659767,1.661301,0.3350,0.6024,0.0456,0.000000,0.572175,-0.562971,0.564505,-0.590583,0.575243,-0.556835
1.4952,0.016765,0.000000,-1.614850,1.614850,0.0000,0.0000,0.0000,-0.002428,-1.650563,1.661301,0.3459,0.6521,-0.0082,0.000000,0.572175,-0.562971,0.564505,-0.592117,0.575243,-0.556835
1.5119,0.016767,0.000000,-1.613387,1.613387,0.0000,0.0000,0.0000,-0.002428,-1.650563,1.661301,0.3459,0.6521,-0.0082,0.000000,0.572175,-0.562971,0.564505,-0.592117,0.575243,-0.556835
1.5287,0.016748,0.000000,-1.611925,1.611925,0.0000,0.0000,0.0000,-0.002429,-1.642893,1.661301,0.3448,0.6469,-0.0026,0.000000,0.572175,-0.562971,0.564505,-0.592117,0.575243,-0.556835
1.5454,0.016752,0.000000,-1.610463,1.610463,0.0000,0.0000,0.0000,-0.002429,-1.639825,1.659767,0.3448,0.6469,-0.0026,0.000000,0.572175,-0.562971,0.564505,-0.592117,0.575243,-0.556835
1.5622,0.016755,0.000000,-1.609001,1.609001,0.0000,0.0000,0.0000,-0.002441,-1.639825,1.658233,0.3058,0.6830,0.0499,0.000000,0.572175,-0.561437,0.564505,-0.592117,0.575243,-0.556835
1.5790,0.016770,0.000000,-1.607538,1.607538,0.0000,0.0000,0.0000,-0.002441,-1.639825,1.658233,0.3058,0.6830,0.0499,0.000000,0.572175,-0.561437,0.564505,-0.592117,0.575243,-0.556835
1.5957,0.016758,0.000000,-1.606075,1.606075,0.0000,0.0000,0.0000,-0.002427,-1.639825,1.653631,0.3490,0.6437,-0.0087,0.000000,0.572175,-0.562971,0.564505,-0.592117,0.575243,-0.556835
1.6125,0.016764,0.000000,-1.604612,1.604612,0.0000,0.0000,0.0000,-0.002429,-1.639825,1.644427,0.3445,0.6478,-0.0026,0.000000,0.572175,-0.562971,0.564505,-0.592117,0.575243,-0.556835
1.6292,0.016754,0.000000,-1.603150,1.603150,0.0000,0.0000,0.0000,-0.002441,-1.639825,1.638291,0.3058,0.6829,0.0499,0.000000,0.572175,-0.561437,0.564505,-0.592117,0.575243,-0.556835
1.6460,0.016770,0.000000,-1.601687,1.601687,0.0000,0.0000,0.0000,-0.002440,-1.639825,1.633690,0.3099,0.6793,0.0444,0.000000,0.572175,-0.561437,0.564505,-0.592117,0.575243,-0.556835
1.6628,0.016752,0.000000,-1.600225,1.600225,0.0000,0.0000,0.0000,-0.002440,-1.639825,1.632156,0.3099,0.6793,0.0444,0.000000,0.572175,-0.561437,0.564505,-0.592117,0.575243,-0.556835
1.6797,0.016879,0.000000,-1.598752,1.598752,0.0000,0.0000,0.0000,-0.002428,-1.639825,1.632156,0.3485,0.6441,-0.0081,0.000000,0.572175,-0.562971,0.564505,-0.592117,0.575243,-0.556835
1.6964,0.016756,0.000000,-1.597290,1.597290,0.0000,0.0000,0.0000,-0.002428,-1.639825,1.632156,0.3485,0.6441,-0.0081,0.000000,0.572175,-0.562971,0.564505,-0.592117,0.575243,-0.556835
1.7132,0.016767,0.000000,-1.595827,1.595827,0.0000,0.0000,0.0000,-0.002429,-1.639825,1.632156,0.3445,0.6478,-0.0026,0.000000,0.572175,-0.562971,0.564505,-0.592117,0.575243,-0.556835
1.7299,0.016751,0.000000,-1.594365,1.594365,0.0000,0.0000,0.0000,-0.002453,-1.639825,1.632156,0.2952,0.6322,0.1037,0.000000,0.572175,-0.561437,0.564505,-0.590583,0.575243,-0.556835
1.7467,0.016769,0.000000,-1.592901,1.592901,0.0000,0.0000,0.0000,-0.002438,-1.639825,1.632156,0.3395,0.5983,0.0395,0.000000,0.572175,-0.562971,0.564505,-0.590583,0.575243,-0.556835
1.7634,0.016750,0.000000,-1.591440,1.591440,0.0000,0.0000,0.0000,-0.002439,-1.636758,1.632156,0.3349,0.6018,0.0462,0.000000,0.572175,-0.562971,0.564505,-0.590583,0.575243,-0.556835
1.7802,0.016761,0.000000,-1.589977,1.589977,0.0000,0.0000,0.0000,-0.002428,-1.632156,1.632156,0.3459,0.6522,-0.0083,0.000000,0.572175,-0.562971,0.564505,-0.592117,0.575243,-0.556835
1.7970,0.016755,0.000000,-1.588515,1.588515,0.0000,0.0000,0.0000,-0.002428,-1.632156,1.632156,0.3459,0.6522,-0.0083,0.000000,0.572175,-0.562971,0.564505,-0.592117,0.575243,-0.556835
1.8137,0.016765,0.000000,-1.587052,1.587052,0.0000,0.0000,0.0000,-0.002453,-1.624486,1.630622,0.2951,0.6317,0.1043,0.000000,0.572175,-0.561437,0.564505,-0.590583,0.575243,-0.556835
1.8305,0.016744,0.000000,-1.585591,1.585591,0.0000,0.0000,0.0000,-0.002426,-1.618350,1.629088,0.3501,0.6491,-0.0143,0.000000,0.572175,-0.562971,0.564505,-0.592117,0.575243,-0.556835
1.8472,0.016764,0.000000,-1.584128,1.584128,0.0000,0.0000,0.0000,-0.002429,-1.615282,1.624486,0.3443,0.6473,-0.0020,0.000000,0.572175,-0.562971,0.564505,-0.592117,0.575243,-0.556835
1.8640,0.016746,0.000000,-1.582666,1.582666,0.0000,0.0000,0.0000,-0.002429,-1.615282,1.618350,0.3451,0.6475,-0.0037,0.000000,0.572175,-0.562971,0.564505,-0.592117,0.575243,-0.556835
1.8818,0.017819,0.000000,-1.581112,1.581112,0.0000,0.0000,0.0000,-0.002429,-1.615282,1.612214,0.3451,0.6475,-0.0037,0.000000,0.572175,-0.562971,0.564505,-0.592117,0.575243,-0.556835
1.8986,0.016764,0.000000,-1.579649,1.579649,0.0000,0.0000,0.0000,-0.002429,-1.615282,1.612214,0.3451,0.6475,-0.0037,0.000000,0.572175,-0.562971,0.564505,-0.592117,0.575243,-0.556835
1.9159,0.017335,0.000000,-1.578136,1.578136,0.0000,0.0000,0.0000,-0.002429,-1.613748,1.609146,0.3451,0.6475,-0.0037,0.000000,0.572175,-0.562971,0.564505,-0.592117,0.575243,-0.556835
1.9327,0.016756,0.000000,-1.576674,1.576674,0.0000,0.0000,0.0000,-0.002441,-1.613748,1.606078,0.3058,0.6830,0.0500,0.000000,0.572175,-0.561437,0.564505,-0.592117,0.575243,-0.556835
1.9494,0.016766,0.000000,-1.575210,1.575210,0.0000,0.0000,0.0000,-0.002440,-1.613748,1.606078,0.3099,0.6793,0.0444,0.000000,0.572175,-0.561437,0.564505,-0.592117,0.575243,-0.556835
1.9662,0.016763,0.000000,-1.573748,1.573748,0.0000,0.0000,0.0000,-0.002440,-1.612214,1.606078,0.3099,0.6793,0.0444,0.000000,0.572175,-0.561437,0.564505,-0.592117,0.575243,-0.556835
1.9829,0.016758,0.000000,-1.572285,1.572285,0.0000,0.0000,0.0000,-0.002440,-1.612214,1.606078,0.3099,0.6793,0.0444,0.000000,0.572175,-0.561437,0.564505,-0.592117,0.575243,-0.556835
1.9997,0.016749,0.000000,-1.570824,1.570824,0.0000,0.0000,0.0000,-0.002440,-1.612214,1.606078,0.3099,0.6793,0.0444,0.000000,0.572175,-0.561437,0.564505,-0.592117,0.575243,-0.556835
2.0164,0.016737,0.000000,-1.569363,1.569363,0.0000,0.0000,0.0000,-0.002440,-1.612214,1.606078,0.3099,0.6793,0.0444,0.000000,0.572175,-0.561437,0.564505,-0.592117,0.575243,-0.556835
2.0332,0.016749,0.000000,-1.567901,1.567901,0.0000,0.0000,0.0000,-0.002440,-1.613748,1.606078,0.3099,0.6793,0.0444,0.000000,0.572175,-0.561437,0.564505,-0.592117,0.575243,-0.556835
2.0499,0.016757,0.000000,-1.566439,1.566439,0.0000,0.0000,0.0000,-0.002428,-1.612214,1.606078,0.3485,0.6441,-0.0081,0.000000,0.572175,-0.562971,0.564505,-0.592117,0.575243,-0.556835
2.0667,0.016755,0.000000,-1.564977,1.564977,0.0000,0.0000,0.0000,-0.002442,-1.612214,1.606078,0.3054,0.6833,0.0505,0.000000,0.572175,-0.561437,0.564505,-0.592117,0.575243,-0.556835
2.0834,0.016756,0.000000,-1.563515,1.563515,0.0000,0.0000,0.0000,-0.002442,-1.612214,1.606078,0.3054,0.6833,0.0505,0.000000,0.572175,-0.561437,0.564505,-0.592117,0.575243,-0.556835
2.1002,0.016752,0.000000,-1.562053,1.562053,0.0000,0.0000,0.0000,-0.002427,-1.612214,1.606078,0.3490,0.6437,-0.0087,0.000000,0.572175,-0.562971,0.564505,-0.592117,0.575243,-0.556835
2.1169,0.016745,0.000000,-1.560592,1.560592,0.0000,0.0000,0.0000,-0.002442,-1.612214,1.606078,0.3054,0.6834,0.0506,0.000000,0.572175,-0.561437,0.564505,-0.592117,0.575243,-0.556835
2.1337,0.016751,0.000000,-1.559130,1.559130,0.0000,0.0000,0.0000,-0.002439,-1.612214,1.606078,0.3384,0.5929,0.0450,0.000000,0.572175,-0.562971,0.564505,-0.590583,0.575243,-0.556835
2.1504,0.016757,0.000000,-1.557667,1.557667,0.0000,0.0000,0.0000,-0.002440,-1.612214,1.606078,0.3065,0.6887,0.0449,0.000000,0.572175,-0.561437,0.564505,-0.592117,0.575243,-0.556835
2.1672,0.016754,0.000000,-1.556205,1.556205,0.0000,0.0000,0.0000,-0.002440,-1.609146,1.606078,0.3065,0.6887,0.0449,0.000000,0.572175,-0.561437,0.564505,-0.590583,0.575243,-0.556835
2.1840,0.016756,0.000000,-1.554743,1.554743,0.0000,0.0000,0.0000,-0.002452,-1.609146,1.606078,0.2992,0.6279,0.0987,0.000000,0.572175,-0.561437,0.564505,-0.590583,0.575243,-0.556835
2.2007,0.016750,0.000000,-1.553281,1.553281,0.0000,0.0000,0.0000,-0.002438,-1.598408,1.606078,0.3391,0.5987,0.0400,0.000000,0.572175,-0.562971,0.564505,-0.590583,0.575243,-0.556835
2.2175,0.016751,0.000000,-1.551820,1.551820,0.0000,0.0000,0.0000,-0.002440,-1.587670,1.606078,0.3064,0.6881,0.0455,0.000000,0.572175,-0.561437,0.564505,-0.592117,0.575243,-0.556835
2.2342,0.016758,0.000000,-1.550357,1.550357,0.0000,0.0000,0.0000,-0.002427,-1.581534,1.606078,0.3489,0.6432,-0.0082,0.000000,0.572175,-0.562971,0.564505,-0.592117,0.575243,-0.556835
2.2509,0.016724,0.000000,-1.548898,1.548898,0.0000,0.0000,0.0000,-0.002442,-1.576932,1.603010,0.3054,0.6834,-0.0374,-0.001534,0.572175,-0.561437,0.564505,-0.592117,0.575243,-0.556835
2.2677,0.016765,0.000000,-1.547435,1.547435,0.0000,0.0000,0.0000,-0.002442,-1.573864,1.596874,0.3054,0.6834,-0.0374,0.000000,0.572175,-0.562971,0.564505,-0.592117,0.575243,-0.556835
2.2845,0.016758,0.000000,-1.545972,1.545972,0.0000,0.0000,0.0000,-0.002427,-1.573864,1.596874,0.3490,0.6437,-0.0087,0.000000,0.572175,-0.562971,0.564505,-0.592117,0.575243,-0.556835
2.3012,0.016759,0.000000,-1.544510,1.544510,0.0000,0.0000,0.0000,-0.002440,-1.573864,1.589204,0.3339,0.5971,0.0512,0.000000,0.572175,-0.562971,0.564505,-0.590583,0.575243,-0.556835
2.3180,0.016765,0.000000,-1.543047,1.543047,0.0000,0.0000,0.0000,-0.002427,-1.572330,1.581534,0.3460,0.6527,-0.0088,0.000000,0.572175,-0.562971,0.564505,-0.592117,0.575243,-0.556835
2.3348,0.016766,0.000000,-1.541584,1.541584,0.0000,0.0000,0.0000,-0.002429,-1.573864,1.578466,0.3448,0.6469,-0.0025,0.000000,0.572175,-0.562971,0.564505,-0.592117,0.575243,-0.556835
2.3515,0.016767,0.000000,-1.540121,1.540121,0.0000,0.0000,0.0000,-0.002441,-1.573864,1.578466,0.3058,0.6830,0.0499,0.000000,0.572175,-0.561437,0.564505,-0.592117,0.575243,-0.556835
2.3683,0.016772,0.000000,-1.538657,1.538657,0.0000,0.0000,0.0000,-0.002441,-1.572330,1.578466,0.3058,0.6830,0.0499,0.000000,0.572175,-0.562971,0.564505,-0.592117,0.575243,-0.556835
2.3856,0.017284,0.000000,-1.537149,1.537149,0.0000,0.0000,0.0000,-0.002427,-1.572330,1.578466,0.3490,0.6437,-0.0087,0.000000,0.572175,-0.562971,0.564505,-0.592117,0.575243,-0.556835
2.4023,0.016752,0.000000,-1.535687,1.535687,0.0000,0.0000,0.0000,-0.002442,-1.572330,1.578466,0.3054,0.6834,0.0505,0.000000,0.572175,-0.561437,0.564505,-0.592117,0.575243,-0.556835
2.4191,0.016762,0.000000,-1.534224,1.534224,0.0000,0.0000,0.0000,-0.002440,-1.572330,1.578466,0.3099,0.6792,0.0444,0.000000,0.572175,-0.561437,0.564505,-0.592117,0.575243,-0.556835
2.4358,0.016748,0.000000,-1.532763,1.532763,0.0000,0.0000,0.0000,-0.002452,-1.572330,1.578466,0.2988,0.6289,0.0988,0.000000,0.572175,-0.561437,0.564505,-0.590583,0.575243,-0.556835
2.4526,0.016756,0.000000,-1.531300,1.531300,0.0000,0.0000,0.0000,-0.002438,-1.572330,1.578466,0.3391,0.5986,0.0400,0.000000,0.572175,-0.562971,0.564505,-0.590583,0.575243,-0.556835
2.4694,0.016760,0.000000,-1.529838,1.529838,0.0000,0.0000,0.0000,-0.002438,-1.572330,1.578466,0.3391,0.5986,0.0400,0.000000,0.572175,-0.562971,0.564505,-0.590583,0.575243,-0.556835
2.4861,0.016759,0.000000,-1.528375,1.528375,0.0000,0.0000,0.0000,-0.002439,-1.572330,1.578466,0.3349,0.6018,0.0461,0.000000,0.572175,-0.562971,0.564505,-0.590583,0.575243,-0.556835
2.5029,0.016751,0.000000,-1.526913,1.526913,0.0000,0.0000,0.0000,-0.002440,-1.570796,1.578466,0.3068,0.6877,0.0448,0.000000,0.572175,-0.561437,0.564505,-0.592117,0.575243,-0.556835
2.5196,0.016753,0.000000,-1.525451,1.525451,0.0000,0.0000,0.0000,-0.002440,-1.569262,1.575398,0.3097,0.6788,0.0450,0.000000,0.572175,-0.561437,0.564505,-0.592117,0.575243,-0.556835
2.5364,0.016773,0.000000,-1.523988,1.523988,0.0000,0.0000,0.0000,-0.002440,-1.563126,1.570796,0.3097,0.6788,0.0450,0.000000,0.572175,-0.561437,0.564505,-0.592117,0.575243,-0.556835
2.5531,0.016758,0.000000,-1.522525,1.522525,0.0000,0.0000,0.0000,-0.002439,-1.556990,1.561592,0.3380,0.5934,0.0456,0.000000,0.572175,-0.562971,0.564505,-0.590583,0.575243,-0.556835
2.5699,0.016750,0.000000,-1.521064,1.521064,0.0000,0.0000,0.0000,-0.002439,-1.556990,1.561592,0.3380,0.5934,0.0456,0.000000,0.572175,-0.562971,0.564505,-0.590583,0.575243,-0.556835
2.5866,0.016754,0.000000,-1.519602,1.519602,0.0000,0.0000,0.0000,-0.002439,-1.550855,1.552389,0.3350,0.6023,0.0455,0.000000,0.572175,-0.562971,0.564505,-0.590583,0.575243,-0.556835
2.6034,0.016747,0.000000,-1.518140,1.518140,0.0000,0.0000,0.0000,-0.002439,-1.546253,1.550855,0.3350,0.6023,0.0455,0.000000,0.572175,-0.562971,0.564505,-0.590583,0.575243,-0.556835
2.6201,0.016753,0.000000,-1.516678,1.516678,0.0000,0.0000,0.0000,-0.002428,-1.544719,1.549321,0.3459,0.6522,-0.0082,0.000000,0.572175,-0.562971,0.564505,-0.592117,0.575243,-0.556835
2.6369,0.016747,0.000000,-1.515217,1.515217,0.0000,0.0000,0.0000,-0.002429,-1.544719,1.549321,0.3448,0.6469,-0.0026,0.000000,0.572175,-0.562971,0.564505,-0.592117,0.575243,-0.556835
2.6537,0.016764,0.000000,-1.513754,1.513754,0.0000,0.0000,0.0000,-0.002429,-1.544719,1.549321,0.3448,0.6469,-0.0026,0.000000,0.572175,-0.562971,0.564505,-0.592117,0.575243,-0.556835
2.6704,0.016745,0.000000,-1.512292,1.512292,0.0000,0.0000,0.0000,-0.002429,-1.544719,1.549321,0.3448,0.6469,-0.0026,0.000000,0.572175,-0.562971,0.564505,-0.592117,0.575243,-0.556835
2.6872,0.016753,0.000000,-1.510830,1.510830,0.0000,0.0000,0.0000,-0.002440,-1.544719,1.549321,0.3343,0.5967,0.0506,0.000000,0.572175,-0.562971,0.564505,-0.590583,0.575243,-0.556835
2.7039,0.016750,0.000000,-1.509369,1.509369,0.0000,0.0000,0.0000,-0.002428,-1.544719,1.549321,0.3460,0.6527,-0.0087,0.000000,0.572175,-0.562971,0.564505,-0.592117,0.575243,-0.556835
2.7207,0.016762,0.000000,-1.507906,1.507906,0.0000,0.0000,0.0000,-0.002442,-1.543185,1.547787,0.3057,0.6824,0.0506,0.000000,0.572175,-0.561437,0.564505,-0.592117,0.575243,-0.556835
2.7374,0.016749,0.000000,-1.506444,1.506444,0.0000,0.0000,0.0000,-0.002440,-1.538583,1.543185,0.3099,0.6793,0.0444,0.000000,0.572175,-0.561437,0.564505,-0.592117,0.575243,-0.556835
2.7542,0.016771,0.000000,-1.504981,1.504981,0.0000,0.0000,0.0000,-0.002439,-1.533981,1.537049,0.3380,0.5934,0.0457,0.000000,0.572175,-0.562971,0.564505,-0.590583,0.575243,-0.556835
2.7709,0.016746,0.000000,-1.503519,1.503519,0.0000,0.0000,0.0000,-0.002439,-1.533981,1.537049,0.3380,0.5934,0.0457,0.000000,0.572175,-0.562971,0.564505,-0.590583,0.575243,-0.556835
2.7877,0.016760,0.000000,-1.502057,1.502057,0.0000,0.0000,0.0000,-0.002440,-1.532447,1.532447,0.3065,0.6886,0.0449,0.000000,0.572175,-0.561437,0.564505,-0.592117,0.575243,-0.556835
2.8045,0.016755,0.000000,-1.500595,1.500595,0.0000,0.0000,0.0000,-0.002440,-1.532447,1.529379,0.3098,0.6787,0.0450,0.000000,0.572175,-0.561437,0.564505,-0.592117,0.575243,-0.556835
2.8212,0.016769,0.000000,-1.499131,1.499131,0.0000,0.0000,0.0000,-0.002428,-1.532447,1.527845,0.3486,0.6442,-0.0082,0.000000,0.572175,-0.562971,0.564505,-0.592117,0.575243,-0.556835
2.8380,0.016757,0.000000,-1.497669,1.497669,0.0000,0.0000,0.0000,-0.002442,-1.532447,1.527845,0.3054,0.6833,0.0505,0.000000,0.572175,-0.561437,0.564505,-0.592117,0.575243,-0.556835
2.8548,0.016775,0.000000,-1.496205,1.496205,0.0000,0.0000,0.0000,-0.002427,-1.532447,1.527845,0.3490,0.6437,-0.0087,0.000000,0.572175,-0.562971,0.564505,-0.592117,0.575243,-0.556835
2.8715,0.016752,0.000000,-1.494743,1.494743,0.0000,0.0000,0.0000,-0.002427,-1.532447,1.527845,0.3490,0.6437,-0.0087,0.000000,0.572175,-0.562971,0.564505,-0.592117,0.575243,-0.556835
2.8883,0.016756,0.000000,-1.493281,1.493281,0.0000,0.0000,0.0000,-0.002442,-1.532447,1.527845,0.3054,0.6834,0.0506,0.000000,0.572175,-0.561437,0.564505,-0.592117,0.575243,-0.556835
2.9050,0.016747,0.000000,-1.491819,1.491819,0.0000,0.0000,0.0000,-0.002440,-1.532447,1.527845,0.3099,0.6792,0.0444,0.000000,0.572175,-0.561437,0.564505,-0.592117,0.575243,-0.556835
2.9218,0.016762,0.000000,-1.490357,1.490357,0.0000,0.0000,0.0000,-0.002440,-1.532447,1.526311,0.3099,0.6792,0.0444,0.000000,0.572175,-0.561437,0.564505,-0.592117,0.575243,-0.556835
2.9385,0.016751,0.000000,-1.488895,1.488895,0.0000,0.0000,0.0000,-0.002452,-1.532447,1.526311,0.2988,0.6289,0.0988,0.000000,0.572175,-0.561437,0.564505,-0.590583,0.575243,-0.556835
2.9553,0.016766,0.000000,-1.487432,1.487432,0.0000,0.0000,0.0000,-0.002452,-1.530913,1.526311,0.2988,0.6289,0.0988,0.000000,0.572175,-0.561437,0.564505,-0.592117,0.575243,-0.556835
2.9721,0.016763,0.000000,-1.485969,1.485969,0.0000,0.0000,0.0000,-0.002439,-1.530913,1.526311,0.3106,0.6849,0.0393,0.000000,0.572175,-0.561437,0.564505,-0.592117,0.575243,-0.556835
2.9888,0.016769,0.000000,-1.484506,1.484506,0.0000,0.0000,0.0000,-0.002452,-1.523243,1.526311,0.2987,0.6283,0.0993,0.000000,0.572175,-0.561437,0.564505,-0.590583,0.575243,-0.556835
3.0056,0.016752,0.000000,-1.483044,1.483044,0.0000,0.0000,0.0000,-0.002426,-1.515573,1.526311,0.3497,0.6495,-0.0138,0.000000,0.572175,-0.562971,0.564505,-0.592117,0.575243,-0.556835
3.0225,0.016911,0.000000,-1.481568,1.481568,0.0000,0.0000,0.0000,-0.002442,-1.509437,1.526311,0.3053,0.6828,0.0511,0.000000,0.572175,-0.561437,0.564505,-0.592117,0.575243,-0.556835
3.0392,0.016760,0.000000,-1.480105,1.480105,0.0000,0.0000,0.0000,-0.002442,-1.506369,1.526311,0.3053,0.6828,0.0511,0.000000,0.572175,-0.561437,0.564505,-0.592117,0.575243,-0.556835
3.0560,0.016753,0.000000,-1.478643,1.478643,0.0000,0.0000,0.0000,-0.002440,-1.506369,1.526311,0.3099,0.6793,0.0443,0.000000,0.572175,-0.561437,0.564505,-0.592117,0.575243,-0.556835
3.0727,0.016749,0.000000,-1.477182,1.477182,0.0000,0.0000,0.0000,-0.002440,-1.507903,1.526311,0.3099,0.6793,0.0443,0.000000,0.572175,-0.561437,0.564505,-0.592117,0.575243,-0.556835
3.0898,0.017057,0.000000,-1.475693,1.475693,0.0000,0.0000,0.0000,-0.002439,-1.507903,1.524777,0.3380,0.5934,0.0457,0.000000,0.572175,-0.562971,0.564505,-0.590583,0.575243,-0.556835
3.1073,0.017462,0.000000,-1.474169,1.474169,0.0000,0.0000,0.0000,-0.002452,-1.506369,1.523243,0.2959,0.6378,0.0987,0.000000,0.572175,-0.561437,0.564505,-0.590583,0.575243,-0.556835
3.1241,0.016852,0.000000,-1.472699,1.472699,0.0000,0.0000,0.0000,-0.002439,-1.506369,1.520175,0.3109,0.6840,0.0394,0.000000,0.572175,-0.561437,0.564505,-0.592117,0.575243,-0.556835
3.1409,0.016768,0.000000,-1.471236,1.471236,0.0000,0.0000,0.0000,-0.002439,-1.506369,1.520175,0.3109,0.6840,0.0394,0.000000,0.572175,-0.561437,0.564505,-0.592117,0.575243,-0.556835
3.1576,0.016754,0.000000,-1.469773,1.469773,0.0000,0.0000,0.0000,-0.002428,-1.506369,1.512505,0.3484,0.6436,-0.0076,0.000000,0.572175,-0.562971,0.564505,-0.592117,0.575243,-0.556835
3.1744,0.016766,0.000000,-1.468310,1.468310,0.0000,0.0000,0.0000,-0.002440,-1.506369,1.504835,0.3339,0.5971,0.0511,0.000000,0.572175,-0.562971,0.564505,-0.590583,0.575243,-0.556835
3.1912,0.016762,0.000000,-1.466848,1.466848,0.0000,0.0000,0.0000,-0.002428,-1.506369,1.498699,0.3460,0.6527,-0.0088,0.000000,0.572175,-0.562971,0.564505,-0.592117,0.575243,-0.556835
3.2079,0.016769,0.000000,-1.465384,1.465384,0.0000,0.0000,0.0000,-0.002429,-1.504835,1.495631,0.3448,0.6469,-0.0025,0.000000,0.572175,-0.562971,0.564505,-0.592117,0.575243,-0.556835
3.2249,0.016937,0.000000,-1.463906,1.463906,0.0000,0.0000,0.0000,-0.002429,-1.504835,1.495631,0.3448,0.6469,-0.0025,0.000000,0.572175,-0.562971,0.564505,-0.592117,0.575243,-0.556835
3.2416,0.016762,0.000000,-1.462443,1.462443,0.0000,0.0000,0.0000,-0.002429,-1.504835,1.495631,0.3448,0.6469,-0.0025,0.000000,0.572175,-0.562971,0.564505,-0.592117,0.575243,-0.556835
3.2584,0.016758,0.000000,-1.460981,1.460981,0.0000,0.0000,0.0000,-0.002429,-1.504835,1.495631,0.3448,0.6469,-0.0025,0.000000,0.572175,-0.562971,0.564505,-0.592117,0.575243,-0.556835
3.2752,0.016774,0.000000,-1.459517,1.459517,0.0000,0.0000,0.0000,-0.002429,-1.506369,1.495631,0.3448,0.6469,-0.0025,0.000000,0.572175,-0.562971,0.564505,-0.592117,0.575243,-0.556835
3.2919,0.016754,0.000000,-1.458055,1.458055,0.0000,0.0000,0.0000,-0.002453,-1.504835,1.495631,0.2952,0.6323,0.1037,0.000000,0.572175,-0.561437,0.564505,-0.590583,0.575243,-0.556835
3.3087,0.016761,0.000000,-1.456593,1.456593,0.0000,0.0000,0.0000,-0.002439,-1.503301,1.495631,0.3110,0.6846,0.0388,0.000000,0.572175,-0.561437,0.564505,-0.592117,0.575243,-0.556835
3.3254,0.016755,0.000000,-1.455130,1.455130,0.0000,0.0000,0.0000,-0.002440,-1.495631,1.495631,0.3093,0.6791,0.0456,0.000000,0.572175,-0.561437,0.564505,-0.592117,0.575243,-0.556835
3.3422,0.016773,0.000000,-1.453667,1.453667,0.0000,0.0000,0.0000,-0.002440,-1.495631,1.495631,0.3093,0.6791,0.0456,0.000000,0.572175,-0.561437,0.564505,-0.592117,0.575243,-0.556835
3.3590,0.016753,0.000000,-1.452205,1.452205,0.0000,0.0000,0.0000,-0.002428,-1.486427,1.494097,0.3486,0.6441,-0.0082,0.000000,0.572175,-0.562971,0.564505,-0.592117,0.575243,-0.556835
3.3757,0.016761,0.000000,-1.450742,1.450742,0.0000,0.0000,0.0000,-0.002429,-1.478757,1.487961,0.3445,0.6478,-0.0026,0.000000,0.572175,-0.562971,0.564505,-0.592117,0.575243,-0.556835
3.3925,0.016756,0.000000,-1.449280,1.449280,0.0000,0.0000,0.0000,-0.002429,-1.478757,1.483359,0.3445,0.6478,-0.0026,0.000000,0.572175,-0.562971,0.564505,-0.592117,0.575243,-0.556835
3.4092,0.016755,0.000000,-1.447818,1.447818,0.0000,0.0000,0.0000,-0.002441,-1.478757,1.475690,0.3058,0.6829,0.0499,0.000000,0.572175,-0.561437,0.564505,-0.592117,0.575243,-0.556835
3.4260,0.016758,0.000000,-1.446355,1.446355,0.0000,0.0000,0.0000,-0.002439,-1.478757,1.472622,0.3384,0.5930,0.0451,0.000000,0.572175,-0.562971,0.564505,-0.590583,0.575243,-0.556835
3.4428,0.016770,0.000000,-1.444892,1.444892,0.0000,0.0000,0.0000,-0.002439,-1.478757,1.472622,0.3384,0.5930,0.0451,0.000000,0.572175,-0.562971,0.564505,-0.590583,0.575243,-0.556835
3.4595,0.016778,0.000000,-1.443428,1.443428,0.0000,0.0000,0.0000,-0.002452,-1.478757,1.472622,0.2959,0.6379,0.0987,0.000000,0.572175,-0.561437,0.564505,-0.590583,0.575243,-0.556835
3.4763,0.016770,0.000000,-1.441964,1.441964,0.0000,0.0000,0.0000,-0.002451,-1.478757,1.472622,0.3003,0.6332,0.0931,0.000000,0.572175,-0.561437,0.564505,-0.590583,0.575243,-0.556835
3.4931,0.016752,0.000000,-1.440502,1.440502,0.0000,0.0000,0.0000,-0.002451,-1.478757,1.472622,0.3003,0.6332,0.0931,0.000000,0.572175,-0.561437,0.564505,-0.590583,0.575243,-0.556835
3.5103,0.017266,0.000000,-1.438995,1.438995,0.0000,0.0000,0.0000,-0.002426,-1.478757,1.472622,0.3495,0.6489,-0.0132,0.000000,0.572175,-0.562971,0.564505,-0.592117,0.575243,-0.556835
3.5276,0.017247,0.000000,-1.437490,1.437490,0.0000,0.0000,0.0000,-0.002429,-1.478757,1.472622,0.3444,0.6473,-0.0021,0.000000,0.572175,-0.562971,0.564505,-0.592117,0.575243,-0.556835
3.5443,0.016769,0.000000,-1.436027,1.436027,0.0000,0.0000,0.0000,-0.002429,-1.478757,1.472622,0.3444,0.6473,-0.0021,0.000000,0.572175,-0.562971,0.564505,-0.592117,0.575243,-0.556835
3.5611,0.016755,0.000000,-1.434565,1.434565,0.0000,0.0000,0.0000,-0.002429,-1.477223,1.472622,0.3444,0.6473,-0.0021,0.000000,0.572175,-0.562971,0.564505,-0.592117,0.575243,-0.556835
3.5779,0.016765,0.000000,-1.433102,1.433102,0.0000,0.0000,0.0000,-0.002429,-1.477223,1.471088,0.3444,0.6473,-0.0021,0.000000,0.572175,-0.562971,0.564505,-0.592117,0.575243,-0.556835
3.5946,0.016754,0.000000,-1.431640,1.431640,0.0000,0.0000,0.0000,-0.002429,-1.472622,1.471088,0.3444,0.6473,-0.0021,0.000000,0.572175,-0.562971,0.564505,-0.592117,0.575243,-0.556835
3.6114,0.016751,0.000000,-1.430178,1.430178,0.0000,0.0000,0.0000,-0.002429,-1.464952,1.471088,0.3444,0.6473,-0.0021,0.000000,0.572175,-0.562971,0.564505,-0.592117,0.575243,-0.556835
3.6283,0.016888,0.000000,-1.428704,1.428704,0.0000,0.0000,0.0000,-0.002429,-1.457282,1.471088,0.3444,0.6473,-0.0021,0.000000,0.572175,-0.561437,0.564505,-0.590583,0.575243,-0.556835
3.6450,0.016725,0.000000,-1.427245,1.427245,0.0000,0.0000,0.0000,-0.002453,-1.457282,1.471088,0.2952,0.6322,0.1036,0.000000,0.572175,-0.561437,0.564505,-0.590583,0.575243,-0.556835
3.6617,0.016757,0.000000,-1.425782,1.425782,0.0000,0.0000,0.0000,-0.002450,-1.454214,1.468020,0.3004,0.6338,0.0047,-0.001534,0.572175,-0.561437,0.564505,-0.590583,0.575243,-0.556835
3.6785,0.016752,0.000000,-1.424321,1.424321,0.0000,0.0000,0.0000,-0.002426,-1.452680,1.461884,0.3495,0.6489,-0.0131,0.000000,0.572175,-0.562971,0.564505,-0.592117,0.575243,-0.556835
3.6952,0.016753,0.000000,-1.422859,1.422859,0.0000,0.0000,0.0000,-0.002442,-1.452680,1.455748,0.3053,0.6828,0.0510,0.000000,0.572175,-0.561437,0.564505,-0.592117,0.575243,-0.556835
3.7120,0.016750,0.000000,-1.421397,1.421397,0.0000,0.0000,0.0000,-0.002452,-1.452680,1.449612,0.2993,0.6285,0.0981,0.000000,0.572175,-0.561437,0.564505,-0.590583,0.575243,-0.556835
3.7287,0.016755,0.000000,-1.419935,1.419935,0.0000,0.0000,0.0000,-0.002439,-1.452680,1.446544,0.3105,0.6850,0.0394,0.000000,0.572175,-0.561437,0.564505,-0.592117,0.575243,-0.556835
3.7455,0.016768,0.000000,-1.418471,1.418471,0.0000,0.0000,0.0000,-0.002439,-1.452680,1.446544,0.3105,0.6850,0.0394,0.000000,0.572175,-0.561437,0.564505,-0.592117,0.575243,-0.556835
3.7623,0.016748,0.000000,-1.417010,1.417010,0.0000,0.0000,0.0000,-0.002452,-1.452680,1.446544,0.2988,0.6283,0.0993,0.000000,0.572175,-0.561437,0.564505,-0.590583,0.575243,-0.556835
3.7790,0.016753,0.000000,-1.415548,1.415548,0.0000,0.0000,0.0000,-0.002439,-1.452680,1.446544,0.3106,0.6850,0.0393,0.000000,0.572175,-0.561437,0.564505,-0.592117,0.575243,-0.556835
3.7958,0.016757,0.000000,-1.414086,1.414086,0.0000,0.0000,0.0000,-0.002440,-1.452680,1.446544,0.3094,0.6791,0.0456,0.000000,0.572175,-0.561437,0.564505,-0.592117,0.575243,-0.556835
3.8125,0.016762,0.000000,-1.412623,1.412623,0.0000,0.0000,0.0000,-0.002440,-1.452680,1.446544,0.3094,0.6791,0.0456,0.000000,0.572175,-0.561437,0.564505,-0.592117,0.575243,-0.556835
3.8293,0.016758,0.000000,-1.411160,1.411160,0.0000,0.0000,0.0000,-0.002440,-1.452680,1.446544,0.3094,0.6791,0.0456,0.000000,0.572175,-0.561437,0.564505,-0.592117,0.575243,-0.556835
3.8461,0.016766,0.000000,-1.409697,1.409697,0.0000,0.0000,0.0000,-0.002440,-1.452680,1.446544,0.3094,0.6791,0.0456,0.000000,0.572175,-0.561437,0.564505,-0.592117,0.575243,-0.556835
3.8628,0.016748,0.000000,-1.408236,1.408236,0.0000,0.0000,0.0000,-0.002440,-1.452680,1.446544,0.3094,0.6791,0.0456,0.000000,0.572175,-0.561437,0.564505,-0.592117,0.575243,-0.556835
3.8796,0.016755,0.000000,-1.406774,1.406774,0.0000,0.0000,0.0000,-0.002440,-1.452680,1.446544,0.3094,0.6791,0.0456,0.000000,0.572175,-0.561437,0.564505,-0.592117,0.575243,-0.556835
3.8964,0.016866,0.000000,-1.405302,1.405302,0.0000,0.0000,0.0000,-0.002440,-1.451146,1.446544,0.3094,0.6791,0.0456,0.000000,0.572175,-0.561437,0.564505,-0.592117,0.575243,-0.556835
3.9132,0.016758,0.000000,-1.403839,1.403839,0.0000,0.0000,0.0000,-0.002440,-1.451146,1.446544,0.3094,0.6791,0.0456,0.000000,0.572175,-0.561437,0.564505,-0.592117,0.575243,-0.556835
3.9299,0.016755,0.000000,-1.402377,1.402377,0.0000,0.0000,0.0000,-0.002440,-1.451146,1.446544,0.3094,0.6791,0.0456,0.000000,0.572175,-0.561437,0.564505,-0.592117,0.575243,-0.556835
3.9467,0.016759,0.000000,-1.400915,1.400915,0.0000,0.0000,0.0000,-0.002452,-1.449612,1.446544,0.2989,0.6289,0.0987,0.000000,0.572175,-0.561437,0.564505,-0.590583,0.575243,-0.556835
3.9635,0.016752,0.000000,-1.399453,1.399453,0.0000,0.0000,0.0000,-0.002451,-1.449612,1.446544,0.3000,0.6341,0.0931,0.000000,0.572175,-0.561437,0.564505,-0.590583,0.575243,-0.556835
3.9802,0.016762,0.000000,-1.397990,1.397990,0.0000,0.0000,0.0000,-0.002451,-1.437340,1.445010,0.3000,0.6341,0.0931,0.000000,0.572175,-0.561437,0.564505,-0.590583,0.575243,-0.556835
3.9970,0.016762,0.000000,-1.396527,1.396527,0.0000,0.0000,0.0000,-0.002426,-1.428136,1.443476,0.3496,0.6488,-0.0132,0.000000,0.572175,-0.562971,0.564505,-0.592117,0.575243,-0.556835
4.0137,0.016760,0.000000,-1.397462,1.397462,0.0000,0.0000,0.0000,-0.002426,-1.425068,1.440408,0.3496,0.6488,-0.0132,0.000000,0.572175,-0.562971,0.564505,-0.592117,0.575243,-0.556835
4.0305,0.016752,0.000000,-1.398924,1.398924,0.0000,0.0000,0.0000,-0.002429,-1.425068,1.440408,0.3444,0.6473,-0.0021,0.000000,0.572175,-0.562971,0.564505,-0.592117,0.575243,-0.556835
4.0472,0.016756,0.000000,-1.400386,1.400386,0.0000,0.0000,0.0000,-0.002441,-1.425068,1.432738,0.3059,0.6830,0.0499,0.000000,0.572175,-0.561437,0.564505,-0.592117,0.575243,-0.556835
4.0640,0.016753,0.000000,-1.401848,1.401848,0.0000,0.0000,0.0000,-0.002439,-1.425068,1.426602,0.3384,0.5930,0.0451,0.000000,0.572175,-0.562971,0.564505,-0.590583,0.575243,-0.556835
4.0808,0.016758,0.000000,-1.403311,1.403311,0.0000,0.0000,0.0000,-0.002428,-1.425068,1.420466,0.3455,0.6531,-0.0082,0.000000,0.572175,-0.562971,0.564505,-0.592117,0.575243,-0.556835
4.0975,0.016761,0.000000,-1.404773,1.404773,0.0000,0.0000,0.0000,-0.002429,-1.425068,1.418932,0.3448,0.6468,-0.0026,0.000000,0.572175,-0.562971,0.564505,-0.592117,0.575243,-0.556835
4.1143,0.016766,0.000000,-1.406236,1.406236,0.0000,0.0000,0.0000,-0.002429,-1.425068,1.418932,0.3448,0.6468,-0.0026,0.000000,0.572175,-0.562971,0.564505,-0.592117,0.575243,-0.556835
4.1311,0.016824,0.000000,-1.407705,1.407705,0.0000,0.0000,0.0000,-0.002429,-1.423534,1.418932,0.3448,0.6468,-0.0026,0.000000,0.572175,-0.562971,0.564505,-0.592117,0.575243,-0.556835
4.1479,0.016756,0.000000,-1.409167,1.409167,0.0000,0.0000,0.0000,-0.002429,-1.425068,1.418932,0.3448,0.6468,-0.0026,0.000000,0.572175,-0.562971,0.564505,-0.592117,0.575243,-0.556835
4.1646,0.016755,0.000000,-1.410629,1.410629,0.0000,0.0000,0.0000,-0.002453,-1.425068,1.418932,0.2952,0.6323,0.1037,0.000000,0.572175,-0.561437,0.564505,-0.590583,0.575243,-0.556835
4.1814,0.016753,0.000000,-1.412091,1.412091,0.0000,0.0000,0.0000,-0.002426,-1.425068,1.418932,0.3501,0.6490,-0.0143,0.000000,0.572175,-0.562971,0.564505,-0.592117,0.575243,-0.556835
4.1981,0.016745,0.000000,-1.413552,1.413552,0.0000,0.0000,0.0000,-0.002429,-1.425068,1.418932,0.3443,0.6473,-0.0020,0.000000,0.572175,-0.562971,0.564505,-0.592117,0.575243,-0.556835
4.2149,0.016761,0.000000,-1.415015,1.415015,0.0000,0.0000,0.0000,-0.002429,-1.425068,1.418932,0.3443,0.6473,-0.0020,0.000000,0.572175,-0.562971,0.564505,-0.592117,0.575243,-0.556835
4.2316,0.016748,0.000000,-1.416477,1.416477,0.0000,0.0000,0.0000,-0.002440,-1.425068,1.418932,0.3343,0.5967,0.0505,0.000000,0.572175,-0.562971,0.564505,-0.590583,0.575243,-0.556835
4.2484,0.016775,0.000000,-1.417940,1.417940,0.0000,0.0000,0.0000,-0.002440,-1.425068,1.418932,0.3069,0.6883,0.0444,0.000000,0.572175,-0.561437,0.564505,-0.592117,0.575243,-0.556835
4.2651,0.016746,0.000000,-1.419402,1.419402,0.0000,0.0000,0.0000,-0.002428,-1.425068,1.418932,0.3489,0.6432,-0.0081,0.000000,0.572175,-0.562971,0.564505,-0.592117,0.575243,-0.556835
4.2819,0.016753,0.000000,-1.420864,1.420864,0.0000,0.0000,0.0000,-0.002429,-1.425068,1.418932,0.3445,0.6479,-0.0026,0.000000,0.572175,-0.562971,0.564505,-0.592117,0.575243,-0.556835
4.2986,0.016740,0.000000,-1.422325,1.422325,0.0000,0.0000,0.0000,-0.002453,-1.425068,1.418932,0.2952,0.6322,0.1037,0.000000,0.572175,-0.561437,0.564505,-0.590583,0.575243,-0.556835
4.3154,0.016747,0.000000,-1.423786,1.423786,0.0000,0.0000,0.0000,-0.002453,-1.425068,1.418932,0.2952,0.6322,0.1037,0.000000,0.572175,-0.561437,0.564505,-0.590583,0.575243,-0.556835
4.3321,0.016754,0.000000,-1.425248,1.425248,0.0000,0.0000,0.0000,-0.002426,-1.425068,1.420466,0.3501,0.6491,-0.0143,0.000000,0.572175,-0.562971,0.564505,-0.592117,0.575243,-0.556835
4.3489,0.016748,0.000000,-1.426710,1.426710,0.0000,0.0000,0.0000,-0.002429,-1.425068,1.420466,0.3443,0.6473,-0.0020,0.000000,0.572175,-0.562971,0.564505,-0.592117,0.575243,-0.556835
4.3656,0.016744,0.000000,-1.428171,1.428171,0.0000,0.0000,0.0000,-0.002441,-1.426602,1.422000,0.3059,0.6830,0.0498,0.000000,0.572175,-0.561437,0.564505,-0.592117,0.575243,-0.556835
4.3824,0.016760,0.000000,-1.429633,1.429633,0.0000,0.0000,0.0000,-0.002452,-1.428136,1.426602,0.2992,0.6285,0.0982,0.000000,0.572175,-0.561437,0.564505,-0.590583,0.575243,-0.556835
4.3991,0.016754,0.000000,-1.431096,1.431096,0.0000,0.0000,0.0000,-0.002426,-1.428136,1.426602,0.3496,0.6494,-0.0137,0.000000,0.572175,-0.562971,0.564505,-0.592117,0.575243,-0.556835
4.4159,0.016761,0.000000,-1.432558,1.432558,0.0000,0.0000,0.0000,-0.002426,-1.428136,1.426602,0.3496,0.6494,-0.0137,0.000000,0.572175,-0.562971,0.564505,-0.592117,0.575243,-0.556835
4.4327,0.016750,0.000000,-1.434020,1.434020,0.0000,0.0000,0.0000,-0.002442,-1.432738,1.426602,0.3053,0.6828,0.0511,0.000000,0.572175,-0.561437,0.564505,-0.592117,0.575243,-0.556835
4.4494,0.016753,0.000000,-1.435482,1.435482,0.0000,0.0000,0.0000,-0.002440,-1.432738,1.426602,0.3099,0.6793,0.0443,0.000000,0.572175,-0.561437,0.564505,-0.592117,0.575243,-0.556835
4.4662,0.016796,0.000000,-1.436948,1.436948,0.0000,0.0000,0.0000,-0.002452,-1.432738,1.429670,0.2988,0.6289,0.0988,0.000000,0.572175,-0.561437,0.564505,-0.590583,0.575243,-0.556835
4.4830,0.016756,0.000000,-1.438410,1.438410,0.0000,0.0000,0.0000,-0.002439,-1.438874,1.434272,0.3106,0.6849,0.0393,0.000000,0.572175,-0.561437,0.564505,-0.592117,0.575243,-0.556835
4.4997,0.016786,0.000000,-1.439875,1.439875,0.0000,0.0000,0.0000,-0.002439,-1.438874,1.434272,0.3379,0.5928,0.0462,0.000000,0.572175,-0.562971,0.564505,-0.590583,0.575243,-0.556835
4.5165,0.016756,0.000000,-1.441337,1.441337,0.0000,0.0000,0.0000,-0.002439,-1.438874,1.434272,0.3379,0.5928,0.0462,0.000000,0.572175,-0.562971,0.564505,-0.590583,0.575243,-0.556835
4.5333,0.016749,0.000000,-1.442799,1.442799,0.0000,0.0000,0.0000,-0.002440,-1.438874,1.434272,0.3065,0.6887,0.0448,0.000000,0.572175,-0.561437,0.564505,-0.592117,0.575243,-0.556835
4.5500,0.016744,0.000000,-1.444260,1.444260,0.0000,0.0000,0.0000,-0.002440,-1.438874,1.438874,0.3098,0.6787,0.0450,0.000000,0.572175,-0.561437,0.564505,-0.592117,0.575243,-0.556835
4.5667,0.016745,0.000000,-1.445721,1.445721,0.0000,0.0000,0.0000,-0.002439,-1.440408,1.440408,0.3380,0.5934,0.0456,0.000000,0.572175,-0.562971,0.564505,-0.590583,0.575243,-0.556835
4.5835,0.016756,0.000000,-1.447183,1.447183,0.0000,0.0000,0.0000,-0.002428,-1.446544,1.440408,0.3456,0.6531,-0.0082,0.000000,0.572175,-0.562971,0.564505,-0.592117,0.575243,-0.556835
4.6003,0.016773,0.000000,-1.448647,1.448647,0.0000,0.0000,0.0000,-0.002442,-1.446544,1.446544,0.3057,0.6824,0.0505,0.000000,0.572175,-0.561437,0.564505,-0.592117,0.575243,-0.556835
4.6170,0.016762,0.000000,-1.450110,1.450110,0.0000,0.0000,0.0000,-0.002442,-1.446544,1.446544,0.3057,0.6824,0.0505,0.000000,0.572175,-0.561437,0.564505,-0.592117,0.575243,-0.556835
4.6338,0.016750,0.000000,-1.451571,1.451571,0.0000,0.0000,0.0000,-0.002439,-1.446544,1.446544,0.3384,0.5930,0.0450,0.000000,0.572175,-0.562971,0.564505,-0.590583,0.575243,-0.556835
4.6505,0.016747,0.000000,-1.453033,1.453033,0.0000,0.0000,0.0000,-0.002440,-1.451146,1.446544,0.3065,0.6886,0.0449,0.000000,0.572175,-0.561437,0.564505,-0.592117,0.575243,-0.556835
4.6673,0.016747,0.000000,-1.454494,1.454494,0.0000,0.0000,0.0000,-0.002428,-1.454214,1.446544,0.3489,0.6431,-0.0081,0.000000,0.572175,-0.562971,0.564505,-0.592117,0.575243,-0.556835
4.6840,0.016745,0.000000,-1.455956,1.455956,0.0000,0.0000,0.0000,-0.002453,-1.454214,1.451146,0.2948,0.6327,0.1043,0.000000,0.572175,-0.561437,0.564505,-0.590583,0.575243,-0.556835
4.7009,0.016837,0.000000,-1.457425,1.457425,0.0000,0.0000,0.0000,-0.002426,-1.454214,1.452680,0.3501,0.6490,-0.0143,0.000000,0.572175,-0.562971,0.564505,-0.592117,0.575243,-0.556835
4.7176,0.016749,0.000000,-1.458887,1.458887,0.0000,0.0000,0.0000,-0.002426,-1.454214,1.452680,0.3501,0.6490,-0.0143,0.000000,0.572175,-0.562971,0.564505,-0.592117,0.575243,-0.556835
4.7344,0.016751,0.000000,-1.460348,1.460348,0.0000,0.0000,0.0000,-0.002429,-1.458816,1.452680,0.3443,0.6473,-0.0020,0.000000,0.572175,-0.562971,0.564505,-0.592117,0.575243,-0.556835
4.7511,0.016772,0.000000,-1.461812,1.461812,0.0000,0.0000,0.0000,-0.002429,-1.458816,1.455748,0.3451,0.6475,-0.0037,0.000000,0.572175,-0.562971,0.564505,-0.592117,0.575243,-0.556835
4.7679,0.016746,0.000000,-1.463274,1.463274,0.0000,0.0000,0.0000,-0.002440,-1.460350,1.455748,0.3343,0.5967,0.0507,0.000000,0.572175,-0.562971,0.564505,-0.590583,0.575243,-0.556835
4.7846,0.016746,0.000000,-1.464735,1.464735,0.0000,0.0000,0.0000,-0.002452,-1.460350,1.458816,0.2963,0.6375,0.0981,0.000000,0.572175,-0.561437,0.564505,-0.590583,0.575243,-0.556835
4.8017,0.017030,0.000000,-1.466221,1.466221,0.0000,0.0000,0.0000,-0.002451,-1.464952,1.461884,0.3002,0.6332,0.0932,0.000000,0.572175,-0.561437,0.564505,-0.590583,0.575243,-0.556835
4.8184,0.016747,0.000000,-1.467682,1.467682,0.0000,0.0000,0.0000,-0.002451,-1.464952,1.461884,0.3002,0.6332,0.0932,0.000000,0.572175,-0.561437,0.564505,-0.590583,0.575243,-0.556835
4.8351,0.016743,0.000000,-1.469144,1.469144,0.0000,0.0000,0.0000,-0.002439,-1.464952,1.461884,0.3104,0.6845,0.0399,0.000000,0.572175,-0.561437,0.564505,-0.592117,0.575243,-0.556835
4.8519,0.016744,0.000000,-1.470605,1.470605,0.0000,0.0000,0.0000,-0.002440,-1.466486,1.461884,0.3094,0.6791,0.0455,0.000000,0.572175,-0.561437,0.564505,-0.592117,0.575243,-0.556835
4.8686,0.016744,0.000000,-1.472066,1.472066,0.0000,0.0000,0.0000,-0.002428,-1.466486,1.464952,0.3486,0.6441,-0.0082,0.000000,0.572175,-0.562971,0.564505,-0.592117,0.575243,-0.556835
4.8854,0.016742,0.000000,-1.473527,1.473527,0.0000,0.0000,0.0000,-0.002429,-1.471088,1.469554,0.3445,0.6478,-0.0026,0.000000,0.572175,-0.562971,0.564505,-0.592117,0.575243,-0.556835
4.9021,0.016767,0.000000,-1.474990,1.474990,0.0000,0.0000,0.0000,-0.002453,-1.472622,1.471088,0.2952,0.6322,0.1037,0.000000,0.572175,-0.561437,0.564505,-0.590583,0.575243,-0.556835
4.9189,0.016742,0.000000,-1.476451,1.476451,0.0000,0.0000,0.0000,-0.002453,-1.472622,1.471088,0.2952,0.6322,0.1037,0.000000,0.572175,-0.561437,0.564505,-0.590583,0.575243,-0.556835
4.9356,0.016749,0.000000,-1.477913,1.477913,0.0000,0.0000,0.0000,-0.002426,-1.472622,1.471088,0.3501,0.6491,-0.0143,0.000000,0.572175,-0.562971,0.564505,-0.592117,0.575243,-0.556835
4.9524,0.016749,0.000000,-1.479374,1.479374,0.0000,0.0000,0.0000,-0.002453,-1.475690,1.471088,0.2947,0.6321,0.1049,0.000000,0.572175,-0.561437,0.564505,-0.590583,0.575243,-0.556835
4.9691,0.016743,0.000000,-1.480835,1.480835,0.0000,0.0000,0.0000,-0.002426,-1.475690,1.474156,0.3501,0.6491,-0.0144,0.000000,0.572175,-0.562971,0.564505,-0.592117,0.575243,-0.556835
4.9859,0.016750,0.000000,-1.482297,1.482297,0.0000,0.0000,0.0000,-0.002442,-1.480291,1.477223,0.3053,0.6828,0.0511,0.000000,0.572175,-0.561437,0.564505,-0.592117,0.575243,-0.556835
5.0026,0.016767,0.000000,-1.483760,1.483760,0.0000,0.0000,0.0000,-0.002440,-1.483359,1.477223,0.3099,0.6793,0.0443,0.000000,0.572175,-0.561437,0.564505,-0.592117,0.575243,-0.556835
5.0195,0.016810,0.000000,-1.485227,1.485227,0.0000,0.0000,0.0000,-0.002440,-1.483359,1.477223,0.3099,0.6793,0.0443,0.000000,0.572175,-0.561437,0.564505,-0.592117,0.575243,-0.556835
5.0362,0.016744,0.000000,-1.486688,1.486688,0.0000,0.0000,0.0000,-0.002440,-1.484893,1.478757,0.3099,0.6793,0.0443,0.000000,0.572175,-0.561437,0.564505,-0.592117,0.575243,-0.556835
5.0529,0.016742,0.000000,-1.488149,1.488149,0.0000,0.0000,0.0000,-0.002452,-1.484893,1.481825,0.2988,0.6289,0.0988,0.000000,0.572175,-0.561437,0.564505,-0.590583,0.575243,-0.556835
5.0697,0.016746,0.000000,-1.489611,1.489611,0.0000,0.0000,0.0000,-0.002439,-1.486427,1.481825,0.3106,0.6849,0.0393,0.000000,0.572175,-0.561437,0.564505,-0.592117,0.575243,-0.556835
5.0864,0.016754,0.000000,-1.491073,1.491073,0.0000,0.0000,0.0000,-0.002440,-1.489495,1.484893,0.3094,0.6791,0.0455,0.000000,0.572175,-0.561437,0.564505,-0.592117,0.575243,-0.556835
5.1033,0.016822,0.000000,-1.492541,1.492541,0.0000,0.0000,0.0000,-0.002440,-1.492563,1.489495,0.3094,0.6791,0.0455,0.000000,0.572175,-0.561437,0.564505,-0.592117,0.575243,-0.556835
5.1200,0.016739,0.000000,-1.494002,1.494002,0.0000,0.0000,0.0000,-0.002440,-1.492563,1.489495,0.3094,0.6791,0.0455,0.000000,0.572175,-0.561437,0.564505,-0.592117,0.575243,-0.556835
5.1367,0.016694,0.000000,-1.495459,1.495459,0.0000,0.0000,0.0000,-0.002428,-1.492563,1.491029,0.3486,0.6441,-0.0082,0.000000,0.572175,-0.562971,0.564505,-0.592117,0.575243,-0.556835
5.1534,0.016742,0.000000,-1.496920,1.496920,0.0000,0.0000,0.0000,-0.002440,-1.492563,1.489495,0.3339,0.5970,0.0512,0.000000,0.572175,-0.562971,0.564505,-0.590583,0.575243,-0.556835
5.1702,0.016742,0.000000,-1.498381,1.498381,0.0000,0.0000,0.0000,-0.002439,-1.492563,1.489495,0.2467,0.6199,0.0446,0.000000,0.572175,-0.561437,0.564505,-0.590583,0.575243,-0.558369
5.1869,0.016743,0.000000,-1.499842,1.499842,0.0000,0.0000,0.0000,-0.002427,-1.497165,1.494097,0.2664,0.6683,-0.0085,0.000000,0.572175,-0.561437,0.564505,-0.592117,0.575243,-0.558369
5.2037,0.016749,0.000000,-1.501303,1.501303,0.0000,0.0000,0.0000,-0.002427,-1.497165,1.494097,0.2664,0.6683,-0.0085,0.000000,0.572175,-0.561437,0.564505,-0.592117,0.575243,-0.558369
5.2204,0.016740,0.000000,-1.502764,1.502764,0.0000,0.0000,0.0000,-0.002416,-1.498699,1.497165,0.3035,0.6278,-0.0560,0.000000,0.572175,-0.562971,0.564505,-0.592117,0.575243,-0.558369
5.2372,0.016749,0.000000,-1.504226,1.504226,0.0000,0.0000,0.0000,-0.002430,-1.497165,1.497165,0.2605,0.6675,0.0020,0.000000,0.572175,-0.561437,0.564505,-0.592117,0.575243,-0.558369
5.2539,0.016744,0.000000,-1.505687,1.505687,0.0000,0.0000,0.0000,-0.002427,-1.501767,1.497165,0.2935,0.5771,-0.0033,0.000000,0.572175,-0.562971,0.564505,-0.590583,0.575243,-0.558369
5.2707,0.016747,0.000000,-1.507149,1.507149,0.0000,0.0000,0.0000,-0.002415,-1.503301,1.500233,0.2120,0.6553,-0.0570,0.000000,0.572175,-0.561437,0.564505,-0.592117,0.575243,-0.559903
5.2874,0.016747,0.000000,-1.508610,1.508610,0.0000,0.0000,0.0000,-0.002404,-1.506369,1.501767,0.2596,0.6117,-0.1044,0.000000,0.572175,-0.562971,0.564505,-0.592117,0.575243,-0.559903
5.3041,0.016730,0.000000,-1.510070,1.510070,0.0000,0.0000,0.0000,-0.002404,-1.509437,1.504835,0.2596,0.6117,-0.1044,0.000000,0.572175,-0.562971,0.564505,-0.592117,0.575243,-0.559903
5.3209,0.016742,0.000000,-1.511531,1.511531,0.0000,0.0000,0.0000,-0.002405,-1.509437,1.504835,0.2546,0.6162,-0.0995,0.000000,0.572175,-0.562971,0.564505,-0.592117,0.575243,-0.559903
5.3376,0.016759,0.000000,-1.512993,1.512993,0.0000,0.0000,0.0000,-0.002405,-1.509437,1.504835,0.2546,0.6162,-0.0995,0.000000,0.572175,-0.562971,0.564505,-0.592117,0.575243,-0.559903
5.3544,0.016739,0.000000,-1.514454,1.514454,0.0000,0.0000,0.0000,-0.002405,-1.509437,1.507903,0.2546,0.6162,-0.0995,0.000000,0.572175,-0.562971,0.564505,-0.592117,0.575243,-0.559903
5.3711,0.016751,0.000000,-1.515916,1.515916,0.0000,0.0000,0.0000,-0.002405,-1.510971,1.507903,0.2546,0.6162,-0.0995,0.000000,0.572175,-0.562971,0.564505,-0.592117,0.575243,-0.559903
5.3879,0.016742,0.000000,-1.517377,1.517377,0.0000,0.0000,0.0000,-0.002429,-1.515573,1.509437,0.2054,0.6005,0.0069,0.000000,0.572175,-0.561437,0.564505,-0.590583,0.575243,-0.559903
5.4046,0.016751,0.000000,-1.518839,1.518839,0.0000,0.0000,0.0000,-0.002429,-1.515573,1.509437,0.2054,0.6005,0.0069,0.000000,0.572175,-0.561437,0.564505,-0.590583,0.575243,-0.559903
5.4214,0.016771,0.000000,-1.520302,1.520302,0.0000,0.0000,0.0000,-0.002415,-1.518641,1.515573,0.2212,0.6529,-0.0580,0.000000,0.572175,-0.561437,0.564505,-0.592117,0.575243,-0.559903
5.4381,0.016742,0.000000,-1.521763,1.521763,0.0000,0.0000,0.0000,-0.002428,-1.518641,1.515573,0.2089,0.5967,0.0026,0.000000,0.572175,-0.561437,0.564505,-0.590583,0.575243,-0.559903
5.4549,0.016743,0.000000,-1.523224,1.523224,0.0000,0.0000,0.0000,-0.002415,-1.520175,1.515573,0.2208,0.6533,-0.0576,0.000000,0.572175,-0.561437,0.564505,-0.592117,0.575243,-0.559903
5.4716,0.016748,0.000000,-1.524686,1.524686,0.0000,0.0000,0.0000,-0.002428,-1.524777,1.520175,0.2089,0.5966,0.0025,0.000000,0.572175,-0.561437,0.564505,-0.590583,0.575243,-0.559903
5.4884,0.016765,0.000000,-1.526149,1.526149,0.0000,0.0000,0.0000,-0.002403,-1.524777,1.523243,0.2599,0.6178,-0.1106,0.000000,0.572175,-0.562971,0.564505,-0.592117,0.575243,-0.559903
