t,loop_dt,cmd_z,cmd_ant_l,cmd_ant_r,cmd_roll,cmd_pitch,cmd_yaw,pres_z,pres_ant_l,pres_ant_r,pres_roll,pres_pitch,pres_yaw,pres_j0,pres_j1,pres_j2,pres_j3,pres_j4,pres_j5,pres_j6
0.0000,0.000001,0.000000,-0.174533,0.174533,0.0000,0.0000,0.0000,-0.002392,0.003068,0.000000,0.3880,0.3852,0.0474,0.000000,0.575243,-0.566039,0.564505,-0.587515,0.575243,-0.559903
0.0167,0.016748,0.000000,-0.174241,0.174241,0.0000,0.0000,0.0000,-0.002392,0.003068,0.000000,0.3880,0.3852,0.0474,0.000000,0.575243,-0.566039,0.564505,-0.587515,0.575243,-0.559903
0.0335,0.016752,0.000000,-0.173948,0.173948,0.0000,0.0000,0.0000,-0.002392,0.001534,0.000000,0.3880,0.3852,0.0474,0.000000,0.575243,-0.566039,0.564505,-0.587515,0.575243,-0.559903
0.0502,0.016739,0.000000,-0.173656,0.173656,0.0000,0.0000,0.0000,-0.002392,-0.006136,0.000000,0.3880,0.3852,0.0474,0.000000,0.575243,-0.566039,0.564505,-0.587515,0.575243,-0.559903
0.0670,0.016755,0.000000,-0.173364,0.173364,0.0000,0.0000,0.0000,-0.002380,-0.032214,0.026078,0.4373,0.3693,0.1005,0.000000,0.576777,-0.566039,0.564505,-0.587515,0.575243,-0.559903
0.0837,0.016750,0.000000,-0.173071,0.173071,0.0000,0.0000,0.0000,-0.002381,-0.085903,0.087437,0.4321,0.3710,0.0950,0.000000,0.576777,-0.566039,0.564505,-0.587515,0.575243,-0.559903
0.1005,0.016742,0.000000,-0.172779,0.172779,0.0000,0.0000,0.0000,-0.002370,-0.162602,0.164136,0.4825,0.3551,0.1493,0.000000,0.578311,-0.566039,0.564505,-0.587515,0.575243,-0.559903
0.1192,0.018754,0.000000,-0.172452,0.172452,0.0000,0.0000,0.0000,-0.002370,-0.162602,0.164136,0.4825,0.3551,0.1493,0.000000,0.578311,-0.566039,0.564505,-0.587515,0.575243,-0.559903
0.1360,0.016743,0.000000,-0.172160,0.172160,0.0000,0.0000,0.0000,-0.002371,-0.200951,0.204019,0.4773,0.3568,0.1436,0.000000,0.578311,-0.566039,0.564505,-0.587515,0.575243,-0.559903
0.1527,0.016754,0.000000,-0.171867,0.171867,0.0000,0.0000,0.0000,-0.002371,-0.202485,0.200951,0.4773,0.3568,0.1436,0.000000,0.578311,-0.566039,0.564505,-0.587515,0.575243,-0.559903
0.1695,0.016743,0.000000,-0.171575,0.171575,0.0000,0.0000,0.0000,-0.002371,-0.187146,0.187146,0.4773,0.3568,0.1436,0.000000,0.578311,-0.566039,0.564505,-0.587515,0.575243,-0.559903
0.1862,0.016762,0.000000,-0.171282,0.171282,0.0000,0.0000,0.0000,-0.002371,-0.176408,0.176408,0.4773,0.3568,0.1436,0.000000,0.578311,-0.566039,0.564505,-0.587515,0.575243,-0.559903
0.2030,0.016745,0.000000,-0.170990,0.170990,0.0000,0.0000,0.0000,-0.002347,-0.170272,0.167204,0.4882,0.3069,0.2513,0.000000,0.579845,-0.566039,0.564505,-0.587515,0.576777,-0.559903
0.2198,0.016765,0.000000,-0.170698,0.170698,0.0000,0.0000,0.0000,-0.002347,-0.170272,0.167204,0.4882,0.3069,0.2513,0.000000,0.579845,-0.566039,0.564505,-0.587515,0.576777,-0.559903
0.2365,0.016746,0.000000,-0.170405,0.170405,0.0000,0.0000,0.0000,-0.002361,-0.173340,0.173340,0.5265,0.3461,0.1867,0.000000,0.579845,-0.566039,0.564505,-0.587515,0.575243,-0.559903
0.2533,0.016762,0.000000,-0.170113,0.170113,0.0000,0.0000,0.0000,-0.002360,-0.174874,0.173340,0.5225,0.3421,0.1935,0.000000,0.579845,-0.566039,0.564505,-0.587515,0.575243,-0.559903
0.2700,0.016741,0.000000,-0.169821,0.169821,0.0000,0.0000,0.0000,-0.002372,-0.173340,0.168738,0.4731,0.3581,0.1390,0.000000,0.578311,-0.566039,0.564505,-0.587515,0.575243,-0.559903
0.2868,0.016761,0.000000,-0.169528,0.169528,0.0000,0.0000,0.0000,-0.002371,-0.173340,0.171806,0.4783,0.3564,0.1447,0.000000,0.578311,-0.566039,0.564505,-0.587515,0.575243,-0.559903
0.3035,0.016740,0.000000,-0.169236,0.169236,0.0000,0.0000,0.0000,-0.002359,-0.174874,0.171806,0.5275,0.3410,0.1978,0.000000,0.579845,-0.566039,0.564505,-0.587515,0.575243,-0.559903
0.3210,0.017493,0.000000,-0.168931,0.168931,0.0000,0.0000,0.0000,-0.002359,-0.174874,0.171806,0.5275,0.3410,0.1978,0.000000,0.579845,-0.566039,0.564505,-0.587515,0.575243,-0.559903
0.3377,0.016744,0.000000,-0.168638,0.168638,0.0000,0.0000,0.0000,-0.002347,-0.173340,0.171806,0.4728,0.3250,0.1389,0.000000,0.579845,-0.566039,0.564505,-0.587515,0.575243,-0.561437
0.3545,0.016758,0.000000,-0.168346,0.168346,0.0000,0.0000,0.0000,-0.002348,-0.173340,0.171806,0.4785,0.3267,0.1450,0.000000,0.579845,-0.566039,0.564505,-0.587515,0.575243,-0.561437
0.3712,0.016746,0.000000,-0.168054,0.168054,0.0000,0.0000,0.0000,-0.002361,-0.173340,0.171806,0.5275,0.3441,0.1978,0.000000,0.579845,-0.566039,0.564505,-0.587515,0.575243,-0.559903
0.3880,0.016754,0.000000,-0.167761,0.167761,0.0000,0.0000,0.0000,-0.002372,-0.173340,0.170272,0.4726,0.3579,0.1386,0.000000,0.578311,-0.566039,0.564505,-0.587515,0.575243,-0.559903
0.4047,0.016742,0.000000,-0.167469,0.167469,0.0000,0.0000,0.0000,-0.002359,-0.173340,0.170272,0.5281,0.3408,0.1985,0.000000,0.579845,-0.566039,0.564505,-0.587515,0.575243,-0.559903
0.4228,0.018029,0.000000,-0.167154,0.167154,0.0000,0.0000,0.0000,-0.002360,-0.173340,0.171806,0.5223,0.3426,0.1922,0.000000,0.579845,-0.566039,0.564505,-0.587515,0.575243,-0.559903
0.4395,0.016740,0.000000,-0.166862,0.166862,0.0000,0.0000,0.0000,-0.002360,-0.173340,0.171806,0.5223,0.3426,0.1922,0.000000,0.579845,-0.566039,0.564505,-0.587515,0.575243,-0.559903
0.4563,0.016752,0.000000,-0.166570,0.166570,0.0000,0.0000,0.0000,-0.002347,-0.173340,0.170272,0.4733,0.3249,0.1395,0.000000,0.579845,-0.566039,0.564505,-0.587515,0.575243,-0.561437
0.4730,0.016741,0.000000,-0.166277,0.166277,0.0000,0.0000,0.0000,-0.002348,-0.173340,0.170272,0.4784,0.3267,0.1450,0.000000,0.579845,-0.566039,0.564505,-0.587515,0.575243,-0.561437
0.4898,0.016757,0.000000,-0.165985,0.165985,0.0000,0.0000,0.0000,-0.002360,-0.173340,0.171806,0.4281,0.3422,0.0907,0.000000,0.578311,-0.566039,0.564505,-0.587515,0.575243,-0.561437
0.5065,0.016745,0.000000,-0.165693,0.165693,0.0000,0.0000,0.0000,-0.002372,-0.173340,0.170272,0.4829,0.3581,0.1497,0.000000,0.578311,-0.566039,0.564505,-0.587515,0.575243,-0.559903
0.5233,0.016770,0.000000,-0.165400,0.165400,0.0000,0.0000,0.0000,-0.002372,-0.173340,0.170272,0.4829,0.3581,0.1497,0.000000,0.579845,-0.566039,0.564505,-0.587515,0.575243,-0.561437
0.5400,0.016746,0.000000,-0.165108,0.165108,0.0000,0.0000,0.0000,-0.002346,-0.173340,0.170272,0.4774,0.3233,0.1439,0.000000,0.579845,-0.566039,0.564505,-0.587515,0.575243,-0.561437
0.5568,0.016748,0.000000,-0.164816,0.164816,0.0000,0.0000,0.0000,-0.002362,-0.168738,0.170272,0.5276,0.3444,0.1979,0.000000,0.579845,-0.566039,0.564505,-0.587515,0.575243,-0.559903
0.5735,0.016742,0.000000,-0.164523,0.164523,0.0000,0.0000,0.0000,-0.002360,-0.167204,0.171806,0.5224,0.3422,0.1923,0.000000,0.579845,-0.566039,0.564505,-0.587515,0.575243,-0.559903
0.5903,0.016757,0.000000,-0.164231,0.164231,0.0000,0.0000,0.0000,-0.002360,-0.167204,0.171806,0.5224,0.3422,0.1923,0.000000,0.579845,-0.566039,0.564505,-0.587515,0.575243,-0.559903
0.6070,0.016748,0.000000,-0.163939,0.163939,0.0000,0.0000,0.0000,-0.002372,-0.167204,0.170272,0.4731,0.3581,0.1391,0.000000,0.578311,-0.566039,0.564505,-0.587515,0.575243,-0.559903
0.6238,0.016759,0.000000,-0.163646,0.163646,0.0000,0.0000,0.0000,-0.002372,-0.167204,0.170272,0.4731,0.3581,0.1391,0.000000,0.578311,-0.566039,0.564505,-0.587515,0.575243,-0.559903
0.6405,0.016743,0.000000,-0.163354,0.163354,0.0000,0.0000,0.0000,-0.002358,-0.167204,0.170272,0.4286,0.3389,0.0913,0.000000,0.578311,-0.566039,0.564505,-0.587515,0.575243,-0.561437
0.6573,0.016750,0.000000,-0.163061,0.163061,0.0000,0.0000,0.0000,-0.002359,-0.167204,0.170272,0.4333,0.3409,0.0963,0.000000,0.578311,-0.566039,0.564505,-0.587515,0.575243,-0.561437
0.6740,0.016749,0.000000,-0.162769,0.162769,0.0000,0.0000,0.0000,-0.002359,-0.165670,0.170272,0.4333,0.3409,0.0963,0.000000,0.578311,-0.566039,0.564505,-0.587515,0.575243,-0.561437
0.6908,0.016751,0.000000,-0.162477,0.162477,0.0000,0.0000,0.0000,-0.002347,-0.165670,0.170272,0.4826,0.3250,0.1495,0.000000,0.579845,-0.566039,0.564505,-0.587515,0.575243,-0.561437
0.7075,0.016750,0.000000,-0.162184,0.162184,0.0000,0.0000,0.0000,-0.002360,-0.165670,0.171806,0.4277,0.3424,0.0902,0.000000,0.578311,-0.566039,0.564505,-0.587515,0.575243,-0.561437
0.7243,0.016760,0.000000,-0.161892,0.161892,0.0000,0.0000,0.0000,-0.002360,-0.165670,0.171806,0.4277,0.3424,0.0902,0.000000,0.578311,-0.566039,0.564505,-0.587515,0.575243,-0.561437
0.7410,0.016743,0.000000,-0.161600,0.161600,0.0000,0.0000,0.0000,-0.002347,-0.164136,0.170272,0.4832,0.3249,0.1501,0.000000,0.579845,-0.566039,0.564505,-0.587515,0.575243,-0.561437
0.7578,0.016749,0.000000,-0.161307,0.161307,0.0000,0.0000,0.0000,-0.002360,-0.164136,0.170272,0.4276,0.3424,0.0901,0.000000,0.578311,-0.566039,0.564505,-0.587515,0.575243,-0.561437
0.7745,0.016741,0.000000,-0.161015,0.161015,0.0000,0.0000,0.0000,-0.002347,-0.164136,0.170272,0.4832,0.3249,0.1501,0.000000,0.579845,-0.566039,0.564505,-0.587515,0.575243,-0.561437
0.7913,0.016750,0.000000,-0.160723,0.160723,0.0000,0.0000,0.0000,-0.002348,-0.164136,0.170272,0.4774,0.3267,0.1439,0.000000,0.579845,-0.566039,0.564505,-0.587515,0.575243,-0.561437
0.8080,0.016744,0.000000,-0.160431,0.160431,0.0000,0.0000,0.0000,-0.002348,-0.162602,0.170272,0.4774,0.3267,0.1439,0.000000,0.579845,-0.566039,0.564505,-0.587515,0.575243,-0.561437
0.8248,0.016751,0.000000,-0.160138,0.160138,0.0000,0.0000,0.0000,-0.002348,-0.162602,0.170272,0.4774,0.3267,0.1439,0.000000,0.579845,-0.566039,0.564505,-0.587515,0.575243,-0.561437
0.8415,0.016744,0.000000,-0.159846,0.159846,0.0000,0.0000,0.0000,-0.002360,-0.162602,0.170272,0.4282,0.3422,0.0908,0.000000,0.578311,-0.566039,0.564505,-0.587515,0.575243,-0.561437
0.8582,0.016716,0.000000,-0.159554,0.159554,0.0000,0.0000,0.0000,-0.002360,-0.162602,0.170272,0.5327,0.3424,0.2035,0.000000,0.579845,-0.566039,0.564505,-0.587515,0.575243,-0.559903
0.8750,0.016744,0.000000,-0.159262,0.159262,0.0000,0.0000,0.0000,-0.002347,-0.162602,0.170272,0.4722,0.3249,0.1383,0.000000,0.579845,-0.566039,0.564505,-0.587515,0.575243,-0.561437
0.8917,0.016759,0.000000,-0.158970,0.158970,0.0000,0.0000,0.0000,-0.002336,-0.162602,0.170272,0.4391,0.2927,0.1984,0.000000,0.579845,-0.566039,0.564505,-0.587515,0.576777,-0.561437
0.9086,0.016833,0.000000,-0.158676,0.158676,0.0000,0.0000,0.0000,-0.002349,-0.162602,0.170272,0.4820,0.3301,0.1388,0.000000,0.579845,-0.566039,0.564505,-0.587515,0.575243,-0.561437
0.9253,0.016758,0.000000,-0.158383,0.158383,0.0000,0.0000,0.0000,-0.002349,-0.162602,0.170272,0.4820,0.3301,0.1388,0.000000,0.579845,-0.566039,0.564505,-0.587515,0.575243,-0.561437
0.9421,0.016742,0.000000,-0.158091,0.158091,0.0000,0.0000,0.0000,-0.002360,-0.161068,0.170272,0.4277,0.3418,0.0913,0.000000,0.578311,-0.566039,0.564505,-0.587515,0.575243,-0.561437
0.9588,0.016749,0.000000,-0.157799,0.157799,0.0000,0.0000,0.0000,-0.002347,-0.161068,0.170272,0.4832,0.3249,0.1500,0.000000,0.579845,-0.566039,0.564505,-0.587515,0.575243,-0.561437
0.9755,0.016743,0.000000,-0.157507,0.157507,0.0000,0.0000,0.0000,-0.002360,-0.161068,0.170272,0.4276,0.3424,0.0901,0.000000,0.578311,-0.566039,0.564505,-0.587515,0.575243,-0.561437
0.9923,0.016749,0.000000,-0.157214,0.157214,0.0000,0.0000,0.0000,-0.002359,-0.161068,0.170272,0.4334,0.3406,0.0964,0.000000,0.578311,-0.566039,0.564505,-0.587515,0.575243,-0.561437
1.0095,0.017180,0.000000,-0.156914,0.156914,0.0000,0.0000,0.0000,-0.002359,-0.161068,0.170272,0.4334,0.3406,0.0964,0.000000,0.578311,-0.566039,0.564505,-0.587515,0.575243,-0.561437
1.0262,0.016764,0.000000,-0.156622,0.156622,0.0000,0.0000,0.0000,-0.002359,-0.161068,0.170272,0.4334,0.3406,0.0964,0.000000,0.578311,-0.566039,0.564505,-0.587515,0.575243,-0.561437
1.0430,0.016758,0.000000,-0.156329,0.156329,0.0000,0.0000,0.0000,-0.002372,-0.159534,0.168738,0.4824,0.3583,0.1491,0.000000,0.578311,-0.566039,0.564505,-0.587515,0.575243,-0.559903
1.0597,0.016750,0.000000,-0.156037,0.156037,0.0000,0.0000,0.0000,-0.002346,-0.159534,0.167204,0.4775,0.3232,0.1440,0.000000,0.579845,-0.566039,0.564505,-0.587515,0.575243,-0.561437
1.0765,0.016752,0.000000,-0.155745,0.155745,0.0000,0.0000,0.0000,-0.002348,-0.159534,0.164136,0.4780,0.3269,0.1445,0.000000,0.579845,-0.566039,0.564505,-0.587515,0.575243,-0.561437
1.0933,0.016754,0.000000,-0.155452,0.155452,0.0000,0.0000,0.0000,-0.002348,-0.159534,0.159534,0.4780,0.3269,0.1445,0.000000,0.579845,-0.566039,0.564505,-0.587515,0.575243,-0.561437
1.1103,0.017008,0.000000,-0.155155,0.155155,0.0000,0.0000,0.0000,-0.002348,-0.159534,0.156466,0.4780,0.3269,0.1445,0.000000,0.579845,-0.566039,0.564505,-0.587515,0.575243,-0.561437
1.1270,0.016751,0.000000,-0.154863,0.154863,0.0000,0.0000,0.0000,-0.002348,-0.159534,0.156466,0.4780,0.3269,0.1445,0.000000,0.579845,-0.566039,0.564505,-0.587515,0.575243,-0.561437
1.1438,0.016742,0.000000,-0.154571,0.154571,0.0000,0.0000,0.0000,-0.002348,-0.159534,0.154932,0.4780,0.3269,0.1445,0.000000,0.579845,-0.566039,0.564505,-0.587515,0.575243,-0.561437
1.1605,0.016747,0.000000,-0.154278,0.154278,0.0000,0.0000,0.0000,-0.002373,-0.159534,0.154932,0.4777,0.3597,0.1441,0.000000,0.578311,-0.566039,0.564505,-0.587515,0.575243,-0.559903
1.1772,0.016742,0.000000,-0.153986,0.153986,0.0000,0.0000,0.0000,-0.002357,-0.158000,0.154932,0.4281,0.3388,0.0907,0.000000,0.578311,-0.566039,0.564505,-0.587515,0.575243,-0.561437
1.1940,0.016755,0.000000,-0.153694,0.153694,0.0000,0.0000,0.0000,-0.002360,-0.158000,0.153398,0.5327,0.3428,0.2035,0.000000,0.579845,-0.566039,0.564505,-0.587515,0.575243,-0.559903
1.2111,0.017141,0.000000,-0.153395,0.153395,0.0000,0.0000,0.0000,-0.002359,-0.156466,0.153398,0.4224,0.3405,0.0846,0.000000,0.578311,-0.566039,0.564505,-0.587515,0.575243,-0.561437
1.2279,0.016750,0.000000,-0.153102,0.153102,0.0000,0.0000,0.0000,-0.002359,-0.156466,0.153398,0.4224,0.3405,0.0846,0.000000,0.578311,-0.566039,0.564505,-0.587515,0.575243,-0.561437
1.2446,0.016753,0.000000,-0.152810,0.152810,0.0000,0.0000,0.0000,-0.002359,-0.156466,0.153398,0.4339,0.3408,0.0970,0.000000,0.578311,-0.566039,0.564505,-0.587515,0.575243,-0.561437
1.2614,0.016752,0.000000,-0.152517,0.152517,0.0000,0.0000,0.0000,-0.002360,-0.156466,0.153398,0.5321,0.3426,0.2028,0.000000,0.579845,-0.566039,0.564505,-0.587515,0.575243,-0.559903
1.2781,0.016749,0.000000,-0.152225,0.152225,0.0000,0.0000,0.0000,-0.002347,-0.154932,0.151864,0.4723,0.3249,0.1384,0.000000,0.579845,-0.566039,0.564505,-0.587515,0.575243,-0.561437
1.2949,0.016758,0.000000,-0.151933,0.151933,0.0000,0.0000,0.0000,-0.002361,-0.154932,0.151864,0.5281,0.3443,0.1985,0.000000,0.579845,-0.566039,0.564505,-0.587515,0.575243,-0.559903
1.3116,0.016749,0.000000,-0.151640,0.151640,0.0000,0.0000,0.0000,-0.002361,-0.154932,0.151864,0.5281,0.3443,0.1985,0.000000,0.579845,-0.566039,0.564505,-0.587515,0.575243,-0.561437
1.3284,0.016751,0.000000,-0.151348,0.151348,0.0000,0.0000,0.0000,-0.002347,-0.154932,0.151864,0.4727,0.3247,0.1388,0.000000,0.579845,-0.566039,0.564505,-0.587515,0.575243,-0.561437
1.3451,0.016749,0.000000,-0.151056,0.151056,0.0000,0.0000,0.0000,-0.002348,-0.154932,0.151864,0.4785,0.3267,0.1450,0.000000,0.579845,-0.566039,0.564505,-0.587515,0.575243,-0.561437
1.3619,0.016757,0.000000,-0.150763,0.150763,0.0000,0.0000,0.0000,-0.002360,-0.154932,0.151864,0.4281,0.3422,0.0907,0.000000,0.578311,-0.566039,0.564505,-0.587515,0.575243,-0.561437
1.3789,0.016964,0.000000,-0.150467,0.150467,0.0000,0.0000,0.0000,-0.002347,-0.153398,0.151864,0.4831,0.3249,0.1501,0.000000,0.579845,-0.566039,0.564505,-0.587515,0.575243,-0.561437
1.3956,0.016742,0.000000,-0.150175,0.150175,0.0000,0.0000,0.0000,-0.002348,-0.153398,0.150330,0.4774,0.3267,0.1439,0.000000,0.579845,-0.566039,0.564505,-0.587515,0.575243,-0.561437
1.4124,0.016807,0.000000,-0.149882,0.149882,0.0000,0.0000,0.0000,-0.002373,-0.153398,0.150330,0.4778,0.3597,0.1442,0.000000,0.578311,-0.566039,0.564505,-0.587515,0.575243,-0.559903
1.4292,0.016755,0.000000,-0.149589,0.149589,0.0000,0.0000,0.0000,-0.002373,-0.153398,0.150330,0.4778,0.3597,0.1442,0.000000,0.578311,-0.566039,0.564505,-0.587515,0.575243,-0.559903
1.4459,0.016746,0.000000,-0.149297,0.149297,0.0000,0.0000,0.0000,-0.002357,-0.153398,0.150330,0.4281,0.3388,0.0907,0.000000,0.578311,-0.566039,0.564505,-0.587515,0.575243,-0.561437
1.4627,0.016744,0.000000,-0.149005,0.149005,0.0000,0.0000,0.0000,-0.002360,-0.153398,0.150330,0.5327,0.3428,0.2035,0.000000,0.579845,-0.566039,0.564505,-0.587515,0.575243,-0.559903
1.4794,0.016749,0.000000,-0.148712,0.148712,0.0000,0.0000,0.0000,-0.002347,-0.151864,0.150330,0.4722,0.3248,0.1383,0.000000,0.579845,-0.566039,0.564505,-0.587515,0.575243,-0.561437
1.4962,0.016763,0.000000,-0.148420,0.148420,0.0000,0.0000,0.0000,-0.002347,-0.151864,0.150330,0.4722,0.3248,0.1383,0.000000,0.579845,-0.566039,0.564505,-0.587515,0.575243,-0.561437
1.5129,0.016757,0.000000,-0.148127,0.148127,0.0000,0.0000,0.0000,-0.002373,-0.151864,0.150330,0.4783,0.3599,0.1448,0.000000,0.578311,-0.566039,0.564505,-0.587515,0.575243,-0.559903
1.5297,0.016741,0.000000,-0.147835,0.147835,0.0000,0.0000,0.0000,-0.002346,-0.151864,0.150330,0.4779,0.3231,0.1444,0.000000,0.579845,-0.566039,0.564505,-0.587515,0.575243,-0.561437
1.5464,0.016740,0.000000,-0.147543,0.147543,0.0000,0.0000,0.0000,-0.002360,-0.151864,0.150330,0.4282,0.3426,0.0907,0.000000,0.578311,-0.566039,0.564505,-0.587515,0.575243,-0.561437
1.5632,0.016747,0.000000,-0.147251,0.147251,0.0000,0.0000,0.0000,-0.002347,-0.151864,0.150330,0.4831,0.3249,0.1500,0.000000,0.579845,-0.566039,0.564505,-0.587515,0.575243,-0.561437
1.5799,0.016746,0.000000,-0.146958,0.146958,0.0000,0.0000,0.0000,-0.002360,-0.151864,0.150330,0.4276,0.3424,0.0901,0.000000,0.578311,-0.566039,0.564505,-0.587515,0.575243,-0.561437
1.5967,0.016755,0.000000,-0.146666,0.146666,0.0000,0.0000,0.0000,-0.002360,-0.151864,0.150330,0.4276,0.3424,0.0901,0.000000,0.578311,-0.566039,0.564505,-0.587515,0.575243,-0.561437
1.6134,0.016748,0.000000,-0.146374,0.146374,0.0000,0.0000,0.0000,-0.002347,-0.151864,0.150330,0.4832,0.3249,0.1501,0.000000,0.579845,-0.566039,0.564505,-0.587515,0.575243,-0.561437
1.6302,0.016744,0.000000,-0.146081,0.146081,0.0000,0.0000,0.0000,-0.002348,-0.150330,0.150330,0.4774,0.3267,0.1439,0.000000,0.579845,-0.566039,0.564505,-0.587515,0.575243,-0.561437
1.6469,0.016744,0.000000,-0.145789,0.145789,0.0000,0.0000,0.0000,-0.002360,-0.150330,0.150330,0.4282,0.3422,0.0908,0.000000,0.578311,-0.566039,0.564505,-0.587515,0.575243,-0.561437
1.6636,0.016744,0.000000,-0.145497,0.145497,0.0000,0.0000,0.0000,-0.002372,-0.148796,0.148796,0.4829,0.3581,0.1497,0.000000,0.578311,-0.566039,0.564505,-0.587515,0.575243,-0.559903
1.6804,0.016751,0.000000,-0.145205,0.145205,0.0000,0.0000,0.0000,-0.002359,-0.148796,0.148796,0.5270,0.3408,0.1973,0.000000,0.579845,-0.566039,0.564505,-0.587515,0.575243,-0.559903
1.6971,0.016746,0.000000,-0.144912,0.144912,0.0000,0.0000,0.0000,-0.002359,-0.148796,0.148796,0.5270,0.3408,0.1973,0.000000,0.579845,-0.566039,0.564505,-0.587515,0.575243,-0.559903
1.7139,0.016746,0.000000,-0.144620,0.144620,0.0000,0.0000,0.0000,-0.002360,-0.148796,0.148796,0.5224,0.3426,0.1923,0.000000,0.579845,-0.566039,0.564505,-0.587515,0.575243,-0.559903
1.7306,0.016748,0.000000,-0.144328,0.144328,0.0000,0.0000,0.0000,-0.002372,-0.148796,0.148796,0.4731,0.3580,0.1391,0.000000,0.578311,-0.566039,0.564505,-0.587515,0.575243,-0.559903
1.7474,0.016742,0.000000,-0.144035,0.144035,0.0000,0.0000,0.0000,-0.002358,-0.148796,0.148796,0.4286,0.3389,0.0913,0.000000,0.578311,-0.566039,0.564505,-0.587515,0.575243,-0.561437
1.7641,0.016747,0.000000,-0.143743,0.143743,0.0000,0.0000,0.0000,-0.002360,-0.148796,0.148796,0.5327,0.3428,0.2034,0.000000,0.579845,-0.566039,0.564505,-0.587515,0.575243,-0.559903
1.7809,0.016750,0.000000,-0.143451,0.143451,0.0000,0.0000,0.0000,-0.002347,-0.148796,0.148796,0.4722,0.3248,0.1383,0.000000,0.579845,-0.566039,0.564505,-0.587515,0.575243,-0.561437
1.7976,0.016734,0.000000,-0.143159,0.143159,0.0000,0.0000,0.0000,-0.002347,-0.148796,0.148796,0.4722,0.3248,0.1383,0.000000,0.579845,-0.566039,0.564505,-0.587515,0.575243,-0.561437
1.8144,0.016751,0.000000,-0.142866,0.142866,0.0000,0.0000,0.0000,-0.002360,-0.148796,0.147262,0.4287,0.3424,0.0914,0.000000,0.578311,-0.566039,0.564505,-0.587515,0.575243,-0.561437
1.8311,0.016742,0.000000,-0.142574,0.142574,0.0000,0.0000,0.0000,-0.002360,-0.148796,0.147262,0.5327,0.3424,0.2034,0.000000,0.579845,-0.566039,0.564505,-0.587515,0.575243,-0.559903
1.8478,0.016743,0.000000,-0.142282,0.142282,0.0000,0.0000,0.0000,-0.002360,-0.148796,0.147262,0.5218,0.3425,0.1917,0.000000,0.579845,-0.566039,0.564505,-0.587515,0.575243,-0.559903
1.8646,0.016744,0.000000,-0.141990,0.141990,0.0000,0.0000,0.0000,-0.002347,-0.148796,0.147262,0.4734,0.3249,0.1395,0.000000,0.579845,-0.566039,0.564505,-0.587515,0.575243,-0.561437
1.8814,0.016806,0.000000,-0.141696,0.141696,0.0000,0.0000,0.0000,-0.002348,-0.148796,0.147262,0.4784,0.3267,0.1450,0.000000,0.579845,-0.566039,0.564505,-0.587515,0.575243,-0.561437
1.8981,0.016741,0.000000,-0.141404,0.141404,0.0000,0.0000,0.0000,-0.002348,-0.148796,0.147262,0.4784,0.3267,0.1450,0.000000,0.579845,-0.566039,0.564505,-0.587515,0.575243,-0.561437
1.9149,0.016751,0.000000,-0.141112,0.141112,0.0000,0.0000,0.0000,-0.002373,-0.148796,0.147262,0.4777,0.3597,0.1441,0.000000,0.578311,-0.566039,0.564505,-0.587515,0.575243,-0.559903
1.9316,0.016745,0.000000,-0.140820,0.140820,0.0000,0.0000,0.0000,-0.002359,-0.148796,0.147262,0.5276,0.3406,0.1979,0.000000,0.579845,-0.566039,0.564505,-0.587515,0.575243,-0.559903
1.9484,0.016741,0.000000,-0.140527,0.140527,0.0000,0.0000,0.0000,-0.002360,-0.148796,0.147262,0.5224,0.3426,0.1923,0.000000,0.579845,-0.566039,0.564505,-0.587515,0.575243,-0.559903
1.9651,0.016743,0.000000,-0.140235,0.140235,0.0000,0.0000,0.0000,-0.002347,-0.148796,0.145728,0.4733,0.3249,0.1395,0.000000,0.579845,-0.566039,0.564505,-0.587515,0.575243,-0.561437
1.9819,0.016795,0.000000,-0.139942,0.139942,0.0000,0.0000,0.0000,-0.002361,-0.148796,0.145728,0.5280,0.3443,0.1984,0.000000,0.579845,-0.566039,0.564505,-0.587515,0.575243,-0.559903
1.9987,0.016742,0.000000,-0.139650,0.139650,0.0000,0.0000,0.0000,-0.002361,-0.148796,0.145728,0.5280,0.3443,0.1984,0.000000,0.579845,-0.566039,0.564505,-0.587515,0.575243,-0.559903
2.0154,0.016743,0.000000,-0.139358,0.139358,0.0000,0.0000,0.0000,-0.002347,-0.148796,0.145728,0.4727,0.3247,0.1388,0.000000,0.579845,-0.566039,0.564505,-0.587515,0.575243,-0.561437
2.0321,0.016748,0.000000,-0.139065,0.139065,0.0000,0.0000,0.0000,-0.002361,-0.148796,0.145728,0.5281,0.3443,0.1984,0.000000,0.579845,-0.566039,0.564505,-0.587515,0.575243,-0.559903
2.0489,0.016744,0.000000,-0.138773,0.138773,0.0000,0.0000,0.0000,-0.002359,-0.148796,0.145728,0.4229,0.3403,0.0851,0.000000,0.578311,-0.566039,0.564505,-0.587515,0.575243,-0.561437
2.0656,0.016743,0.000000,-0.138481,0.138481,0.0000,0.0000,0.0000,-0.002347,-0.148796,0.145728,0.4837,0.3251,0.1506,0.000000,0.579845,-0.566039,0.564505,-0.587515,0.575243,-0.561437
2.0824,0.016757,0.000000,-0.138188,0.138188,0.0000,0.0000,0.0000,-0.002360,-0.148796,0.145728,0.4275,0.3424,0.0901,0.000000,0.578311,-0.566039,0.564505,-0.587515,0.575243,-0.561437
2.0991,0.016739,0.000000,-0.137896,0.137896,0.0000,0.0000,0.0000,-0.002360,-0.148796,0.145728,0.4275,0.3424,0.0901,0.000000,0.578311,-0.566039,0.564505,-0.587515,0.575243,-0.561437
2.1158,0.016720,0.000000,-0.137604,0.137604,0.0000,0.0000,0.0000,-0.002347,-0.148796,0.145728,0.4832,0.3249,0.1501,0.000000,0.579845,-0.566039,0.564505,-0.587515,0.575243,-0.561437
2.1326,0.016742,0.000000,-0.137312,0.137312,0.0000,0.0000,0.0000,-0.002348,-0.148796,0.145728,0.4774,0.3267,0.1439,0.000000,0.579845,-0.566039,0.564505,-0.587515,0.575243,-0.561437
2.1493,0.016742,0.000000,-0.137020,0.137020,0.0000,0.0000,0.0000,-0.002373,-0.148796,0.145728,0.4778,0.3597,0.1442,0.000000,0.578311,-0.566039,0.564505,-0.587515,0.575243,-0.559903
2.1661,0.016744,0.000000,-0.136728,0.136728,0.0000,0.0000,0.0000,-0.002370,-0.148796,0.145728,0.4778,0.3563,0.1442,0.000000,0.578311,-0.566039,0.564505,-0.587515,0.575243,-0.559903
2.1832,0.017152,0.000000,-0.136428,0.136428,0.0000,0.0000,0.0000,-0.002370,-0.147262,0.145728,0.4778,0.3563,0.1442,0.000000,0.578311,-0.566039,0.564505,-0.587515,0.575243,-0.559903
2.2000,0.016741,0.000000,-0.136136,0.136136,0.0000,0.0000,0.0000,-0.002370,-0.147262,0.145728,0.4778,0.3563,0.1442,0.000000,0.578311,-0.566039,0.564505,-0.587515,0.575243,-0.559903
2.2167,0.016748,0.000000,-0.135844,0.135844,0.0000,0.0000,0.0000,-0.002358,-0.147262,0.145728,0.4281,0.3391,0.0907,0.000000,0.578311,-0.566039,0.564505,-0.587515,0.575243,-0.561437
2.2335,0.016744,0.000000,-0.135552,0.135552,0.0000,0.0000,0.0000,-0.002347,-0.147262,0.145728,0.4831,0.3252,0.1500,0.000000,0.579845,-0.566039,0.564505,-0.587515,0.575243,-0.561437
2.2502,0.016741,0.000000,-0.135260,0.135260,0.0000,0.0000,0.0000,-0.002361,-0.147262,0.144194,0.5270,0.3442,0.1973,0.000000,0.579845,-0.566039,0.564505,-0.587515,0.575243,-0.559903
2.2669,0.016744,0.000000,-0.134967,0.134967,0.0000,0.0000,0.0000,-0.002372,-0.147262,0.145728,0.4726,0.3579,0.1386,0.000000,0.578311,-0.566039,0.564505,-0.587515,0.575243,-0.559903
2.2840,0.017057,0.000000,-0.134670,0.134670,0.0000,0.0000,0.0000,-0.002372,-0.147262,0.145728,0.4726,0.3579,0.1386,0.000000,0.579845,-0.566039,0.564505,-0.587515,0.575243,-0.559903
2.3007,0.016740,0.000000,-0.134377,0.134377,0.0000,0.0000,0.0000,-0.002359,-0.147262,0.145728,0.5281,0.3408,0.1985,0.000000,0.579845,-0.566039,0.564505,-0.587515,0.575243,-0.559903
2.3175,0.016751,0.000000,-0.134085,0.134085,0.0000,0.0000,0.0000,-0.002359,-0.147262,0.145728,0.4229,0.3407,0.0851,0.000000,0.578311,-0.566039,0.564505,-0.587515,0.575243,-0.561437
2.3342,0.016745,0.000000,-0.133793,0.133793,0.0000,0.0000,0.0000,-0.002360,-0.147262,0.144194,0.5333,0.3426,0.2040,0.000000,0.579845,-0.566039,0.564505,-0.587515,0.575243,-0.559903
2.3510,0.016754,0.000000,-0.133500,0.133500,0.0000,0.0000,0.0000,-0.002347,-0.145728,0.144194,0.4722,0.3249,0.1382,0.000000,0.579845,-0.566039,0.564505,-0.587515,0.575243,-0.561437
2.3677,0.016743,0.000000,-0.133208,0.133208,0.0000,0.0000,0.0000,-0.002360,-0.141126,0.144194,0.4287,0.3424,0.0914,0.000000,0.578311,-0.566039,0.564505,-0.587515,0.575243,-0.561437
2.3845,0.016780,0.000000,-0.132915,0.132915,0.0000,0.0000,0.0000,-0.002359,-0.134990,0.144194,0.4333,0.3406,0.0962,0.000000,0.578311,-0.566039,0.564505,-0.587515,0.575243,-0.561437
2.4013,0.016746,0.000000,-0.132623,0.132623,0.0000,0.0000,0.0000,-0.002359,-0.134990,0.144194,0.4333,0.3406,0.0962,0.000000,0.578311,-0.566039,0.564505,-0.587515,0.575243,-0.561437
2.4180,0.016761,0.000000,-0.132331,0.132331,0.0000,0.0000,0.0000,-0.002360,-0.134990,0.144194,0.5322,0.3426,0.2029,0.000000,0.579845,-0.566039,0.564505,-0.587515,0.575243,-0.559903
2.4348,0.016746,0.000000,-0.132038,0.132038,0.0000,0.0000,0.0000,-0.002359,-0.134990,0.144194,0.4225,0.3405,0.0846,0.000000,0.578311,-0.566039,0.564505,-0.587515,0.575243,-0.561437
2.4515,0.016768,0.000000,-0.131746,0.131746,0.0000,0.0000,0.0000,-0.002347,-0.134990,0.144194,0.4837,0.3251,0.1507,0.000000,0.579845,-0.566039,0.564505,-0.587515,0.575243,-0.561437
2.4683,0.016751,0.000000,-0.131453,0.131453,0.0000,0.0000,0.0000,-0.002348,-0.134990,0.144194,0.4773,0.3267,0.1438,0.000000,0.579845,-0.566039,0.564505,-0.587515,0.575243,-0.561437
2.4853,0.017043,0.000000,-0.131156,0.131156,0.0000,0.0000,0.0000,-0.002360,-0.134990,0.142660,0.4282,0.3422,0.0908,0.000000,0.578311,-0.566039,0.564505,-0.587515,0.575243,-0.561437
2.5021,0.016745,0.000000,-0.130864,0.130864,0.0000,0.0000,0.0000,-0.002360,-0.134990,0.142660,0.4282,0.3422,0.0908,0.000000,0.578311,-0.566039,0.564505,-0.587515,0.575243,-0.561437
2.5188,0.016757,0.000000,-0.130571,0.130571,0.0000,0.0000,0.0000,-0.002347,-0.134990,0.141126,0.4831,0.3249,0.1500,0.000000,0.579845,-0.566039,0.564505,-0.587515,0.575243,-0.561437
2.5356,0.016749,0.000000,-0.130279,0.130279,0.0000,0.0000,0.0000,-0.002360,-0.133456,0.138058,0.4276,0.3424,0.0901,0.000000,0.578311,-0.566039,0.564505,-0.587515,0.575243,-0.561437
2.5523,0.016753,0.000000,-0.129986,0.129986,0.0000,0.0000,0.0000,-0.002360,-0.133456,0.133456,0.5328,0.3424,0.2035,0.000000,0.579845,-0.566039,0.564505,-0.587515,0.575243,-0.559903
2.5691,0.016748,0.000000,-0.129694,0.129694,0.0000,0.0000,0.0000,-0.002372,-0.133456,0.128854,0.4720,0.3581,0.1380,0.000000,0.578311,-0.566039,0.564505,-0.587515,0.575243,-0.559903
2.5858,0.016764,0.000000,-0.129401,0.129401,0.0000,0.0000,0.0000,-0.002359,-0.131922,0.128854,0.5282,0.3408,0.1985,0.000000,0.579845,-0.566039,0.564505,-0.587515,0.575243,-0.559903
2.6026,0.016758,0.000000,-0.129109,0.129109,0.0000,0.0000,0.0000,-0.002359,-0.131922,0.128854,0.5282,0.3408,0.1985,0.000000,0.579845,-0.566039,0.564505,-0.587515,0.575243,-0.559903
2.6194,0.016760,0.000000,-0.128816,0.128816,0.0000,0.0000,0.0000,-0.002360,-0.131922,0.128854,0.5223,0.3426,0.1922,0.000000,0.579845,-0.566039,0.564505,-0.587515,0.575243,-0.559903
2.6361,0.016746,0.000000,-0.128524,0.128524,0.0000,0.0000,0.0000,-0.002347,-0.131922,0.128854,0.4733,0.3249,0.1395,0.000000,0.579845,-0.566039,0.564505,-0.587515,0.575243,-0.561437
2.6529,0.016835,0.000000,-0.128230,0.128230,0.0000,0.0000,0.0000,-0.002348,-0.131922,0.128854,0.4784,0.3267,0.1450,0.000000,0.579845,-0.566039,0.564505,-0.587515,0.575243,-0.561437
2.6697,0.016747,0.000000,-0.127938,0.127938,0.0000,0.0000,0.0000,-0.002348,-0.130388,0.127320,0.4784,0.3267,0.1450,0.000000,0.579845,-0.566039,0.564505,-0.587515,0.575243,-0.561437
2.6865,0.016776,0.000000,-0.127645,0.127645,0.0000,0.0000,0.0000,-0.002361,-0.130388,0.127320,0.5275,0.3441,0.1978,0.000000,0.579845,-0.566039,0.564505,-0.587515,0.575243,-0.559903
2.7032,0.016746,0.000000,-0.127353,0.127353,0.0000,0.0000,0.0000,-0.002361,-0.130388,0.127320,0.5275,0.3441,0.1978,0.000000,0.579845,-0.566039,0.564505,-0.587515,0.575243,-0.559903
2.7200,0.016751,0.000000,-0.127061,0.127061,0.0000,0.0000,0.0000,-0.002347,-0.130388,0.127320,0.4728,0.3247,0.1389,0.000000,0.579845,-0.566039,0.564505,-0.587515,0.575243,-0.561437
2.7367,0.016743,0.000000,-0.126768,0.126768,0.0000,0.0000,0.0000,-0.002360,-0.130388,0.127320,0.4287,0.3424,0.0913,0.000000,0.578311,-0.566039,0.564505,-0.587515,0.575243,-0.561437
2.7539,0.017167,0.000000,-0.126469,0.126469,0.0000,0.0000,0.0000,-0.002359,-0.130388,0.127320,0.4333,0.3406,0.0962,0.000000,0.578311,-0.566039,0.564505,-0.587515,0.575243,-0.561437
2.7706,0.016747,0.000000,-0.126176,0.126176,0.0000,0.0000,0.0000,-0.002360,-0.128854,0.125786,0.5322,0.3426,0.2029,0.000000,0.579845,-0.566039,0.564505,-0.587515,0.575243,-0.559903
2.7875,0.016837,0.000000,-0.125883,0.125883,0.0000,0.0000,0.0000,-0.002359,-0.128854,0.125786,0.4225,0.3405,0.0846,0.000000,0.578311,-0.566039,0.564505,-0.587515,0.575243,-0.561437
2.8042,0.016744,0.000000,-0.125590,0.125590,0.0000,0.0000,0.0000,-0.002359,-0.128854,0.125786,0.4225,0.3405,0.0846,0.000000,0.578311,-0.566039,0.564505,-0.587515,0.575243,-0.561437
2.8210,0.016769,0.000000,-0.125298,0.125298,0.0000,0.0000,0.0000,-0.002347,-0.128854,0.125786,0.4837,0.3251,0.1507,0.000000,0.579845,-0.566039,0.564505,-0.587515,0.575243,-0.561437
2.8377,0.016752,0.000000,-0.125005,0.125005,0.0000,0.0000,0.0000,-0.002360,-0.128854,0.125786,0.4275,0.3424,0.0901,0.000000,0.578311,-0.566039,0.564505,-0.587515,0.575243,-0.561437
2.8547,0.016934,0.000000,-0.124710,0.124710,0.0000,0.0000,0.0000,-0.002347,-0.127320,0.125786,0.4832,0.3249,0.1501,0.000000,0.579845,-0.566039,0.564505,-0.587515,0.575243,-0.561437
2.8714,0.016770,0.000000,-0.124417,0.124417,0.0000,0.0000,0.0000,-0.002348,-0.127320,0.124252,0.4774,0.3267,0.1439,0.000000,0.579845,-0.566039,0.564505,-0.587515,0.575243,-0.561437
2.8882,0.016774,0.000000,-0.124124,0.124124,0.0000,0.0000,0.0000,-0.002361,-0.127320,0.125786,0.5276,0.3441,0.1979,0.000000,0.579845,-0.566039,0.564505,-0.587515,0.575243,-0.559903
2.9050,0.016754,0.000000,-0.123832,0.123832,0.0000,0.0000,0.0000,-0.002361,-0.127320,0.125786,0.5276,0.3441,0.1979,0.000000,0.579845,-0.566039,0.564505,-0.587515,0.575243,-0.559903
2.9217,0.016763,0.000000,-0.123539,0.123539,0.0000,0.0000,0.0000,-0.002372,-0.127320,0.124252,0.4726,0.3579,0.1386,0.000000,0.578311,-0.566039,0.564505,-0.587515,0.575243,-0.559903
2.9385,0.016751,0.000000,-0.123247,0.123247,0.0000,0.0000,0.0000,-0.002359,-0.127320,0.124252,0.5281,0.3408,0.1985,0.000000,0.579845,-0.566039,0.564505,-0.587515,0.575243,-0.559903
2.9552,0.016762,0.000000,-0.122954,0.122954,0.0000,0.0000,0.0000,-0.002347,-0.125786,0.124252,0.4727,0.3250,0.1388,0.000000,0.579845,-0.566039,0.564505,-0.587515,0.575243,-0.561437
2.9720,0.016750,0.000000,-0.122662,0.122662,0.0000,0.0000,0.0000,-0.002348,-0.125786,0.124252,0.4785,0.3267,0.1450,0.000000,0.579845,-0.566039,0.564505,-0.587515,0.575243,-0.561437
2.9887,0.016759,0.000000,-0.122370,0.122370,0.0000,0.0000,0.0000,-0.002348,-0.125786,0.124252,0.4785,0.3267,0.1450,0.000000,0.578311,-0.566039,0.564505,-0.587515,0.575243,-0.559903
3.0055,0.016750,0.000000,-0.122077,0.122077,0.0000,0.0000,0.0000,-0.002373,-0.125786,0.124252,0.4777,0.3597,0.1441,0.000000,0.578311,-0.566039,0.564505,-0.587515,0.575243,-0.559903
3.0222,0.016756,0.000000,-0.121785,0.121785,0.0000,0.0000,0.0000,-0.002346,-0.125786,0.122718,0.4780,0.3231,0.1445,0.000000,0.579845,-0.566039,0.564505,-0.587515,0.575243,-0.561437
3.0390,0.016754,0.000000,-0.121492,0.121492,0.0000,0.0000,0.0000,-0.002348,-0.124252,0.122718,0.4779,0.3269,0.1444,0.000000,0.579845,-0.566039,0.564505,-0.587515,0.575243,-0.561437
3.0558,0.016767,0.000000,-0.121200,0.121200,0.0000,0.0000,0.0000,-0.002348,-0.125786,0.122718,0.4779,0.3264,0.1444,0.000000,0.579845,-0.566039,0.564505,-0.587515,0.575243,-0.561437
3.0725,0.016755,0.000000,-0.120907,0.120907,0.0000,0.0000,0.0000,-0.002373,-0.124252,0.122718,0.4777,0.3597,0.1441,0.000000,0.578311,-0.566039,0.564505,-0.587515,0.575243,-0.559903
3.0893,0.016766,0.000000,-0.120615,0.120615,0.0000,0.0000,0.0000,-0.002373,-0.124252,0.122718,0.4777,0.3597,0.1441,0.000000,0.578311,-0.566039,0.564505,-0.587515,0.575243,-0.561437
3.1060,0.016755,0.000000,-0.120322,0.120322,0.0000,0.0000,0.0000,-0.002357,-0.124252,0.122718,0.4281,0.3387,0.0907,0.000000,0.578311,-0.566039,0.564505,-0.587515,0.575243,-0.561437
3.1228,0.016761,0.000000,-0.120030,0.120030,0.0000,0.0000,0.0000,-0.002347,-0.124252,0.122718,0.4831,0.3253,0.1500,0.000000,0.579845,-0.566039,0.564505,-0.587515,0.575243,-0.561437
3.1396,0.016756,0.000000,-0.119737,0.119737,0.0000,0.0000,0.0000,-0.002360,-0.124252,0.122718,0.4276,0.3423,0.0901,0.000000,0.578311,-0.566039,0.564505,-0.587515,0.575243,-0.561437
3.1563,0.016778,0.000000,-0.119444,0.119444,0.0000,0.0000,0.0000,-0.002347,-0.124252,0.122718,0.4832,0.3249,0.1501,0.000000,0.579845,-0.566039,0.564505,-0.587515,0.575243,-0.561437
3.1731,0.016755,0.000000,-0.119152,0.119152,0.0000,0.0000,0.0000,-0.002348,-0.122718,0.121184,0.4774,0.3267,0.1439,0.000000,0.579845,-0.566039,0.564505,-0.587515,0.575243,-0.561437
3.1899,0.016772,0.000000,-0.118859,0.118859,0.0000,0.0000,0.0000,-0.002348,-0.122718,0.121184,0.4774,0.3267,0.1439,0.000000,0.579845,-0.566039,0.564505,-0.587515,0.575243,-0.561437
3.2066,0.016754,0.000000,-0.118567,0.118567,0.0000,0.0000,0.0000,-0.002348,-0.122718,0.121184,0.4774,0.3267,0.1439,0.000000,0.579845,-0.566039,0.564505,-0.587515,0.575243,-0.561437
3.2234,0.016754,0.000000,-0.118274,0.118274,0.0000,0.0000,0.0000,-0.002373,-0.122718,0.119651,0.4778,0.3597,0.1442,0.000000,0.578311,-0.566039,0.564505,-0.587515,0.575243,-0.559903
3.2401,0.016757,0.000000,-0.117982,0.117982,0.0000,0.0000,0.0000,-0.002346,-0.121184,0.119651,0.4780,0.3231,0.1445,0.000000,0.579845,-0.566039,0.564505,-0.587515,0.575243,-0.561437
3.2569,0.016753,0.000000,-0.117690,0.117690,0.0000,0.0000,0.0000,-0.002362,-0.121184,0.119651,0.5275,0.3445,0.1979,0.000000,0.579845,-0.566039,0.564505,-0.587515,0.575243,-0.559903
3.2739,0.017012,0.000000,-0.117393,0.117393,0.0000,0.0000,0.0000,-0.002347,-0.121184,0.118117,0.4728,0.3247,0.1389,0.000000,0.579845,-0.566039,0.564505,-0.587515,0.575243,-0.561437
3.2907,0.016769,0.000000,-0.117100,0.117100,0.0000,0.0000,0.0000,-0.002347,-0.121184,0.118117,0.4728,0.3247,0.1389,0.000000,0.579845,-0.566039,0.564505,-0.587515,0.575243,-0.561437
3.3074,0.016746,0.000000,-0.116808,0.116808,0.0000,0.0000,0.0000,-0.002360,-0.121184,0.118117,0.4287,0.3424,0.0913,0.000000,0.578311,-0.566039,0.564505,-0.587515,0.575243,-0.561437
3.3242,0.016755,0.000000,-0.116515,0.116515,0.0000,0.0000,0.0000,-0.002347,-0.121184,0.118117,0.4831,0.3249,0.1500,0.000000,0.579845,-0.566039,0.564505,-0.587515,0.575243,-0.561437
3.3409,0.016749,0.000000,-0.116223,0.116223,0.0000,0.0000,0.0000,-0.002373,-0.121184,0.118117,0.4772,0.3599,0.1435,0.000000,0.578311,-0.566039,0.564505,-0.587515,0.575243,-0.559903
3.3577,0.016759,0.000000,-0.115930,0.115930,0.0000,0.0000,0.0000,-0.002370,-0.121184,0.118117,0.4778,0.3563,0.1442,0.000000,0.578311,-0.566039,0.564505,-0.587515,0.575243,-0.559903
3.3744,0.016754,0.000000,-0.115638,0.115638,0.0000,0.0000,0.0000,-0.002359,-0.121184,0.118117,0.5276,0.3410,0.1979,0.000000,0.579845,-0.566039,0.564505,-0.587515,0.575243,-0.559903
3.3912,0.016762,0.000000,-0.115346,0.115346,0.0000,0.0000,0.0000,-0.002359,-0.121184,0.118117,0.5276,0.3410,0.1979,0.000000,0.579845,-0.566039,0.564505,-0.587515,0.575243,-0.559903
3.4079,0.016746,0.000000,-0.115053,0.115053,0.0000,0.0000,0.0000,-0.002347,-0.121184,0.118117,0.4728,0.3250,0.1389,0.000000,0.579845,-0.566039,0.564505,-0.587515,0.575243,-0.561437
3.4247,0.016753,0.000000,-0.114761,0.114761,0.0000,0.0000,0.0000,-0.002348,-0.121184,0.118117,0.4785,0.3267,0.1450,0.000000,0.579845,-0.566039,0.564505,-0.587515,0.575243,-0.561437
3.4414,0.016755,0.000000,-0.114468,0.114468,0.0000,0.0000,0.0000,-0.002348,-0.121184,0.118117,0.4785,0.3267,0.1450,0.000000,0.579845,-0.566039,0.564505,-0.587515,0.575243,-0.561437
3.4582,0.016752,0.000000,-0.114176,0.114176,0.0000,0.0000,0.0000,-0.002348,-0.121184,0.118117,0.4785,0.3267,0.1450,0.000000,0.579845,-0.566039,0.564505,-0.587515,0.575243,-0.561437
3.4749,0.016752,0.000000,-0.113884,0.113884,0.0000,0.0000,0.0000,-0.002348,-0.121184,0.118117,0.4785,0.3267,0.1450,0.000000,0.579845,-0.566039,0.564505,-0.587515,0.575243,-0.561437
3.4917,0.016758,0.000000,-0.113591,0.113591,0.0000,0.0000,0.0000,-0.002348,-0.121184,0.118117,0.4785,0.3267,0.1450,0.000000,0.579845,-0.566039,0.564505,-0.587515,0.575243,-0.561437
3.5085,0.016751,0.000000,-0.113299,0.113299,0.0000,0.0000,0.0000,-0.002348,-0.121184,0.118117,0.4785,0.3267,0.1450,0.000000,0.579845,-0.566039,0.564505,-0.587515,0.575243,-0.561437
3.5252,0.016746,0.000000,-0.113007,0.113007,0.0000,0.0000,0.0000,-0.002360,-0.121184,0.118117,0.4281,0.3422,0.0907,0.000000,0.578311,-0.566039,0.564505,-0.587515,0.575243,-0.561437
3.5420,0.016766,0.000000,-0.112714,0.112714,0.0000,0.0000,0.0000,-0.002347,-0.121184,0.118117,0.4831,0.3249,0.1501,0.000000,0.579845,-0.566039,0.564505,-0.587515,0.575243,-0.561437
3.5587,0.016761,0.000000,-0.112421,0.112421,0.0000,0.0000,0.0000,-0.002348,-0.121184,0.118117,0.4774,0.3267,0.1439,0.000000,0.579845,-0.566039,0.564505,-0.587515,0.575243,-0.561437
3.5755,0.016759,0.000000,-0.112129,0.112129,0.0000,0.0000,0.0000,-0.002348,-0.121184,0.118117,0.4774,0.3267,0.1439,0.000000,0.579845,-0.566039,0.564505,-0.587515,0.575243,-0.561437
3.5923,0.016764,0.000000,-0.111836,0.111836,0.0000,0.0000,0.0000,-0.002348,-0.121184,0.118117,0.4774,0.3267,0.1439,0.000000,0.579845,-0.566039,0.564505,-0.587515,0.575243,-0.561437
3.6091,0.016839,0.000000,-0.111542,0.111542,0.0000,0.0000,0.0000,-0.002360,-0.121184,0.118117,0.4282,0.3422,0.0908,0.000000,0.578311,-0.566039,0.564505,-0.587515,0.575243,-0.561437
3.6258,0.016755,0.000000,-0.111250,0.111250,0.0000,0.0000,0.0000,-0.002347,-0.121184,0.118117,0.4831,0.3249,0.1500,0.000000,0.579845,-0.566039,0.564505,-0.587515,0.575243,-0.561437
3.6426,0.016755,0.000000,-0.110958,0.110958,0.0000,0.0000,0.0000,-0.002360,-0.121184,0.118117,0.4276,0.3424,0.0901,0.000000,0.578311,-0.566039,0.564505,-0.587515,0.575243,-0.561437
3.6594,0.016762,0.000000,-0.110665,0.110665,0.0000,0.0000,0.0000,-0.002347,-0.121184,0.118117,0.4832,0.3249,0.1501,0.000000,0.579845,-0.566039,0.564505,-0.587515,0.575243,-0.561437
3.6761,0.016769,0.000000,-0.110372,0.110372,0.0000,0.0000,0.0000,-0.002347,-0.121184,0.118117,0.4832,0.3249,0.1501,0.000000,0.579845,-0.566039,0.564505,-0.587515,0.575243,-0.561437
3.6929,0.016752,0.000000,-0.110080,0.110080,0.0000,0.0000,0.0000,-0.002348,-0.121184,0.118117,0.4774,0.3267,0.1439,0.000000,0.579845,-0.566039,0.564505,-0.587515,0.575243,-0.561437
3.7096,0.016760,0.000000,-0.109787,0.109787,0.0000,0.0000,0.0000,-0.002361,-0.121184,0.118117,0.5276,0.3441,0.1979,0.000000,0.579845,-0.566039,0.564505,-0.587515,0.575243,-0.559903
3.7265,0.016842,0.000000,-0.109493,0.109493,0.0000,0.0000,0.0000,-0.002372,-0.121184,0.118117,0.4726,0.3579,0.1386,0.000000,0.578311,-0.566039,0.564505,-0.587515,0.575243,-0.559903
3.7432,0.016761,0.000000,-0.109201,0.109201,0.0000,0.0000,0.0000,-0.002346,-0.121184,0.118117,0.4785,0.3233,0.1451,0.000000,0.579845,-0.566039,0.564505,-0.587515,0.575243,-0.561437
3.7600,0.016760,0.000000,-0.108908,0.108908,0.0000,0.0000,0.0000,-0.002348,-0.121184,0.118117,0.4779,0.3269,0.1444,0.000000,0.579845,-0.566039,0.564505,-0.587515,0.575243,-0.561437
3.7768,0.016773,0.000000,-0.108616,0.108616,0.0000,0.0000,0.0000,-0.002348,-0.119651,0.118117,0.4779,0.3269,0.1444,0.000000,0.578311,-0.566039,0.564505,-0.587515,0.575243,-0.559903
3.7935,0.016758,0.000000,-0.108323,0.108323,0.0000,0.0000,0.0000,-0.002373,-0.119651,0.118117,0.4778,0.3597,0.1441,0.000000,0.578311,-0.566039,0.564505,-0.587515,0.575243,-0.559903
3.8103,0.016760,0.000000,-0.108031,0.108031,0.0000,0.0000,0.0000,-0.002359,-0.119651,0.118117,0.5276,0.3406,0.1979,0.000000,0.579845,-0.566039,0.564505,-0.587515,0.575243,-0.559903
3.8271,0.016763,0.000000,-0.107738,0.107738,0.0000,0.0000,0.0000,-0.002347,-0.115049,0.116583,0.4728,0.3251,0.1389,0.000000,0.579845,-0.566039,0.564505,-0.587515,0.575243,-0.561437
3.8438,0.016758,0.000000,-0.107446,0.107446,0.0000,0.0000,0.0000,-0.002373,-0.108913,0.116583,0.4783,0.3599,0.1447,0.000000,0.578311,-0.566039,0.564505,-0.587515,0.575243,-0.559903
3.8606,0.016767,0.000000,-0.107153,0.107153,0.0000,0.0000,0.0000,-0.002346,-0.107379,0.115049,0.4779,0.3231,0.1444,0.000000,0.579845,-0.566039,0.564505,-0.587515,0.575243,-0.561437
3.8773,0.016762,0.000000,-0.106860,0.106860,0.0000,0.0000,0.0000,-0.002346,-0.107379,0.115049,0.4779,0.3231,0.1444,0.000000,0.579845,-0.566039,0.564505,-0.587515,0.575243,-0.561437
3.8941,0.016764,0.000000,-0.106568,0.106568,0.0000,0.0000,0.0000,-0.002360,-0.108913,0.113515,0.4282,0.3426,0.0907,0.000000,0.578311,-0.566039,0.564505,-0.587515,0.575243,-0.561437
3.9109,0.016760,0.000000,-0.106275,0.106275,0.0000,0.0000,0.0000,-0.002347,-0.108913,0.113515,0.4831,0.3249,0.1500,0.000000,0.579845,-0.566039,0.564505,-0.587515,0.575243,-0.561437
3.9276,0.016769,0.000000,-0.105983,0.105983,0.0000,0.0000,0.0000,-0.002360,-0.108913,0.110447,0.4276,0.3424,0.0901,0.000000,0.578311,-0.566039,0.564505,-0.587515,0.575243,-0.561437
3.9444,0.016778,0.000000,-0.105690,0.105690,0.0000,0.0000,0.0000,-0.002347,-0.110447,0.105845,0.4832,0.3249,0.1501,0.000000,0.579845,-0.566039,0.564505,-0.587515,0.575243,-0.561437
3.9612,0.016770,0.000000,-0.105397,0.105397,0.0000,0.0000,0.0000,-0.002348,-0.108913,0.104311,0.4774,0.3267,0.1439,0.000000,0.579845,-0.566039,0.564505,-0.587515,0.575243,-0.561437
3.9779,0.016752,0.000000,-0.105105,0.105105,0.0000,0.0000,0.0000,-0.002348,-0.108913,0.104311,0.4774,0.3267,0.1439,0.000000,0.579845,-0.566039,0.564505,-0.587515,0.575243,-0.561437
3.9947,0.016753,0.000000,-0.104812,0.104812,0.0000,0.0000,0.0000,-0.002348,-0.108913,0.105845,0.4774,0.3267,0.1439,0.000000,0.579845,-0.566039,0.564505,-0.587515,0.575243,-0.561437
4.0114,0.016746,0.000000,-0.104520,0.104520,0.0000,0.0000,0.0000,-0.002360,-0.108913,0.104311,0.4282,0.3422,0.0908,0.000000,0.578311,-0.566039,0.564505,-0.587515,0.575243,-0.561437
4.0282,0.016762,0.000000,-0.104228,0.104228,0.0000,0.0000,0.0000,-0.002359,-0.107379,0.104311,0.4333,0.3406,0.0963,0.000000,0.578311,-0.566039,0.564505,-0.587515,0.575243,-0.561437
4.0450,0.016761,0.000000,-0.103935,0.103935,0.0000,0.0000,0.0000,-0.002372,-0.107379,0.104311,0.4824,0.3583,0.1491,0.000000,0.578311,-0.566039,0.564505,-0.587515,0.575243,-0.559903
4.0617,0.016764,0.000000,-0.103642,0.103642,0.0000,0.0000,0.0000,-0.002372,-0.107379,0.104311,0.4824,0.3583,0.1491,0.000000,0.578311,-0.566039,0.564505,-0.587515,0.575243,-0.559903
4.0785,0.016749,0.000000,-0.103350,0.103350,0.0000,0.0000,0.0000,-0.002358,-0.107379,0.104311,0.4277,0.3389,0.0902,0.000000,0.578311,-0.566039,0.564505,-0.587515,0.575243,-0.561437
4.0952,0.016755,0.000000,-0.103058,0.103058,0.0000,0.0000,0.0000,-0.002347,-0.107379,0.104311,0.4832,0.3252,0.1501,0.000000,0.579845,-0.566039,0.564505,-0.587515,0.575243,-0.561437
4.1120,0.016748,0.000000,-0.102765,0.102765,0.0000,0.0000,0.0000,-0.002348,-0.107379,0.104311,0.4774,0.3267,0.1439,0.000000,0.579845,-0.566039,0.564505,-0.587515,0.575243,-0.561437
4.1287,0.016757,0.000000,-0.102473,0.102473,0.0000,0.0000,0.0000,-0.002360,-0.107379,0.104311,0.4282,0.3422,0.0908,0.000000,0.578311,-0.566039,0.564505,-0.587515,0.575243,-0.561437
4.1455,0.016745,0.000000,-0.102181,0.102181,0.0000,0.0000,0.0000,-0.002372,-0.105845,0.104311,0.4829,0.3581,0.1497,0.000000,0.578311,-0.566039,0.564505,-0.587515,0.575243,-0.559903
4.1622,0.016763,0.000000,-0.101888,0.101888,0.0000,0.0000,0.0000,-0.002372,-0.105845,0.104311,0.4829,0.3581,0.1497,0.000000,0.578311,-0.566039,0.564505,-0.587515,0.575243,-0.559903
4.1790,0.016747,0.000000,-0.101596,0.101596,0.0000,0.0000,0.0000,-0.002346,-0.105845,0.104311,0.4774,0.3233,0.1439,0.000000,0.579845,-0.566039,0.564505,-0.587515,0.575243,-0.561437
4.1957,0.016757,0.000000,-0.101303,0.101303,0.0000,0.0000,0.0000,-0.002362,-0.105845,0.104311,0.5276,0.3444,0.1979,0.000000,0.579845,-0.566039,0.564505,-0.587515,0.575243,-0.559903
4.2125,0.016753,0.000000,-0.101011,0.101011,0.0000,0.0000,0.0000,-0.002360,-0.104311,0.104311,0.5224,0.3422,0.1923,0.000000,0.579845,-0.566039,0.564505,-0.587515,0.575243,-0.559903
4.2293,0.016756,0.000000,-0.100718,0.100718,0.0000,0.0000,0.0000,-0.002347,-0.104311,0.104311,0.4733,0.3249,0.1395,0.000000,0.579845,-0.566039,0.564505,-0.587515,0.575243,-0.561437
4.2460,0.016752,0.000000,-0.100426,0.100426,0.0000,0.0000,0.0000,-0.002348,-0.104311,0.104311,0.4784,0.3267,0.1450,0.000000,0.579845,-0.566039,0.564505,-0.587515,0.575243,-0.561437
4.2628,0.016764,0.000000,-0.100133,0.100133,0.0000,0.0000,0.0000,-0.002348,-0.104311,0.104311,0.4784,0.3267,0.1450,0.000000,0.579845,-0.566039,0.564505,-0.587515,0.575243,-0.561437
4.2795,0.016745,0.000000,-0.099841,0.099841,0.0000,0.0000,0.0000,-0.002360,-0.104311,0.104311,0.4281,0.3422,0.0907,0.000000,0.578311,-0.566039,0.564505,-0.587515,0.575243,-0.561437
4.2963,0.016753,0.000000,-0.099549,0.099549,0.0000,0.0000,0.0000,-0.002359,-0.102777,0.104311,0.4333,0.3406,0.0963,0.000000,0.578311,-0.566039,0.564505,-0.587515,0.575243,-0.561437
4.3130,0.016754,0.000000,-0.099256,0.099256,0.0000,0.0000,0.0000,-0.002372,-0.102777,0.104311,0.4824,0.3583,0.1491,0.000000,0.578311,-0.566039,0.564505,-0.587515,0.575243,-0.559903
4.3298,0.016755,0.000000,-0.098964,0.098964,0.0000,0.0000,0.0000,-0.002346,-0.101243,0.104311,0.4775,0.3232,0.1440,0.000000,0.579845,-0.566039,0.564505,-0.587515,0.575243,-0.561437
4.3465,0.016753,0.000000,-0.098672,0.098672,0.0000,0.0000,0.0000,-0.002346,-0.101243,0.102777,0.4775,0.3232,0.1440,0.000000,0.578311,-0.566039,0.564505,-0.587515,0.575243,-0.559903
4.3633,0.016762,0.000000,-0.098379,0.098379,0.0000,0.0000,0.0000,-0.002373,-0.101243,0.102777,0.4778,0.3601,0.1442,0.000000,0.578311,-0.566039,0.564505,-0.587515,0.575243,-0.559903
4.3800,0.016748,0.000000,-0.098087,0.098087,0.0000,0.0000,0.0000,-0.002357,-0.101243,0.099709,0.4281,0.3387,0.0907,0.000000,0.578311,-0.566039,0.564505,-0.587515,0.575243,-0.561437
4.3968,0.016754,0.000000,-0.097794,0.097794,0.0000,0.0000,0.0000,-0.002347,-0.101243,0.096641,0.4831,0.3253,0.1500,0.000000,0.579845,-0.566039,0.564505,-0.587515,0.575243,-0.561437
4.4135,0.016748,0.000000,-0.097502,0.097502,0.0000,0.0000,0.0000,-0.002348,-0.101243,0.096641,0.3882,0.3083,0.1435,0.000000,0.578311,-0.566039,0.564505,-0.587515,0.576777,-0.561437
4.4303,0.016754,0.000000,-0.097210,0.097210,0.0000,0.0000,0.0000,-0.002361,-0.099709,0.096641,0.5369,0.3460,0.1980,0.000000,0.579845,-0.566039,0.564505,-0.587515,0.575243,-0.559903
4.4471,0.016760,0.000000,-0.096917,0.096917,0.0000,0.0000,0.0000,-0.002361,-0.099709,0.096641,0.5369,0.3460,0.1980,0.000000,0.579845,-0.566039,0.564505,-0.587515,0.575243,-0.561437
4.4638,0.016752,0.000000,-0.096625,0.096625,0.0000,0.0000,0.0000,-0.002347,-0.099709,0.096641,0.4718,0.3245,0.1389,0.000000,0.579845,-0.566039,0.564505,-0.587515,0.575243,-0.561437
4.4806,0.016752,0.000000,-0.096332,0.096332,0.0000,0.0000,0.0000,-0.002361,-0.099709,0.096641,0.5282,0.3443,0.1984,0.000000,0.579845,-0.566039,0.564505,-0.587515,0.575243,-0.559903
4.4973,0.016762,0.000000,-0.096040,0.096040,0.0000,0.0000,0.0000,-0.002347,-0.099709,0.096641,0.4727,0.3247,0.1388,0.000000,0.579845,-0.566039,0.564505,-0.587515,0.575243,-0.561437
4.5141,0.016753,0.000000,-0.095747,0.095747,0.0000,0.0000,0.0000,-0.002348,-0.099709,0.096641,0.4785,0.3267,0.1450,0.000000,0.579845,-0.566039,0.564505,-0.587515,0.575243,-0.561437
4.5309,0.016781,0.000000,-0.095454,0.095454,0.0000,0.0000,0.0000,-0.002361,-0.099709,0.096641,0.5275,0.3441,0.1978,0.000000,0.579845,-0.566039,0.564505,-0.587515,0.575243,-0.559903
4.5476,0.016754,0.000000,-0.095162,0.095162,0.0000,0.0000,0.0000,-0.002361,-0.099709,0.096641,0.5275,0.3441,0.1978,0.000000,0.579845,-0.566039,0.564505,-0.587515,0.575243,-0.559903
4.5644,0.016757,0.000000,-0.094870,0.094870,0.0000,0.0000,0.0000,-0.002347,-0.096641,0.095107,0.4728,0.3247,0.1389,0.000000,0.579845,-0.566039,0.564505,-0.587515,0.575243,-0.561437
4.5811,0.016747,0.000000,-0.094577,0.094577,0.0000,0.0000,0.0000,-0.002361,-0.096641,0.095107,0.5281,0.3443,0.1984,0.000000,0.579845,-0.566039,0.564505,-0.587515,0.575243,-0.559903
4.5979,0.016754,0.000000,-0.094285,0.094285,0.0000,0.0000,0.0000,-0.002347,-0.096641,0.095107,0.4727,0.3247,0.1388,0.000000,0.579845,-0.566039,0.564505,-0.587515,0.575243,-0.561437
4.6146,0.016756,0.000000,-0.093992,0.093992,0.0000,0.0000,0.0000,-0.002360,-0.096641,0.093573,0.4287,0.3424,0.0913,0.000000,0.578311,-0.566039,0.564505,-0.587515,0.575243,-0.561437
4.6314,0.016780,0.000000,-0.093700,0.093700,0.0000,0.0000,0.0000,-0.002360,-0.096641,0.093573,0.4287,0.3424,0.0913,0.000000,0.578311,-0.566039,0.564505,-0.587515,0.575243,-0.561437
4.6482,0.016757,0.000000,-0.093407,0.093407,0.0000,0.0000,0.0000,-0.002347,-0.096641,0.093573,0.4831,0.3249,0.1500,0.000000,0.579845,-0.566039,0.564505,-0.587515,0.575243,-0.561437
4.6649,0.016777,0.000000,-0.093114,0.093114,0.0000,0.0000,0.0000,-0.002373,-0.095107,0.093573,0.4772,0.3599,0.1435,0.000000,0.578311,-0.566039,0.564505,-0.587515,0.575243,-0.559903
4.6817,0.016754,0.000000,-0.092822,0.092822,0.0000,0.0000,0.0000,-0.002359,-0.095107,0.093573,0.5276,0.3406,0.1980,0.000000,0.579845,-0.566039,0.564505,-0.587515,0.575243,-0.559903
4.6985,0.016788,0.000000,-0.092529,0.092529,0.0000,0.0000,0.0000,-0.002359,-0.095107,0.093573,0.4230,0.3407,0.0851,0.000000,0.578311,-0.566039,0.564505,-0.587515,0.575243,-0.561437
4.7153,0.016848,0.000000,-0.092235,0.092235,0.0000,0.0000,0.0000,-0.002347,-0.093573,0.092039,0.4837,0.3250,0.1506,0.000000,0.579845,-0.566039,0.564505,-0.587515,0.575243,-0.561437
4.7321,0.016747,0.000000,-0.091943,0.091943,0.0000,0.0000,0.0000,-0.002347,-0.093573,0.092039,0.4837,0.3250,0.1506,0.000000,0.579845,-0.566039,0.564505,-0.587515,0.575243,-0.561437
4.7488,0.016750,0.000000,-0.091650,0.091650,0.0000,0.0000,0.0000,-0.002361,-0.093573,0.092039,0.5269,0.3443,0.1972,0.000000,0.579845,-0.566039,0.564505,-0.587515,0.575243,-0.559903
4.7656,0.016755,0.000000,-0.091358,0.091358,0.0000,0.0000,0.0000,-0.002359,-0.093573,0.092039,0.4230,0.3403,0.0852,0.000000,0.578311,-0.566039,0.564505,-0.587515,0.575243,-0.561437
4.7823,0.016756,0.000000,-0.091065,0.091065,0.0000,0.0000,0.0000,-0.002347,-0.093573,0.092039,0.4837,0.3251,0.1506,0.000000,0.579845,-0.566039,0.564505,-0.587515,0.575243,-0.561437
4.7991,0.016773,0.000000,-0.090773,0.090773,0.0000,0.0000,0.0000,-0.002360,-0.093573,0.092039,0.4275,0.3424,0.0901,0.000000,0.578311,-0.566039,0.564505,-0.587515,0.575243,-0.561437
4.8159,0.016753,0.000000,-0.090480,0.090480,0.0000,0.0000,0.0000,-0.002360,-0.093573,0.090505,0.5328,0.3424,0.2035,0.000000,0.579845,-0.566039,0.564505,-0.587515,0.575243,-0.559903
4.8326,0.016773,0.000000,-0.090187,0.090187,0.0000,0.0000,0.0000,-0.002360,-0.093573,0.090505,0.5328,0.3424,0.2035,0.000000,0.579845,-0.566039,0.564505,-0.587515,0.575243,-0.559903
4.8494,0.016746,0.000000,-0.089895,0.089895,0.0000,0.0000,0.0000,-0.002347,-0.093573,0.092039,0.4722,0.3249,0.1383,0.000000,0.579845,-0.566039,0.564505,-0.587515,0.575243,-0.561437
4.8661,0.016755,0.000000,-0.089603,0.089603,0.0000,0.0000,0.0000,-0.002348,-0.093573,0.092039,0.4785,0.3267,0.1451,0.000000,0.579845,-0.566039,0.564505,-0.587515,0.575243,-0.561437
4.8829,0.016756,0.000000,-0.089310,0.089310,0.0000,0.0000,0.0000,-0.002360,-0.093573,0.090505,0.4281,0.3422,0.0906,0.000000,0.578311,-0.566039,0.564505,-0.587515,0.575243,-0.561437
4.8997,0.016753,0.000000,-0.089018,0.089018,0.0000,0.0000,0.0000,-0.002360,-0.093573,0.090505,0.5328,0.3424,0.2035,0.000000,0.579845,-0.566039,0.564505,-0.587515,0.575243,-0.559903
4.9164,0.016753,0.000000,-0.088725,0.088725,0.0000,0.0000,0.0000,-0.002372,-0.093573,0.090505,0.4720,0.3581,0.1380,0.000000,0.578311,-0.566039,0.564505,-0.587515,0.575243,-0.559903
4.9332,0.016753,0.000000,-0.088433,0.088433,0.0000,0.0000,0.0000,-0.002372,-0.093573,0.090505,0.4720,0.3581,0.1380,0.000000,0.578311,-0.566039,0.564505,-0.587515,0.575243,-0.559903
4.9502,0.017021,0.000000,-0.088136,0.088136,0.0000,0.0000,0.0000,-0.002358,-0.093573,0.090505,0.4287,0.3389,0.0914,0.000000,0.578311,-0.566039,0.564505,-0.587515,0.575243,-0.561437
4.9669,0.016759,0.000000,-0.087844,0.087844,0.0000,0.0000,0.0000,-0.002347,-0.093573,0.090505,0.4831,0.3252,0.1500,0.000000,0.579845,-0.566039,0.564505,-0.587515,0.575243,-0.561437
4.9837,0.016760,0.000000,-0.087551,0.087551,0.0000,0.0000,0.0000,-0.002348,-0.093573,0.090505,0.4774,0.3267,0.1439,0.000000,0.579845,-0.566039,0.564505,-0.587515,0.575243,-0.561437
5.0005,0.016759,0.000000,-0.087259,0.087259,0.0000,0.0000,0.0000,-0.002348,-0.093573,0.090505,0.4774,0.3267,0.1439,0.000000,0.579845,-0.566039,0.564505,-0.587515,0.575243,-0.561437
5.0172,0.016777,0.000000,-0.086966,0.086966,0.0000,0.0000,0.0000,-0.002348,-0.092039,0.090505,0.4774,0.3267,0.1439,0.000000,0.578311,-0.566039,0.564505,-0.587515,0.575243,-0.559903
5.0340,0.016756,0.000000,-0.086673,0.086673,0.0000,0.0000,0.0000,-0.002373,-0.092039,0.090505,0.4778,0.3597,0.1442,0.000000,0.578311,-0.566039,0.564505,-0.587515,0.575243,-0.559903
5.0508,0.016775,0.000000,-0.086380,0.086380,0.0000,0.0000,0.0000,-0.002346,-0.092039,0.090505,0.4780,0.3231,0.1445,0.000000,0.579845,-0.566039,0.564505,-0.587515,0.575243,-0.561437
5.0675,0.016751,0.000000,-0.086088,0.086088,0.0000,0.0000,0.0000,-0.002348,-0.090505,0.090505,0.4779,0.3269,0.1444,0.000000,0.579845,-0.566039,0.564505,-0.587515,0.575243,-0.561437
5.0843,0.016766,0.000000,-0.085796,0.085796,0.0000,0.0000,0.0000,-0.002361,-0.087437,0.090505,0.5275,0.3441,0.1979,0.000000,0.579845,-0.566039,0.564505,-0.587515,0.575243,-0.559903
5.1012,0.016919,0.000000,-0.085500,0.085500,0.0000,0.0000,0.0000,-0.002372,-0.084369,0.090505,0.4726,0.3579,0.1386,0.000000,0.578311,-0.566039,0.564505,-0.587515,0.575243,-0.559903
5.1180,0.016760,0.000000,-0.085208,0.085208,0.0000,0.0000,0.0000,-0.002372,-0.087437,0.088971,0.4726,0.3579,0.1386,0.000000,0.578311,-0.566039,0.564505,-0.587515,0.575243,-0.559903
5.1347,0.016752,0.000000,-0.084915,0.084915,0.0000,0.0000,0.0000,-0.002371,-0.087437,0.088971,0.4783,0.3565,0.1447,0.000000,0.578311,-0.566039,0.564505,-0.587515,0.575243,-0.559903
5.1515,0.016772,0.000000,-0.084623,0.084623,0.0000,0.0000,0.0000,-0.002358,-0.085903,0.088971,0.4281,0.3391,0.0907,0.000000,0.578311,-0.566039,0.564505,-0.587515,0.575243,-0.561437
5.1682,0.016748,0.000000,-0.084330,0.084330,0.0000,0.0000,0.0000,-0.002359,-0.082835,0.088971,0.4333,0.3409,0.0963,0.000000,0.578311,-0.566039,0.564505,-0.587515,0.575243,-0.561437
5.1850,0.016768,0.000000,-0.084038,0.084038,0.0000,0.0000,0.0000,-0.002347,-0.085903,0.088971,0.4826,0.3250,0.1495,0.000000,0.579845,-0.566039,0.564505,-0.587515,0.575243,-0.561437
5.2018,0.016754,0.000000,-0.083745,0.083745,0.0000,0.0000,0.0000,-0.002361,-0.085903,0.088971,0.5271,0.3443,0.1973,0.000000,0.579845,-0.566039,0.564505,-0.587515,0.575243,-0.559903
5.2185,0.016771,0.000000,-0.083453,0.083453,0.0000,0.0000,0.0000,-0.002361,-0.085903,0.088971,0.5271,0.3443,0.1973,0.000000,0.579845,-0.566039,0.564505,-0.587515,0.575243,-0.559903
5.2353,0.016755,0.000000,-0.083160,0.083160,0.0000,0.0000,0.0000,-0.002347,-0.082835,0.087437,0.4728,0.3247,0.1389,0.000000,0.579845,-0.566039,0.564505,-0.587515,0.575243,-0.561437
5.2520,0.016769,0.000000,-0.082867,0.082867,0.0000,0.0000,0.0000,-0.002348,-0.082835,0.087437,0.4785,0.3267,0.1450,0.000000,0.579845,-0.566039,0.564505,-0.587515,0.575243,-0.561437
5.2688,0.016747,0.000000,-0.082575,0.082575,0.0000,0.0000,0.0000,-0.002360,-0.082835,0.087437,0.4281,0.3422,0.0907,0.000000,0.578311,-0.566039,0.564505,-0.587515,0.575243,-0.561437
5.2859,0.017092,0.000000,-0.082277,0.082277,0.0000,0.0000,0.0000,-0.002359,-0.082835,0.087437,0.4333,0.3406,0.0963,0.000000,0.578311,-0.566039,0.564505,-0.587515,0.575243,-0.561437
5.3026,0.016749,0.000000,-0.081984,0.081984,0.0000,0.0000,0.0000,-0.002372,-0.082835,0.085903,0.4824,0.3583,0.1491,0.000000,0.578311,-0.566039,0.564505,-0.587515,0.575243,-0.559903
5.3194,0.016769,0.000000,-0.081692,0.081692,0.0000,0.0000,0.0000,-0.002372,-0.082835,0.085903,0.4824,0.3583,0.1491,0.000000,0.578311,-0.566039,0.564505,-0.587515,0.575243,-0.559903
5.3362,0.016807,0.000000,-0.081398,0.081398,0.0000,0.0000,0.0000,-0.002346,-0.082835,0.084369,0.4775,0.3232,0.1440,0.000000,0.579845,-0.566039,0.564505,-0.587515,0.575243,-0.561437
5.3530,0.016778,0.000000,-0.081106,0.081106,0.0000,0.0000,0.0000,-0.002360,-0.082835,0.081301,0.4282,0.3426,0.0908,0.000000,0.578311,-0.566039,0.564505,-0.587515,0.575243,-0.561437
5.3697,0.016750,0.000000,-0.080813,0.080813,0.0000,0.0000,0.0000,-0.002347,-0.082835,0.081301,0.4831,0.3249,0.1500,0.000000,0.579845,-0.566039,0.564505,-0.587515,0.575243,-0.561437
5.3865,0.016776,0.000000,-0.080520,0.080520,0.0000,0.0000,0.0000,-0.002348,-0.082835,0.081301,0.4774,0.3267,0.1439,0.000000,0.579845,-0.566039,0.564505,-0.587515,0.575243,-0.561437
5.4033,0.016760,0.000000,-0.080228,0.080228,0.0000,0.0000,0.0000,-0.002348,-0.082835,0.081301,0.4774,0.3267,0.1439,0.000000,0.579845,-0.566039,0.564505,-0.587515,0.575243,-0.561437
5.4200,0.016765,0.000000,-0.079935,0.079935,0.0000,0.0000,0.0000,-0.002360,-0.082835,0.079767,0.4282,0.3422,0.0908,0.000000,0.578311,-0.566039,0.564505,-0.587515,0.575243,-0.561437
5.4368,0.016750,0.000000,-0.079643,0.079643,0.0000,0.0000,0.0000,-0.002359,-0.081301,0.079767,0.4333,0.3406,0.0963,0.000000,0.578311,-0.566039,0.564505,-0.587515,0.575243,-0.561437
5.4537,0.016864,0.000000,-0.079349,0.079349,0.0000,0.0000,0.0000,-0.002360,-0.081301,0.079767,0.5322,0.3426,0.2029,0.000000,0.579845,-0.566039,0.564505,-0.587515,0.575243,-0.559903
5.4704,0.016754,0.000000,-0.079056,0.079056,0.0000,0.0000,0.0000,-0.002347,-0.079767,0.078233,0.4723,0.3249,0.1383,0.000000,0.579845,-0.566039,0.564505,-0.587515,0.575243,-0.561437
5.4872,0.016777,0.000000,-0.078763,0.078763,0.0000,0.0000,0.0000,-0.002373,-0.079767,0.078233,0.4783,0.3599,0.1448,0.000000,0.578311,-0.566039,0.564505,-0.587515,0.575243,-0.559903
