t,loop_dt,cmd_z,cmd_ant_l,cmd_ant_r,cmd_roll,cmd_pitch,cmd_yaw,pres_z,pres_ant_l,pres_ant_r,pres_roll,pres_pitch,pres_yaw,pres_j0,pres_j1,pres_j2,pres_j3,pres_j4,pres_j5,pres_j6
0.0000,0.000001,0.000000,-0.174533,0.174533,0.0000,0.0000,0.0000,-0.002476,-0.003068,0.004602,0.3858,0.6692,0.1960,0.000000,0.572175,-0.561437,0.564505,-0.590583,0.575243,-0.553767
0.0168,0.016755,0.000000,-0.172193,0.172193,0.0000,0.0000,0.0000,-0.002462,0.001534,0.003068,0.4294,0.6295,0.1366,0.000000,0.572175,-0.562971,0.564505,-0.590583,0.575243,-0.553767
0.0335,0.016755,0.000000,-0.169854,0.169854,0.0000,0.0000,0.0000,-0.002463,0.000000,0.000000,0.4248,0.6337,0.1428,0.000000,0.572175,-0.562971,0.564505,-0.590583,0.575243,-0.553767
0.0503,0.016764,0.000000,-0.167513,0.167513,0.0000,0.0000,0.0000,-0.002463,0.000000,0.000000,0.4248,0.6337,0.1428,0.000000,0.572175,-0.562971,0.564505,-0.590583,0.575243,-0.553767
0.0670,0.016756,0.000000,-0.165174,0.165174,0.0000,0.0000,0.0000,-0.002463,-0.044485,0.038350,0.4248,0.6337,0.1428,0.000000,0.572175,-0.562971,0.564505,-0.590583,0.575243,-0.553767
0.0838,0.016753,0.000000,-0.162835,0.162835,0.0000,0.0000,0.0000,-0.002463,-0.118117,0.111981,0.4248,0.6337,0.1428,0.000000,0.572175,-0.562971,0.564505,-0.590583,0.575243,-0.553767
0.1005,0.016761,0.000000,-0.160494,0.160494,0.0000,0.0000,0.0000,-0.002463,-0.181010,0.177942,0.4248,0.6337,0.1428,0.000000,0.572175,-0.562971,0.564505,-0.590583,0.575243,-0.553767
0.1173,0.016763,0.000000,-0.158154,0.158154,0.0000,0.0000,0.0000,-0.002438,-0.200951,0.197884,0.3861,0.6664,0.0351,0.000000,0.572175,-0.562971,0.564505,-0.592117,0.575243,-0.555301
0.1341,0.016770,0.000000,-0.155812,0.155812,0.0000,0.0000,0.0000,-0.002428,-0.191748,0.191748,0.3406,0.6454,-0.0071,0.000000,0.572175,-0.562971,0.564505,-0.592117,0.575243,-0.556835
0.1508,0.016749,0.000000,-0.153473,0.153473,0.0000,0.0000,0.0000,-0.002428,-0.191748,0.191748,0.3406,0.6454,-0.0071,0.000000,0.572175,-0.562971,0.564505,-0.592117,0.575243,-0.556835
0.1676,0.016758,0.000000,-0.151134,0.151134,0.0000,0.0000,0.0000,-0.002405,-0.168738,0.176408,0.4453,0.6163,0.1048,0.000000,0.575243,-0.562971,0.564505,-0.592117,0.575243,-0.556835
0.1843,0.016757,0.000000,-0.148794,0.148794,0.0000,0.0000,0.0000,-0.002419,-0.156466,0.164136,0.4237,0.5687,0.1468,0.000000,0.575243,-0.562971,0.564505,-0.590583,0.575243,-0.556835
0.2011,0.016758,0.000000,-0.146454,0.146454,0.0000,0.0000,0.0000,-0.002406,-0.154932,0.153398,0.4758,0.5580,0.1962,0.000000,0.576777,-0.562971,0.564505,-0.590583,0.575243,-0.556835
0.2179,0.016762,0.000000,-0.144114,0.144114,0.0000,0.0000,0.0000,-0.002384,-0.158000,0.150330,0.4421,0.6123,0.1909,0.000000,0.578311,-0.561437,0.564505,-0.592117,0.575243,-0.558369
0.2346,0.016759,0.000000,-0.141774,0.141774,0.0000,0.0000,0.0000,-0.002384,-0.156466,0.147262,0.4421,0.6123,0.1909,0.000000,0.579845,-0.562971,0.564505,-0.590583,0.575243,-0.559903
0.2514,0.016755,0.000000,-0.139434,0.139434,0.0000,0.0000,0.0000,-0.002360,-0.156466,0.147262,0.4743,0.4871,0.1923,0.000000,0.579845,-0.562971,0.564505,-0.590583,0.575243,-0.559903
0.2681,0.016753,0.000000,-0.137095,0.137095,0.0000,0.0000,0.0000,-0.002363,-0.148796,0.145728,0.4709,0.5001,0.1922,0.000000,0.579845,-0.562971,0.564505,-0.590583,0.575243,-0.559903
0.2849,0.016761,0.000000,-0.134755,0.134755,0.0000,0.0000,0.0000,-0.002362,-0.145728,0.145728,0.4714,0.4983,0.1922,0.000000,0.579845,-0.562971,0.564505,-0.590583,0.575243,-0.559903
0.3016,0.016760,0.000000,-0.132415,0.132415,0.0000,0.0000,0.0000,-0.002362,-0.145728,0.145728,0.4714,0.4983,0.1922,0.000000,0.579845,-0.562971,0.564505,-0.590583,0.575243,-0.559903
0.3184,0.016763,0.000000,-0.130074,0.130074,0.0000,0.0000,0.0000,-0.002362,-0.145728,0.145728,0.4714,0.4983,0.1922,0.000000,0.579845,-0.562971,0.564505,-0.590583,0.575243,-0.559903
0.3352,0.016765,0.000000,-0.127733,0.127733,0.0000,0.0000,0.0000,-0.002362,-0.142660,0.144194,0.4714,0.4983,0.1922,0.000000,0.579845,-0.562971,0.564505,-0.590583,0.575243,-0.559903
0.3519,0.016770,0.000000,-0.125392,0.125392,0.0000,0.0000,0.0000,-0.002362,-0.142660,0.144194,0.4714,0.4983,0.1922,0.000000,0.579845,-0.562971,0.564505,-0.590583,0.575243,-0.559903
0.3687,0.016752,0.000000,-0.123053,0.123053,0.0000,0.0000,0.0000,-0.002362,-0.134990,0.142660,0.4714,0.4983,0.1922,0.000000,0.579845,-0.562971,0.564505,-0.590583,0.575243,-0.559903
0.3855,0.016757,0.000000,-0.120713,0.120713,0.0000,0.0000,0.0000,-0.002362,-0.130388,0.141126,0.4714,0.4983,0.1922,0.000000,0.579845,-0.562971,0.564505,-0.590583,0.575243,-0.559903
0.4022,0.016757,0.000000,-0.118374,0.118374,0.0000,0.0000,0.0000,-0.002362,-0.130388,0.136524,0.4714,0.4983,0.1922,0.000000,0.579845,-0.562971,0.564505,-0.590583,0.575243,-0.559903
0.4192,0.016954,0.000000,-0.116006,0.116006,0.0000,0.0000,0.0000,-0.002362,-0.128854,0.128854,0.4714,0.4983,0.1922,0.000000,0.579845,-0.562971,0.564505,-0.590583,0.575243,-0.559903
0.4360,0.016790,0.000000,-0.113662,0.113662,0.0000,0.0000,0.0000,-0.002362,-0.128854,0.128854,0.4714,0.4983,0.1922,0.000000,0.579845,-0.562971,0.564505,-0.590583,0.575243,-0.559903
0.4527,0.016753,0.000000,-0.111323,0.111323,0.0000,0.0000,0.0000,-0.002362,-0.124252,0.122718,0.4714,0.4983,0.1922,0.000000,0.579845,-0.562971,0.564505,-0.590583,0.575243,-0.559903
0.4695,0.016753,0.000000,-0.108984,0.108984,0.0000,0.0000,0.0000,-0.002362,-0.121184,0.118117,0.4714,0.4983,0.1922,0.000000,0.579845,-0.562971,0.564505,-0.590583,0.575243,-0.559903
0.4862,0.016749,0.000000,-0.106645,0.106645,0.0000,0.0000,0.0000,-0.002362,-0.121184,0.116583,0.4714,0.4983,0.1922,0.000000,0.579845,-0.562971,0.564505,-0.590583,0.575243,-0.559903
0.5030,0.016758,0.000000,-0.104305,0.104305,0.0000,0.0000,0.0000,-0.002351,-0.121184,0.116583,0.4820,0.5498,0.1385,0.000000,0.579845,-0.562971,0.564505,-0.592117,0.575243,-0.559903
0.5198,0.016852,0.000000,-0.101952,0.101952,0.0000,0.0000,0.0000,-0.002351,-0.119651,0.116583,0.4820,0.5498,0.1385,0.000000,0.579845,-0.562971,0.564505,-0.592117,0.575243,-0.559903
0.5366,0.016758,0.000000,-0.099612,0.099612,0.0000,0.0000,0.0000,-0.002352,-0.119651,0.116583,0.4809,0.5444,0.1441,0.000000,0.579845,-0.562971,0.564505,-0.592117,0.575243,-0.559903
0.5533,0.016758,0.000000,-0.097273,0.097273,0.0000,0.0000,0.0000,-0.002363,-0.118117,0.115049,0.4703,0.4942,0.1972,0.000000,0.579845,-0.562971,0.564505,-0.590583,0.575243,-0.559903
0.5701,0.016763,0.000000,-0.094932,0.094932,0.0000,0.0000,0.0000,-0.002362,-0.111981,0.113515,0.4714,0.4994,0.1917,0.000000,0.579845,-0.562971,0.564505,-0.590583,0.575243,-0.559903
0.5870,0.016880,0.000000,-0.092575,0.092575,0.0000,0.0000,0.0000,-0.002362,-0.102777,0.108913,0.4714,0.4994,0.1917,0.000000,0.579845,-0.562971,0.564505,-0.590583,0.575243,-0.559903
0.6039,0.016968,0.000000,-0.090206,0.090206,0.0000,0.0000,0.0000,-0.002362,-0.101243,0.102777,0.4714,0.4994,0.1917,0.000000,0.579845,-0.562971,0.564505,-0.590583,0.575243,-0.559903
0.6207,0.016767,0.000000,-0.087865,0.087865,0.0000,0.0000,0.0000,-0.002362,-0.099709,0.095107,0.4714,0.4994,0.1917,0.000000,0.579845,-0.562971,0.564505,-0.590583,0.575243,-0.559903
0.6375,0.016769,0.000000,-0.085523,0.085523,0.0000,0.0000,0.0000,-0.002362,-0.099709,0.095107,0.4714,0.4994,0.1917,0.000000,0.579845,-0.562971,0.564505,-0.590583,0.575243,-0.559903
0.6542,0.016759,0.000000,-0.083183,0.083183,0.0000,0.0000,0.0000,-0.002362,-0.096641,0.090505,0.4714,0.4994,0.1917,0.000000,0.579845,-0.562971,0.564505,-0.590583,0.575243,-0.559903
0.6710,0.016776,0.000000,-0.080841,0.080841,0.0000,0.0000,0.0000,-0.002362,-0.093573,0.090505,0.4714,0.4994,0.1917,0.000000,0.579845,-0.562971,0.564505,-0.590583,0.575243,-0.559903
0.6878,0.016787,0.000000,-0.078497,0.078497,0.0000,0.0000,0.0000,-0.002362,-0.085903,0.088971,0.4714,0.4994,0.1917,0.000000,0.579845,-0.562971,0.564505,-0.590583,0.575243,-0.559903
0.7046,0.016761,0.000000,-0.076157,0.076157,0.0000,0.0000,0.0000,-0.002362,-0.085903,0.088971,0.4714,0.4994,0.1917,0.000000,0.579845,-0.562971,0.564505,-0.590583,0.575243,-0.559903
0.7213,0.016765,0.000000,-0.073816,0.073816,0.0000,0.0000,0.0000,-0.002362,-0.079767,0.087437,0.4714,0.4994,0.1917,0.000000,0.579845,-0.562971,0.564505,-0.590583,0.575243,-0.559903
0.7381,0.016761,0.000000,-0.071476,0.071476,0.0000,0.0000,0.0000,-0.002362,-0.079767,0.085903,0.4714,0.4994,0.1917,0.000000,0.579845,-0.562971,0.564505,-0.590583,0.575243,-0.559903
0.7548,0.016751,0.000000,-0.069137,0.069137,0.0000,0.0000,0.0000,-0.002349,-0.081301,0.082835,0.4217,0.4812,0.1388,0.000000,0.579845,-0.562971,0.564505,-0.590583,0.575243,-0.561437
0.7716,0.016757,0.000000,-0.066797,0.066797,0.0000,0.0000,0.0000,-0.002352,-0.078233,0.076699,0.4872,0.5515,0.1440,0.000000,0.579845,-0.562971,0.564505,-0.592117,0.575243,-0.559903
0.7884,0.016773,0.000000,-0.064455,0.064455,0.0000,0.0000,0.0000,-0.002352,-0.078233,0.076699,0.4872,0.5515,0.1440,0.000000,0.579845,-0.562971,0.564505,-0.592117,0.575243,-0.559903
0.8051,0.016759,0.000000,-0.062115,0.062115,0.0000,0.0000,0.0000,-0.002352,-0.073631,0.069029,0.4804,0.5442,0.1435,0.000000,0.579845,-0.562971,0.564505,-0.592117,0.575243,-0.559903
0.8219,0.016765,0.000000,-0.059775,0.059775,0.0000,0.0000,0.0000,-0.002363,-0.069029,0.067495,0.4703,0.4942,0.1972,0.000000,0.579845,-0.562971,0.564505,-0.590583,0.575243,-0.559903
0.8387,0.016770,0.000000,-0.057433,0.057433,0.0000,0.0000,0.0000,-0.002362,-0.067495,0.065961,0.4714,0.4994,0.1917,0.000000,0.579845,-0.562971,0.564505,-0.590583,0.575243,-0.559903
0.8555,0.016806,0.000000,-0.055087,0.055087,0.0000,0.0000,0.0000,-0.002362,-0.065961,0.065961,0.4714,0.4994,0.1917,0.000000,0.579845,-0.562971,0.564505,-0.590583,0.575243,-0.559903
0.8722,0.016762,0.000000,-0.052746,0.052746,0.0000,0.0000,0.0000,-0.002351,-0.062893,0.062893,0.4820,0.5496,0.1385,0.000000,0.579845,-0.562971,0.564505,-0.592117,0.575243,-0.559903
0.8890,0.016756,0.000000,-0.050407,0.050407,0.0000,0.0000,0.0000,-0.002364,-0.056757,0.059825,0.4701,0.4936,0.1978,0.000000,0.579845,-0.562971,0.564505,-0.590583,0.575243,-0.559903
0.9057,0.016755,0.000000,-0.048067,0.048067,0.0000,0.0000,0.0000,-0.002364,-0.056757,0.059825,0.4701,0.4936,0.1978,0.000000,0.579845,-0.562971,0.564505,-0.590583,0.575243,-0.559903
0.9225,0.016749,0.000000,-0.045729,0.045729,0.0000,0.0000,0.0000,-0.002362,-0.052155,0.058291,0.4714,0.4994,0.1916,0.000000,0.579845,-0.562971,0.564505,-0.590583,0.575243,-0.559903
0.9393,0.016821,0.000000,-0.043380,0.043380,0.0000,0.0000,0.0000,-0.002351,-0.053689,0.052155,0.4820,0.5496,0.1385,0.000000,0.579845,-0.562971,0.564505,-0.592117,0.575243,-0.559903
0.9561,0.016755,0.000000,-0.041040,0.041040,0.0000,0.0000,0.0000,-0.002364,-0.050621,0.047553,0.4701,0.4936,0.1978,0.000000,0.579845,-0.562971,0.564505,-0.590583,0.575243,-0.559903
0.9732,0.017087,0.000000,-0.038655,0.038655,0.0000,0.0000,0.0000,-0.002351,-0.046019,0.044485,0.4821,0.5502,0.1379,0.000000,0.579845,-0.562971,0.564505,-0.592117,0.575243,-0.559903
0.9899,0.016786,0.000000,-0.036311,0.036311,0.0000,0.0000,0.0000,-0.002364,-0.041417,0.041417,0.4701,0.4935,0.1978,0.000000,0.579845,-0.562971,0.564505,-0.590583,0.575243,-0.559903
1.0067,0.016763,0.000000,-0.033970,0.033970,0.0000,0.0000,0.0000,-0.002364,-0.041417,0.041417,0.4701,0.4935,0.1978,0.000000,0.579845,-0.562971,0.564505,-0.590583,0.575243,-0.559903
1.0235,0.016751,0.000000,-0.031631,0.031631,0.0000,0.0000,0.0000,-0.002362,-0.041417,0.039884,0.4714,0.4994,0.1916,0.000000,0.579845,-0.562971,0.564505,-0.590583,0.575243,-0.559903
1.0402,0.016757,0.000000,-0.029292,0.029292,0.0000,0.0000,0.0000,-0.002349,-0.041417,0.039884,0.4217,0.4812,0.1388,0.000000,0.579845,-0.562971,0.564505,-0.590583,0.575243,-0.561437
1.0570,0.016754,0.000000,-0.026952,0.026952,0.0000,0.0000,0.0000,-0.002364,-0.039884,0.036816,0.4764,0.5007,0.1977,0.000000,0.579845,-0.562971,0.564505,-0.590583,0.575243,-0.559903
1.0737,0.016757,0.000000,-0.024613,0.024613,0.0000,0.0000,0.0000,-0.002362,-0.036816,0.035282,0.4707,0.4987,0.1916,0.000000,0.579845,-0.562971,0.564505,-0.590583,0.575243,-0.559903
1.0905,0.016758,0.000000,-0.022273,0.022273,0.0000,0.0000,0.0000,-0.002362,-0.027612,0.032214,0.4707,0.4987,0.1916,0.000000,0.579845,-0.562971,0.564505,-0.590583,0.575243,-0.559903
1.1072,0.016768,0.000000,-0.019932,0.019932,0.0000,0.0000,0.0000,-0.002362,-0.027612,0.032214,0.4707,0.4987,0.1916,0.000000,0.579845,-0.562971,0.564505,-0.590583,0.575243,-0.559903
1.1240,0.016757,0.000000,-0.017592,0.017592,0.0000,0.0000,0.0000,-0.002362,-0.023010,0.029146,0.4707,0.4987,0.1916,0.000000,0.579845,-0.562971,0.564505,-0.590583,0.575243,-0.559903
1.1408,0.016762,0.000000,-0.015252,0.015252,0.0000,0.0000,0.0000,-0.002351,-0.024544,0.026078,0.4821,0.5497,0.1385,0.000000,0.579845,-0.562971,0.564505,-0.592117,0.575243,-0.559903
1.1575,0.016752,0.000000,-0.012913,0.012913,0.0000,0.0000,0.0000,-0.002352,-0.026078,0.021476,0.4809,0.5444,0.1441,0.000000,0.579845,-0.562971,0.564505,-0.592117,0.575243,-0.559903
1.1744,0.016857,0.000000,-0.010559,0.010559,0.0000,0.0000,0.0000,-0.002363,-0.021476,0.016874,0.4703,0.4942,0.1972,0.000000,0.579845,-0.562971,0.564505,-0.590583,0.575243,-0.559903
1.1911,0.016772,0.000000,-0.008217,0.008217,0.0000,0.0000,0.0000,-0.002362,-0.013806,0.013806,0.4714,0.4994,0.1917,0.000000,0.579845,-0.562971,0.564505,-0.590583,0.575243,-0.559903
1.2079,0.016777,0.000000,-0.005875,0.005875,0.0000,0.0000,0.0000,-0.002362,-0.013806,0.013806,0.4714,0.4994,0.1917,0.000000,0.579845,-0.562971,0.564505,-0.590583,0.575243,-0.559903
1.2247,0.016747,0.000000,-0.003536,0.003536,0.0000,0.0000,0.0000,-0.002362,-0.010738,0.012272,0.4714,0.4994,0.1917,0.000000,0.579845,-0.562971,0.564505,-0.590583,0.575243,-0.559903
1.2414,0.016755,0.000000,-0.001197,0.001197,0.0000,0.0000,0.0000,-0.002351,-0.010738,0.010738,0.4820,0.5496,0.1385,0.000000,0.579845,-0.562971,0.564505,-0.592117,0.575243,-0.559903
1.2582,0.016752,0.000000,0.001142,-0.001142,0.0000,0.0000,0.0000,-0.002352,-0.010738,0.007670,0.4809,0.5444,0.1441,0.000000,0.579845,-0.562971,0.564505,-0.592117,0.575243,-0.559903
1.2749,0.016760,0.000000,0.003482,-0.003482,0.0000,0.0000,0.0000,-0.002363,-0.004602,0.006136,0.4703,0.4942,0.1972,0.000000,0.579845,-0.562971,0.564505,-0.590583,0.575243,-0.559903
1.2917,0.016763,0.000000,0.005823,-0.005823,0.0000,0.0000,0.0000,-0.002363,0.003068,0.003068,0.4703,0.4942,0.1972,0.000000,0.579845,-0.562971,0.564505,-0.590583,0.575243,-0.559903
1.3085,0.016756,0.000000,0.008163,-0.008163,0.0000,0.0000,0.0000,-0.002362,0.003068,0.003068,0.4714,0.4994,0.1917,0.000000,0.579845,-0.562971,0.564505,-0.590583,0.575243,-0.559903
1.3252,0.016754,0.000000,0.010502,-0.010502,0.0000,0.0000,0.0000,-0.002362,0.003068,-0.001534,0.4714,0.4994,0.1917,0.000000,0.579845,-0.562971,0.564505,-0.590583,0.575243,-0.559903
1.3420,0.016753,0.000000,0.012841,-0.012841,0.0000,0.0000,0.0000,-0.002362,-0.001534,-0.004602,0.4714,0.4994,0.1917,0.000000,0.579845,-0.562971,0.564505,-0.590583,0.575243,-0.559903
1.3587,0.016750,0.000000,0.015180,-0.015180,0.0000,0.0000,0.0000,-0.002362,0.003068,-0.004602,0.4714,0.4994,0.1917,0.000000,0.579845,-0.562971,0.564505,-0.590583,0.575243,-0.559903
1.3755,0.016756,0.000000,0.017519,-0.017519,0.0000,0.0000,0.0000,-0.002362,0.009204,-0.004602,0.4714,0.4994,0.1917,0.000000,0.579845,-0.562971,0.564505,-0.590583,0.575243,-0.559903
1.3922,0.016722,0.000000,0.019854,-0.019854,0.0000,0.0000,0.0000,-0.002362,0.009204,-0.004602,0.4714,0.4994,0.1917,0.000000,0.579845,-0.562971,0.564505,-0.590583,0.575243,-0.559903
1.4090,0.016757,0.000000,0.022194,-0.022194,0.0000,0.0000,0.0000,-0.002362,0.012272,-0.012272,0.4714,0.4994,0.1917,0.000000,0.579845,-0.562971,0.564505,-0.590583,0.575243,-0.559903
1.4257,0.016746,0.000000,0.024532,-0.024532,0.0000,0.0000,0.0000,-0.002351,0.013806,-0.015340,0.4820,0.5496,0.1385,0.000000,0.579845,-0.562971,0.564505,-0.592117,0.575243,-0.559903
1.4427,0.016956,0.000000,0.026900,-0.026900,0.0000,0.0000,0.0000,-0.002364,0.015340,-0.016874,0.4701,0.4936,0.1978,0.000000,0.579845,-0.562971,0.564505,-0.590583,0.575243,-0.559903
1.4594,0.016750,0.000000,0.029238,-0.029238,0.0000,0.0000,0.0000,-0.002362,0.015340,-0.016874,0.4714,0.4994,0.1916,0.000000,0.579845,-0.562971,0.564505,-0.590583,0.575243,-0.559903
1.4762,0.016761,0.000000,0.031579,-0.031579,0.0000,0.0000,0.0000,-0.002362,0.015340,-0.018408,0.4714,0.4994,0.1916,0.000000,0.579845,-0.562971,0.564505,-0.590583,0.575243,-0.559903
1.4929,0.016766,0.000000,0.033920,-0.033920,0.0000,0.0000,0.0000,-0.002362,0.015340,-0.018408,0.4714,0.4994,0.1916,0.000000,0.579845,-0.562971,0.564505,-0.590583,0.575243,-0.559903
1.5097,0.016763,0.000000,0.036260,-0.036260,0.0000,0.0000,0.0000,-0.002362,0.019942,-0.021476,0.4714,0.4994,0.1916,0.000000,0.579845,-0.562971,0.564505,-0.590583,0.575243,-0.559903
1.5265,0.016766,0.000000,0.038601,-0.038601,0.0000,0.0000,0.0000,-0.002362,0.030680,-0.026078,0.4714,0.4994,0.1916,0.000000,0.579845,-0.562971,0.564505,-0.590583,0.575243,-0.559903
1.5432,0.016768,0.000000,0.040942,-0.040942,0.0000,0.0000,0.0000,-0.002351,0.033748,-0.032214,0.4820,0.5496,0.1385,0.000000,0.579845,-0.562971,0.564505,-0.592117,0.575243,-0.559903
1.5601,0.016832,0.000000,0.043292,-0.043292,0.0000,0.0000,0.0000,-0.002364,0.029146,-0.035282,0.4701,0.4936,0.1978,0.000000,0.579845,-0.562971,0.564505,-0.590583,0.575243,-0.559903
1.5768,0.016768,0.000000,0.045634,-0.045634,0.0000,0.0000,0.0000,-0.002362,0.032214,-0.036816,0.4714,0.4994,0.1916,0.000000,0.579845,-0.562971,0.564505,-0.590583,0.575243,-0.559903
1.5936,0.016757,0.000000,0.047974,-0.047974,0.0000,0.0000,0.0000,-0.002362,0.032214,-0.036816,0.4714,0.4994,0.1916,0.000000,0.579845,-0.562971,0.564505,-0.590583,0.575243,-0.559903
1.6103,0.016728,0.000000,0.050309,-0.050309,0.0000,0.0000,0.0000,-0.002362,0.038350,-0.039884,0.4714,0.4994,0.1916,0.000000,0.579845,-0.562971,0.564505,-0.590583,0.575243,-0.559903
1.6271,0.016755,0.000000,0.052649,-0.052649,0.0000,0.0000,0.0000,-0.002351,0.044485,-0.042951,0.4820,0.5496,0.1385,0.000000,0.579845,-0.562971,0.564505,-0.592117,0.575243,-0.559903
1.6438,0.016750,0.000000,0.054987,-0.054987,0.0000,0.0000,0.0000,-0.002364,0.042951,-0.042951,0.4701,0.4936,0.1978,0.000000,0.579845,-0.562971,0.564505,-0.590583,0.575243,-0.559903
1.6606,0.016764,0.000000,0.057328,-0.057328,0.0000,0.0000,0.0000,-0.002362,0.041417,-0.046019,0.4714,0.4994,0.1916,0.000000,0.579845,-0.562971,0.564505,-0.590583,0.575243,-0.559903
1.6774,0.016772,0.000000,0.059670,-0.059670,0.0000,0.0000,0.0000,-0.002362,0.046019,-0.049087,0.4714,0.4994,0.1916,0.000000,0.579845,-0.562971,0.564505,-0.592117,0.575243,-0.559903
1.6941,0.016753,0.000000,0.062009,-0.062009,0.0000,0.0000,0.0000,-0.002351,0.046019,-0.049087,0.4820,0.5496,0.1385,0.000000,0.579845,-0.562971,0.564505,-0.592117,0.575243,-0.559903
1.7109,0.016754,0.000000,0.064348,-0.064348,0.0000,0.0000,0.0000,-0.002352,0.055223,-0.053689,0.4809,0.5444,0.1441,0.000000,0.579845,-0.562971,0.564505,-0.592117,0.575243,-0.559903
1.7277,0.016805,0.000000,0.066695,-0.066695,0.0000,0.0000,0.0000,-0.002363,0.059825,-0.056757,0.4703,0.4942,0.1972,0.000000,0.579845,-0.562971,0.564505,-0.590583,0.575243,-0.559903
1.7444,0.016773,0.000000,0.069037,-0.069037,0.0000,0.0000,0.0000,-0.002363,0.059825,-0.056757,0.4703,0.4942,0.1972,0.000000,0.579845,-0.562971,0.564505,-0.590583,0.575243,-0.559903
1.7612,0.016769,0.000000,0.071378,-0.071378,0.0000,0.0000,0.0000,-0.002362,0.056757,-0.061359,0.4714,0.4994,0.1917,0.000000,0.579845,-0.562971,0.564505,-0.590583,0.575243,-0.559903
1.7780,0.016757,0.000000,0.073718,-0.073718,0.0000,0.0000,0.0000,-0.002362,0.056757,-0.061359,0.4714,0.4994,0.1917,0.000000,0.579845,-0.562971,0.564505,-0.590583,0.575243,-0.559903
1.7947,0.016755,0.000000,0.076057,-0.076057,0.0000,0.0000,0.0000,-0.002362,0.061359,-0.065961,0.4714,0.4994,0.1917,0.000000,0.579845,-0.562971,0.564505,-0.590583,0.575243,-0.559903
1.8115,0.016753,0.000000,0.078396,-0.078396,0.0000,0.0000,0.0000,-0.002362,0.072097,-0.069029,0.4714,0.4994,0.1917,0.000000,0.579845,-0.562971,0.564505,-0.590583,0.575243,-0.559903
1.8282,0.016756,0.000000,0.080736,-0.080736,0.0000,0.0000,0.0000,-0.002351,0.070563,-0.072097,0.4820,0.5496,0.1385,0.000000,0.579845,-0.562971,0.564505,-0.592117,0.575243,-0.559903
1.8450,0.016759,0.000000,0.083076,-0.083076,0.0000,0.0000,0.0000,-0.002364,0.070563,-0.073631,0.4701,0.4936,0.1978,0.000000,0.579845,-0.562971,0.564505,-0.590583,0.575243,-0.559903
1.8618,0.016772,0.000000,0.085418,-0.085418,0.0000,0.0000,0.0000,-0.002364,0.070563,-0.073631,0.4701,0.4936,0.1978,0.000000,0.579845,-0.562971,0.564505,-0.590583,0.575243,-0.559903
1.8785,0.016752,0.000000,0.087757,-0.087757,0.0000,0.0000,0.0000,-0.002362,0.079767,-0.073631,0.4714,0.4994,0.1916,0.000000,0.579845,-0.562971,0.564505,-0.590583,0.575243,-0.559903
1.8953,0.016761,0.000000,0.090097,-0.090097,0.0000,0.0000,0.0000,-0.002351,0.085903,-0.075165,0.4820,0.5496,0.1385,0.000000,0.579845,-0.562971,0.564505,-0.592117,0.575243,-0.559903
1.9120,0.016773,0.000000,0.092439,-0.092439,0.0000,0.0000,0.0000,-0.002364,0.085903,-0.075165,0.4701,0.4936,0.1978,0.000000,0.579845,-0.562971,0.564505,-0.590583,0.575243,-0.559903
1.9288,0.016762,0.000000,0.094780,-0.094780,0.0000,0.0000,0.0000,-0.002362,0.081301,-0.075165,0.4714,0.4994,0.1916,0.000000,0.579845,-0.562971,0.564505,-0.590583,0.575243,-0.559903
1.9460,0.017190,0.000000,0.097180,-0.097180,0.0000,0.0000,0.0000,-0.002362,0.085903,-0.078233,0.4714,0.4994,0.1916,0.000000,0.579845,-0.562971,0.564505,-0.590583,0.575243,-0.559903
1.9628,0.016769,0.000000,0.099521,-0.099521,0.0000,0.0000,0.0000,-0.002362,0.085903,-0.078233,0.4714,0.4994,0.1916,0.000000,0.579845,-0.562971,0.564505,-0.590583,0.575243,-0.559903
1.9795,0.016756,0.000000,0.101861,-0.101861,0.0000,0.0000,0.0000,-0.002362,0.096641,-0.084369,0.4714,0.4994,0.1916,0.000000,0.579845,-0.562971,0.564505,-0.590583,0.575243,-0.559903
1.9963,0.016755,0.000000,0.104200,-0.104200,0.0000,0.0000,0.0000,-0.002362,0.095107,-0.090505,0.4714,0.4994,0.1916,0.000000,0.579845,-0.562971,0.564505,-0.590583,0.575243,-0.559903
2.0131,0.016775,0.000000,0.106542,-0.106542,0.0000,0.0000,0.0000,-0.002351,0.092039,-0.098175,0.4820,0.5496,0.1385,0.000000,0.579845,-0.562971,0.564505,-0.592117,0.575243,-0.559903
2.0298,0.016756,0.000000,0.108882,-0.108882,0.0000,0.0000,0.0000,-0.002364,0.096641,-0.101243,0.4701,0.4936,0.1978,0.000000,0.579845,-0.562971,0.564505,-0.590583,0.575243,-0.559903
2.0468,0.016988,0.000000,0.111254,-0.111254,0.0000,0.0000,0.0000,-0.002362,0.105845,-0.102777,0.4714,0.4994,0.1916,0.000000,0.579845,-0.562971,0.564505,-0.590583,0.575243,-0.559903
2.0636,0.016757,0.000000,0.113593,-0.113593,0.0000,0.0000,0.0000,-0.002362,0.105845,-0.102777,0.4714,0.4994,0.1916,0.000000,0.579845,-0.562971,0.564505,-0.590583,0.575243,-0.559903
2.0803,0.016751,0.000000,0.115932,-0.115932,0.0000,0.0000,0.0000,-0.002362,0.107379,-0.102777,0.4714,0.4994,0.1916,0.000000,0.579845,-0.562971,0.564505,-0.590583,0.575243,-0.559903
2.0971,0.016751,0.000000,0.118271,-0.118271,0.0000,0.0000,0.0000,-0.002351,0.105845,-0.104311,0.4820,0.5496,0.1385,0.000000,0.579845,-0.562971,0.564505,-0.592117,0.575243,-0.559903
2.1138,0.016753,0.000000,0.120610,-0.120610,0.0000,0.0000,0.0000,-0.002364,0.110447,-0.105845,0.4701,0.4936,0.1978,0.000000,0.579845,-0.562971,0.564505,-0.590583,0.575243,-0.559903
2.1306,0.016747,0.000000,0.122949,-0.122949,0.0000,0.0000,0.0000,-0.002362,0.121184,-0.111981,0.4714,0.4994,0.1916,0.000000,0.579845,-0.562971,0.564505,-0.590583,0.575243,-0.559903
2.1473,0.016771,0.000000,0.125290,-0.125290,0.0000,0.0000,0.0000,-0.002362,0.119651,-0.121184,0.4714,0.4994,0.1916,0.000000,0.579845,-0.562971,0.564505,-0.590583,0.575243,-0.559903
2.1641,0.016754,0.000000,0.127630,-0.127630,0.0000,0.0000,0.0000,-0.002362,0.119651,-0.121184,0.4714,0.4994,0.1916,0.000000,0.579845,-0.562971,0.564505,-0.590583,0.575243,-0.559903
2.1808,0.016748,0.000000,0.129968,-0.129968,0.0000,0.0000,0.0000,-0.002362,0.115049,-0.122718,0.4714,0.4994,0.1916,0.000000,0.579845,-0.562971,0.564505,-0.590583,0.575243,-0.559903
2.1976,0.016743,0.000000,0.132306,-0.132306,0.0000,0.0000,0.0000,-0.002362,0.119651,-0.124252,0.4714,0.4994,0.1916,0.000000,0.579845,-0.562971,0.564505,-0.590583,0.575243,-0.559903
2.2143,0.016752,0.000000,0.134645,-0.134645,0.0000,0.0000,0.0000,-0.002362,0.128854,-0.125786,0.4714,0.4994,0.1916,0.000000,0.579845,-0.562971,0.564505,-0.590583,0.575243,-0.559903
2.2311,0.016742,0.000000,0.136983,-0.136983,0.0000,0.0000,0.0000,-0.002362,0.130388,-0.128854,0.4714,0.4994,0.1916,0.000000,0.579845,-0.562971,0.564505,-0.590583,0.575243,-0.559903
2.2478,0.016708,0.000000,0.139316,-0.139316,0.0000,0.0000,0.0000,-0.002362,0.125786,-0.131922,0.4714,0.4994,0.1916,0.000000,0.579845,-0.562971,0.564505,-0.592117,0.575243,-0.559903
2.2645,0.016749,0.000000,0.141654,-0.141654,0.0000,0.0000,0.0000,-0.002351,0.125786,-0.131922,0.4820,0.5496,0.1385,0.000000,0.579845,-0.562971,0.564505,-0.592117,0.575243,-0.559903
2.2813,0.016744,0.000000,0.143992,-0.143992,0.0000,0.0000,0.0000,-0.002352,0.130388,-0.133456,0.4809,0.5444,0.1441,0.000000,0.579845,-0.562971,0.564505,-0.592117,0.575243,-0.559903
2.2980,0.016743,0.000000,0.146330,-0.146330,0.0000,0.0000,0.0000,-0.002363,0.139592,-0.136524,0.4703,0.4942,0.1972,0.000000,0.579845,-0.562971,0.564505,-0.590583,0.575243,-0.559903
2.3148,0.016747,0.000000,0.148668,-0.148668,0.0000,0.0000,0.0000,-0.002362,0.144194,-0.141126,0.4714,0.4994,0.1917,0.000000,0.579845,-0.562971,0.564505,-0.590583,0.575243,-0.559903
2.3315,0.016744,0.000000,0.151006,-0.151006,0.0000,0.0000,0.0000,-0.002362,0.142660,-0.145728,0.4714,0.4994,0.1917,0.000000,0.579845,-0.562971,0.564505,-0.590583,0.575243,-0.559903
2.3483,0.016761,0.000000,0.153346,-0.153346,0.0000,0.0000,0.0000,-0.002362,0.142660,-0.148796,0.4714,0.4994,0.1917,0.000000,0.579845,-0.562971,0.564505,-0.592117,0.575243,-0.559903
2.3650,0.016741,0.000000,0.155684,-0.155684,0.0000,0.0000,0.0000,-0.002351,0.142660,-0.148796,0.4820,0.5496,0.1385,0.000000,0.579845,-0.562971,0.564505,-0.592117,0.575243,-0.559903
2.3818,0.016755,0.000000,0.158023,-0.158023,0.0000,0.0000,0.0000,-0.002364,0.150330,-0.148796,0.4701,0.4936,0.1978,0.000000,0.579845,-0.562971,0.564505,-0.590583,0.575243,-0.559903
2.3985,0.016740,0.000000,0.160360,-0.160360,0.0000,0.0000,0.0000,-0.002362,0.151864,-0.151864,0.4714,0.4994,0.1916,0.000000,0.579845,-0.562971,0.564505,-0.590583,0.575243,-0.559903
2.4152,0.016749,0.000000,0.162699,-0.162699,0.0000,0.0000,0.0000,-0.002351,0.150330,-0.156466,0.4820,0.5496,0.1385,0.000000,0.579845,-0.562971,0.564505,-0.592117,0.575243,-0.559903
2.4320,0.016744,0.000000,0.165037,-0.165037,0.0000,0.0000,0.0000,-0.002364,0.151864,-0.161068,0.4701,0.4936,0.1978,0.000000,0.579845,-0.562971,0.564505,-0.590583,0.575243,-0.559903
2.4487,0.016742,0.000000,0.167375,-0.167375,0.0000,0.0000,0.0000,-0.002364,0.151864,-0.161068,0.4701,0.4936,0.1978,0.000000,0.579845,-0.562971,0.564505,-0.590583,0.575243,-0.559903
2.4655,0.016748,0.000000,0.169713,-0.169713,0.0000,0.0000,0.0000,-0.002362,0.161068,-0.161068,0.4714,0.4994,0.1916,0.000000,0.579845,-0.562971,0.564505,-0.590583,0.575243,-0.559903
2.4822,0.016748,0.000000,0.172052,-0.172052,0.0000,0.0000,0.0000,-0.002362,0.164136,-0.162602,0.4714,0.4994,0.1916,0.000000,0.579845,-0.562971,0.564505,-0.590583,0.575243,-0.559903
2.4990,0.016741,0.000000,0.174389,-0.174389,0.0000,0.0000,0.0000,-0.002351,0.164136,-0.165670,0.4820,0.5496,0.1385,0.000000,0.579845,-0.562971,0.564505,-0.592117,0.575243,-0.559903
2.5157,0.016746,0.000000,0.172339,-0.172339,0.0000,0.0000,0.0000,-0.002364,0.165670,-0.171806,0.4701,0.4936,0.1978,0.000000,0.579845,-0.562971,0.564505,-0.590583,0.575243,-0.559903
2.5329,0.017166,0.000000,0.169942,-0.169942,0.0000,0.0000,0.0000,-0.002362,0.177942,-0.174874,0.4714,0.4994,0.1916,0.000000,0.579845,-0.562971,0.564505,-0.590583,0.575243,-0.559903
2.5496,0.016746,0.000000,0.167604,-0.167604,0.0000,0.0000,0.0000,-0.002362,0.177942,-0.174874,0.4714,0.4994,0.1916,0.000000,0.579845,-0.562971,0.564505,-0.590583,0.575243,-0.559903
2.5664,0.016747,0.000000,0.165265,-0.165265,0.0000,0.0000,0.0000,-0.002362,0.176408,-0.174874,0.4714,0.4994,0.1916,0.000000,0.579845,-0.562971,0.564505,-0.590583,0.575243,-0.559903
2.5831,0.016741,0.000000,0.162928,-0.162928,0.0000,0.0000,0.0000,-0.002362,0.167204,-0.174874,0.4714,0.4994,0.1916,0.000000,0.579845,-0.562971,0.564505,-0.590583,0.575243,-0.559903
2.5999,0.016743,0.000000,0.160590,-0.160590,0.0000,0.0000,0.0000,-0.002362,0.167204,-0.173340,0.4714,0.4994,0.1916,0.000000,0.579845,-0.562971,0.564505,-0.590583,0.575243,-0.559903
2.6166,0.016747,0.000000,0.158252,-0.158252,0.0000,0.0000,0.0000,-0.002362,0.170272,-0.168738,0.4714,0.4994,0.1916,0.000000,0.579845,-0.562971,0.564505,-0.590583,0.575243,-0.559903
2.6334,0.016748,0.000000,0.155913,-0.155913,0.0000,0.0000,0.0000,-0.002362,0.167204,-0.167204,0.4714,0.4994,0.1916,0.000000,0.579845,-0.562971,0.564505,-0.590583,0.575243,-0.559903
2.6501,0.016740,0.000000,0.153576,-0.153576,0.0000,0.0000,0.0000,-0.002362,0.167204,-0.167204,0.4714,0.4994,0.1916,0.000000,0.579845,-0.562971,0.564505,-0.590583,0.575243,-0.559903
2.6668,0.016745,0.000000,0.151238,-0.151238,0.0000,0.0000,0.0000,-0.002351,0.162602,-0.165670,0.4820,0.5496,0.1385,0.000000,0.579845,-0.562971,0.564505,-0.592117,0.575243,-0.559903
2.6836,0.016741,0.000000,0.148900,-0.148900,0.0000,0.0000,0.0000,-0.002364,0.158000,-0.159534,0.4701,0.4936,0.1978,0.000000,0.579845,-0.562971,0.564505,-0.590583,0.575243,-0.559903
2.7003,0.016745,0.000000,0.146562,-0.146562,0.0000,0.0000,0.0000,-0.002362,0.154932,-0.158000,0.4714,0.4994,0.1916,0.000000,0.579845,-0.562971,0.564505,-0.590583,0.575243,-0.559903
2.7171,0.016743,0.000000,0.144225,-0.144225,0.0000,0.0000,0.0000,-0.002362,0.150330,-0.156466,0.4714,0.4994,0.1916,0.000000,0.579845,-0.562971,0.564505,-0.590583,0.575243,-0.559903
2.7338,0.016753,0.000000,0.141886,-0.141886,0.0000,0.0000,0.0000,-0.002362,0.150330,-0.156466,0.4714,0.4994,0.1916,0.000000,0.579845,-0.562971,0.564505,-0.590583,0.575243,-0.559903
2.7506,0.016743,0.000000,0.139548,-0.139548,0.0000,0.0000,0.0000,-0.002362,0.145728,-0.154932,0.4714,0.4994,0.1916,0.000000,0.579845,-0.562971,0.564505,-0.590583,0.575243,-0.559903
2.7673,0.016745,0.000000,0.137210,-0.137210,0.0000,0.0000,0.0000,-0.002362,0.145728,-0.151864,0.4714,0.4994,0.1916,0.000000,0.579845,-0.562971,0.564505,-0.590583,0.575243,-0.559903
2.7840,0.016741,0.000000,0.134872,-0.134872,0.0000,0.0000,0.0000,-0.002362,0.145728,-0.148796,0.4714,0.4994,0.1916,0.000000,0.579845,-0.562971,0.564505,-0.590583,0.575243,-0.559903
2.8008,0.016755,0.000000,0.132533,-0.132533,0.0000,0.0000,0.0000,-0.002351,0.144194,-0.147262,0.4820,0.5496,0.1385,0.000000,0.579845,-0.562971,0.564505,-0.592117,0.575243,-0.559903
2.8175,0.016745,0.000000,0.130195,-0.130195,0.0000,0.0000,0.0000,-0.002364,0.141126,-0.144194,0.4701,0.4936,0.1978,0.000000,0.579845,-0.562971,0.564505,-0.590583,0.575243,-0.559903
2.8343,0.016762,0.000000,0.127854,-0.127854,0.0000,0.0000,0.0000,-0.002364,0.138058,-0.142660,0.4701,0.4936,0.1978,0.000000,0.579845,-0.562971,0.564505,-0.592117,0.575243,-0.559903
2.8511,0.016743,0.000000,0.125517,-0.125517,0.0000,0.0000,0.0000,-0.002351,0.138058,-0.142660,0.4821,0.5502,0.1379,0.000000,0.579845,-0.562971,0.564505,-0.592117,0.575243,-0.559903
2.8678,0.016760,0.000000,0.123176,-0.123176,0.0000,0.0000,0.0000,-0.002364,0.130388,-0.138058,0.4701,0.4935,0.1978,0.000000,0.579845,-0.562971,0.564505,-0.590583,0.575243,-0.559903
2.8846,0.016780,0.000000,0.120834,-0.120834,0.0000,0.0000,0.0000,-0.002362,0.127320,-0.131922,0.4714,0.4994,0.1916,0.000000,0.579845,-0.562971,0.564505,-0.590583,0.575243,-0.559903
2.9013,0.016756,0.000000,0.118494,-0.118494,0.0000,0.0000,0.0000,-0.002362,0.124252,-0.125786,0.4714,0.4994,0.1916,0.000000,0.579845,-0.562971,0.564505,-0.590583,0.575243,-0.559903
2.9181,0.016742,0.000000,0.116156,-0.116156,0.0000,0.0000,0.0000,-0.002362,0.122718,-0.125786,0.4714,0.4994,0.1916,0.000000,0.579845,-0.562971,0.564505,-0.590583,0.575243,-0.559903
2.9349,0.016765,0.000000,0.113816,-0.113816,0.0000,0.0000,0.0000,-0.002362,0.122718,-0.125786,0.4714,0.4994,0.1916,0.000000,0.579845,-0.562971,0.564505,-0.590583,0.575243,-0.559903
2.9516,0.016746,0.000000,0.111477,-0.111477,0.0000,0.0000,0.0000,-0.002362,0.121184,-0.125786,0.4714,0.4994,0.1916,0.000000,0.579845,-0.562971,0.564505,-0.590583,0.575243,-0.559903
2.9693,0.017716,0.000000,0.109004,-0.109004,0.0000,0.0000,0.0000,-0.002351,0.118117,-0.122718,0.4820,0.5496,0.1385,0.000000,0.579845,-0.562971,0.564505,-0.592117,0.575243,-0.559903
2.9861,0.016745,0.000000,0.106666,-0.106666,0.0000,0.0000,0.0000,-0.002364,0.116583,-0.122718,0.4701,0.4936,0.1978,0.000000,0.579845,-0.562971,0.564505,-0.590583,0.575243,-0.559903
3.0028,0.016752,0.000000,0.104327,-0.104327,0.0000,0.0000,0.0000,-0.002362,0.113515,-0.121184,0.4714,0.4994,0.1916,0.000000,0.579845,-0.562971,0.564505,-0.590583,0.575243,-0.559903
3.0196,0.016747,0.000000,0.101988,-0.101988,0.0000,0.0000,0.0000,-0.002362,0.108913,-0.118117,0.4714,0.4994,0.1916,0.000000,0.579845,-0.562971,0.564505,-0.590583,0.575243,-0.559903
3.0363,0.016748,0.000000,0.099650,-0.099650,0.0000,0.0000,0.0000,-0.002362,0.105845,-0.115049,0.4714,0.4994,0.1916,0.000000,0.579845,-0.562971,0.564505,-0.590583,0.575243,-0.559903
3.0531,0.016748,0.000000,0.097311,-0.097311,0.0000,0.0000,0.0000,-0.002362,0.105845,-0.115049,0.4714,0.4994,0.1916,0.000000,0.579845,-0.562971,0.564505,-0.590583,0.575243,-0.559903
3.0698,0.016750,0.000000,0.094973,-0.094973,0.0000,0.0000,0.0000,-0.002362,0.104311,-0.113515,0.4714,0.4994,0.1916,0.000000,0.579845,-0.562971,0.564505,-0.590583,0.575243,-0.559903
3.0866,0.016746,0.000000,0.092635,-0.092635,0.0000,0.0000,0.0000,-0.002362,0.102777,-0.107379,0.4714,0.4994,0.1916,0.000000,0.579845,-0.562971,0.564505,-0.590583,0.575243,-0.559903
3.1033,0.016753,0.000000,0.090295,-0.090295,0.0000,0.0000,0.0000,-0.002362,0.099709,-0.099709,0.4714,0.4994,0.1916,0.000000,0.579845,-0.562971,0.564505,-0.590583,0.575243,-0.559903
3.1201,0.016752,0.000000,0.087956,-0.087956,0.0000,0.0000,0.0000,-0.002362,0.093573,-0.095107,0.4714,0.4994,0.1916,0.000000,0.579845,-0.562971,0.564505,-0.590583,0.575243,-0.559903
3.1377,0.017653,0.000000,0.085492,-0.085492,0.0000,0.0000,0.0000,-0.002362,0.090505,-0.093573,0.4714,0.4994,0.1916,0.000000,0.579845,-0.561437,0.564505,-0.592117,0.575243,-0.559903
3.1545,0.016741,0.000000,0.083154,-0.083154,0.0000,0.0000,0.0000,-0.002364,0.090505,-0.093573,0.4428,0.5852,0.1917,0.000000,0.579845,-0.561437,0.564505,-0.592117,0.575243,-0.559903
3.1712,0.016748,0.000000,0.080816,-0.080816,0.0000,0.0000,0.0000,-0.002362,0.090505,-0.092039,0.4742,0.4899,0.1922,0.000000,0.579845,-0.562971,0.564505,-0.590583,0.575243,-0.559903
3.1879,0.016740,0.000000,0.078478,-0.078478,0.0000,0.0000,0.0000,-0.002362,0.088971,-0.090505,0.4710,0.4998,0.1922,0.000000,0.579845,-0.562971,0.564505,-0.590583,0.575243,-0.559903
3.2047,0.016744,0.000000,0.076140,-0.076140,0.0000,0.0000,0.0000,-0.002362,0.085903,-0.087437,0.4714,0.4984,0.1922,0.000000,0.579845,-0.562971,0.564505,-0.590583,0.575243,-0.559903
3.2214,0.016745,0.000000,0.073802,-0.073802,0.0000,0.0000,0.0000,-0.002362,0.082835,-0.082835,0.4714,0.4984,0.1922,0.000000,0.579845,-0.562971,0.564505,-0.590583,0.575243,-0.559903
3.2382,0.016753,0.000000,0.071463,-0.071463,0.0000,0.0000,0.0000,-0.002362,0.082835,-0.082835,0.4714,0.4984,0.1922,0.000000,0.579845,-0.562971,0.564505,-0.590583,0.575243,-0.559903
3.2549,0.016744,0.000000,0.069125,-0.069125,0.0000,0.0000,0.0000,-0.002362,0.078233,-0.075165,0.4714,0.4984,0.1922,0.000000,0.579845,-0.562971,0.564505,-0.590583,0.575243,-0.559903
3.2717,0.016749,0.000000,0.066787,-0.066787,0.0000,0.0000,0.0000,-0.002362,0.073631,-0.076699,0.4714,0.4984,0.1922,0.000000,0.579845,-0.562971,0.564505,-0.590583,0.575243,-0.559903
3.2884,0.016742,0.000000,0.064449,-0.064449,0.0000,0.0000,0.0000,-0.002351,0.073631,-0.076699,0.4820,0.5497,0.1385,0.000000,0.579845,-0.562971,0.564505,-0.592117,0.575243,-0.559903
3.3052,0.016746,0.000000,0.062111,-0.062111,0.0000,0.0000,0.0000,-0.002352,0.070563,-0.070563,0.4809,0.5444,0.1441,0.000000,0.579845,-0.562971,0.564505,-0.592117,0.575243,-0.559903
3.3219,0.016748,0.000000,0.059772,-0.059772,0.0000,0.0000,0.0000,-0.002352,0.065961,-0.067495,0.4809,0.5444,0.1441,0.000000,0.579845,-0.562971,0.564505,-0.592117,0.575243,-0.559903
3.3387,0.016759,0.000000,0.057432,-0.057432,0.0000,0.0000,0.0000,-0.002352,0.065961,-0.067495,0.4809,0.5444,0.1441,0.000000,0.579845,-0.562971,0.564505,-0.592117,0.575243,-0.559903
3.3554,0.016745,0.000000,0.055094,-0.055094,0.0000,0.0000,0.0000,-0.002363,0.061359,-0.065961,0.4703,0.4942,0.1972,0.000000,0.579845,-0.562971,0.564505,-0.590583,0.575243,-0.559903
3.3722,0.016749,0.000000,0.052756,-0.052756,0.0000,0.0000,0.0000,-0.002362,0.061359,-0.065961,0.4714,0.4994,0.1917,0.000000,0.579845,-0.562971,0.564505,-0.590583,0.575243,-0.559903
3.3889,0.016741,0.000000,0.050418,-0.050418,0.0000,0.0000,0.0000,-0.002362,0.062893,-0.061359,0.4714,0.4994,0.1917,0.000000,0.579845,-0.562971,0.564505,-0.590583,0.575243,-0.559903
3.4057,0.016818,0.000000,0.048070,-0.048070,0.0000,0.0000,0.0000,-0.002351,0.059825,-0.055223,0.4820,0.5496,0.1385,0.000000,0.579845,-0.562971,0.564505,-0.592117,0.575243,-0.559903
3.4225,0.016739,0.000000,0.045733,-0.045733,0.0000,0.0000,0.0000,-0.002364,0.053689,-0.049087,0.4701,0.4936,0.1978,0.000000,0.579845,-0.562971,0.564505,-0.590583,0.575243,-0.559903
3.4392,0.016758,0.000000,0.043393,-0.043393,0.0000,0.0000,0.0000,-0.002364,0.053689,-0.049087,0.4701,0.4936,0.1978,0.000000,0.579845,-0.562971,0.564505,-0.590583,0.575243,-0.559903
3.4560,0.016744,0.000000,0.041055,-0.041055,0.0000,0.0000,0.0000,-0.002362,0.050621,-0.049087,0.4714,0.4994,0.1916,0.000000,0.579845,-0.562971,0.564505,-0.590583,0.575243,-0.559903
3.4727,0.016755,0.000000,0.038716,-0.038716,0.0000,0.0000,0.0000,-0.002362,0.047553,-0.050621,0.4714,0.4994,0.1916,0.000000,0.579845,-0.562971,0.564505,-0.590583,0.575243,-0.559903
3.4895,0.016738,0.000000,0.036379,-0.036379,0.0000,0.0000,0.0000,-0.002362,0.042951,-0.046019,0.4714,0.4994,0.1916,0.000000,0.579845,-0.562971,0.564505,-0.590583,0.575243,-0.559903
3.5062,0.016755,0.000000,0.034039,-0.034039,0.0000,0.0000,0.0000,-0.002362,0.042951,-0.042951,0.4714,0.4994,0.1916,0.000000,0.579845,-0.562971,0.564505,-0.590583,0.575243,-0.559903
3.5230,0.016740,0.000000,0.031702,-0.031702,0.0000,0.0000,0.0000,-0.002351,0.033748,-0.038350,0.4820,0.5496,0.1385,0.000000,0.579845,-0.562971,0.564505,-0.592117,0.575243,-0.559903
3.5397,0.016763,0.000000,0.029361,-0.029361,0.0000,0.0000,0.0000,-0.002351,0.033748,-0.038350,0.4820,0.5496,0.1385,0.000000,0.579845,-0.562971,0.564505,-0.592117,0.575243,-0.559903
3.5565,0.016742,0.000000,0.027024,-0.027024,0.0000,0.0000,0.0000,-0.002352,0.033748,-0.038350,0.4809,0.5444,0.1441,0.000000,0.579845,-0.562971,0.564505,-0.592117,0.575243,-0.559903
3.5732,0.016746,0.000000,0.024686,-0.024686,0.0000,0.0000,0.0000,-0.002363,0.035282,-0.033748,0.4703,0.4942,0.1972,0.000000,0.579845,-0.562971,0.564505,-0.590583,0.575243,-0.559903
3.5899,0.016745,0.000000,0.022348,-0.022348,0.0000,0.0000,0.0000,-0.002362,0.035282,-0.033748,0.4714,0.4994,0.1917,0.000000,0.579845,-0.562971,0.564505,-0.590583,0.575243,-0.559903
3.6067,0.016774,0.000000,0.020006,-0.020006,0.0000,0.0000,0.0000,-0.002362,0.030680,-0.029146,0.4714,0.4994,0.1917,0.000000,0.579845,-0.562971,0.564505,-0.590583,0.575243,-0.559903
3.6235,0.016742,0.000000,0.017668,-0.017668,0.0000,0.0000,0.0000,-0.002362,0.019942,-0.023010,0.4714,0.4994,0.1917,0.000000,0.579845,-0.562971,0.564505,-0.590583,0.575243,-0.559903
3.6402,0.016761,0.000000,0.015328,-0.015328,0.0000,0.0000,0.0000,-0.002362,0.019942,-0.023010,0.4714,0.4994,0.1917,0.000000,0.579845,-0.562971,0.564505,-0.590583,0.575243,-0.559903
3.6570,0.016749,0.000000,0.012989,-0.012989,0.0000,0.0000,0.0000,-0.002351,0.018408,-0.023010,0.4820,0.5496,0.1385,0.000000,0.579845,-0.562971,0.564505,-0.592117,0.575243,-0.559903
3.6737,0.016742,0.000000,0.010652,-0.010652,0.0000,0.0000,0.0000,-0.002364,0.018408,-0.018408,0.4701,0.4936,0.1978,0.000000,0.579845,-0.562971,0.564505,-0.590583,0.575243,-0.559903
3.6905,0.016741,0.000000,0.008314,-0.008314,0.0000,0.0000,0.0000,-0.002362,0.015340,-0.013806,0.4714,0.4994,0.1916,0.000000,0.579845,-0.562971,0.564505,-0.590583,0.575243,-0.559903
3.7072,0.016746,0.000000,0.005976,-0.005976,0.0000,0.0000,0.0000,-0.002349,0.007670,-0.012272,0.4217,0.4812,0.1388,0.000000,0.579845,-0.562971,0.564505,-0.590583,0.575243,-0.561437
3.7239,0.016746,0.000000,0.003638,-0.003638,0.0000,0.0000,0.0000,-0.002364,0.004602,-0.009204,0.4764,0.5007,0.1977,0.000000,0.579845,-0.562971,0.564505,-0.590583,0.575243,-0.559903
3.7407,0.016766,0.000000,0.001297,-0.001297,0.0000,0.0000,0.0000,-0.002364,0.004602,-0.009204,0.4764,0.5007,0.1977,0.000000,0.579845,-0.562971,0.564505,-0.590583,0.575243,-0.559903
3.7575,0.016745,0.000000,-0.001041,0.001041,0.0000,0.0000,0.0000,-0.002362,0.006136,-0.004602,0.4707,0.4987,0.1916,0.000000,0.579845,-0.562971,0.564505,-0.590583,0.575243,-0.559903
3.7742,0.016751,0.000000,-0.003380,0.003380,0.0000,0.0000,0.0000,-0.002362,0.006136,-0.004602,0.4707,0.4987,0.1916,0.000000,0.579845,-0.562971,0.564505,-0.590583,0.575243,-0.559903
3.7910,0.016744,0.000000,-0.005718,0.005718,0.0000,0.0000,0.0000,-0.002362,0.000000,-0.004602,0.4707,0.4987,0.1916,0.000000,0.579845,-0.562971,0.564505,-0.590583,0.575243,-0.559903
3.8077,0.016753,0.000000,-0.008057,0.008057,0.0000,0.0000,0.0000,-0.002362,-0.004602,-0.001534,0.4707,0.4987,0.1916,0.000000,0.579845,-0.562971,0.564505,-0.590583,0.575243,-0.559903
3.8247,0.017022,0.000000,-0.010434,0.010434,0.0000,0.0000,0.0000,-0.002362,-0.004602,0.003068,0.4707,0.4987,0.1916,0.000000,0.579845,-0.562971,0.564505,-0.590583,0.575243,-0.559903
3.8415,0.016765,0.000000,-0.012775,0.012775,0.0000,0.0000,0.0000,-0.002362,-0.004602,0.003068,0.4707,0.4987,0.1916,0.000000,0.579845,-0.562971,0.564505,-0.590583,0.575243,-0.559903
3.8582,0.016743,0.000000,-0.015112,0.015112,0.0000,0.0000,0.0000,-0.002362,-0.003068,0.009204,0.4707,0.4987,0.1916,0.000000,0.579845,-0.562971,0.564505,-0.590583,0.575243,-0.559903
3.8750,0.016748,0.000000,-0.017451,0.017451,0.0000,0.0000,0.0000,-0.002351,-0.007670,0.007670,0.4821,0.5497,0.1385,0.000000,0.579845,-0.562971,0.564505,-0.592117,0.575243,-0.559903
3.8931,0.018157,0.000000,-0.019986,0.019986,0.0000,0.0000,0.0000,-0.002352,-0.013806,0.006136,0.4809,0.5444,0.1441,0.000000,0.579845,-0.562971,0.564505,-0.592117,0.575243,-0.559903
3.9106,0.017452,0.000000,-0.022423,0.022423,0.0000,0.0000,0.0000,-0.002363,-0.018408,0.012272,0.4703,0.4942,0.1972,0.000000,0.579845,-0.562971,0.564505,-0.590583,0.575243,-0.559903
3.9273,0.016746,0.000000,-0.024761,0.024761,0.0000,0.0000,0.0000,-0.002362,-0.018408,0.019942,0.4714,0.4994,0.1917,0.000000,0.579845,-0.562971,0.564505,-0.590583,0.575243,-0.559903
3.9441,0.016782,0.000000,-0.027104,0.027104,0.0000,0.0000,0.0000,-0.002362,-0.018408,0.019942,0.4714,0.4994,0.1917,0.000000,0.579845,-0.562971,0.564505,-0.590583,0.575243,-0.559903
3.9609,0.016753,0.000000,-0.029443,0.029443,0.0000,0.0000,0.0000,-0.002362,-0.019942,0.019942,0.4714,0.4994,0.1917,0.000000,0.579845,-0.562971,0.564505,-0.590583,0.575243,-0.559903
3.9776,0.016750,0.000000,-0.031782,0.031782,0.0000,0.0000,0.0000,-0.002362,-0.024544,0.019942,0.4714,0.4994,0.1917,0.000000,0.579845,-0.562971,0.564505,-0.590583,0.575243,-0.559903
3.9944,0.016746,0.000000,-0.034120,0.034120,0.0000,0.0000,0.0000,-0.002362,-0.027612,0.024544,0.4714,0.4994,0.1917,0.000000,0.579845,-0.562971,0.564505,-0.590583,0.575243,-0.559903
4.0111,0.016766,0.000000,-0.036461,0.036461,0.0000,0.0000,0.0000,-0.002362,-0.027612,0.032214,0.4714,0.4994,0.1917,0.000000,0.579845,-0.562971,0.564505,-0.590583,0.575243,-0.559903
4.0279,0.016743,0.000000,-0.038799,0.038799,0.0000,0.0000,0.0000,-0.002362,-0.029146,0.033748,0.4714,0.4994,0.1917,0.000000,0.579845,-0.562971,0.564505,-0.590583,0.575243,-0.559903
4.0446,0.016758,0.000000,-0.041139,0.041139,0.0000,0.0000,0.0000,-0.002362,-0.029146,0.033748,0.4714,0.4994,0.1917,0.000000,0.579845,-0.562971,0.564505,-0.590583,0.575243,-0.559903
4.0614,0.016750,0.000000,-0.043478,0.043478,0.0000,0.0000,0.0000,-0.002351,-0.035282,0.032214,0.4820,0.5496,0.1385,0.000000,0.579845,-0.562971,0.564505,-0.592117,0.575243,-0.559903
4.0781,0.016755,0.000000,-0.045817,0.045817,0.0000,0.0000,0.0000,-0.002352,-0.041417,0.036816,0.4809,0.5444,0.1441,0.000000,0.579845,-0.562971,0.564505,-0.592117,0.575243,-0.559903
4.0949,0.016744,0.000000,-0.048155,0.048155,0.0000,0.0000,0.0000,-0.002363,-0.041417,0.039884,0.4703,0.4942,0.1972,0.000000,0.579845,-0.562971,0.564505,-0.590583,0.575243,-0.559903
4.1116,0.016745,0.000000,-0.050493,0.050493,0.0000,0.0000,0.0000,-0.002362,-0.041417,0.042951,0.4714,0.4994,0.1917,0.000000,0.579845,-0.562971,0.564505,-0.590583,0.575243,-0.559903
4.1284,0.016750,0.000000,-0.052832,0.052832,0.0000,0.0000,0.0000,-0.002362,-0.049087,0.044485,0.4714,0.4994,0.1917,0.000000,0.579845,-0.562971,0.564505,-0.590583,0.575243,-0.559903
4.1451,0.016747,0.000000,-0.055170,0.055170,0.0000,0.0000,0.0000,-0.002362,-0.049087,0.044485,0.4714,0.4994,0.1917,0.000000,0.579845,-0.562971,0.564505,-0.590583,0.575243,-0.559903
4.1619,0.016751,0.000000,-0.057509,0.057509,0.0000,0.0000,0.0000,-0.002362,-0.053689,0.046019,0.4714,0.4994,0.1917,0.000000,0.579845,-0.562971,0.564505,-0.590583,0.575243,-0.559903
4.1786,0.016743,0.000000,-0.059847,0.059847,0.0000,0.0000,0.0000,-0.002362,-0.050621,0.049087,0.4714,0.4994,0.1917,0.000000,0.579845,-0.562971,0.564505,-0.590583,0.575243,-0.559903
4.1954,0.016745,0.000000,-0.062185,0.062185,0.0000,0.0000,0.0000,-0.002362,-0.049087,0.050621,0.4714,0.4994,0.1917,0.000000,0.579845,-0.562971,0.564505,-0.590583,0.575243,-0.559903
4.2121,0.016746,0.000000,-0.064523,0.064523,0.0000,0.0000,0.0000,-0.002362,-0.056757,0.056757,0.4714,0.4994,0.1917,0.000000,0.579845,-0.562971,0.564505,-0.590583,0.575243,-0.559903
4.2289,0.016752,0.000000,-0.066862,0.066862,0.0000,0.0000,0.0000,-0.002362,-0.064427,0.064427,0.4714,0.4994,0.1917,0.000000,0.579845,-0.562971,0.564505,-0.590583,0.575243,-0.559903
4.2456,0.016744,0.000000,-0.069200,0.069200,0.0000,0.0000,0.0000,-0.002362,-0.064427,0.064427,0.4714,0.4994,0.1917,0.000000,0.579845,-0.562971,0.564505,-0.590583,0.575243,-0.559903
4.2624,0.016751,0.000000,-0.071539,0.071539,0.0000,0.0000,0.0000,-0.002362,-0.065961,0.062893,0.4714,0.4994,0.1917,0.000000,0.579845,-0.562971,0.564505,-0.590583,0.575243,-0.559903
4.2791,0.016743,0.000000,-0.073876,0.073876,0.0000,0.0000,0.0000,-0.002362,-0.061359,0.061359,0.4714,0.4994,0.1917,0.000000,0.579845,-0.562971,0.564505,-0.590583,0.575243,-0.559903
4.2958,0.016739,0.000000,-0.076214,0.076214,0.0000,0.0000,0.0000,-0.002362,-0.065961,0.069029,0.4714,0.4994,0.1917,0.000000,0.579845,-0.562971,0.564505,-0.590583,0.575243,-0.559903
4.3126,0.016747,0.000000,-0.078552,0.078552,0.0000,0.0000,0.0000,-0.002362,-0.076699,0.070563,0.4714,0.4994,0.1917,0.000000,0.579845,-0.562971,0.564505,-0.590583,0.575243,-0.559903
4.3294,0.016768,0.000000,-0.080893,0.080893,0.0000,0.0000,0.0000,-0.002349,-0.078233,0.070563,0.4217,0.4812,0.1388,0.000000,0.579845,-0.562971,0.564505,-0.590583,0.575243,-0.561437
4.3461,0.016743,0.000000,-0.083231,0.083231,0.0000,0.0000,0.0000,-0.002349,-0.078233,0.070563,0.4217,0.4812,0.1388,0.000000,0.579845,-0.562971,0.564505,-0.590583,0.575243,-0.561437
4.3628,0.016742,0.000000,-0.085569,0.085569,0.0000,0.0000,0.0000,-0.002364,-0.073631,0.072097,0.4764,0.5007,0.1977,0.000000,0.579845,-0.562971,0.564505,-0.590583,0.575243,-0.559903
4.3796,0.016741,0.000000,-0.087906,0.087906,0.0000,0.0000,0.0000,-0.002362,-0.076699,0.079767,0.4707,0.4987,0.1916,0.000000,0.579845,-0.562971,0.564505,-0.590583,0.575243,-0.559903
4.3963,0.016744,0.000000,-0.090244,0.090244,0.0000,0.0000,0.0000,-0.002338,-0.084369,0.079767,0.4325,0.5320,0.0850,0.000000,0.579845,-0.562971,0.564505,-0.592117,0.575243,-0.561437
4.4131,0.016746,0.000000,-0.092582,0.092582,0.0000,0.0000,0.0000,-0.002365,-0.085903,0.081301,0.4753,0.4954,0.2033,0.000000,0.579845,-0.562971,0.564505,-0.590583,0.575243,-0.559903
4.4303,0.017211,0.000000,-0.094985,0.094985,0.0000,0.0000,0.0000,-0.002362,-0.084369,0.092039,0.4708,0.4992,0.1910,0.000000,0.579845,-0.562971,0.564505,-0.590583,0.575243,-0.559903
4.4470,0.016740,0.000000,-0.097323,0.097323,0.0000,0.0000,0.0000,-0.002362,-0.084369,0.092039,0.4708,0.4992,0.1910,0.000000,0.579845,-0.562971,0.564505,-0.590583,0.575243,-0.559903
4.4638,0.016749,0.000000,-0.099661,0.099661,0.0000,0.0000,0.0000,-0.002362,-0.092039,0.092039,0.4715,0.4987,0.1927,0.000000,0.579845,-0.562971,0.564505,-0.590583,0.575243,-0.559903
4.4805,0.016741,0.000000,-0.101999,0.101999,0.0000,0.0000,0.0000,-0.002351,-0.096641,0.088971,0.4820,0.5497,0.1384,0.000000,0.579845,-0.562971,0.564505,-0.592117,0.575243,-0.559903
4.4973,0.016741,0.000000,-0.104336,0.104336,0.0000,0.0000,0.0000,-0.002364,-0.095107,0.095107,0.4701,0.4936,0.1978,0.000000,0.579845,-0.562971,0.564505,-0.590583,0.575243,-0.559903
4.5140,0.016743,0.000000,-0.106674,0.106674,0.0000,0.0000,0.0000,-0.002362,-0.096641,0.099709,0.4714,0.4994,0.1916,0.000000,0.579845,-0.562971,0.564505,-0.590583,0.575243,-0.559903
4.5307,0.016744,0.000000,-0.109012,0.109012,0.0000,0.0000,0.0000,-0.002362,-0.107379,0.099709,0.4714,0.4994,0.1916,0.000000,0.579845,-0.562971,0.564505,-0.590583,0.575243,-0.559903
4.5475,0.016744,0.000000,-0.111350,0.111350,0.0000,0.0000,0.0000,-0.002362,-0.107379,0.099709,0.4714,0.4994,0.1916,0.000000,0.579845,-0.562971,0.564505,-0.590583,0.575243,-0.559903
4.5642,0.016747,0.000000,-0.113688,0.113688,0.0000,0.0000,0.0000,-0.002362,-0.107379,0.101243,0.4714,0.4994,0.1916,0.000000,0.579845,-0.562971,0.564505,-0.590583,0.575243,-0.559903
4.5809,0.016707,0.000000,-0.116021,0.116021,0.0000,0.0000,0.0000,-0.002362,-0.105845,0.105845,0.4714,0.4994,0.1916,0.000000,0.579845,-0.562971,0.564505,-0.590583,0.575243,-0.559903
4.5977,0.016747,0.000000,-0.118359,0.118359,0.0000,0.0000,0.0000,-0.002362,-0.108913,0.108913,0.4714,0.4994,0.1916,0.000000,0.579845,-0.562971,0.564505,-0.590583,0.575243,-0.559903
4.6144,0.016745,0.000000,-0.120697,0.120697,0.0000,0.0000,0.0000,-0.002351,-0.118117,0.113515,0.4820,0.5496,0.1385,0.000000,0.579845,-0.562971,0.564505,-0.592117,0.575243,-0.559903
4.6313,0.016834,0.000000,-0.123048,0.123048,0.0000,0.0000,0.0000,-0.002364,-0.119651,0.119651,0.4701,0.4936,0.1978,0.000000,0.579845,-0.562971,0.564505,-0.590583,0.575243,-0.559903
4.6480,0.016740,0.000000,-0.125385,0.125385,0.0000,0.0000,0.0000,-0.002364,-0.119651,0.119651,0.4701,0.4936,0.1978,0.000000,0.579845,-0.562971,0.564505,-0.590583,0.575243,-0.559903
4.6648,0.016747,0.000000,-0.127723,0.127723,0.0000,0.0000,0.0000,-0.002362,-0.119651,0.118117,0.4714,0.4994,0.1916,0.000000,0.579845,-0.562971,0.564505,-0.590583,0.575243,-0.559903
4.6815,0.016743,0.000000,-0.130061,0.130061,0.0000,0.0000,0.0000,-0.002362,-0.121184,0.116583,0.4714,0.4994,0.1916,0.000000,0.579845,-0.562971,0.564505,-0.590583,0.575243,-0.559903
4.6982,0.016745,0.000000,-0.132399,0.132399,0.0000,0.0000,0.0000,-0.002351,-0.127320,0.124252,0.4820,0.5496,0.1385,0.000000,0.579845,-0.562971,0.564505,-0.592117,0.575243,-0.559903
4.7150,0.016746,0.000000,-0.134738,0.134738,0.0000,0.0000,0.0000,-0.002364,-0.130388,0.127320,0.4701,0.4936,0.1978,0.000000,0.579845,-0.562971,0.564505,-0.590583,0.575243,-0.559903
4.7321,0.017084,0.000000,-0.137123,0.137123,0.0000,0.0000,0.0000,-0.002351,-0.130388,0.127320,0.4821,0.5502,0.1379,0.000000,0.579845,-0.562971,0.564505,-0.592117,0.575243,-0.559903
4.7488,0.016706,0.000000,-0.139455,0.139455,0.0000,0.0000,0.0000,-0.002351,-0.130388,0.127320,0.4821,0.5502,0.1379,0.000000,0.579845,-0.562971,0.564505,-0.592117,0.575243,-0.559903
4.7655,0.016749,0.000000,-0.141794,0.141794,0.0000,0.0000,0.0000,-0.002352,-0.133456,0.130388,0.4809,0.5443,0.1441,0.000000,0.579845,-0.562971,0.564505,-0.592117,0.575243,-0.559903
4.7823,0.016745,0.000000,-0.144132,0.144132,0.0000,0.0000,0.0000,-0.002363,-0.138058,0.133456,0.4703,0.4942,0.1972,0.000000,0.579845,-0.562971,0.564505,-0.590583,0.575243,-0.559903
4.7990,0.016743,0.000000,-0.146470,0.146470,0.0000,0.0000,0.0000,-0.002362,-0.138058,0.134990,0.4714,0.4994,0.1917,0.000000,0.579845,-0.562971,0.564505,-0.590583,0.575243,-0.559903
4.8158,0.016742,0.000000,-0.148808,0.148808,0.0000,0.0000,0.0000,-0.002362,-0.139592,0.139592,0.4714,0.4994,0.1917,0.000000,0.579845,-0.562971,0.564505,-0.590583,0.575243,-0.559903
4.8332,0.017424,0.000000,-0.151240,0.151240,0.0000,0.0000,0.0000,-0.002362,-0.148796,0.145728,0.4714,0.4994,0.1917,0.000000,0.579845,-0.562971,0.564505,-0.590583,0.575243,-0.559903
4.8499,0.016744,0.000000,-0.153578,0.153578,0.0000,0.0000,0.0000,-0.002362,-0.148796,0.145728,0.4714,0.4994,0.1917,0.000000,0.579845,-0.562971,0.564505,-0.590583,0.575243,-0.559903
4.8667,0.016751,0.000000,-0.155917,0.155917,0.0000,0.0000,0.0000,-0.002362,-0.151864,0.145728,0.4714,0.4994,0.1917,0.000000,0.579845,-0.562971,0.564505,-0.590583,0.575243,-0.559903
4.8834,0.016744,0.000000,-0.158255,0.158255,0.0000,0.0000,0.0000,-0.002362,-0.150330,0.145728,0.4714,0.4994,0.1917,0.000000,0.579845,-0.562971,0.564505,-0.590583,0.575243,-0.559903
4.9002,0.016754,0.000000,-0.160594,0.160594,0.0000,0.0000,0.0000,-0.002362,-0.153398,0.151864,0.4714,0.4994,0.1917,0.000000,0.579845,-0.562971,0.564505,-0.590583,0.575243,-0.559903
4.9169,0.016741,0.000000,-0.162932,0.162932,0.0000,0.0000,0.0000,-0.002351,-0.159534,0.153398,0.4820,0.5496,0.1385,0.000000,0.579845,-0.562971,0.564505,-0.592117,0.575243,-0.559903
4.9337,0.016776,0.000000,-0.165274,0.165274,0.0000,0.0000,0.0000,-0.002364,-0.161068,0.153398,0.4701,0.4936,0.1978,0.000000,0.579845,-0.562971,0.564505,-0.590583,0.575243,-0.559903
4.9504,0.016744,0.000000,-0.167612,0.167612,0.0000,0.0000,0.0000,-0.002364,-0.161068,0.153398,0.4701,0.4936,0.1978,0.000000,0.579845,-0.562971,0.564505,-0.590583,0.575243,-0.559903
4.9673,0.016881,0.000000,-0.169969,0.169969,0.0000,0.0000,0.0000,-0.002362,-0.159534,0.159534,0.4714,0.4994,0.1916,0.000000,0.579845,-0.562971,0.564505,-0.590583,0.575243,-0.559903
4.9841,0.016746,0.000000,-0.172307,0.172307,0.0000,0.0000,0.0000,-0.002362,-0.165670,0.162602,0.4714,0.4994,0.1916,0.000000,0.579845,-0.562971,0.564505,-0.590583,0.575243,-0.559903
5.0008,0.016763,0.000000,-0.174418,0.174418,0.0000,0.0000,0.0000,-0.002362,-0.167204,0.161068,0.4714,0.4994,0.1916,0.000000,0.579845,-0.562971,0.564505,-0.590583,0.575243,-0.559903
5.0176,0.016746,0.000000,-0.172080,0.172080,0.0000,0.0000,0.0000,-0.002362,-0.167204,0.168738,0.4714,0.4994,0.1916,0.000000,0.579845,-0.562971,0.564505,-0.590583,0.575243,-0.559903
5.0343,0.016764,0.000000,-0.169739,0.169739,0.0000,0.0000,0.0000,-0.002362,-0.173340,0.173340,0.4714,0.4994,0.1916,0.000000,0.579845,-0.562971,0.564505,-0.590583,0.575243,-0.559903
5.0511,0.016748,0.000000,-0.167401,0.167401,0.0000,0.0000,0.0000,-0.002362,-0.173340,0.173340,0.4714,0.4994,0.1916,0.000000,0.579845,-0.562971,0.564505,-0.590583,0.575243,-0.559903
5.0678,0.016753,0.000000,-0.165062,0.165062,0.0000,0.0000,0.0000,-0.002351,-0.179476,0.173340,0.4820,0.5496,0.1385,0.000000,0.579845,-0.562971,0.564505,-0.592117,0.575243,-0.559903
5.0846,0.016741,0.000000,-0.162724,0.162724,0.0000,0.0000,0.0000,-0.002364,-0.177942,0.171806,0.4701,0.4936,0.1978,0.000000,0.579845,-0.562971,0.564505,-0.590583,0.575243,-0.559903
5.1013,0.016751,0.000000,-0.160385,0.160385,0.0000,0.0000,0.0000,-0.002362,-0.171806,0.171806,0.4714,0.4994,0.1916,0.000000,0.579845,-0.562971,0.564505,-0.590583,0.575243,-0.559903
5.1181,0.016743,0.000000,-0.158047,0.158047,0.0000,0.0000,0.0000,-0.002362,-0.168738,0.171806,0.4714,0.4994,0.1916,0.000000,0.579845,-0.562971,0.564505,-0.590583,0.575243,-0.559903
5.1356,0.017498,0.000000,-0.155604,0.155604,0.0000,0.0000,0.0000,-0.002362,-0.168738,0.171806,0.4714,0.4994,0.1916,0.000000,0.579845,-0.562971,0.564505,-0.590583,0.575243,-0.559903
5.1523,0.016745,0.000000,-0.153266,0.153266,0.0000,0.0000,0.0000,-0.002351,-0.162602,0.170272,0.4820,0.5496,0.1385,0.000000,0.579845,-0.562971,0.564505,-0.592117,0.575243,-0.559903
5.1691,0.016759,0.000000,-0.150926,0.150926,0.0000,0.0000,0.0000,-0.002364,-0.162602,0.168738,0.4701,0.4936,0.1978,0.000000,0.579845,-0.562971,0.564505,-0.590583,0.575243,-0.559903
5.1858,0.016742,0.000000,-0.148589,0.148589,0.0000,0.0000,0.0000,-0.002362,-0.162602,0.167204,0.4714,0.4994,0.1916,0.000000,0.579845,-0.562971,0.564505,-0.590583,0.575243,-0.559903
5.2026,0.016754,0.000000,-0.146249,0.146249,0.0000,0.0000,0.0000,-0.002362,-0.158000,0.162602,0.4714,0.4994,0.1916,0.000000,0.579845,-0.562971,0.564505,-0.590583,0.575243,-0.559903
5.2193,0.016744,0.000000,-0.143911,0.143911,0.0000,0.0000,0.0000,-0.002362,-0.154932,0.156466,0.4714,0.4994,0.1916,0.000000,0.579845,-0.562971,0.564505,-0.590583,0.575243,-0.559903
5.2361,0.016765,0.000000,-0.141570,0.141570,0.0000,0.0000,0.0000,-0.002362,-0.150330,0.150330,0.4714,0.4994,0.1916,0.000000,0.579845,-0.562971,0.564505,-0.592117,0.575243,-0.559903
5.2528,0.016749,0.000000,-0.139232,0.139232,0.0000,0.0000,0.0000,-0.002351,-0.150330,0.150330,0.4820,0.5496,0.1385,0.000000,0.579845,-0.562971,0.564505,-0.592117,0.575243,-0.559903
5.2696,0.016759,0.000000,-0.136892,0.136892,0.0000,0.0000,0.0000,-0.002364,-0.148796,0.145728,0.4701,0.4936,0.1978,0.000000,0.579845,-0.562971,0.564505,-0.590583,0.575243,-0.559903
5.2863,0.016743,0.000000,-0.134554,0.134554,0.0000,0.0000,0.0000,-0.002362,-0.148796,0.144194,0.4714,0.4994,0.1916,0.000000,0.579845,-0.562971,0.564505,-0.590583,0.575243,-0.559903
5.3031,0.016744,0.000000,-0.132216,0.132216,0.0000,0.0000,0.0000,-0.002362,-0.147262,0.144194,0.4714,0.4994,0.1916,0.000000,0.579845,-0.562971,0.564505,-0.590583,0.575243,-0.559903
5.3198,0.016742,0.000000,-0.129879,0.129879,0.0000,0.0000,0.0000,-0.002362,-0.147262,0.144194,0.4714,0.4994,0.1916,0.000000,0.579845,-0.562971,0.564505,-0.590583,0.575243,-0.559903
5.3366,0.016790,0.000000,-0.127534,0.127534,0.0000,0.0000,0.0000,-0.002362,-0.145728,0.144194,0.4714,0.4994,0.1916,0.000000,0.579845,-0.562971,0.564505,-0.590583,0.575243,-0.559903
5.3533,0.016742,0.000000,-0.125197,0.125197,0.0000,0.0000,0.0000,-0.002362,-0.145728,0.144194,0.4714,0.4994,0.1916,0.000000,0.579845,-0.562971,0.564505,-0.590583,0.575243,-0.559903
5.3701,0.016755,0.000000,-0.122857,0.122857,0.0000,0.0000,0.0000,-0.002362,-0.142660,0.142660,0.4714,0.4994,0.1916,0.000000,0.579845,-0.562971,0.564505,-0.590583,0.575243,-0.559903
5.3868,0.016744,0.000000,-0.120519,0.120519,0.0000,0.0000,0.0000,-0.002362,-0.136524,0.141126,0.4714,0.4994,0.1916,0.000000,0.579845,-0.562971,0.564505,-0.590583,0.575243,-0.559903
5.4036,0.016752,0.000000,-0.118180,0.118180,0.0000,0.0000,0.0000,-0.002362,-0.128854,0.134990,0.4714,0.4994,0.1916,0.000000,0.579845,-0.562971,0.564505,-0.590583,0.575243,-0.559903
5.4203,0.016743,0.000000,-0.115842,0.115842,0.0000,0.0000,0.0000,-0.002362,-0.124252,0.127320,0.4714,0.4994,0.1916,0.000000,0.579845,-0.562971,0.564505,-0.590583,0.575243,-0.559903
5.4371,0.016773,0.000000,-0.113500,0.113500,0.0000,0.0000,0.0000,-0.002362,-0.124252,0.127320,0.4714,0.4994,0.1916,0.000000,0.579845,-0.562971,0.564505,-0.590583,0.575243,-0.559903
5.4539,0.016744,0.000000,-0.111163,0.111163,0.0000,0.0000,0.0000,-0.002362,-0.122718,0.119651,0.4714,0.4994,0.1916,0.000000,0.579845,-0.562971,0.564505,-0.590583,0.575243,-0.559903
5.4706,0.016752,0.000000,-0.108824,0.108824,0.0000,0.0000,0.0000,-0.002362,-0.122718,0.118117,0.4714,0.4994,0.1916,0.000000,0.579845,-0.562971,0.564505,-0.590583,0.575243,-0.559903
5.4873,0.016738,0.000000,-0.106486,0.106486,0.0000,0.0000,0.0000,-0.002351,-0.121184,0.118117,0.4820,0.5496,0.1385,0.000000,0.579845,-0.562971,0.564505,-0.592117,0.575243,-0.559903
