t,loop_dt,cmd_z,cmd_ant_l,cmd_ant_r,cmd_roll,cmd_pitch,cmd_yaw,pres_z,pres_ant_l,pres_ant_r,pres_roll,pres_pitch,pres_yaw,pres_j0,pres_j1,pres_j2,pres_j3,pres_j4,pres_j5,pres_j6
0.0000,0.000001,0.000000,-1.745329,1.745329,0.0000,0.0000,0.0000,-0.002486,-1.506369,1.501767,0.4350,0.6821,0.2381,0.000000,0.572175,-0.561437,0.564505,-0.590583,0.575243,-0.552233
0.0168,0.016758,0.000000,-1.745037,1.745037,0.0000,0.0000,0.0000,-0.002486,-1.506369,1.501767,0.4350,0.6821,0.2381,0.000000,0.572175,-0.561437,0.564505,-0.590583,0.575243,-0.552233
0.0335,0.016761,0.000000,-1.744744,1.744744,0.0000,0.0000,0.0000,-0.002486,-1.535515,1.529379,0.4350,0.6821,0.2381,0.000000,0.572175,-0.561437,0.564505,-0.590583,0.575243,-0.552233
0.0503,0.016768,0.000000,-1.744452,1.744452,0.0000,0.0000,0.0000,-0.002473,-1.560058,1.555457,0.3851,0.6638,0.1854,0.000000,0.572175,-0.561437,0.564505,-0.590583,0.575243,-0.553767
0.0671,0.016763,0.000000,-1.744159,1.744159,0.0000,0.0000,0.0000,-0.002462,-1.610680,1.615282,0.4295,0.6301,0.1378,0.000000,0.572175,-0.562971,0.564505,-0.590583,0.575243,-0.553767
0.0838,0.016771,0.000000,-1.743866,1.743866,0.0000,0.0000,0.0000,-0.002476,-1.701185,1.702719,0.3857,0.6692,0.1959,0.000000,0.572175,-0.561437,0.564505,-0.590583,0.575243,-0.553767
0.1006,0.016767,0.000000,-1.743574,1.743574,0.0000,0.0000,0.0000,-0.002476,-1.701185,1.702719,0.3857,0.6692,0.1959,0.000000,0.572175,-0.561437,0.564505,-0.590583,0.575243,-0.553767
0.1173,0.016754,0.000000,-1.743281,1.743281,0.0000,0.0000,0.0000,-0.002476,-1.767146,1.767146,0.4505,0.7336,0.1894,0.000000,0.572175,-0.561437,0.564505,-0.592117,0.575243,-0.552233
0.1341,0.016759,0.000000,-1.742989,1.742989,0.0000,0.0000,0.0000,-0.002476,-1.796292,1.788622,0.4438,0.7269,0.1901,0.000000,0.572175,-0.561437,0.564505,-0.592117,0.575243,-0.552233
0.1509,0.016763,0.000000,-1.742696,1.742696,0.0000,0.0000,0.0000,-0.002462,-1.788622,1.782486,0.4234,0.6235,0.1373,0.000000,0.572175,-0.562971,0.564505,-0.590583,0.575243,-0.553767
0.1676,0.016762,0.000000,-1.742404,1.742404,0.0000,0.0000,0.0000,-0.002464,-1.773282,1.771748,0.3969,0.7207,0.1422,0.000000,0.572175,-0.561437,0.564505,-0.592117,0.575243,-0.553767
0.1844,0.016767,0.000000,-1.742111,1.742111,0.0000,0.0000,0.0000,-0.002451,-1.764078,1.767146,0.4388,0.6750,0.0885,0.000000,0.572175,-0.562971,0.564505,-0.592117,0.575243,-0.553767
0.2012,0.016761,0.000000,-1.741818,1.741818,0.0000,0.0000,0.0000,-0.002451,-1.764078,1.767146,0.4388,0.6750,0.0885,0.000000,0.572175,-0.562971,0.564505,-0.592117,0.575243,-0.553767
0.2179,0.016757,0.000000,-1.741526,1.741526,0.0000,0.0000,0.0000,-0.002453,-1.757942,1.768680,0.4344,0.6797,0.0941,0.000000,0.572175,-0.562971,0.564505,-0.592117,0.575243,-0.553767
0.2347,0.016759,0.000000,-1.741233,1.741233,0.0000,0.0000,0.0000,-0.002477,-1.757942,1.768680,0.3852,0.6641,0.2004,0.000000,0.572175,-0.561437,0.564505,-0.590583,0.575243,-0.553767
0.2514,0.016761,0.000000,-1.740941,1.740941,0.0000,0.0000,0.0000,-0.002474,-1.756408,1.767146,0.3903,0.6657,0.1893,0.000000,0.572175,-0.561437,0.564505,-0.590583,0.575243,-0.553767
0.2682,0.016752,0.000000,-1.740649,1.740649,0.0000,0.0000,0.0000,-0.002450,-1.754874,1.768680,0.4394,0.6807,0.0836,0.000000,0.572175,-0.562971,0.564505,-0.592117,0.575243,-0.553767
0.2849,0.016764,0.000000,-1.740356,1.740356,0.0000,0.0000,0.0000,-0.002477,-1.754874,1.767146,0.3847,0.6640,0.2015,0.000000,0.572175,-0.561437,0.564505,-0.590583,0.575243,-0.553767
0.3017,0.016749,0.000000,-1.740064,1.740064,0.0000,0.0000,0.0000,-0.002477,-1.754874,1.767146,0.3847,0.6640,0.2015,0.000000,0.572175,-0.561437,0.564505,-0.590583,0.575243,-0.553767
0.3184,0.016749,0.000000,-1.739771,1.739771,0.0000,0.0000,0.0000,-0.002474,-1.754874,1.767146,0.3904,0.6657,0.1892,0.000000,0.572175,-0.561437,0.564505,-0.590583,0.575243,-0.553767
0.3352,0.016755,0.000000,-1.739479,1.739479,0.0000,0.0000,0.0000,-0.002450,-1.754874,1.767146,0.4394,0.6807,0.0836,0.000000,0.572175,-0.562971,0.564505,-0.592117,0.575243,-0.553767
0.3520,0.016764,0.000000,-1.739186,1.739186,0.0000,0.0000,0.0000,-0.002465,-1.754874,1.768680,0.3952,0.7147,0.1478,0.000000,0.572175,-0.561437,0.564505,-0.592117,0.575243,-0.553767
0.3687,0.016763,0.000000,-1.738894,1.738894,0.0000,0.0000,0.0000,-0.002451,-1.754874,1.768680,0.4389,0.6756,0.0880,0.000000,0.572175,-0.562971,0.564505,-0.592117,0.575243,-0.553767
0.3855,0.016774,0.000000,-1.738601,1.738601,0.0000,0.0000,0.0000,-0.002451,-1.754874,1.767146,0.4389,0.6756,0.0880,0.000000,0.572175,-0.561437,0.564505,-0.590583,0.575243,-0.553767
0.4023,0.016761,0.000000,-1.738308,1.738308,0.0000,0.0000,0.0000,-0.002477,-1.754874,1.767146,0.3847,0.6645,0.2010,0.000000,0.572175,-0.561437,0.564505,-0.590583,0.575243,-0.553767
0.4190,0.016755,0.000000,-1.738016,1.738016,0.0000,0.0000,0.0000,-0.002424,-1.754874,1.768680,0.3407,0.6456,-0.0244,0.000000,0.572175,-0.562971,0.564505,-0.592117,0.575243,-0.556835
0.4358,0.016782,0.000000,-1.737723,1.737723,0.0000,0.0000,0.0000,-0.002441,-1.754874,1.767146,0.3347,0.5969,0.0528,0.000000,0.572175,-0.562971,0.564505,-0.590583,0.575243,-0.556835
0.4526,0.016759,0.000000,-1.737431,1.737431,0.0000,0.0000,0.0000,-0.002452,-1.754874,1.768680,0.2963,0.6375,0.0979,0.000000,0.572175,-0.561437,0.564505,-0.590583,0.575243,-0.556835
0.4693,0.016745,0.000000,-1.737138,1.737138,0.0000,0.0000,0.0000,-0.002451,-1.754874,1.768680,0.3002,0.6332,0.0932,0.000000,0.572175,-0.561437,0.564505,-0.590583,0.575243,-0.556835
0.4861,0.016778,0.000000,-1.736845,1.736845,0.0000,0.0000,0.0000,-0.002451,-1.754874,1.768680,0.3002,0.6332,0.0932,0.000000,0.572175,-0.561437,0.564505,-0.590583,0.575243,-0.556835
0.5028,0.016744,0.000000,-1.736553,1.736553,0.0000,0.0000,0.0000,-0.002439,-1.754874,1.767146,0.3104,0.6845,0.0399,0.000000,0.572175,-0.561437,0.564505,-0.592117,0.575243,-0.556835
0.5196,0.016752,0.000000,-1.736261,1.736261,0.0000,0.0000,0.0000,-0.002440,-1.754874,1.767146,0.3094,0.6791,0.0455,0.000000,0.572175,-0.561437,0.564505,-0.592117,0.575243,-0.556835
0.5363,0.016744,0.000000,-1.735969,1.735969,0.0000,0.0000,0.0000,-0.002428,-1.754874,1.767146,0.3486,0.6441,-0.0082,0.000000,0.572175,-0.562971,0.564505,-0.592117,0.575243,-0.556835
0.5531,0.016750,0.000000,-1.735676,1.735676,0.0000,0.0000,0.0000,-0.002440,-1.754874,1.768680,0.3339,0.5970,0.0512,0.000000,0.572175,-0.562971,0.564505,-0.590583,0.575243,-0.556835
0.5698,0.016750,0.000000,-1.735384,1.735384,0.0000,0.0000,0.0000,-0.002439,-1.754874,1.767146,0.3354,0.6019,0.0450,0.000000,0.572175,-0.562971,0.564505,-0.590583,0.575243,-0.556835
0.5866,0.016769,0.000000,-1.735091,1.735091,0.0000,0.0000,0.0000,-0.002439,-1.754874,1.767146,0.3354,0.6019,0.0450,0.000000,0.572175,-0.562971,0.564505,-0.590583,0.575243,-0.556835
0.6033,0.016746,0.000000,-1.734799,1.734799,0.0000,0.0000,0.0000,-0.002452,-1.754874,1.768680,0.2962,0.6369,0.0987,0.000000,0.572175,-0.561437,0.564505,-0.590583,0.575243,-0.556835
0.6201,0.016750,0.000000,-1.734507,1.734507,0.0000,0.0000,0.0000,-0.002426,-1.754874,1.767146,0.3500,0.6486,-0.0138,0.000000,0.572175,-0.562971,0.564505,-0.592117,0.575243,-0.556835
0.6368,0.016746,0.000000,-1.734214,1.734214,0.0000,0.0000,0.0000,-0.002442,-1.754874,1.767146,0.3053,0.6829,0.0511,0.000000,0.572175,-0.561437,0.564505,-0.592117,0.575243,-0.556835
0.6539,0.017064,0.000000,-1.733917,1.733917,0.0000,0.0000,0.0000,-0.002416,-1.754874,1.768680,0.3990,0.6281,0.0449,0.000000,0.573709,-0.562971,0.564505,-0.592117,0.575243,-0.556835
0.6706,0.016743,0.000000,-1.733624,1.733624,0.0000,0.0000,0.0000,-0.002418,-1.754874,1.767146,0.4285,0.5674,0.1531,0.000000,0.575243,-0.562971,0.564505,-0.590583,0.575243,-0.556835
0.6874,0.016758,0.000000,-1.733332,1.733332,0.0000,0.0000,0.0000,-0.002418,-1.754874,1.767146,0.4285,0.5674,0.1531,0.000000,0.575243,-0.562971,0.564505,-0.590583,0.575243,-0.556835
0.7041,0.016743,0.000000,-1.733040,1.733040,0.0000,0.0000,0.0000,-0.002406,-1.754874,1.767146,0.4753,0.5582,0.1955,0.000000,0.576777,-0.562971,0.564505,-0.590583,0.575243,-0.556835
0.7209,0.016745,0.000000,-1.732747,1.732747,0.0000,0.0000,0.0000,-0.002420,-1.753340,1.767146,0.4312,0.5947,0.2443,0.000000,0.576777,-0.561437,0.564505,-0.590583,0.575243,-0.556835
0.7376,0.016747,0.000000,-1.732455,1.732455,0.0000,0.0000,0.0000,-0.002419,-1.753340,1.767146,0.4358,0.5909,0.2392,0.000000,0.576777,-0.561437,0.564505,-0.590583,0.575243,-0.556835
0.7544,0.016741,0.000000,-1.732163,1.732163,0.0000,0.0000,0.0000,-0.002395,-1.754874,1.767146,0.4852,0.6065,0.1329,0.000000,0.576777,-0.562971,0.564505,-0.592117,0.575243,-0.556835
0.7711,0.016743,0.000000,-1.731871,1.731871,0.0000,0.0000,0.0000,-0.002410,-1.754874,1.768680,0.4409,0.6405,0.1971,0.000000,0.576777,-0.561437,0.564505,-0.592117,0.575243,-0.556835
0.7879,0.016747,0.000000,-1.731578,1.731578,0.0000,0.0000,0.0000,-0.002410,-1.754874,1.768680,0.4409,0.6405,0.1971,0.000000,0.576777,-0.561437,0.564505,-0.592117,0.575243,-0.556835
0.8046,0.016746,0.000000,-1.731286,1.731286,0.0000,0.0000,0.0000,-0.002408,-1.753340,1.768680,0.4455,0.6369,0.1904,0.000000,0.576777,-0.561437,0.564505,-0.592117,0.575243,-0.556835
0.8214,0.016781,0.000000,-1.730993,1.730993,0.0000,0.0000,0.0000,-0.002407,-1.754874,1.767146,0.4735,0.5509,0.1916,0.000000,0.576777,-0.562971,0.564505,-0.590583,0.575243,-0.556835
0.8381,0.016741,0.000000,-1.730701,1.730701,0.0000,0.0000,0.0000,-0.002396,-1.754874,1.767146,0.5205,0.5444,0.2453,0.000000,0.578311,-0.562971,0.564505,-0.590583,0.575243,-0.556835
0.8549,0.016740,0.000000,-1.730409,1.730409,0.0000,0.0000,0.0000,-0.002410,-1.753340,1.767146,0.4763,0.5806,0.2929,0.000000,0.578311,-0.561437,0.564505,-0.590583,0.575243,-0.556835
0.8720,0.017113,0.000000,-1.730110,1.730110,0.0000,0.0000,0.0000,-0.002384,-1.753340,1.767146,0.5308,0.5921,0.1811,0.000000,0.578311,-0.562971,0.564505,-0.592117,0.575243,-0.556835
0.8887,0.016748,0.000000,-1.729818,1.729818,0.0000,0.0000,0.0000,-0.002384,-1.753340,1.767146,0.5308,0.5921,0.1811,0.000000,0.578311,-0.562971,0.564505,-0.592117,0.575243,-0.556835
0.9055,0.016745,0.000000,-1.729526,1.729526,0.0000,0.0000,0.0000,-0.002398,-1.754874,1.768680,0.5145,0.5401,0.2464,0.000000,0.578311,-0.562971,0.564505,-0.590583,0.575243,-0.556835
0.9222,0.016742,0.000000,-1.729233,1.729233,0.0000,0.0000,0.0000,-0.002397,-1.754874,1.768680,0.5162,0.5455,0.2396,0.000000,0.578311,-0.562971,0.564505,-0.590583,0.575243,-0.556835
0.9390,0.016799,0.000000,-1.728940,1.728940,0.0000,0.0000,0.0000,-0.002397,-1.753340,1.768680,0.5162,0.5455,0.2396,0.000000,0.578311,-0.562971,0.564505,-0.590583,0.575243,-0.556835
0.9558,0.016760,0.000000,-1.728648,1.728648,0.0000,0.0000,0.0000,-0.002398,-1.753340,1.767146,0.4875,0.6314,0.2398,0.000000,0.578311,-0.561437,0.564505,-0.592117,0.575243,-0.556835
0.9725,0.016757,0.000000,-1.728355,1.728355,0.0000,0.0000,0.0000,-0.002385,-1.753340,1.767146,0.5297,0.5868,0.1866,0.000000,0.578311,-0.562971,0.564505,-0.592117,0.575243,-0.556835
0.9893,0.016744,0.000000,-1.728063,1.728063,0.0000,0.0000,0.0000,-0.002385,-1.753340,1.767146,0.5297,0.5868,0.1866,0.000000,0.578311,-0.562971,0.564505,-0.592117,0.575243,-0.556835
1.0060,0.016742,0.000000,-1.727771,1.727771,0.0000,0.0000,0.0000,-0.002398,-1.754874,1.767146,0.5146,0.5407,0.2458,0.000000,0.578311,-0.562971,0.564505,-0.590583,0.575243,-0.556835
1.0228,0.016742,0.000000,-1.727479,1.727479,0.0000,0.0000,0.0000,-0.002397,-1.754874,1.767146,0.5162,0.5454,0.2397,0.000000,0.578311,-0.562971,0.564505,-0.590583,0.575243,-0.556835
1.0395,0.016746,0.000000,-1.727186,1.727186,0.0000,0.0000,0.0000,-0.002398,-1.753340,1.767146,0.4875,0.6314,0.2398,0.000000,0.578311,-0.561437,0.564505,-0.592117,0.575243,-0.556835
1.0563,0.016755,0.000000,-1.726894,1.726894,0.0000,0.0000,0.0000,-0.002385,-1.754874,1.768680,0.5297,0.5868,0.1866,0.000000,0.578311,-0.562971,0.564505,-0.592117,0.575243,-0.556835
1.0730,0.016747,0.000000,-1.726602,1.726602,0.0000,0.0000,0.0000,-0.002385,-1.754874,1.768680,0.5297,0.5868,0.1866,0.000000,0.578311,-0.562971,0.564505,-0.592117,0.575243,-0.556835
1.0898,0.016741,0.000000,-1.726309,1.726309,0.0000,0.0000,0.0000,-0.002398,-1.753340,1.767146,0.5146,0.5407,0.2458,0.000000,0.578311,-0.562971,0.564505,-0.590583,0.575243,-0.556835
1.1065,0.016748,0.000000,-1.726017,1.726017,0.0000,0.0000,0.0000,-0.002398,-1.753340,1.768680,0.4876,0.6319,0.2391,0.000000,0.578311,-0.561437,0.564505,-0.592117,0.575243,-0.556835
1.1232,0.016742,0.000000,-1.725725,1.725725,0.0000,0.0000,0.0000,-0.002385,-1.753340,1.767146,0.5297,0.5867,0.1867,0.000000,0.578311,-0.562971,0.564505,-0.592117,0.575243,-0.556835
1.1400,0.016743,0.000000,-1.725433,1.725433,0.0000,0.0000,0.0000,-0.002399,-1.753340,1.767146,0.4861,0.6271,0.2453,0.000000,0.578311,-0.561437,0.564505,-0.592117,0.575243,-0.556835
1.1567,0.016751,0.000000,-1.725140,1.725140,0.0000,0.0000,0.0000,-0.002399,-1.753340,1.767146,0.4861,0.6271,0.2453,0.000000,0.578311,-0.561437,0.564505,-0.592117,0.575243,-0.556835
1.1735,0.016756,0.000000,-1.724848,1.724848,0.0000,0.0000,0.0000,-0.002385,-1.753340,1.767146,0.5298,0.5873,0.1860,0.000000,0.578311,-0.562971,0.564505,-0.592117,0.575243,-0.556835
1.1902,0.016742,0.000000,-1.724556,1.724556,0.0000,0.0000,0.0000,-0.002386,-1.753340,1.767146,0.5252,0.5914,0.1922,0.000000,0.578311,-0.562971,0.564505,-0.592117,0.575243,-0.556835
1.2070,0.016755,0.000000,-1.724263,1.724263,0.0000,0.0000,0.0000,-0.002386,-1.753340,1.767146,0.5252,0.5914,0.1922,0.000000,0.578311,-0.562971,0.564505,-0.592117,0.575243,-0.556835
1.2237,0.016747,0.000000,-1.723971,1.723971,0.0000,0.0000,0.0000,-0.002399,-1.753340,1.767146,0.4865,0.6266,0.2447,0.000000,0.578311,-0.561437,0.564505,-0.592117,0.575243,-0.556835
1.2405,0.016758,0.000000,-1.723679,1.723679,0.0000,0.0000,0.0000,-0.002385,-1.753340,1.767146,0.5298,0.5873,0.1861,0.000000,0.578311,-0.562971,0.564505,-0.592117,0.575243,-0.556835
1.2572,0.016742,0.000000,-1.723386,1.723386,0.0000,0.0000,0.0000,-0.002385,-1.753340,1.767146,0.5298,0.5873,0.1861,0.000000,0.578311,-0.562971,0.564505,-0.592117,0.575243,-0.556835
1.2740,0.016753,0.000000,-1.723094,1.723094,0.0000,0.0000,0.0000,-0.002398,-1.753340,1.767146,0.5146,0.5406,0.2459,0.000000,0.578311,-0.562971,0.564505,-0.590583,0.575243,-0.556835
1.2907,0.016732,0.000000,-1.722802,1.722802,0.0000,0.0000,0.0000,-0.002397,-1.753340,1.768680,0.5162,0.5455,0.2396,0.000000,0.578311,-0.562971,0.564505,-0.590583,0.575243,-0.556835
1.3075,0.016745,0.000000,-1.722510,1.722510,0.0000,0.0000,0.0000,-0.002385,-1.753340,1.767146,0.5267,0.5958,0.1866,0.000000,0.578311,-0.562971,0.564505,-0.592117,0.575243,-0.556835
1.3242,0.016748,0.000000,-1.722217,1.722217,0.0000,0.0000,0.0000,-0.002398,-1.753340,1.767146,0.5149,0.5397,0.2458,0.000000,0.578311,-0.562971,0.564505,-0.590583,0.575243,-0.556835
1.3410,0.016768,0.000000,-1.721925,1.721925,0.0000,0.0000,0.0000,-0.002409,-1.753340,1.767146,0.4769,0.5811,0.2928,0.000000,0.578311,-0.561437,0.564505,-0.590583,0.575243,-0.556835
1.3577,0.016742,0.000000,-1.721632,1.721632,0.0000,0.0000,0.0000,-0.002409,-1.753340,1.767146,0.4769,0.5811,0.2928,0.000000,0.578311,-0.561437,0.564505,-0.590583,0.575243,-0.556835
1.3745,0.016756,0.000000,-1.721340,1.721340,0.0000,0.0000,0.0000,-0.002408,-1.753340,1.767146,0.4809,0.5768,0.2880,0.000000,0.578311,-0.561437,0.564505,-0.590583,0.575243,-0.556835
1.3912,0.016742,0.000000,-1.721048,1.721048,0.0000,0.0000,0.0000,-0.002395,-1.753340,1.767146,0.5197,0.5417,0.2353,0.000000,0.578311,-0.562971,0.564505,-0.590583,0.575243,-0.556835
1.4080,0.016764,0.000000,-1.720755,1.720755,0.0000,0.0000,0.0000,-0.002385,-1.753340,1.768680,0.5263,0.5962,0.1871,0.000000,0.578311,-0.562971,0.564505,-0.592117,0.575243,-0.556835
1.4247,0.016747,0.000000,-1.720463,1.720463,0.0000,0.0000,0.0000,-0.002399,-1.753340,1.767146,0.4864,0.6261,0.2453,0.000000,0.578311,-0.561437,0.564505,-0.592117,0.575243,-0.556835
1.4417,0.016922,0.000000,-1.720168,1.720168,0.0000,0.0000,0.0000,-0.002398,-1.753340,1.767146,0.4906,0.6230,0.2392,0.000000,0.578311,-0.561437,0.564505,-0.592117,0.575243,-0.556835
1.4584,0.016742,0.000000,-1.719875,1.719875,0.0000,0.0000,0.0000,-0.002398,-1.753340,1.767146,0.4906,0.6230,0.2392,0.000000,0.578311,-0.561437,0.564505,-0.592117,0.575243,-0.556835
1.4752,0.016755,0.000000,-1.719583,1.719583,0.0000,0.0000,0.0000,-0.002385,-1.753340,1.767146,0.5293,0.5877,0.1867,0.000000,0.578311,-0.562971,0.564505,-0.592117,0.575243,-0.556835
1.4919,0.016745,0.000000,-1.719291,1.719291,0.0000,0.0000,0.0000,-0.002411,-1.753340,1.767146,0.4754,0.5762,0.2990,0.000000,0.578311,-0.561437,0.564505,-0.590583,0.575243,-0.556835
1.5087,0.016758,0.000000,-1.718998,1.718998,0.0000,0.0000,0.0000,-0.002395,-1.751806,1.767146,0.5203,0.5417,0.2341,0.000000,0.578311,-0.562971,0.564505,-0.590583,0.575243,-0.556835
1.5254,0.016743,0.000000,-1.718706,1.718706,0.0000,0.0000,0.0000,-0.002398,-1.751806,1.767146,0.4870,0.6318,0.2404,0.000000,0.578311,-0.561437,0.564505,-0.592117,0.575243,-0.556835
1.5429,0.017465,0.000000,-1.718401,1.718401,0.0000,0.0000,0.0000,-0.002398,-1.751806,1.767146,0.4870,0.6318,0.2404,0.000000,0.578311,-0.561437,0.564505,-0.592117,0.575243,-0.556835
1.5596,0.016745,0.000000,-1.718109,1.718109,0.0000,0.0000,0.0000,-0.002396,-1.750272,1.767146,0.5190,0.5360,0.2402,0.000000,0.578311,-0.562971,0.564505,-0.590583,0.575243,-0.556835
1.5764,0.016765,0.000000,-1.717816,1.717816,0.0000,0.0000,0.0000,-0.002409,-1.750272,1.767146,0.4765,0.5815,0.2934,0.000000,0.578311,-0.561437,0.564505,-0.590583,0.575243,-0.556835
1.5931,0.016743,0.000000,-1.717524,1.717524,0.0000,0.0000,0.0000,-0.002397,-1.750272,1.767146,0.4916,0.6276,0.2342,0.000000,0.578311,-0.561437,0.564505,-0.592117,0.575243,-0.556835
1.6099,0.016752,0.000000,-1.717232,1.717232,0.0000,0.0000,0.0000,-0.002398,-1.750272,1.767146,0.4900,0.6228,0.2404,0.000000,0.578311,-0.561437,0.564505,-0.592117,0.575243,-0.556835
1.6266,0.016747,0.000000,-1.716939,1.716939,0.0000,0.0000,0.0000,-0.002409,-1.750272,1.767146,0.4795,0.5725,0.2934,0.000000,0.578311,-0.561437,0.564505,-0.590583,0.575243,-0.556835
1.6434,0.016758,0.000000,-1.716647,1.716647,0.0000,0.0000,0.0000,-0.002409,-1.750272,1.767146,0.4795,0.5725,0.2934,0.000000,0.578311,-0.561437,0.564505,-0.590583,0.575243,-0.556835
1.6601,0.016741,0.000000,-1.716355,1.716355,0.0000,0.0000,0.0000,-0.002384,-1.750272,1.768680,0.5305,0.5930,0.1810,0.000000,0.578311,-0.562971,0.564505,-0.592117,0.575243,-0.556835
1.6769,0.016749,0.000000,-1.716062,1.716062,0.0000,0.0000,0.0000,-0.002387,-1.750272,1.767146,0.5252,0.5908,0.1927,0.000000,0.578311,-0.562971,0.564505,-0.592117,0.575243,-0.556835
1.6936,0.016742,0.000000,-1.715770,1.715770,0.0000,0.0000,0.0000,-0.002398,-1.750272,1.767146,0.5151,0.5402,0.2452,0.000000,0.578311,-0.562971,0.564505,-0.590583,0.575243,-0.556835
1.7104,0.016751,0.000000,-1.715478,1.715478,0.0000,0.0000,0.0000,-0.002397,-1.750272,1.767146,0.5161,0.5455,0.2397,0.000000,0.578311,-0.562971,0.564505,-0.590583,0.575243,-0.556835
1.7272,0.016812,0.000000,-1.715184,1.715184,0.0000,0.0000,0.0000,-0.002397,-1.750272,1.767146,0.5161,0.5455,0.2397,0.000000,0.578311,-0.562971,0.564505,-0.590583,0.575243,-0.556835
1.7439,0.016757,0.000000,-1.714892,1.714892,0.0000,0.0000,0.0000,-0.002398,-1.750272,1.767146,0.4875,0.6314,0.2398,0.000000,0.578311,-0.561437,0.564505,-0.592117,0.575243,-0.556835
1.7607,0.016744,0.000000,-1.714600,1.714600,0.0000,0.0000,0.0000,-0.002385,-1.750272,1.767146,0.5297,0.5868,0.1866,0.000000,0.578311,-0.562971,0.564505,-0.592117,0.575243,-0.556835
1.7774,0.016747,0.000000,-1.714307,1.714307,0.0000,0.0000,0.0000,-0.002411,-1.750272,1.767146,0.4754,0.5763,0.2990,0.000000,0.578311,-0.561437,0.564505,-0.590583,0.575243,-0.556835
1.7942,0.016741,0.000000,-1.714015,1.714015,0.0000,0.0000,0.0000,-0.002384,-1.750272,1.767146,0.5309,0.5926,0.1804,0.000000,0.578311,-0.562971,0.564505,-0.592117,0.575243,-0.556835
1.8118,0.017650,0.000000,-1.713707,1.713707,0.0000,0.0000,0.0000,-0.002398,-1.750272,1.767146,0.5145,0.5401,0.2465,0.000000,0.578311,-0.562971,0.564505,-0.590583,0.575243,-0.556835
1.8286,0.016772,0.000000,-1.713414,1.713414,0.0000,0.0000,0.0000,-0.002397,-1.750272,1.767146,0.5162,0.5455,0.2396,0.000000,0.578311,-0.562971,0.564505,-0.590583,0.575243,-0.556835
1.8453,0.016750,0.000000,-1.713122,1.713122,0.0000,0.0000,0.0000,-0.002397,-1.750272,1.767146,0.5162,0.5455,0.2396,0.000000,0.578311,-0.562971,0.564505,-0.590583,0.575243,-0.556835
1.8621,0.016746,0.000000,-1.712830,1.712830,0.0000,0.0000,0.0000,-0.002397,-1.750272,1.767146,0.5162,0.5455,0.2396,0.000000,0.578311,-0.562971,0.564505,-0.590583,0.575243,-0.556835
1.8788,0.016747,0.000000,-1.712538,1.712538,0.0000,0.0000,0.0000,-0.002385,-1.750272,1.767146,0.5267,0.5958,0.1866,0.000000,0.578311,-0.562971,0.564505,-0.592117,0.575243,-0.556835
1.8956,0.016739,0.000000,-1.712245,1.712245,0.0000,0.0000,0.0000,-0.002399,-1.750272,1.767146,0.4864,0.6261,0.2453,0.000000,0.578311,-0.561437,0.564505,-0.592117,0.575243,-0.556835
1.9123,0.016744,0.000000,-1.711953,1.711953,0.0000,0.0000,0.0000,-0.002396,-1.750272,1.765612,0.5191,0.5365,0.2397,0.000000,0.578311,-0.562971,0.564505,-0.590583,0.575243,-0.556835
1.9291,0.016746,0.000000,-1.711661,1.711661,0.0000,0.0000,0.0000,-0.002409,-1.750272,1.762544,0.4765,0.5815,0.2935,0.000000,0.578311,-0.561437,0.564505,-0.590583,0.575243,-0.556835
1.9458,0.016754,0.000000,-1.711368,1.711368,0.0000,0.0000,0.0000,-0.002409,-1.750272,1.762544,0.4765,0.5815,0.2935,0.000000,0.578311,-0.561437,0.564505,-0.590583,0.575243,-0.556835
1.9626,0.016747,0.000000,-1.711076,1.711076,0.0000,0.0000,0.0000,-0.002408,-1.750272,1.754874,0.4809,0.5768,0.2879,0.000000,0.578311,-0.561437,0.564505,-0.590583,0.575243,-0.556835
1.9793,0.016748,0.000000,-1.710784,1.710784,0.0000,0.0000,0.0000,-0.002397,-1.750272,1.748738,0.4911,0.6281,0.2348,0.000000,0.578311,-0.561437,0.564505,-0.592117,0.575243,-0.556835
1.9960,0.016741,0.000000,-1.710492,1.710492,0.0000,0.0000,0.0000,-0.002397,-1.750272,1.744136,0.5186,0.5363,0.2408,0.000000,0.578311,-0.562971,0.564505,-0.590583,0.575243,-0.556835
2.0128,0.016749,0.000000,-1.710199,1.710199,0.0000,0.0000,0.0000,-0.002397,-1.750272,1.742602,0.5157,0.5459,0.2402,0.000000,0.578311,-0.562971,0.564505,-0.590583,0.575243,-0.556835
2.0300,0.017209,0.000000,-1.709899,1.709899,0.0000,0.0000,0.0000,-0.002398,-1.750272,1.742602,0.4875,0.6313,0.2397,0.000000,0.578311,-0.561437,0.564505,-0.592117,0.575243,-0.556835
2.0467,0.016747,0.000000,-1.709607,1.709607,0.0000,0.0000,0.0000,-0.002398,-1.750272,1.742602,0.4875,0.6313,0.2397,0.000000,0.578311,-0.561437,0.564505,-0.592117,0.575243,-0.556835
2.0635,0.016748,0.000000,-1.709314,1.709314,0.0000,0.0000,0.0000,-0.002409,-1.750272,1.742602,0.4797,0.5716,0.2935,0.000000,0.578311,-0.561437,0.564505,-0.590583,0.575243,-0.556835
2.0802,0.016750,0.000000,-1.709022,1.709022,0.0000,0.0000,0.0000,-0.002395,-1.750272,1.742602,0.5198,0.5422,0.2347,0.000000,0.578311,-0.562971,0.564505,-0.590583,0.575243,-0.556835
2.0970,0.016743,0.000000,-1.708730,1.708730,0.0000,0.0000,0.0000,-0.002410,-1.750272,1.742602,0.4764,0.5809,0.2940,0.000000,0.578311,-0.561437,0.564505,-0.590583,0.575243,-0.556835
2.1137,0.016749,0.000000,-1.708438,1.708438,0.0000,0.0000,0.0000,-0.002395,-1.748738,1.742602,0.5202,0.5413,0.2346,0.000000,0.578311,-0.562971,0.564505,-0.590583,0.575243,-0.556835
2.1305,0.016744,0.000000,-1.708145,1.708145,0.0000,0.0000,0.0000,-0.002410,-1.748738,1.742602,0.4764,0.5810,0.2940,0.000000,0.578311,-0.561437,0.564505,-0.590583,0.575243,-0.556835
2.1472,0.016758,0.000000,-1.707853,1.707853,0.0000,0.0000,0.0000,-0.002410,-1.748738,1.742602,0.4764,0.5810,0.2940,0.000000,0.578311,-0.561437,0.564505,-0.590583,0.575243,-0.556835
2.1640,0.016736,0.000000,-1.707561,1.707561,0.0000,0.0000,0.0000,-0.002395,-1.748738,1.742602,0.5202,0.5412,0.2346,0.000000,0.578311,-0.562971,0.564505,-0.590583,0.575243,-0.556835
2.1807,0.016749,0.000000,-1.707268,1.707268,0.0000,0.0000,0.0000,-0.002398,-1.748738,1.742602,0.4871,0.6318,0.2403,0.000000,0.578311,-0.561437,0.564505,-0.592117,0.575243,-0.556835
2.1975,0.016738,0.000000,-1.706976,1.706976,0.0000,0.0000,0.0000,-0.002396,-1.748738,1.742602,0.5190,0.5360,0.2402,0.000000,0.578311,-0.562971,0.564505,-0.590583,0.575243,-0.556835
2.2142,0.016754,0.000000,-1.706684,1.706684,0.0000,0.0000,0.0000,-0.002397,-1.748738,1.742602,0.5157,0.5459,0.2402,0.000000,0.578311,-0.562971,0.564505,-0.590583,0.575243,-0.556835
2.2311,0.016866,0.000000,-1.706389,1.706389,0.0000,0.0000,0.0000,-0.002398,-1.748738,1.742602,0.4875,0.6313,0.2397,0.000000,0.578311,-0.561437,0.564505,-0.592117,0.575243,-0.556835
2.2478,0.016763,0.000000,-1.706097,1.706097,0.0000,0.0000,0.0000,-0.002398,-1.748738,1.742602,0.4875,0.6313,0.2397,0.000000,0.578311,-0.561437,0.564505,-0.592117,0.575243,-0.556835
2.2646,0.016743,0.000000,-1.705805,1.705805,0.0000,0.0000,0.0000,-0.002409,-1.748738,1.742602,0.4797,0.5716,0.2935,0.000000,0.578311,-0.561437,0.564505,-0.590583,0.575243,-0.556835
2.2813,0.016747,0.000000,-1.705512,1.705512,0.0000,0.0000,0.0000,-0.002395,-1.748738,1.742602,0.5198,0.5422,0.2347,0.000000,0.578311,-0.562971,0.564505,-0.590583,0.575243,-0.556835
2.2981,0.016738,0.000000,-1.705220,1.705220,0.0000,0.0000,0.0000,-0.002398,-1.748738,1.742602,0.4871,0.6317,0.2403,0.000000,0.578311,-0.561437,0.564505,-0.592117,0.575243,-0.556835
2.3148,0.016752,0.000000,-1.704928,1.704928,0.0000,0.0000,0.0000,-0.002396,-1.748738,1.742602,0.5190,0.5360,0.2402,0.000000,0.578311,-0.562971,0.564505,-0.590583,0.575243,-0.556835
2.3320,0.017157,0.000000,-1.704628,1.704628,0.0000,0.0000,0.0000,-0.002385,-1.748738,1.742602,0.5264,0.5968,0.1865,0.000000,0.578311,-0.562971,0.564505,-0.592117,0.575243,-0.556835
2.3487,0.016759,0.000000,-1.704336,1.704336,0.0000,0.0000,0.0000,-0.002385,-1.748738,1.742602,0.5264,0.5968,0.1865,0.000000,0.578311,-0.562971,0.564505,-0.592117,0.575243,-0.556835
2.3655,0.016753,0.000000,-1.704044,1.704044,0.0000,0.0000,0.0000,-0.002398,-1.748738,1.742602,0.5149,0.5396,0.2458,0.000000,0.578311,-0.562971,0.564505,-0.590583,0.575243,-0.556835
2.3822,0.016749,0.000000,-1.703751,1.703751,0.0000,0.0000,0.0000,-0.002409,-1.748738,1.742602,0.4769,0.5811,0.2928,0.000000,0.578311,-0.561437,0.564505,-0.590583,0.575243,-0.556835
2.3990,0.016745,0.000000,-1.703459,1.703459,0.0000,0.0000,0.0000,-0.002384,-1.748738,1.742602,0.5308,0.5921,0.1811,0.000000,0.578311,-0.562971,0.564505,-0.592117,0.575243,-0.556835
2.4157,0.016753,0.000000,-1.703167,1.703167,0.0000,0.0000,0.0000,-0.002398,-1.748738,1.742602,0.5145,0.5401,0.2464,0.000000,0.578311,-0.562971,0.564505,-0.590583,0.575243,-0.556835
2.4326,0.016837,0.000000,-1.702873,1.702873,0.0000,0.0000,0.0000,-0.002409,-1.748738,1.742602,0.4770,0.5811,0.2928,0.000000,0.578311,-0.561437,0.564505,-0.590583,0.575243,-0.556835
2.4493,0.016757,0.000000,-1.702580,1.702580,0.0000,0.0000,0.0000,-0.002409,-1.748738,1.742602,0.4770,0.5811,0.2928,0.000000,0.578311,-0.561437,0.564505,-0.590583,0.575243,-0.556835
2.4661,0.016747,0.000000,-1.702288,1.702288,0.0000,0.0000,0.0000,-0.002384,-1.747204,1.742602,0.5308,0.5921,0.1811,0.000000,0.578311,-0.562971,0.564505,-0.592117,0.575243,-0.556835
2.4828,0.016752,0.000000,-1.701996,1.701996,0.0000,0.0000,0.0000,-0.002398,-1.747204,1.742602,0.5145,0.5401,0.2464,0.000000,0.578311,-0.562971,0.564505,-0.590583,0.575243,-0.556835
2.4996,0.016742,0.000000,-1.701703,1.701703,0.0000,0.0000,0.0000,-0.002409,-1.734932,1.742602,0.4770,0.5811,0.2928,0.000000,0.578311,-0.561437,0.564505,-0.590583,0.575243,-0.556835
2.5163,0.016751,0.000000,-1.701411,1.701411,0.0000,0.0000,0.0000,-0.002408,-1.734932,1.742602,0.4809,0.5768,0.2880,0.000000,0.578311,-0.561437,0.564505,-0.590583,0.575243,-0.556835
2.5331,0.016747,0.000000,-1.701119,1.701119,0.0000,0.0000,0.0000,-0.002395,-1.724194,1.742602,0.5197,0.5417,0.2353,0.000000,0.578311,-0.562971,0.564505,-0.590583,0.575243,-0.556835
2.5498,0.016721,0.000000,-1.700827,1.700827,0.0000,0.0000,0.0000,-0.002395,-1.724194,1.742602,0.5197,0.5417,0.2353,0.000000,0.578311,-0.562971,0.564505,-0.590583,0.575243,-0.556835
2.5665,0.016749,0.000000,-1.700535,1.700535,0.0000,0.0000,0.0000,-0.002398,-1.724194,1.742602,0.4871,0.6318,0.2402,0.000000,0.578311,-0.561437,0.564505,-0.592117,0.575243,-0.556835
2.5833,0.016751,0.000000,-1.700242,1.700242,0.0000,0.0000,0.0000,-0.002396,-1.724194,1.742602,0.5190,0.5360,0.2402,0.000000,0.578311,-0.562971,0.564505,-0.590583,0.575243,-0.556835
2.6000,0.016747,0.000000,-1.699950,1.699950,0.0000,0.0000,0.0000,-0.002385,-1.724194,1.742602,0.5264,0.5968,0.1865,0.000000,0.578311,-0.562971,0.564505,-0.592117,0.575243,-0.556835
2.6168,0.016750,0.000000,-1.699658,1.699658,0.0000,0.0000,0.0000,-0.002399,-1.724194,1.742602,0.4864,0.6260,0.2453,0.000000,0.578311,-0.561437,0.564505,-0.592117,0.575243,-0.556835
2.6335,0.016756,0.000000,-1.699365,1.699365,0.0000,0.0000,0.0000,-0.002409,-1.724194,1.742602,0.4799,0.5722,0.2929,0.000000,0.578311,-0.561437,0.564505,-0.590583,0.575243,-0.556835
2.6503,0.016753,0.000000,-1.699073,1.699073,0.0000,0.0000,0.0000,-0.002409,-1.724194,1.742602,0.4799,0.5722,0.2929,0.000000,0.578311,-0.561437,0.564505,-0.590583,0.575243,-0.556835
2.6671,0.016749,0.000000,-1.698780,1.698780,0.0000,0.0000,0.0000,-0.002395,-1.724194,1.742602,0.5198,0.5422,0.2347,0.000000,0.578311,-0.562971,0.564505,-0.590583,0.575243,-0.556835
2.6838,0.016739,0.000000,-1.698488,1.698488,0.0000,0.0000,0.0000,-0.002397,-1.724194,1.742602,0.5156,0.5453,0.2408,0.000000,0.578311,-0.562971,0.564505,-0.590583,0.575243,-0.556835
2.7005,0.016747,0.000000,-1.698196,1.698196,0.0000,0.0000,0.0000,-0.002398,-1.724194,1.742602,0.4875,0.6314,0.2397,0.000000,0.578311,-0.561437,0.564505,-0.592117,0.575243,-0.556835
2.7173,0.016751,0.000000,-1.697904,1.697904,0.0000,0.0000,0.0000,-0.002398,-1.724194,1.742602,0.4904,0.6224,0.2398,0.000000,0.578311,-0.561437,0.564505,-0.592117,0.575243,-0.556835
2.7340,0.016761,0.000000,-1.697611,1.697611,0.0000,0.0000,0.0000,-0.002385,-1.724194,1.742602,0.5294,0.5877,0.1866,0.000000,0.578311,-0.562971,0.564505,-0.592117,0.575243,-0.556835
2.7508,0.016753,0.000000,-1.697319,1.697319,0.0000,0.0000,0.0000,-0.002385,-1.724194,1.742602,0.5294,0.5877,0.1866,0.000000,0.578311,-0.562971,0.564505,-0.592117,0.575243,-0.556835
2.7676,0.016753,0.000000,-1.697026,1.697026,0.0000,0.0000,0.0000,-0.002386,-1.724194,1.742602,0.5253,0.5914,0.1921,0.000000,0.578311,-0.562971,0.564505,-0.592117,0.575243,-0.556835
2.7843,0.016775,0.000000,-1.696734,1.696734,0.0000,0.0000,0.0000,-0.002398,-1.724194,1.742602,0.5150,0.5402,0.2452,0.000000,0.578311,-0.562971,0.564505,-0.590583,0.575243,-0.556835
2.8011,0.016752,0.000000,-1.696441,1.696441,0.0000,0.0000,0.0000,-0.002409,-1.724194,1.742602,0.4769,0.5811,0.2929,0.000000,0.578311,-0.561437,0.564505,-0.590583,0.575243,-0.556835
2.8179,0.016779,0.000000,-1.696148,1.696148,0.0000,0.0000,0.0000,-0.002395,-1.724194,1.742602,0.5201,0.5412,0.2347,0.000000,0.578311,-0.562971,0.564505,-0.590583,0.575243,-0.556835
2.8346,0.016748,0.000000,-1.695856,1.695856,0.0000,0.0000,0.0000,-0.002395,-1.724194,1.742602,0.5201,0.5412,0.2347,0.000000,0.578311,-0.562971,0.564505,-0.590583,0.575243,-0.556835
2.8514,0.016775,0.000000,-1.695563,1.695563,0.0000,0.0000,0.0000,-0.002398,-1.724194,1.742602,0.4871,0.6318,0.2403,0.000000,0.578311,-0.561437,0.564505,-0.592117,0.575243,-0.556835
2.8681,0.016747,0.000000,-1.695271,1.695271,0.0000,0.0000,0.0000,-0.002385,-1.724194,1.742602,0.5297,0.5868,0.1865,0.000000,0.578311,-0.562971,0.564505,-0.592117,0.575243,-0.556835
2.8849,0.016756,0.000000,-1.694978,1.694978,0.0000,0.0000,0.0000,-0.002398,-1.724194,1.742602,0.5146,0.5407,0.1579,-0.001534,0.578311,-0.562971,0.564505,-0.590583,0.575243,-0.556835
2.9016,0.016741,0.000000,-1.694686,1.694686,0.0000,0.0000,0.0000,-0.002385,-1.724194,1.742602,0.5268,0.5963,0.1860,0.000000,0.578311,-0.562971,0.564505,-0.592117,0.575243,-0.556835
2.9184,0.016777,0.000000,-1.694393,1.694393,0.0000,0.0000,0.0000,-0.002385,-1.724194,1.742602,0.5268,0.5963,0.1860,0.000000,0.578311,-0.562971,0.564505,-0.590583,0.575243,-0.556835
2.9352,0.016750,0.000000,-1.694101,1.694101,0.0000,0.0000,0.0000,-0.002398,-1.724194,1.742602,0.5149,0.5397,0.2459,0.000000,0.578311,-0.562971,0.564505,-0.590583,0.575243,-0.556835
2.9519,0.016744,0.000000,-1.693809,1.693809,0.0000,0.0000,0.0000,-0.002397,-1.724194,1.742602,0.5161,0.5456,0.2396,0.000000,0.578311,-0.562971,0.564505,-0.590583,0.575243,-0.556835
2.9686,0.016745,0.000000,-1.693517,1.693517,0.0000,0.0000,0.0000,-0.002397,-1.724194,1.742602,0.5161,0.5456,0.2396,0.000000,0.578311,-0.562971,0.564505,-0.590583,0.575243,-0.556835
2.9854,0.016747,0.000000,-1.693224,1.693224,0.0000,0.0000,0.0000,-0.002397,-1.724194,1.742602,0.5161,0.5456,0.2396,0.000000,0.578311,-0.562971,0.564505,-0.590583,0.575243,-0.556835
3.0021,0.016742,0.000000,-1.692932,1.692932,0.0000,0.0000,0.0000,-0.002397,-1.724194,1.742602,0.5161,0.5456,0.2396,0.000000,0.578311,-0.562971,0.564505,-0.590583,0.575243,-0.556835
3.0189,0.016770,0.000000,-1.692639,1.692639,0.0000,0.0000,0.0000,-0.002397,-1.724194,1.742602,0.5161,0.5456,0.2396,0.000000,0.578311,-0.562971,0.564505,-0.590583,0.575243,-0.556835
3.0357,0.016752,0.000000,-1.692347,1.692347,0.0000,0.0000,0.0000,-0.002397,-1.724194,1.742602,0.5161,0.5456,0.2396,0.000000,0.578311,-0.562971,0.564505,-0.590583,0.575243,-0.556835
3.0524,0.016752,0.000000,-1.692055,1.692055,0.0000,0.0000,0.0000,-0.002385,-1.724194,1.742602,0.5267,0.5958,0.1866,0.000000,0.578311,-0.562971,0.564505,-0.592117,0.575243,-0.556835
3.0692,0.016743,0.000000,-1.691762,1.691762,0.0000,0.0000,0.0000,-0.002399,-1.724194,1.742602,0.4864,0.6261,0.2453,0.000000,0.578311,-0.561437,0.564505,-0.592117,0.575243,-0.556835
3.0859,0.016757,0.000000,-1.691470,1.691470,0.0000,0.0000,0.0000,-0.002385,-1.724194,1.742602,0.5298,0.5873,0.1860,0.000000,0.578311,-0.562971,0.564505,-0.592117,0.575243,-0.556835
3.1027,0.016748,0.000000,-1.691178,1.691178,0.0000,0.0000,0.0000,-0.002398,-1.724194,1.742602,0.5146,0.5406,0.2459,0.000000,0.578311,-0.562971,0.564505,-0.590583,0.575243,-0.556835
3.1194,0.016774,0.000000,-1.690885,1.690885,0.0000,0.0000,0.0000,-0.002398,-1.724194,1.742602,0.5146,0.5406,0.2459,0.000000,0.578311,-0.562971,0.564505,-0.590583,0.575243,-0.556835
3.1362,0.016751,0.000000,-1.690593,1.690593,0.0000,0.0000,0.0000,-0.002385,-1.724194,1.742602,0.5268,0.5963,0.1860,0.000000,0.578311,-0.562971,0.564505,-0.592117,0.575243,-0.556835
3.1529,0.016748,0.000000,-1.690300,1.690300,0.0000,0.0000,0.0000,-0.002398,-1.724194,1.742602,0.5149,0.5397,0.2459,0.000000,0.578311,-0.562971,0.564505,-0.590583,0.575243,-0.556835
3.1697,0.016740,0.000000,-1.690008,1.690008,0.0000,0.0000,0.0000,-0.002385,-1.724194,1.742602,0.5268,0.5964,0.1860,0.000000,0.578311,-0.562971,0.564505,-0.592117,0.575243,-0.556835
3.1864,0.016747,0.000000,-1.689716,1.689716,0.0000,0.0000,0.0000,-0.002386,-1.724194,1.742602,0.5256,0.5905,0.1922,0.000000,0.578311,-0.562971,0.564505,-0.592117,0.575243,-0.556835
3.2032,0.016747,0.000000,-1.689423,1.689423,0.0000,0.0000,0.0000,-0.002399,-1.724194,1.742602,0.4865,0.6267,0.2447,0.000000,0.578311,-0.561437,0.564505,-0.592117,0.575243,-0.556835
3.2199,0.016756,0.000000,-1.689131,1.689131,0.0000,0.0000,0.0000,-0.002399,-1.724194,1.742602,0.4865,0.6267,0.2447,0.000000,0.578311,-0.561437,0.564505,-0.592117,0.575243,-0.556835
3.2367,0.016747,0.000000,-1.688839,1.688839,0.0000,0.0000,0.0000,-0.002409,-1.722660,1.742602,0.4799,0.5721,0.2930,0.000000,0.578311,-0.561437,0.564505,-0.590583,0.575243,-0.556835
3.2534,0.016749,0.000000,-1.688546,1.688546,0.0000,0.0000,0.0000,-0.002395,-1.722660,1.741068,0.5198,0.5422,0.2347,0.000000,0.578311,-0.562971,0.564505,-0.590583,0.575243,-0.556835
3.2702,0.016743,0.000000,-1.688254,1.688254,0.0000,0.0000,0.0000,-0.002385,-1.724194,1.741068,0.5263,0.5961,0.1871,0.000000,0.578311,-0.562971,0.564505,-0.592117,0.575243,-0.556835
3.2869,0.016748,0.000000,-1.687962,1.687962,0.0000,0.0000,0.0000,-0.002411,-1.724194,1.741068,0.4757,0.5753,0.2990,0.000000,0.578311,-0.561437,0.564505,-0.590583,0.575243,-0.556835
3.3037,0.016747,0.000000,-1.687670,1.687670,0.0000,0.0000,0.0000,-0.002408,-1.724194,1.741068,0.4810,0.5774,0.2873,0.000000,0.578311,-0.561437,0.564505,-0.590583,0.575243,-0.556835
3.3204,0.016742,0.000000,-1.687377,1.687377,0.0000,0.0000,0.0000,-0.002408,-1.724194,1.741068,0.4810,0.5774,0.2873,0.000000,0.578311,-0.561437,0.564505,-0.590583,0.575243,-0.556835
3.3371,0.016747,0.000000,-1.687085,1.687085,0.0000,0.0000,0.0000,-0.002395,-1.724194,1.741068,0.5197,0.5416,0.2353,0.000000,0.578311,-0.562971,0.564505,-0.590583,0.575243,-0.556835
3.3539,0.016741,0.000000,-1.686793,1.686793,0.0000,0.0000,0.0000,-0.002410,-1.724194,1.741068,0.4764,0.5809,0.2939,0.000000,0.578311,-0.561437,0.564505,-0.590583,0.575243,-0.556835
3.3706,0.016743,0.000000,-1.686501,1.686501,0.0000,0.0000,0.0000,-0.002408,-1.724194,1.741068,0.4809,0.5768,0.2878,0.000000,0.578311,-0.561437,0.564505,-0.590583,0.575243,-0.556835
3.3874,0.016748,0.000000,-1.686208,1.686208,0.0000,0.0000,0.0000,-0.002397,-1.722660,1.741068,0.4911,0.6281,0.2348,0.000000,0.578311,-0.561437,0.564505,-0.592117,0.575243,-0.556835
3.4041,0.016749,0.000000,-1.685916,1.685916,0.0000,0.0000,0.0000,-0.002385,-1.722660,1.739534,0.5293,0.5871,0.1871,0.000000,0.578311,-0.562971,0.564505,-0.592117,0.575243,-0.556835
3.4209,0.016741,0.000000,-1.685624,1.685624,0.0000,0.0000,0.0000,-0.002385,-1.722660,1.739534,0.5293,0.5871,0.1871,0.000000,0.578311,-0.562971,0.564505,-0.592117,0.575243,-0.556835
3.4376,0.016742,0.000000,-1.685332,1.685332,0.0000,0.0000,0.0000,-0.002411,-1.722660,1.739534,0.4754,0.5762,0.2990,0.000000,0.578311,-0.561437,0.564505,-0.590583,0.575243,-0.556835
3.4543,0.016738,0.000000,-1.685040,1.685040,0.0000,0.0000,0.0000,-0.002397,-1.722660,1.739534,0.4917,0.6282,0.2336,0.000000,0.578311,-0.561437,0.564505,-0.592117,0.575243,-0.556835
3.4712,0.016842,0.000000,-1.684746,1.684746,0.0000,0.0000,0.0000,-0.002397,-1.722660,1.739534,0.5186,0.5363,0.2409,0.000000,0.578311,-0.562971,0.564505,-0.590583,0.575243,-0.556835
3.4879,0.016743,0.000000,-1.684453,1.684453,0.0000,0.0000,0.0000,-0.002385,-1.722660,1.739534,0.5264,0.5967,0.1865,0.000000,0.578311,-0.562971,0.564505,-0.592117,0.575243,-0.556835
3.5047,0.016761,0.000000,-1.684161,1.684161,0.0000,0.0000,0.0000,-0.002386,-1.722660,1.736466,0.5256,0.5904,0.1922,0.000000,0.578311,-0.562971,0.564505,-0.592117,0.575243,-0.556835
3.5214,0.016745,0.000000,-1.683869,1.683869,0.0000,0.0000,0.0000,-0.002386,-1.722660,1.736466,0.5256,0.5904,0.1922,0.000000,0.578311,-0.562971,0.564505,-0.592117,0.575243,-0.556835
3.5382,0.016746,0.000000,-1.683576,1.683576,0.0000,0.0000,0.0000,-0.002399,-1.722660,1.728796,0.4865,0.6267,0.2447,0.000000,0.578311,-0.561437,0.564505,-0.592117,0.575243,-0.556835
3.5549,0.016742,0.000000,-1.683284,1.683284,0.0000,0.0000,0.0000,-0.002409,-1.722660,1.719592,0.4799,0.5721,0.2930,0.000000,0.578311,-0.561437,0.564505,-0.590583,0.575243,-0.556835
3.5717,0.016742,0.000000,-1.682992,1.682992,0.0000,0.0000,0.0000,-0.002397,-1.724194,1.711923,0.4912,0.6286,0.2342,0.000000,0.578311,-0.561437,0.564505,-0.592117,0.575243,-0.556835
3.5884,0.016743,0.000000,-1.682700,1.682700,0.0000,0.0000,0.0000,-0.002385,-1.722660,1.707321,0.5293,0.5871,0.1872,0.000000,0.578311,-0.562971,0.564505,-0.592117,0.575243,-0.556835
3.6052,0.016751,0.000000,-1.682407,1.682407,0.0000,0.0000,0.0000,-0.002398,-1.722660,1.705787,0.5146,0.5406,0.2458,0.000000,0.578311,-0.562971,0.564505,-0.590583,0.575243,-0.556835
3.6219,0.016741,0.000000,-1.682115,1.682115,0.0000,0.0000,0.0000,-0.002398,-1.722660,1.705787,0.5146,0.5406,0.2458,0.000000,0.578311,-0.562971,0.564505,-0.590583,0.575243,-0.556835
3.6386,0.016743,0.000000,-1.681823,1.681823,0.0000,0.0000,0.0000,-0.002398,-1.722660,1.704253,0.4876,0.6319,0.2391,0.000000,0.578311,-0.561437,0.564505,-0.592117,0.575243,-0.556835
3.6554,0.016749,0.000000,-1.681531,1.681531,0.0000,0.0000,0.0000,-0.002385,-1.722660,1.704253,0.5297,0.5867,0.1867,0.000000,0.578311,-0.562971,0.564505,-0.592117,0.575243,-0.556835
3.6724,0.017052,0.000000,-1.681233,1.681233,0.0000,0.0000,0.0000,-0.002386,-1.722660,1.704253,0.5253,0.5915,0.1921,0.000000,0.578311,-0.562971,0.564505,-0.592117,0.575243,-0.556835
3.6897,0.017285,0.000000,-1.680931,1.680931,0.0000,0.0000,0.0000,-0.002398,-1.722660,1.702719,0.5150,0.5402,0.2452,0.000000,0.578311,-0.562971,0.564505,-0.590583,0.575243,-0.556835
3.7065,0.016762,0.000000,-1.680639,1.680639,0.0000,0.0000,0.0000,-0.002397,-1.722660,1.702719,0.5161,0.5455,0.2397,0.000000,0.578311,-0.562971,0.564505,-0.590583,0.575243,-0.556835
3.7232,0.016751,0.000000,-1.680346,1.680346,0.0000,0.0000,0.0000,-0.002397,-1.722660,1.702719,0.5161,0.5455,0.2397,0.000000,0.578311,-0.562971,0.564505,-0.590583,0.575243,-0.556835
3.7400,0.016765,0.000000,-1.680054,1.680054,0.0000,0.0000,0.0000,-0.002409,-1.722660,1.704253,0.4768,0.5805,0.2935,0.000000,0.578311,-0.561437,0.564505,-0.590583,0.575243,-0.556835
3.7568,0.016784,0.000000,-1.679761,1.679761,0.0000,0.0000,0.0000,-0.002384,-1.722660,1.702719,0.5308,0.5921,0.1810,0.000000,0.578311,-0.562971,0.564505,-0.592117,0.575243,-0.556835
3.7736,0.016775,0.000000,-1.679468,1.679468,0.0000,0.0000,0.0000,-0.002411,-1.722660,1.702719,0.4753,0.5757,0.2996,0.000000,0.578311,-0.561437,0.564505,-0.590583,0.575243,-0.556835
3.7903,0.016750,0.000000,-1.679176,1.679176,0.0000,0.0000,0.0000,-0.002395,-1.722660,1.702719,0.5203,0.5418,0.2340,0.000000,0.578311,-0.562971,0.564505,-0.590583,0.575243,-0.556835
3.8075,0.017185,0.000000,-1.678876,1.678876,0.0000,0.0000,0.0000,-0.002410,-1.722660,1.702719,0.4764,0.5809,0.2941,0.000000,0.578311,-0.561437,0.564505,-0.590583,0.575243,-0.556835
3.8242,0.016741,0.000000,-1.678584,1.678584,0.0000,0.0000,0.0000,-0.002410,-1.722660,1.702719,0.4764,0.5809,0.2941,0.000000,0.578311,-0.561437,0.564505,-0.590583,0.575243,-0.556835
3.8410,0.016761,0.000000,-1.678291,1.678291,0.0000,0.0000,0.0000,-0.002408,-1.722660,1.702719,0.4809,0.5768,0.2878,0.000000,0.578311,-0.561437,0.564505,-0.590583,0.575243,-0.556835
3.8578,0.016754,0.000000,-1.677999,1.677999,0.0000,0.0000,0.0000,-0.002397,-1.722660,1.702719,0.4911,0.6281,0.2348,0.000000,0.578311,-0.561437,0.564505,-0.592117,0.575243,-0.556835
3.8745,0.016768,0.000000,-1.677706,1.677706,0.0000,0.0000,0.0000,-0.002398,-1.722660,1.702719,0.4901,0.6228,0.2403,0.000000,0.578311,-0.561437,0.564505,-0.592117,0.575243,-0.556835
3.8913,0.016744,0.000000,-1.677414,1.677414,0.0000,0.0000,0.0000,-0.002409,-1.722660,1.702719,0.4795,0.5725,0.2934,0.000000,0.578311,-0.561437,0.564505,-0.590583,0.575243,-0.556835
3.9080,0.016763,0.000000,-1.677121,1.677121,0.0000,0.0000,0.0000,-0.002408,-1.722660,1.702719,0.4806,0.5777,0.2879,0.000000,0.578311,-0.561437,0.564505,-0.590583,0.575243,-0.556835
3.9248,0.016745,0.000000,-1.676829,1.676829,0.0000,0.0000,0.0000,-0.002408,-1.722660,1.702719,0.4806,0.5777,0.2879,0.000000,0.578311,-0.561437,0.564505,-0.590583,0.575243,-0.556835
3.9430,0.018218,0.000000,-1.676511,1.676511,0.0000,0.0000,0.0000,-0.002395,-1.722660,1.704253,0.5197,0.5416,0.2353,0.000000,0.578311,-0.562971,0.564505,-0.590583,0.575243,-0.556835
3.9597,0.016749,0.000000,-1.676219,1.676219,0.0000,0.0000,0.0000,-0.002410,-1.722660,1.702719,0.4764,0.5809,0.2939,0.000000,0.578311,-0.561437,0.564505,-0.590583,0.575243,-0.556835
3.9765,0.016757,0.000000,-1.675926,1.675926,0.0000,0.0000,0.0000,-0.002395,-1.722660,1.702719,0.5202,0.5412,0.2346,0.000000,0.578311,-0.562971,0.564505,-0.590583,0.575243,-0.556835
3.9932,0.016747,0.000000,-1.675634,1.675634,0.0000,0.0000,0.0000,-0.002385,-1.722660,1.702719,0.5262,0.5962,0.1871,0.000000,0.578311,-0.562971,0.564505,-0.592117,0.575243,-0.556835
4.0100,0.016764,0.000000,-1.675341,1.675341,0.0000,0.0000,0.0000,-0.002386,-1.721126,1.702719,0.5256,0.5905,0.1921,0.000000,0.578311,-0.562971,0.564505,-0.592117,0.575243,-0.556835
4.0268,0.016743,0.000000,-1.675049,1.675049,0.0000,0.0000,0.0000,-0.002386,-1.721126,1.702719,0.5256,0.5905,0.1921,0.000000,0.578311,-0.562971,0.564505,-0.592117,0.575243,-0.556835
4.0435,0.016757,0.000000,-1.674757,1.674757,0.0000,0.0000,0.0000,-0.002398,-1.721126,1.702719,0.5150,0.5403,0.2453,0.000000,0.578311,-0.562971,0.564505,-0.590583,0.575243,-0.556835
4.0603,0.016746,0.000000,-1.674464,1.674464,0.0000,0.0000,0.0000,-0.002397,-1.718058,1.702719,0.5161,0.5455,0.2397,0.000000,0.578311,-0.562971,0.564505,-0.590583,0.575243,-0.556835
4.0770,0.016764,0.000000,-1.674172,1.674172,0.0000,0.0000,0.0000,-0.002398,-1.713457,1.702719,0.4875,0.6314,0.2398,0.000000,0.578311,-0.561437,0.564505,-0.592117,0.575243,-0.556835
4.0938,0.016748,0.000000,-1.673879,1.673879,0.0000,0.0000,0.0000,-0.002385,-1.704253,1.702719,0.5297,0.5868,0.1866,0.000000,0.578311,-0.562971,0.564505,-0.592117,0.575243,-0.556835
4.1105,0.016760,0.000000,-1.673587,1.673587,0.0000,0.0000,0.0000,-0.002385,-1.698117,1.702719,0.5297,0.5868,0.1866,0.000000,0.578311,-0.562971,0.564505,-0.592117,0.575243,-0.556835
4.1273,0.016742,0.000000,-1.673295,1.673295,0.0000,0.0000,0.0000,-0.002386,-1.698117,1.702719,0.5253,0.5914,0.1921,0.000000,0.578311,-0.562971,0.564505,-0.592117,0.575243,-0.556835
4.1440,0.016757,0.000000,-1.673002,1.673002,0.0000,0.0000,0.0000,-0.002386,-1.696583,1.702719,0.5253,0.5914,0.1921,0.000000,0.578311,-0.562971,0.564505,-0.592117,0.575243,-0.556835
4.1608,0.016742,0.000000,-1.672710,1.672710,0.0000,0.0000,0.0000,-0.002398,-1.696583,1.702719,0.5150,0.5402,0.2452,0.000000,0.578311,-0.562971,0.564505,-0.590583,0.575243,-0.556835
4.1775,0.016760,0.000000,-1.672418,1.672418,0.0000,0.0000,0.0000,-0.002409,-1.695049,1.702719,0.4769,0.5811,0.2929,0.000000,0.578311,-0.561437,0.564505,-0.590583,0.575243,-0.556835
4.1943,0.016746,0.000000,-1.672125,1.672125,0.0000,0.0000,0.0000,-0.002397,-1.695049,1.702719,0.4915,0.6277,0.2342,0.000000,0.578311,-0.561437,0.564505,-0.592117,0.575243,-0.556835
4.2110,0.016765,0.000000,-1.671833,1.671833,0.0000,0.0000,0.0000,-0.002397,-1.695049,1.702719,0.4915,0.6277,0.2342,0.000000,0.578311,-0.561437,0.564505,-0.592117,0.575243,-0.556835
4.2278,0.016748,0.000000,-1.671540,1.671540,0.0000,0.0000,0.0000,-0.002385,-1.696583,1.702719,0.5292,0.5872,0.1872,0.000000,0.578311,-0.562971,0.564505,-0.592117,0.575243,-0.556835
4.2445,0.016755,0.000000,-1.671248,1.671248,0.0000,0.0000,0.0000,-0.002398,-1.696583,1.702719,0.5146,0.5406,0.2458,0.000000,0.578311,-0.562971,0.564505,-0.590583,0.575243,-0.556835
4.2613,0.016749,0.000000,-1.670956,1.670956,0.0000,0.0000,0.0000,-0.002398,-1.695049,1.702719,0.4876,0.6319,0.2391,0.000000,0.578311,-0.561437,0.564505,-0.592117,0.575243,-0.556835
4.2781,0.016756,0.000000,-1.670663,1.670663,0.0000,0.0000,0.0000,-0.002398,-1.696583,1.702719,0.4904,0.6224,0.2398,0.000000,0.578311,-0.561437,0.564505,-0.592117,0.575243,-0.556835
4.2948,0.016746,0.000000,-1.670371,1.670371,0.0000,0.0000,0.0000,-0.002385,-1.696583,1.702719,0.5294,0.5877,0.1866,0.000000,0.578311,-0.562971,0.564505,-0.592117,0.575243,-0.556835
4.3116,0.016762,0.000000,-1.670078,1.670078,0.0000,0.0000,0.0000,-0.002385,-1.696583,1.702719,0.5294,0.5877,0.1866,0.000000,0.578311,-0.562971,0.564505,-0.592117,0.575243,-0.556835
4.3283,0.016757,0.000000,-1.669786,1.669786,0.0000,0.0000,0.0000,-0.002411,-1.695049,1.702719,0.4754,0.5762,0.2990,0.000000,0.578311,-0.561437,0.564505,-0.590583,0.575243,-0.556835
4.3451,0.016747,0.000000,-1.669494,1.669494,0.0000,0.0000,0.0000,-0.002395,-1.696583,1.702719,0.5203,0.5417,0.2341,0.000000,0.578311,-0.562971,0.564505,-0.590583,0.575243,-0.556835
4.3618,0.016748,0.000000,-1.669201,1.669201,0.0000,0.0000,0.0000,-0.002385,-1.696583,1.702719,0.5262,0.5962,0.1872,0.000000,0.578311,-0.562971,0.564505,-0.592117,0.575243,-0.556835
4.3793,0.017480,0.000000,-1.668896,1.668896,0.0000,0.0000,0.0000,-0.002386,-1.696583,1.702719,0.5256,0.5905,0.1921,0.000000,0.578311,-0.562971,0.564505,-0.592117,0.575243,-0.556835
4.3960,0.016748,0.000000,-1.668604,1.668604,0.0000,0.0000,0.0000,-0.002399,-1.695049,1.702719,0.4865,0.6267,0.2447,0.000000,0.578311,-0.561437,0.564505,-0.592117,0.575243,-0.556835
4.4128,0.016784,0.000000,-1.668311,1.668311,0.0000,0.0000,0.0000,-0.002399,-1.695049,1.702719,0.4865,0.6267,0.2447,0.000000,0.578311,-0.561437,0.564505,-0.592117,0.575243,-0.556835
4.4296,0.016752,0.000000,-1.668019,1.668019,0.0000,0.0000,0.0000,-0.002409,-1.696583,1.702719,0.4799,0.5721,0.2930,0.000000,0.578311,-0.561437,0.564505,-0.590583,0.575243,-0.556835
4.4463,0.016749,0.000000,-1.667726,1.667726,0.0000,0.0000,0.0000,-0.002397,-1.696583,1.702719,0.4912,0.6286,0.2342,0.000000,0.578311,-0.561437,0.564505,-0.592117,0.575243,-0.556835
4.4631,0.016747,0.000000,-1.667434,1.667434,0.0000,0.0000,0.0000,-0.002385,-1.696583,1.702719,0.5293,0.5871,0.1872,0.000000,0.578311,-0.562971,0.564505,-0.592117,0.575243,-0.556835
4.4798,0.016757,0.000000,-1.667142,1.667142,0.0000,0.0000,0.0000,-0.002386,-1.696583,1.702719,0.5253,0.5914,0.1921,0.000000,0.578311,-0.562971,0.564505,-0.592117,0.575243,-0.556835
4.4966,0.016743,0.000000,-1.666849,1.666849,0.0000,0.0000,0.0000,-0.002398,-1.695049,1.702719,0.5150,0.5402,0.2453,0.000000,0.578311,-0.562971,0.564505,-0.590583,0.575243,-0.556835
4.5133,0.016764,0.000000,-1.666557,1.666557,0.0000,0.0000,0.0000,-0.002398,-1.695049,1.702719,0.5150,0.5402,0.2453,0.000000,0.578311,-0.562971,0.564505,-0.590583,0.575243,-0.556835
4.5301,0.016742,0.000000,-1.666264,1.666264,0.0000,0.0000,0.0000,-0.002397,-1.695049,1.702719,0.5161,0.5455,0.2397,0.000000,0.578311,-0.562971,0.564505,-0.590583,0.575243,-0.556835
4.5468,0.016752,0.000000,-1.665972,1.665972,0.0000,0.0000,0.0000,-0.002397,-1.695049,1.702719,0.5161,0.5455,0.2397,0.000000,0.578311,-0.562971,0.564505,-0.590583,0.575243,-0.556835
4.5636,0.016750,0.000000,-1.665680,1.665680,0.0000,0.0000,0.0000,-0.002385,-1.695049,1.702719,0.5267,0.5958,0.1866,0.000000,0.578311,-0.562971,0.564505,-0.592117,0.575243,-0.556835
4.5807,0.017122,0.000000,-1.665381,1.665381,0.0000,0.0000,0.0000,-0.002398,-1.696583,1.702719,0.5149,0.5397,0.2458,0.000000,0.578311,-0.562971,0.564505,-0.590583,0.575243,-0.556835
4.5974,0.016746,0.000000,-1.665089,1.665089,0.0000,0.0000,0.0000,-0.002397,-1.696583,1.702719,0.5161,0.5455,0.2397,0.000000,0.578311,-0.562971,0.564505,-0.590583,0.575243,-0.556835
4.6142,0.016791,0.000000,-1.664796,1.664796,0.0000,0.0000,0.0000,-0.002397,-1.696583,1.702719,0.5161,0.5455,0.2397,0.000000,0.578311,-0.562971,0.564505,-0.590583,0.575243,-0.556835
4.6310,0.016752,0.000000,-1.664503,1.664503,0.0000,0.0000,0.0000,-0.002385,-1.696583,1.702719,0.5267,0.5958,0.1866,0.000000,0.578311,-0.562971,0.564505,-0.592117,0.575243,-0.556835
4.6477,0.016754,0.000000,-1.664211,1.664211,0.0000,0.0000,0.0000,-0.002411,-1.695049,1.702719,0.4757,0.5753,0.2990,0.000000,0.578311,-0.561437,0.564505,-0.590583,0.575243,-0.556835
4.6645,0.016744,0.000000,-1.663919,1.663919,0.0000,0.0000,0.0000,-0.002395,-1.696583,1.702719,0.5202,0.5418,0.2341,0.000000,0.578311,-0.562971,0.564505,-0.590583,0.575243,-0.556835
4.6813,0.016767,0.000000,-1.663626,1.663626,0.0000,0.0000,0.0000,-0.002397,-1.696583,1.702719,0.5156,0.5453,0.2409,0.000000,0.578311,-0.562971,0.564505,-0.590583,0.575243,-0.556835
4.6980,0.016748,0.000000,-1.663334,1.663334,0.0000,0.0000,0.0000,-0.002397,-1.696583,1.702719,0.5156,0.5453,0.2409,0.000000,0.578311,-0.562971,0.564505,-0.590583,0.575243,-0.556835
4.7148,0.016756,0.000000,-1.663041,1.663041,0.0000,0.0000,0.0000,-0.002397,-1.696583,1.702719,0.5156,0.5453,0.2409,0.000000,0.578311,-0.562971,0.564505,-0.590583,0.575243,-0.556835
4.7315,0.016743,0.000000,-1.662749,1.662749,0.0000,0.0000,0.0000,-0.002398,-1.696583,1.701185,0.4875,0.6314,0.2397,0.000000,0.578311,-0.561437,0.564505,-0.592117,0.575243,-0.556835
4.7483,0.016759,0.000000,-1.662456,1.662456,0.0000,0.0000,0.0000,-0.002396,-1.696583,1.701185,0.5190,0.5360,0.2403,0.000000,0.578311,-0.562971,0.564505,-0.590583,0.575243,-0.556835
4.7650,0.016753,0.000000,-1.662164,1.662164,0.0000,0.0000,0.0000,-0.002385,-1.696583,1.701185,0.5264,0.5968,0.1865,0.000000,0.578311,-0.562971,0.564505,-0.592117,0.575243,-0.556835
4.7823,0.017330,0.000000,-1.661862,1.661862,0.0000,0.0000,0.0000,-0.002398,-1.695049,1.701185,0.5149,0.5396,0.2458,0.000000,0.578311,-0.562971,0.564505,-0.590583,0.575243,-0.556835
4.7991,0.016746,0.000000,-1.661569,1.661569,0.0000,0.0000,0.0000,-0.002397,-1.695049,1.701185,0.5161,0.5456,0.2397,0.000000,0.578311,-0.562971,0.564505,-0.590583,0.575243,-0.556835
4.8160,0.016908,0.000000,-1.661274,1.661274,0.0000,0.0000,0.0000,-0.002397,-1.695049,1.701185,0.5161,0.5456,0.2397,0.000000,0.578311,-0.562971,0.564505,-0.590583,0.575243,-0.556835
4.8327,0.016746,0.000000,-1.660982,1.660982,0.0000,0.0000,0.0000,-0.002398,-1.695049,1.701185,0.4875,0.6314,0.2398,0.000000,0.578311,-0.561437,0.564505,-0.592117,0.575243,-0.556835
4.8495,0.016751,0.000000,-1.660690,1.660690,0.0000,0.0000,0.0000,-0.002409,-1.695049,1.701185,0.4798,0.5716,0.2935,0.000000,0.578311,-0.561437,0.564505,-0.590583,0.575243,-0.556835
4.8663,0.016781,0.000000,-1.660397,1.660397,0.0000,0.0000,0.0000,-0.002384,-1.696583,1.701185,0.5305,0.5931,0.1810,0.000000,0.578311,-0.562971,0.564505,-0.592117,0.575243,-0.556835
4.8830,0.016769,0.000000,-1.660104,1.660104,0.0000,0.0000,0.0000,-0.002387,-1.695049,1.701185,0.5252,0.5908,0.1927,0.000000,0.578311,-0.562971,0.564505,-0.592117,0.575243,-0.556835
4.8998,0.016747,0.000000,-1.659812,1.659812,0.0000,0.0000,0.0000,-0.002398,-1.695049,1.701185,0.5151,0.5402,0.2452,0.000000,0.578311,-0.562971,0.564505,-0.590583,0.575243,-0.556835
4.9166,0.016759,0.000000,-1.659519,1.659519,0.0000,0.0000,0.0000,-0.002398,-1.695049,1.701185,0.5151,0.5402,0.2452,0.000000,0.578311,-0.562971,0.564505,-0.590583,0.575243,-0.556835
4.9333,0.016744,0.000000,-1.659227,1.659227,0.0000,0.0000,0.0000,-0.002397,-1.696583,1.701185,0.5161,0.5455,0.2397,0.000000,0.578311,-0.562971,0.564505,-0.590583,0.575243,-0.556835
4.9501,0.016758,0.000000,-1.658935,1.658935,0.0000,0.0000,0.0000,-0.002385,-1.696583,1.701185,0.5267,0.5958,0.1866,0.000000,0.578311,-0.562971,0.564505,-0.592117,0.575243,-0.556835
4.9668,0.016751,0.000000,-1.658642,1.658642,0.0000,0.0000,0.0000,-0.002411,-1.696583,1.701185,0.4757,0.5753,0.2990,0.000000,0.578311,-0.561437,0.564505,-0.590583,0.575243,-0.556835
4.9838,0.017025,0.000000,-1.658345,1.658345,0.0000,0.0000,0.0000,-0.002384,-1.695049,1.701185,0.5309,0.5927,0.1804,0.000000,0.578311,-0.562971,0.564505,-0.592117,0.575243,-0.556835
5.0006,0.016742,0.000000,-1.658053,1.658053,0.0000,0.0000,0.0000,-0.002387,-1.695049,1.701185,0.5251,0.5908,0.1928,0.000000,0.578311,-0.562971,0.564505,-0.592117,0.575243,-0.556835
5.0173,0.016755,0.000000,-1.657760,1.657760,0.0000,0.0000,0.0000,-0.002387,-1.695049,1.701185,0.5251,0.5908,0.1928,0.000000,0.578311,-0.562971,0.564505,-0.592117,0.575243,-0.556835
5.0341,0.016748,0.000000,-1.657468,1.657468,0.0000,0.0000,0.0000,-0.002386,-1.695049,1.701185,0.5259,0.5911,0.1911,0.000000,0.578311,-0.562971,0.564505,-0.592117,0.575243,-0.556835
5.0508,0.016743,0.000000,-1.657176,1.657176,0.0000,0.0000,0.0000,-0.002411,-1.695049,1.701185,0.4758,0.5758,0.2985,0.000000,0.578311,-0.561437,0.564505,-0.590583,0.575243,-0.556835
5.0676,0.016743,0.000000,-1.656884,1.656884,0.0000,0.0000,0.0000,-0.002395,-1.695049,1.701185,0.5202,0.5418,0.2342,0.000000,0.578311,-0.562971,0.564505,-0.590583,0.575243,-0.556835
5.0843,0.016744,0.000000,-1.656591,1.656591,0.0000,0.0000,0.0000,-0.002410,-1.695049,1.701185,0.4764,0.5809,0.2941,0.000000,0.578311,-0.561437,0.564505,-0.590583,0.575243,-0.556835
5.1011,0.016746,0.000000,-1.656299,1.656299,0.0000,0.0000,0.0000,-0.002397,-1.695049,1.701185,0.4916,0.6277,0.2341,0.000000,0.578311,-0.561437,0.564505,-0.592117,0.575243,-0.556835
5.1178,0.016748,0.000000,-1.656007,1.656007,0.0000,0.0000,0.0000,-0.002397,-1.695049,1.701185,0.4916,0.6277,0.2341,0.000000,0.578311,-0.561437,0.564505,-0.592117,0.575243,-0.556835
5.1345,0.016747,0.000000,-1.655714,1.655714,0.0000,0.0000,0.0000,-0.002397,-1.695049,1.701185,0.5186,0.5364,0.2409,0.000000,0.578311,-0.562971,0.564505,-0.590583,0.575243,-0.556835
5.1513,0.016750,0.000000,-1.655422,1.655422,0.0000,0.0000,0.0000,-0.002398,-1.695049,1.701185,0.4872,0.6323,0.2397,0.000000,0.578311,-0.561437,0.564505,-0.592117,0.575243,-0.556835
5.1680,0.016746,0.000000,-1.655130,1.655130,0.0000,0.0000,0.0000,-0.002385,-1.695049,1.701185,0.5297,0.5867,0.1866,0.000000,0.578311,-0.562971,0.564505,-0.592117,0.575243,-0.556835
5.1848,0.016742,0.000000,-1.654838,1.654838,0.0000,0.0000,0.0000,-0.002398,-1.695049,1.701185,0.5146,0.5407,0.2458,0.000000,0.578311,-0.562971,0.564505,-0.590583,0.575243,-0.556835
5.2015,0.016745,0.000000,-1.654545,1.654545,0.0000,0.0000,0.0000,-0.002397,-1.695049,1.701185,0.5162,0.5454,0.2397,0.000000,0.578311,-0.562971,0.564505,-0.590583,0.575243,-0.556835
5.2183,0.016748,0.000000,-1.654253,1.654253,0.0000,0.0000,0.0000,-0.002397,-1.695049,1.701185,0.5162,0.5454,0.2397,0.000000,0.578311,-0.562971,0.564505,-0.590583,0.575243,-0.556835
5.2350,0.016751,0.000000,-1.653961,1.653961,0.0000,0.0000,0.0000,-0.002409,-1.695049,1.701185,0.4768,0.5805,0.2935,0.000000,0.578311,-0.561437,0.564505,-0.590583,0.575243,-0.556835
5.2518,0.016744,0.000000,-1.653669,1.653669,0.0000,0.0000,0.0000,-0.002397,-1.695049,1.699651,0.4916,0.6277,0.2342,0.000000,0.578311,-0.561437,0.564505,-0.592117,0.575243,-0.556835
5.2685,0.016744,0.000000,-1.653376,1.653376,0.0000,0.0000,0.0000,-0.002398,-1.695049,1.693515,0.4900,0.6228,0.2404,0.000000,0.578311,-0.561437,0.564505,-0.592117,0.575243,-0.556835
5.2853,0.016744,0.000000,-1.653084,1.653084,0.0000,0.0000,0.0000,-0.002398,-1.695049,1.687379,0.4900,0.6228,0.2404,0.000000,0.578311,-0.561437,0.564505,-0.592117,0.575243,-0.556835
5.3021,0.016853,0.000000,-1.652790,1.652790,0.0000,0.0000,0.0000,-0.002396,-1.695049,1.685845,0.5187,0.5369,0.2402,0.000000,0.578311,-0.562971,0.564505,-0.590583,0.575243,-0.556835
5.3190,0.016898,0.000000,-1.652495,1.652495,0.0000,0.0000,0.0000,-0.002396,-1.695049,1.685845,0.5187,0.5369,0.2402,0.000000,0.578311,-0.562971,0.564505,-0.590583,0.575243,-0.556835
5.3358,0.016775,0.000000,-1.652202,1.652202,0.0000,0.0000,0.0000,-0.002385,-1.693515,1.685845,0.5264,0.5967,0.1865,0.000000,0.578311,-0.562971,0.564505,-0.592117,0.575243,-0.556835
5.3525,0.016742,0.000000,-1.651910,1.651910,0.0000,0.0000,0.0000,-0.002386,-1.691981,1.685845,0.5256,0.5904,0.1921,0.000000,0.578311,-0.562971,0.564505,-0.592117,0.575243,-0.556835
5.3693,0.016742,0.000000,-1.651618,1.651618,0.0000,0.0000,0.0000,-0.002411,-1.687379,1.685845,0.4758,0.5759,0.2984,0.000000,0.578311,-0.561437,0.564505,-0.590583,0.575243,-0.556835
5.3860,0.016743,0.000000,-1.651326,1.651326,0.0000,0.0000,0.0000,-0.002395,-1.679709,1.685845,0.5202,0.5418,0.2342,0.000000,0.578311,-0.562971,0.564505,-0.590583,0.575243,-0.556835
5.4028,0.016744,0.000000,-1.651033,1.651033,0.0000,0.0000,0.0000,-0.002398,-1.675107,1.685845,0.4871,0.6317,0.2404,0.000000,0.578311,-0.561437,0.564505,-0.592117,0.575243,-0.556835
5.4195,0.016741,0.000000,-1.650741,1.650741,0.0000,0.0000,0.0000,-0.002398,-1.675107,1.685845,0.4871,0.6317,0.2404,0.000000,0.578311,-0.561437,0.564505,-0.592117,0.575243,-0.556835
5.4362,0.016745,0.000000,-1.650449,1.650449,0.0000,0.0000,0.0000,-0.002398,-1.672039,1.685845,0.4905,0.6224,0.2397,0.000000,0.578311,-0.561437,0.564505,-0.592117,0.575243,-0.556835
5.4530,0.016740,0.000000,-1.650157,1.650157,0.0000,0.0000,0.0000,-0.002385,-1.672039,1.685845,0.5294,0.5877,0.1866,0.000000,0.578311,-0.562971,0.564505,-0.592117,0.575243,-0.556835
5.4698,0.016801,0.000000,-1.649863,1.649863,0.0000,0.0000,0.0000,-0.002398,-1.672039,1.685845,0.5146,0.5406,0.2458,0.000000,0.578311,-0.562971,0.564505,-0.590583,0.575243,-0.556835
5.4865,0.016760,0.000000,-1.649571,1.649571,0.0000,0.0000,0.0000,-0.002409,-1.672039,1.685845,0.4770,0.5810,0.2928,0.000000,0.578311,-0.561437,0.564505,-0.590583,0.575243,-0.556835
