t,loop_dt,cmd_z,cmd_ant_l,cmd_ant_r,cmd_roll,cmd_pitch,cmd_yaw,pres_z,pres_ant_l,pres_ant_r,pres_roll,pres_pitch,pres_yaw,pres_j0,pres_j1,pres_j2,pres_j3,pres_j4,pres_j5,pres_j6
0.0000,0.000002,0.000000,-0.349065,0.349065,0.0000,0.0000,0.0000,-0.002486,-0.165670,0.164136,0.4350,0.6821,0.2381,0.000000,0.572175,-0.561437,0.564505,-0.590583,0.575243,-0.552233
0.0168,0.016769,0.000000,-0.343212,0.343212,0.0000,0.0000,0.0000,-0.002486,-0.165670,0.164136,0.4350,0.6821,0.2381,0.000000,0.572175,-0.561437,0.564505,-0.590583,0.575243,-0.552233
0.0335,0.016754,0.000000,-0.337363,0.337363,0.0000,0.0000,0.0000,-0.002475,-0.170272,0.165670,0.4454,0.7323,0.1850,0.000000,0.572175,-0.561437,0.564505,-0.592117,0.575243,-0.552233
0.0503,0.016755,0.000000,-0.331515,0.331515,0.0000,0.0000,0.0000,-0.002475,-0.171806,0.167204,0.4729,0.6406,0.1911,0.000000,0.572175,-0.562971,0.564505,-0.590583,0.575243,-0.552233
0.0670,0.016763,0.000000,-0.325663,0.325663,0.0000,0.0000,0.0000,-0.002474,-0.197884,0.197884,0.3812,0.6681,0.1903,0.000000,0.572175,-0.561437,0.564505,-0.590583,0.575243,-0.553767
0.0838,0.016748,0.000000,-0.319817,0.319817,0.0000,0.0000,0.0000,-0.002475,-0.263845,0.268447,0.3907,0.6652,0.1904,0.000000,0.572175,-0.561437,0.564505,-0.590583,0.575243,-0.553767
0.1006,0.016759,0.000000,-0.313967,0.313967,0.0000,0.0000,0.0000,-0.002475,-0.263845,0.268447,0.3907,0.6652,0.1904,0.000000,0.572175,-0.561437,0.564505,-0.590583,0.575243,-0.553767
0.1175,0.016970,0.000000,-0.308044,0.308044,0.0000,0.0000,0.0000,-0.002462,-0.366621,0.365087,0.4289,0.6299,0.1372,0.000000,0.572175,-0.562971,0.564505,-0.590583,0.575243,-0.553767
0.1343,0.016762,0.000000,-0.302193,0.302193,0.0000,0.0000,0.0000,-0.002465,-0.363553,0.358952,0.4851,0.7021,0.1424,0.000000,0.572175,-0.562971,0.564505,-0.592117,0.575243,-0.552233
0.1510,0.016754,0.000000,-0.296344,0.296344,0.0000,0.0000,0.0000,-0.002463,-0.342078,0.342078,0.4190,0.6261,0.1422,0.000000,0.572175,-0.562971,0.564505,-0.590583,0.575243,-0.553767
0.1678,0.016766,0.000000,-0.290492,0.290492,0.0000,0.0000,0.0000,-0.002463,-0.342078,0.342078,0.4190,0.6261,0.1422,0.000000,0.572175,-0.562971,0.564505,-0.590583,0.575243,-0.553767
0.1846,0.016761,0.000000,-0.284641,0.284641,0.0000,0.0000,0.0000,-0.002464,-0.322136,0.325204,0.3973,0.7204,0.1416,0.000000,0.572175,-0.561437,0.564505,-0.592117,0.575243,-0.553767
0.2013,0.016758,0.000000,-0.278792,0.278792,0.0000,0.0000,0.0000,-0.002464,-0.303728,0.308330,0.3996,0.7106,0.1417,0.000000,0.572175,-0.561437,0.564505,-0.592117,0.575243,-0.553767
0.2181,0.016812,0.000000,-0.272923,0.272923,0.0000,0.0000,0.0000,-0.002451,-0.292990,0.297592,0.4779,0.6097,0.1960,0.000000,0.573709,-0.562971,0.564505,-0.590583,0.575243,-0.553767
0.2349,0.016755,0.000000,-0.267074,0.267074,0.0000,0.0000,0.0000,-0.002403,-0.291456,0.289922,0.4308,0.6201,0.0836,0.000000,0.575243,-0.562971,0.564505,-0.592117,0.575243,-0.556835
0.2520,0.017085,0.000000,-0.261110,0.261110,0.0000,0.0000,0.0000,-0.002403,-0.286854,0.285320,0.4308,0.6201,0.0836,0.000000,0.576777,-0.562971,0.564505,-0.592117,0.575243,-0.558369
0.2687,0.016757,0.000000,-0.255261,0.255261,0.0000,0.0000,0.0000,-0.002383,-0.286854,0.285320,0.4361,0.5858,0.0956,0.000000,0.576777,-0.562971,0.564505,-0.592117,0.575243,-0.558369
0.2855,0.016754,0.000000,-0.249413,0.249413,0.0000,0.0000,0.0000,-0.002385,-0.283786,0.280718,0.4356,0.5894,0.0944,0.000000,0.576777,-0.562971,0.564505,-0.592117,0.575243,-0.558369
0.3022,0.016756,0.000000,-0.243564,0.243564,0.0000,0.0000,0.0000,-0.002386,-0.277651,0.276117,0.4073,0.5397,0.0946,0.000000,0.578311,-0.561437,0.562971,-0.592117,0.575243,-0.559903
0.3190,0.016756,0.000000,-0.237715,0.237715,0.0000,0.0000,0.0000,-0.002347,-0.266913,0.271515,0.4284,0.4770,0.1489,0.000000,0.579845,-0.562971,0.564505,-0.590583,0.575243,-0.561437
0.3358,0.016760,0.000000,-0.231865,0.231865,0.0000,0.0000,0.0000,-0.002351,-0.257709,0.262311,0.4262,0.4835,0.1432,0.000000,0.579845,-0.562971,0.564505,-0.590583,0.575243,-0.561437
0.3525,0.016765,0.000000,-0.226013,0.226013,0.0000,0.0000,0.0000,-0.002339,-0.250039,0.253107,0.4372,0.5336,0.0901,0.000000,0.579845,-0.562971,0.564505,-0.592117,0.575243,-0.561437
0.3693,0.016756,0.000000,-0.220164,0.220164,0.0000,0.0000,0.0000,-0.002339,-0.250039,0.253107,0.4372,0.5336,0.0901,0.000000,0.579845,-0.562971,0.564505,-0.592117,0.575243,-0.561437
0.3861,0.016773,0.000000,-0.214309,0.214309,0.0000,0.0000,0.0000,-0.002340,-0.240835,0.245437,0.4360,0.5284,0.0956,0.000000,0.579845,-0.562971,0.564505,-0.592117,0.575243,-0.561437
0.4028,0.016751,0.000000,-0.208462,0.208462,0.0000,0.0000,0.0000,-0.002353,-0.233165,0.239301,0.3970,0.5645,0.1482,0.000000,0.579845,-0.561437,0.564505,-0.592117,0.575243,-0.561437
0.4196,0.016776,0.000000,-0.202606,0.202606,0.0000,0.0000,0.0000,-0.002350,-0.230097,0.231631,0.4295,0.4744,0.1433,0.000000,0.579845,-0.562971,0.564505,-0.590583,0.575243,-0.561437
0.4364,0.016824,0.000000,-0.196733,0.196733,0.0000,0.0000,0.0000,-0.002339,-0.225495,0.227029,0.4368,0.5346,0.0901,0.000000,0.579845,-0.562971,0.564505,-0.592117,0.575243,-0.561437
0.4532,0.016774,0.000000,-0.190878,0.190878,0.0000,0.0000,0.0000,-0.002339,-0.213223,0.220893,0.4368,0.5346,0.0901,0.000000,0.579845,-0.562971,0.564505,-0.590583,0.575243,-0.561437
0.4699,0.016753,0.000000,-0.185030,0.185030,0.0000,0.0000,0.0000,-0.002352,-0.213223,0.220893,0.4253,0.4775,0.1493,0.000000,0.579845,-0.562971,0.564505,-0.590583,0.575243,-0.561437
0.4867,0.016765,0.000000,-0.179178,0.179178,0.0000,0.0000,0.0000,-0.002350,-0.204019,0.213223,0.4265,0.4835,0.1432,0.000000,0.579845,-0.562971,0.564505,-0.590583,0.575243,-0.561437
0.5034,0.016708,0.000000,-0.173346,0.173346,0.0000,0.0000,0.0000,-0.002350,-0.197884,0.204019,0.4265,0.4835,0.1432,0.000000,0.579845,-0.562971,0.564505,-0.590583,0.575243,-0.561437
0.5202,0.016766,0.000000,-0.167493,0.167493,0.0000,0.0000,0.0000,-0.002363,-0.196350,0.197884,0.3872,0.5183,0.1970,0.000000,0.579845,-0.561437,0.564505,-0.590583,0.575243,-0.561437
0.5369,0.016748,0.000000,-0.161647,0.161647,0.0000,0.0000,0.0000,-0.002362,-0.188680,0.191748,0.3912,0.5147,0.1914,0.000000,0.579845,-0.561437,0.564505,-0.590583,0.575243,-0.561437
0.5537,0.016778,0.000000,-0.155791,0.155791,0.0000,0.0000,0.0000,-0.002349,-0.177942,0.184078,0.4301,0.4796,0.1388,0.000000,0.579845,-0.562971,0.564505,-0.590583,0.575243,-0.561437
0.5704,0.016754,0.000000,-0.149942,0.149942,0.0000,0.0000,0.0000,-0.002349,-0.177942,0.184078,0.4301,0.4796,0.1388,0.000000,0.579845,-0.562971,0.564505,-0.590583,0.575243,-0.561437
0.5872,0.016756,0.000000,-0.144094,0.144094,0.0000,0.0000,0.0000,-0.002351,-0.171806,0.173340,0.4260,0.4832,0.1443,0.000000,0.579845,-0.562971,0.564505,-0.590583,0.575243,-0.561437
0.6040,0.016750,0.000000,-0.138247,0.138247,0.0000,0.0000,0.0000,-0.002363,-0.164136,0.165670,0.3872,0.5184,0.1969,0.000000,0.579845,-0.561437,0.564505,-0.590583,0.575243,-0.561437
0.6207,0.016771,0.000000,-0.132393,0.132393,0.0000,0.0000,0.0000,-0.002349,-0.156466,0.159534,0.4305,0.4792,0.1382,0.000000,0.579845,-0.562971,0.564505,-0.590583,0.575243,-0.561437
0.6375,0.016753,0.000000,-0.126545,0.126545,0.0000,0.0000,0.0000,-0.002351,-0.151864,0.151864,0.4260,0.4833,0.1443,0.000000,0.579845,-0.562971,0.564505,-0.590583,0.575243,-0.561437
0.6543,0.016782,0.000000,-0.120686,0.120686,0.0000,0.0000,0.0000,-0.002351,-0.145728,0.142660,0.4260,0.4833,0.1443,0.000000,0.579845,-0.562971,0.564505,-0.590583,0.575243,-0.561437
0.6710,0.016751,0.000000,-0.114839,0.114839,0.0000,0.0000,0.0000,-0.002351,-0.145728,0.142660,0.4260,0.4833,0.1443,0.000000,0.579845,-0.562971,0.564505,-0.590583,0.575243,-0.561437
0.6878,0.016770,0.000000,-0.108985,0.108985,0.0000,0.0000,0.0000,-0.002351,-0.138058,0.134990,0.4260,0.4833,0.1443,0.000000,0.579845,-0.562971,0.564505,-0.590583,0.575243,-0.561437
0.7045,0.016756,0.000000,-0.103136,0.103136,0.0000,0.0000,0.0000,-0.002339,-0.130388,0.128854,0.4372,0.5337,0.0900,0.000000,0.579845,-0.562971,0.564505,-0.592117,0.575243,-0.561437
0.7213,0.016771,0.000000,-0.097282,0.097282,0.0000,0.0000,0.0000,-0.002340,-0.121184,0.121184,0.4360,0.5284,0.0956,0.000000,0.579845,-0.562971,0.564505,-0.592117,0.575243,-0.561437
0.7381,0.016751,0.000000,-0.091435,0.091435,0.0000,0.0000,0.0000,-0.002340,-0.116583,0.115049,0.4360,0.5284,0.0956,0.000000,0.579845,-0.562971,0.564505,-0.592117,0.575243,-0.561437
0.7548,0.016774,0.000000,-0.085580,0.085580,0.0000,0.0000,0.0000,-0.002340,-0.116583,0.115049,0.4360,0.5284,0.0956,0.000000,0.579845,-0.562971,0.564505,-0.592117,0.575243,-0.561437
0.7716,0.016754,0.000000,-0.079731,0.079731,0.0000,0.0000,0.0000,-0.002352,-0.108913,0.110447,0.4254,0.4782,0.1488,0.000000,0.579845,-0.562971,0.564505,-0.590583,0.575243,-0.561437
0.7884,0.016765,0.000000,-0.073879,0.073879,0.0000,0.0000,0.0000,-0.002350,-0.099709,0.101243,0.4265,0.4834,0.1432,0.000000,0.579845,-0.562971,0.564505,-0.590583,0.575243,-0.561437
0.8051,0.016763,0.000000,-0.068028,0.068028,0.0000,0.0000,0.0000,-0.002339,-0.092039,0.092039,0.4371,0.5336,0.0901,0.000000,0.579845,-0.562971,0.564505,-0.592117,0.575243,-0.561437
0.8219,0.016800,0.000000,-0.062164,0.062164,0.0000,0.0000,0.0000,-0.002352,-0.088971,0.085903,0.4253,0.4776,0.1493,0.000000,0.579845,-0.562971,0.564505,-0.590583,0.575243,-0.561437
0.8387,0.016755,0.000000,-0.056315,0.056315,0.0000,0.0000,0.0000,-0.002350,-0.079767,0.079767,0.4265,0.4834,0.1432,0.000000,0.579845,-0.562971,0.564505,-0.590583,0.575243,-0.561437
0.8554,0.016774,0.000000,-0.050460,0.050460,0.0000,0.0000,0.0000,-0.002350,-0.079767,0.079767,0.4265,0.4834,0.1432,0.000000,0.579845,-0.562971,0.564505,-0.590583,0.575243,-0.561437
0.8722,0.016753,0.000000,-0.044612,0.044612,0.0000,0.0000,0.0000,-0.002363,-0.069029,0.072097,0.3872,0.5183,0.1970,0.000000,0.579845,-0.561437,0.564505,-0.590583,0.575243,-0.561437
0.8890,0.016761,0.000000,-0.038761,0.038761,0.0000,0.0000,0.0000,-0.002362,-0.062893,0.061359,0.3912,0.5147,0.1914,0.000000,0.579845,-0.561437,0.564505,-0.590583,0.575243,-0.561437
0.9057,0.016753,0.000000,-0.032913,0.032913,0.0000,0.0000,0.0000,-0.002349,-0.058291,0.058291,0.4301,0.4796,0.1388,0.000000,0.579845,-0.562971,0.564505,-0.590583,0.575243,-0.561437
0.9225,0.016757,0.000000,-0.027064,0.027064,0.0000,0.0000,0.0000,-0.002351,-0.050621,0.050621,0.4260,0.4832,0.1443,0.000000,0.579845,-0.562971,0.564505,-0.590583,0.575243,-0.561437
0.9393,0.016849,0.000000,-0.021183,0.021183,0.0000,0.0000,0.0000,-0.002351,-0.038350,0.042951,0.4260,0.4832,0.1443,0.000000,0.579845,-0.562971,0.564505,-0.590583,0.575243,-0.561437
0.9561,0.016761,0.000000,-0.015332,0.015332,0.0000,0.0000,0.0000,-0.002351,-0.038350,0.042951,0.4260,0.4832,0.1443,0.000000,0.579845,-0.562971,0.564505,-0.590583,0.575243,-0.561437
0.9728,0.016755,0.000000,-0.009483,0.009483,0.0000,0.0000,0.0000,-0.002351,-0.032214,0.035282,0.4260,0.4832,0.1443,0.000000,0.579845,-0.562971,0.564505,-0.590583,0.575243,-0.561437
0.9896,0.016813,0.000000,-0.003615,0.003615,0.0000,0.0000,0.0000,-0.002351,-0.027612,0.029146,0.4260,0.4832,0.1443,0.000000,0.579845,-0.562971,0.564505,-0.590583,0.575243,-0.561437
1.0064,0.016764,0.000000,-0.002237,0.002237,0.0000,0.0000,0.0000,-0.002351,-0.023010,0.024544,0.4260,0.4832,0.1443,0.000000,0.579845,-0.562971,0.564505,-0.590583,0.575243,-0.561437
1.0232,0.016801,0.000000,-0.008102,0.008102,0.0000,0.0000,0.0000,-0.002351,-0.016874,0.015340,0.4260,0.4832,0.1443,0.000000,0.579845,-0.562971,0.564505,-0.590583,0.575243,-0.561437
1.0400,0.016755,0.000000,-0.013950,0.013950,0.0000,0.0000,0.0000,-0.002351,-0.010738,0.007670,0.4260,0.4832,0.1443,0.000000,0.579845,-0.562971,0.564505,-0.590583,0.575243,-0.561437
1.0567,0.016771,0.000000,-0.019805,0.019805,0.0000,0.0000,0.0000,-0.002351,-0.010738,0.007670,0.4260,0.4832,0.1443,0.000000,0.579845,-0.562971,0.564505,-0.590583,0.575243,-0.561437
1.0735,0.016751,0.000000,-0.025652,0.025652,0.0000,0.0000,0.0000,-0.002351,0.000000,0.000000,0.4260,0.4832,0.1443,0.000000,0.579845,-0.562971,0.564505,-0.590583,0.575243,-0.561437
1.0902,0.016761,0.000000,-0.031502,0.031502,0.0000,0.0000,0.0000,-0.002363,0.001534,0.003068,0.3872,0.5184,0.1969,0.000000,0.579845,-0.561437,0.564505,-0.590583,0.575243,-0.561437
1.1070,0.016755,0.000000,-0.037351,0.037351,0.0000,0.0000,0.0000,-0.002349,-0.003068,0.009204,0.4305,0.4792,0.1382,0.000000,0.579845,-0.562971,0.564505,-0.590583,0.575243,-0.561437
1.1238,0.016763,0.000000,-0.043202,0.043202,0.0000,0.0000,0.0000,-0.002349,-0.003068,0.009204,0.4305,0.4792,0.1382,0.000000,0.579845,-0.562971,0.564505,-0.590583,0.575243,-0.561437
1.1405,0.016754,0.000000,-0.049051,0.049051,0.0000,0.0000,0.0000,-0.002363,-0.027612,0.027612,0.3867,0.5188,0.1975,0.000000,0.579845,-0.561437,0.564505,-0.590583,0.575243,-0.561437
1.1574,0.016905,0.000000,-0.054952,0.054952,0.0000,0.0000,0.0000,-0.002338,-0.038350,0.033748,0.4413,0.5300,0.0844,0.000000,0.579845,-0.562971,0.564505,-0.592117,0.575243,-0.561437
1.1743,0.016860,0.000000,-0.060837,0.060837,0.0000,0.0000,0.0000,-0.002340,-0.038350,0.036816,0.4356,0.5288,0.0962,0.000000,0.579845,-0.562971,0.564505,-0.592117,0.575243,-0.561437
1.1910,0.016757,0.000000,-0.066686,0.066686,0.0000,0.0000,0.0000,-0.002340,-0.038350,0.036816,0.4356,0.5288,0.0962,0.000000,0.579845,-0.562971,0.564505,-0.592117,0.575243,-0.561437
1.2078,0.016752,0.000000,-0.072534,0.072534,0.0000,0.0000,0.0000,-0.002352,-0.038350,0.039884,0.4254,0.4781,0.1487,0.000000,0.579845,-0.562971,0.564505,-0.590583,0.575243,-0.561437
1.2246,0.016758,0.000000,-0.078383,0.078383,0.0000,0.0000,0.0000,-0.002350,-0.047553,0.049087,0.4265,0.4834,0.1432,0.000000,0.579845,-0.562971,0.564505,-0.590583,0.575243,-0.561437
1.2415,0.016917,0.000000,-0.084289,0.084289,0.0000,0.0000,0.0000,-0.002350,-0.062893,0.061359,0.4265,0.4834,0.1432,0.000000,0.579845,-0.562971,0.564505,-0.590583,0.575243,-0.561437
1.2582,0.016757,0.000000,-0.090138,0.090138,0.0000,0.0000,0.0000,-0.002350,-0.073631,0.072097,0.4265,0.4834,0.1432,0.000000,0.579845,-0.562971,0.564505,-0.590583,0.575243,-0.561437
1.2750,0.016761,0.000000,-0.095988,0.095988,0.0000,0.0000,0.0000,-0.002339,-0.081301,0.079767,0.4371,0.5336,0.0901,0.000000,0.579845,-0.562971,0.564505,-0.592117,0.575243,-0.561437
1.2917,0.016758,0.000000,-0.101838,0.101838,0.0000,0.0000,0.0000,-0.002339,-0.081301,0.079767,0.4371,0.5336,0.0901,0.000000,0.579845,-0.562971,0.564505,-0.592117,0.575243,-0.561437
1.3085,0.016737,0.000000,-0.107680,0.107680,0.0000,0.0000,0.0000,-0.002340,-0.084369,0.081301,0.4360,0.5284,0.0956,0.000000,0.579845,-0.562971,0.564505,-0.592117,0.575243,-0.561437
1.3255,0.017049,0.000000,-0.113632,0.113632,0.0000,0.0000,0.0000,-0.002340,-0.084369,0.084369,0.4360,0.5284,0.0956,0.000000,0.579845,-0.562971,0.564505,-0.592117,0.575243,-0.561437
1.3423,0.016763,0.000000,-0.119483,0.119483,0.0000,0.0000,0.0000,-0.002352,-0.090505,0.095107,0.4254,0.4782,0.1488,0.000000,0.579845,-0.562971,0.564505,-0.590583,0.575243,-0.561437
1.3590,0.016752,0.000000,-0.125331,0.125331,0.0000,0.0000,0.0000,-0.002363,-0.104311,0.108913,0.3873,0.5189,0.1964,0.000000,0.579845,-0.561437,0.564505,-0.590583,0.575243,-0.561437
1.3758,0.016764,0.000000,-0.131183,0.131183,0.0000,0.0000,0.0000,-0.002338,-0.119651,0.116583,0.4413,0.5300,0.0845,0.000000,0.579845,-0.562971,0.564505,-0.592117,0.575243,-0.561437
1.3926,0.016758,0.000000,-0.137032,0.137032,0.0000,0.0000,0.0000,-0.002338,-0.119651,0.116583,0.4413,0.5300,0.0845,0.000000,0.579845,-0.562971,0.564505,-0.592117,0.575243,-0.561437
1.4093,0.016763,0.000000,-0.142884,0.142884,0.0000,0.0000,0.0000,-0.002352,-0.124252,0.118117,0.4248,0.4780,0.1499,0.000000,0.579845,-0.562971,0.564505,-0.590583,0.575243,-0.561437
1.4261,0.016749,0.000000,-0.148730,0.148730,0.0000,0.0000,0.0000,-0.002350,-0.125786,0.119651,0.4266,0.4834,0.1431,0.000000,0.579845,-0.562971,0.564505,-0.590583,0.575243,-0.561437
1.4428,0.016760,0.000000,-0.154580,0.154580,0.0000,0.0000,0.0000,-0.002352,-0.130388,0.128854,0.3979,0.5692,0.1433,0.000000,0.579845,-0.561437,0.564505,-0.592117,0.575243,-0.561437
1.4596,0.016761,0.000000,-0.160431,0.160431,0.0000,0.0000,0.0000,-0.002350,-0.139592,0.139592,0.4294,0.4739,0.1438,0.000000,0.579845,-0.562971,0.564505,-0.590583,0.575243,-0.561437
1.4764,0.016769,0.000000,-0.166285,0.166285,0.0000,0.0000,0.0000,-0.002350,-0.153398,0.150330,0.4261,0.4838,0.1437,0.000000,0.579845,-0.562971,0.564505,-0.590583,0.575243,-0.561437
1.4931,0.016762,0.000000,-0.172136,0.172136,0.0000,0.0000,0.0000,-0.002350,-0.153398,0.150330,0.4261,0.4838,0.1437,0.000000,0.579845,-0.562971,0.564505,-0.590583,0.575243,-0.561437
1.5099,0.016764,0.000000,-0.177987,0.177987,0.0000,0.0000,0.0000,-0.002339,-0.158000,0.153398,0.4372,0.5336,0.0900,0.000000,0.579845,-0.562971,0.564505,-0.592117,0.575243,-0.561437
1.5266,0.016750,0.000000,-0.183834,0.183834,0.0000,0.0000,0.0000,-0.002340,-0.158000,0.151864,0.4360,0.5284,0.0956,0.000000,0.579845,-0.562971,0.564505,-0.592117,0.575243,-0.561437
1.5434,0.016766,0.000000,-0.189687,0.189687,0.0000,0.0000,0.0000,-0.002352,-0.167204,0.161068,0.4254,0.4782,0.1488,0.000000,0.579845,-0.562971,0.564505,-0.590583,0.575243,-0.561437
1.5602,0.016759,0.000000,-0.195537,0.195537,0.0000,0.0000,0.0000,-0.002339,-0.176408,0.173340,0.4373,0.5342,0.0895,0.000000,0.579845,-0.562971,0.564505,-0.592117,0.575243,-0.561437
1.5769,0.016766,0.000000,-0.201389,0.201389,0.0000,0.0000,0.0000,-0.002352,-0.188680,0.185612,0.4252,0.4776,0.1494,0.000000,0.579845,-0.562971,0.564505,-0.590583,0.575243,-0.561437
1.5937,0.016755,0.000000,-0.207238,0.207238,0.0000,0.0000,0.0000,-0.002352,-0.188680,0.185612,0.4252,0.4776,0.1494,0.000000,0.579845,-0.562971,0.564505,-0.590583,0.575243,-0.561437
1.6105,0.016758,0.000000,-0.213087,0.213087,0.0000,0.0000,0.0000,-0.002350,-0.191748,0.187146,0.4265,0.4835,0.1432,0.000000,0.579845,-0.562971,0.564505,-0.590583,0.575243,-0.561437
1.6272,0.016751,0.000000,-0.218935,0.218935,0.0000,0.0000,0.0000,-0.002350,-0.191748,0.185612,0.4265,0.4835,0.1432,0.000000,0.579845,-0.562971,0.564505,-0.590583,0.575243,-0.561437
1.6440,0.016756,0.000000,-0.224784,0.224784,0.0000,0.0000,0.0000,-0.002350,-0.197884,0.194816,0.4265,0.4835,0.1432,0.000000,0.579845,-0.562971,0.564505,-0.590583,0.575243,-0.561437
1.6607,0.016768,0.000000,-0.230637,0.230637,0.0000,0.0000,0.0000,-0.002363,-0.211689,0.211689,0.3872,0.5183,0.1970,0.000000,0.579845,-0.561437,0.564505,-0.590583,0.575243,-0.561437
1.6775,0.016757,0.000000,-0.236486,0.236486,0.0000,0.0000,0.0000,-0.002363,-0.211689,0.211689,0.3872,0.5183,0.1970,0.000000,0.579845,-0.561437,0.564505,-0.590583,0.575243,-0.561437
1.6942,0.016752,0.000000,-0.242333,0.242333,0.0000,0.0000,0.0000,-0.002349,-0.222427,0.220893,0.4305,0.4792,0.1382,0.000000,0.579845,-0.562971,0.564505,-0.590583,0.575243,-0.561437
1.7110,0.016761,0.000000,-0.248184,0.248184,0.0000,0.0000,0.0000,-0.002351,-0.223961,0.225495,0.4260,0.4833,0.1443,0.000000,0.579845,-0.562971,0.564505,-0.590583,0.575243,-0.561437
1.7278,0.016765,0.000000,-0.254036,0.254036,0.0000,0.0000,0.0000,-0.002339,-0.225495,0.228563,0.4372,0.5337,0.0900,0.000000,0.579845,-0.562971,0.564505,-0.592117,0.575243,-0.561437
1.7445,0.016757,0.000000,-0.259885,0.259885,0.0000,0.0000,0.0000,-0.002352,-0.239301,0.237767,0.4253,0.4776,0.1494,0.000000,0.579845,-0.562971,0.564505,-0.590583,0.575243,-0.561437
1.7613,0.016763,0.000000,-0.265737,0.265737,0.0000,0.0000,0.0000,-0.002339,-0.250039,0.242369,0.4373,0.5342,0.0894,0.000000,0.579845,-0.562971,0.564505,-0.592117,0.575243,-0.561437
1.7782,0.016900,0.000000,-0.271636,0.271636,0.0000,0.0000,0.0000,-0.002339,-0.253107,0.251573,0.4373,0.5342,0.0894,0.000000,0.579845,-0.562971,0.564505,-0.590583,0.575243,-0.561437
1.7949,0.016752,0.000000,-0.277484,0.277484,0.0000,0.0000,0.0000,-0.002352,-0.253107,0.251573,0.4252,0.4776,0.1494,0.000000,0.579845,-0.562971,0.564505,-0.590583,0.575243,-0.561437
1.8117,0.016756,0.000000,-0.283332,0.283332,0.0000,0.0000,0.0000,-0.002339,-0.257709,0.262311,0.4373,0.5343,0.0894,0.000000,0.579845,-0.562971,0.564505,-0.592117,0.575243,-0.561437
1.8284,0.016761,0.000000,-0.289183,0.289183,0.0000,0.0000,0.0000,-0.002340,-0.266913,0.263845,0.4360,0.5283,0.0957,0.000000,0.579845,-0.562971,0.564505,-0.592117,0.575243,-0.561437
1.8452,0.016756,0.000000,-0.295032,0.295032,0.0000,0.0000,0.0000,-0.002352,-0.271515,0.263845,0.4254,0.4782,0.1488,0.000000,0.579845,-0.562971,0.564505,-0.590583,0.575243,-0.561437
1.8623,0.017067,0.000000,-0.300989,0.300989,0.0000,0.0000,0.0000,-0.002350,-0.274583,0.273049,0.4265,0.4834,0.1432,0.000000,0.579845,-0.562971,0.564505,-0.590583,0.575243,-0.561437
1.8791,0.016780,0.000000,-0.306847,0.306847,0.0000,0.0000,0.0000,-0.002339,-0.283786,0.288388,0.4371,0.5336,0.0901,0.000000,0.579845,-0.562971,0.564505,-0.592117,0.575243,-0.561437
1.8958,0.016755,0.000000,-0.312695,0.312695,0.0000,0.0000,0.0000,-0.002339,-0.283786,0.288388,0.4371,0.5336,0.0901,0.000000,0.579845,-0.562971,0.564505,-0.592117,0.575243,-0.561437
1.9126,0.016752,0.000000,-0.318543,0.318543,0.0000,0.0000,0.0000,-0.002352,-0.299126,0.297592,0.4253,0.4776,0.1493,0.000000,0.579845,-0.562971,0.564505,-0.590583,0.575243,-0.561437
1.9293,0.016759,0.000000,-0.324393,0.324393,0.0000,0.0000,0.0000,-0.002352,-0.305262,0.299126,0.3981,0.5698,0.1426,0.000000,0.579845,-0.561437,0.564505,-0.592117,0.575243,-0.561437
1.9461,0.016753,0.000000,-0.330241,0.330241,0.0000,0.0000,0.0000,-0.002352,-0.305262,0.300660,0.4009,0.5602,0.1433,0.000000,0.579845,-0.561437,0.564505,-0.592117,0.575243,-0.561437
1.9628,0.016761,0.000000,-0.336092,0.336092,0.0000,0.0000,0.0000,-0.002350,-0.312932,0.314466,0.4291,0.4748,0.1438,0.000000,0.579845,-0.562971,0.564505,-0.590583,0.575243,-0.561437
1.9799,0.017066,0.000000,-0.342049,0.342049,0.0000,0.0000,0.0000,-0.002350,-0.312932,0.314466,0.4291,0.4748,0.1438,0.000000,0.579845,-0.562971,0.564505,-0.590583,0.575243,-0.561437
1.9967,0.016758,0.000000,-0.347898,0.347898,0.0000,0.0000,0.0000,-0.002350,-0.329806,0.326738,0.4261,0.4837,0.1437,0.000000,0.579845,-0.562971,0.564505,-0.590583,0.575243,-0.561437
2.0134,0.016770,0.000000,-0.344379,0.344379,0.0000,0.0000,0.0000,-0.002339,-0.332874,0.329806,0.4372,0.5336,0.0900,0.000000,0.579845,-0.562971,0.564505,-0.592117,0.575243,-0.561437
2.0302,0.016752,0.000000,-0.338532,0.338532,0.0000,0.0000,0.0000,-0.002352,-0.331340,0.332874,0.4253,0.4776,0.1493,0.000000,0.579845,-0.562971,0.564505,-0.590583,0.575243,-0.561437
2.0469,0.016757,0.000000,-0.332683,0.332683,0.0000,0.0000,0.0000,-0.002339,-0.339010,0.342078,0.4373,0.5342,0.0894,0.000000,0.579845,-0.562971,0.564505,-0.592117,0.575243,-0.561437
2.0637,0.016756,0.000000,-0.326834,0.326834,0.0000,0.0000,0.0000,-0.002353,-0.349748,0.343612,0.3968,0.5639,0.1489,0.000000,0.579845,-0.561437,0.564505,-0.592117,0.575243,-0.561437
2.0805,0.016771,0.000000,-0.320980,0.320980,0.0000,0.0000,0.0000,-0.002353,-0.349748,0.343612,0.3968,0.5639,0.1489,0.000000,0.579845,-0.561437,0.564505,-0.592117,0.575243,-0.561437
2.0972,0.016767,0.000000,-0.315127,0.315127,0.0000,0.0000,0.0000,-0.002339,-0.349748,0.340544,0.4403,0.5252,0.0895,0.000000,0.579845,-0.562971,0.564505,-0.592117,0.575243,-0.561437
2.1140,0.016759,0.000000,-0.309277,0.309277,0.0000,0.0000,0.0000,-0.002352,-0.342078,0.337476,0.4249,0.4785,0.1494,0.000000,0.579845,-0.562971,0.564505,-0.590583,0.575243,-0.561437
2.1308,0.016844,0.000000,-0.303398,0.303398,0.0000,0.0000,0.0000,-0.002339,-0.329806,0.334408,0.4373,0.5342,0.0894,0.000000,0.579845,-0.562971,0.564505,-0.592117,0.575243,-0.561437
2.1476,0.016774,0.000000,-0.297542,0.297542,0.0000,0.0000,0.0000,-0.002339,-0.329806,0.334408,0.4373,0.5342,0.0894,0.000000,0.579845,-0.562971,0.564505,-0.592117,0.575243,-0.561437
2.1644,0.016760,0.000000,-0.291692,0.291692,0.0000,0.0000,0.0000,-0.002365,-0.322136,0.331340,0.3860,0.5131,0.2026,0.000000,0.579845,-0.561437,0.564505,-0.590583,0.575243,-0.561437
2.1811,0.016751,0.000000,-0.285845,0.285845,0.0000,0.0000,0.0000,-0.002338,-0.316000,0.326738,0.4414,0.5306,0.0839,0.000000,0.579845,-0.562971,0.564505,-0.592117,0.575243,-0.561437
2.1979,0.016761,0.000000,-0.279994,0.279994,0.0000,0.0000,0.0000,-0.002352,-0.311398,0.317534,0.4248,0.4779,0.1500,0.000000,0.579845,-0.562971,0.564505,-0.590583,0.575243,-0.561437
2.2146,0.016747,0.000000,-0.274148,0.274148,0.0000,0.0000,0.0000,-0.002339,-0.303728,0.305262,0.4373,0.5342,0.0894,0.000000,0.579845,-0.562971,0.564505,-0.592117,0.575243,-0.561437
2.2314,0.016778,0.000000,-0.268292,0.268292,0.0000,0.0000,0.0000,-0.002339,-0.303728,0.305262,0.4373,0.5342,0.0894,0.000000,0.579845,-0.562971,0.564505,-0.592117,0.575243,-0.561437
2.2482,0.016751,0.000000,-0.262445,0.262445,0.0000,0.0000,0.0000,-0.002352,-0.296058,0.294524,0.4252,0.4776,0.1494,0.000000,0.579845,-0.562971,0.564505,-0.590583,0.575243,-0.561437
2.2649,0.016755,0.000000,-0.256596,0.256596,0.0000,0.0000,0.0000,-0.002350,-0.285320,0.286854,0.4265,0.4835,0.1432,0.000000,0.579845,-0.562971,0.564505,-0.590583,0.575243,-0.561437
2.2817,0.016756,0.000000,-0.250747,0.250747,0.0000,0.0000,0.0000,-0.002350,-0.279185,0.280718,0.4265,0.4835,0.1432,0.000000,0.579845,-0.562971,0.564505,-0.590583,0.575243,-0.561437
2.2984,0.016760,0.000000,-0.244897,0.244897,0.0000,0.0000,0.0000,-0.002350,-0.271515,0.276117,0.4265,0.4835,0.1432,0.000000,0.579845,-0.562971,0.564505,-0.590583,0.575243,-0.561437
2.3152,0.016749,0.000000,-0.239050,0.239050,0.0000,0.0000,0.0000,-0.002350,-0.265379,0.269981,0.4265,0.4835,0.1432,0.000000,0.579845,-0.562971,0.564505,-0.590583,0.575243,-0.561437
2.3319,0.016764,0.000000,-0.233198,0.233198,0.0000,0.0000,0.0000,-0.002350,-0.265379,0.269981,0.4265,0.4835,0.1432,0.000000,0.579845,-0.562971,0.564505,-0.590583,0.575243,-0.561437
2.3487,0.016741,0.000000,-0.227355,0.227355,0.0000,0.0000,0.0000,-0.002362,-0.256175,0.259243,0.3766,0.4984,0.0900,0.000000,0.578311,-0.562971,0.564505,-0.590583,0.575243,-0.561437
2.3654,0.016759,0.000000,-0.221505,0.221505,0.0000,0.0000,0.0000,-0.002362,-0.251573,0.251573,0.3924,0.5168,0.2025,0.000000,0.579845,-0.561437,0.564505,-0.590583,0.575243,-0.561437
2.3822,0.016755,0.000000,-0.215656,0.215656,0.0000,0.0000,0.0000,-0.002349,-0.243903,0.246971,0.4300,0.4794,0.1376,0.000000,0.579845,-0.562971,0.564505,-0.590583,0.575243,-0.561437
2.3989,0.016755,0.000000,-0.209808,0.209808,0.0000,0.0000,0.0000,-0.002351,-0.236233,0.242369,0.4260,0.4833,0.1444,0.000000,0.579845,-0.562971,0.564505,-0.590583,0.575243,-0.561437
2.4157,0.016754,0.000000,-0.203959,0.203959,0.0000,0.0000,0.0000,-0.002339,-0.228563,0.234699,0.4372,0.5337,0.0900,0.000000,0.579845,-0.562971,0.564505,-0.592117,0.575243,-0.561437
2.4324,0.016750,0.000000,-0.198112,0.198112,0.0000,0.0000,0.0000,-0.002339,-0.228563,0.234699,0.4372,0.5337,0.0900,0.000000,0.579845,-0.562971,0.564505,-0.592117,0.575243,-0.561437
2.4492,0.016752,0.000000,-0.192265,0.192265,0.0000,0.0000,0.0000,-0.002340,-0.219359,0.225495,0.4360,0.5284,0.0956,0.000000,0.579845,-0.562971,0.564505,-0.592117,0.575243,-0.561437
2.4660,0.016781,0.000000,-0.186407,0.186407,0.0000,0.0000,0.0000,-0.002365,-0.210155,0.220893,0.4749,0.4958,0.2022,0.000000,0.579845,-0.562971,0.564505,-0.590583,0.575243,-0.559903
2.4827,0.016757,0.000000,-0.180558,0.180558,0.0000,0.0000,0.0000,-0.002349,-0.202485,0.214757,0.4213,0.4815,0.1377,0.000000,0.579845,-0.562971,0.564505,-0.590583,0.575243,-0.561437
2.4995,0.016776,0.000000,-0.174702,0.174702,0.0000,0.0000,0.0000,-0.002349,-0.197884,0.205553,0.4213,0.4815,0.1377,0.000000,0.579845,-0.562971,0.564505,-0.590583,0.575243,-0.561437
2.5163,0.016750,0.000000,-0.168855,0.168855,0.0000,0.0000,0.0000,-0.002351,-0.197884,0.205553,0.4269,0.4830,0.1444,0.000000,0.579845,-0.562971,0.564505,-0.590583,0.575243,-0.561437
2.5330,0.016753,0.000000,-0.163007,0.163007,0.0000,0.0000,0.0000,-0.002339,-0.190214,0.196350,0.4371,0.5337,0.0900,0.000000,0.579845,-0.562971,0.564505,-0.592117,0.575243,-0.561437
2.5498,0.016752,0.000000,-0.157160,0.157160,0.0000,0.0000,0.0000,-0.002352,-0.182544,0.188680,0.4253,0.4776,0.1494,0.000000,0.579845,-0.562971,0.564505,-0.590583,0.575243,-0.561437
2.5665,0.016766,0.000000,-0.151307,0.151307,0.0000,0.0000,0.0000,-0.002350,-0.177942,0.181010,0.4265,0.4834,0.1432,0.000000,0.579845,-0.562971,0.564505,-0.590583,0.575243,-0.561437
2.5833,0.016751,0.000000,-0.145460,0.145460,0.0000,0.0000,0.0000,-0.002339,-0.173340,0.171806,0.4371,0.5336,0.0901,0.000000,0.579845,-0.562971,0.564505,-0.592117,0.575243,-0.561437
2.6000,0.016758,0.000000,-0.139610,0.139610,0.0000,0.0000,0.0000,-0.002352,-0.167204,0.164136,0.4253,0.4776,0.1493,0.000000,0.579845,-0.562971,0.564505,-0.590583,0.575243,-0.561437
2.6168,0.016757,0.000000,-0.133761,0.133761,0.0000,0.0000,0.0000,-0.002352,-0.167204,0.164136,0.4253,0.4776,0.1493,0.000000,0.579845,-0.562971,0.564505,-0.590583,0.575243,-0.561437
2.6336,0.016755,0.000000,-0.127913,0.127913,0.0000,0.0000,0.0000,-0.002350,-0.158000,0.156466,0.4265,0.4834,0.1432,0.000000,0.579845,-0.562971,0.564505,-0.590583,0.575243,-0.561437
2.6503,0.016755,0.000000,-0.122064,0.122064,0.0000,0.0000,0.0000,-0.002350,-0.148796,0.148796,0.4265,0.4834,0.1432,0.000000,0.579845,-0.562971,0.564505,-0.590583,0.575243,-0.561437
2.6671,0.016756,0.000000,-0.116215,0.116215,0.0000,0.0000,0.0000,-0.002339,-0.142660,0.142660,0.4371,0.5336,0.0901,0.000000,0.579845,-0.562971,0.564505,-0.592117,0.575243,-0.561437
2.6840,0.016940,0.000000,-0.110302,0.110302,0.0000,0.0000,0.0000,-0.002365,-0.138058,0.138058,0.3860,0.5131,0.2025,0.000000,0.579845,-0.561437,0.564505,-0.590583,0.575243,-0.561437
2.7008,0.016753,0.000000,-0.104454,0.104454,0.0000,0.0000,0.0000,-0.002338,-0.130388,0.130388,0.4414,0.5306,0.0839,0.000000,0.579845,-0.562971,0.564505,-0.592117,0.575243,-0.561437
2.7175,0.016749,0.000000,-0.098607,0.098607,0.0000,0.0000,0.0000,-0.002338,-0.130388,0.130388,0.4414,0.5306,0.0839,0.000000,0.579845,-0.562971,0.564505,-0.592117,0.575243,-0.561437
2.7343,0.016749,0.000000,-0.092761,0.092761,0.0000,0.0000,0.0000,-0.002352,-0.121184,0.121184,0.4248,0.4779,0.1500,0.000000,0.579845,-0.562971,0.564505,-0.590583,0.575243,-0.561437
2.7510,0.016762,0.000000,-0.086910,0.086910,0.0000,0.0000,0.0000,-0.002363,-0.113515,0.115049,0.3873,0.5189,0.1963,0.000000,0.579845,-0.561437,0.564505,-0.590583,0.575243,-0.561437
2.7678,0.016752,0.000000,-0.081062,0.081062,0.0000,0.0000,0.0000,-0.002349,-0.107379,0.108913,0.4305,0.4791,0.1383,0.000000,0.579845,-0.562971,0.564505,-0.590583,0.575243,-0.561437
2.7845,0.016763,0.000000,-0.075211,0.075211,0.0000,0.0000,0.0000,-0.002339,-0.104311,0.102777,0.4367,0.5341,0.0906,0.000000,0.579845,-0.562971,0.564505,-0.592117,0.575243,-0.561437
2.8013,0.016761,0.000000,-0.069360,0.069360,0.0000,0.0000,0.0000,-0.002340,-0.099709,0.092039,0.4361,0.5283,0.0956,0.000000,0.579845,-0.562971,0.564505,-0.592117,0.575243,-0.561437
2.8181,0.016771,0.000000,-0.063506,0.063506,0.0000,0.0000,0.0000,-0.002340,-0.099709,0.092039,0.4361,0.5283,0.0956,0.000000,0.579845,-0.562971,0.564505,-0.592117,0.575243,-0.561437
2.8348,0.016751,0.000000,-0.057659,0.057659,0.0000,0.0000,0.0000,-0.002352,-0.090505,0.084369,0.4254,0.4782,0.1488,0.000000,0.579845,-0.562971,0.564505,-0.590583,0.575243,-0.561437
2.8516,0.016764,0.000000,-0.051807,0.051807,0.0000,0.0000,0.0000,-0.002339,-0.078233,0.076699,0.4373,0.5342,0.0895,0.000000,0.579845,-0.562971,0.564505,-0.592117,0.575243,-0.561437
2.8685,0.016897,0.000000,-0.045909,0.045909,0.0000,0.0000,0.0000,-0.002352,-0.069029,0.070563,0.4252,0.4776,0.1494,0.000000,0.579845,-0.562971,0.564505,-0.590583,0.575243,-0.561437
2.8852,0.016761,0.000000,-0.040058,0.040058,0.0000,0.0000,0.0000,-0.002339,-0.065961,0.065961,0.4373,0.5343,0.0894,0.000000,0.579845,-0.562971,0.564505,-0.592117,0.575243,-0.561437
2.9020,0.016757,0.000000,-0.034208,0.034208,0.0000,0.0000,0.0000,-0.002339,-0.062893,0.061359,0.4373,0.5343,0.0894,0.000000,0.579845,-0.562971,0.564505,-0.590583,0.575243,-0.561437
2.9188,0.016766,0.000000,-0.028356,0.028356,0.0000,0.0000,0.0000,-0.002352,-0.062893,0.061359,0.4252,0.4776,0.1494,0.000000,0.579845,-0.562971,0.564505,-0.590583,0.575243,-0.561437
2.9355,0.016753,0.000000,-0.022508,0.022508,0.0000,0.0000,0.0000,-0.002350,-0.052155,0.055223,0.4265,0.4835,0.1432,0.000000,0.579845,-0.562971,0.564505,-0.590583,0.575243,-0.561437
2.9523,0.016758,0.000000,-0.016658,0.016658,0.0000,0.0000,0.0000,-0.002350,-0.035282,0.036816,0.4265,0.4835,0.1432,0.000000,0.579845,-0.562971,0.564505,-0.590583,0.575243,-0.561437
2.9690,0.016756,0.000000,-0.010809,0.010809,0.0000,0.0000,0.0000,-0.002350,-0.035282,0.030680,0.4265,0.4835,0.1432,0.000000,0.579845,-0.562971,0.564505,-0.590583,0.575243,-0.561437
2.9858,0.016762,0.000000,-0.004959,0.004959,0.0000,0.0000,0.0000,-0.002339,-0.026078,0.024544,0.4371,0.5336,0.0901,0.000000,0.579845,-0.562971,0.564505,-0.592117,0.575243,-0.561437
3.0026,0.016781,0.000000,-0.000899,0.000899,0.0000,0.0000,0.0000,-0.002339,-0.026078,0.024544,0.4371,0.5336,0.0901,0.000000,0.579845,-0.562971,0.564505,-0.592117,0.575243,-0.561437
3.0197,0.017157,0.000000,-0.006888,0.006888,0.0000,0.0000,0.0000,-0.002340,-0.026078,0.024544,0.4360,0.5284,0.0956,0.000000,0.579845,-0.562971,0.564505,-0.592117,0.575243,-0.561437
3.0365,0.016754,0.000000,-0.012737,0.012737,0.0000,0.0000,0.0000,-0.002352,-0.004602,0.004602,0.4254,0.4782,0.1488,0.000000,0.579845,-0.562971,0.564505,-0.590583,0.575243,-0.561437
3.0534,0.016949,0.000000,-0.018653,0.018653,0.0000,0.0000,0.0000,-0.002350,-0.004602,0.004602,0.4265,0.4834,0.1432,0.000000,0.579845,-0.562971,0.564505,-0.590583,0.575243,-0.561437
3.0702,0.016764,0.000000,-0.024505,0.024505,0.0000,0.0000,0.0000,-0.002350,-0.004602,0.001534,0.4265,0.4834,0.1432,0.000000,0.579845,-0.562971,0.564505,-0.590583,0.575243,-0.561437
3.0870,0.016785,0.000000,-0.030363,0.030363,0.0000,0.0000,0.0000,-0.002350,-0.012272,0.007670,0.4265,0.4834,0.1432,0.000000,0.579845,-0.562971,0.564505,-0.590583,0.575243,-0.561437
3.1037,0.016754,0.000000,-0.036212,0.036212,0.0000,0.0000,0.0000,-0.002350,-0.023010,0.023010,0.4265,0.4834,0.1432,0.000000,0.579845,-0.562971,0.564505,-0.590583,0.575243,-0.561437
3.1214,0.017711,0.000000,-0.042394,0.042394,0.0000,0.0000,0.0000,-0.002350,-0.023010,0.023010,0.4265,0.4834,0.1432,0.000000,0.579845,-0.562971,0.564505,-0.590583,0.575243,-0.561437
3.1382,0.016751,0.000000,-0.048241,0.048241,0.0000,0.0000,0.0000,-0.002339,-0.030680,0.027612,0.4371,0.5336,0.0901,0.000000,0.579845,-0.562971,0.564505,-0.592117,0.575243,-0.561437
3.1550,0.016769,0.000000,-0.054094,0.054094,0.0000,0.0000,0.0000,-0.002340,-0.032214,0.030680,0.4360,0.5284,0.0956,0.000000,0.579845,-0.562971,0.564505,-0.592117,0.575243,-0.561437
3.1719,0.016972,0.000000,-0.060019,0.060019,0.0000,0.0000,0.0000,-0.002352,-0.032214,0.038350,0.4254,0.4782,0.1488,0.000000,0.579845,-0.562971,0.564505,-0.590583,0.575243,-0.561437
3.1887,0.016765,0.000000,-0.065871,0.065871,0.0000,0.0000,0.0000,-0.002352,-0.032214,0.038350,0.4254,0.4782,0.1488,0.000000,0.579845,-0.562971,0.564505,-0.590583,0.575243,-0.561437
3.2055,0.016751,0.000000,-0.071718,0.071718,0.0000,0.0000,0.0000,-0.002350,-0.041417,0.050621,0.4265,0.4834,0.1432,0.000000,0.579845,-0.562971,0.564505,-0.590583,0.575243,-0.561437
3.2222,0.016755,0.000000,-0.077566,0.077566,0.0000,0.0000,0.0000,-0.002350,-0.056757,0.055223,0.4265,0.4834,0.1432,0.000000,0.579845,-0.562971,0.564505,-0.590583,0.575243,-0.561437
3.2390,0.016758,0.000000,-0.083416,0.083416,0.0000,0.0000,0.0000,-0.002350,-0.067495,0.058291,0.4265,0.4834,0.1432,0.000000,0.579845,-0.562971,0.564505,-0.590583,0.575243,-0.561437
3.2557,0.016759,0.000000,-0.089266,0.089266,0.0000,0.0000,0.0000,-0.002339,-0.070563,0.070563,0.4371,0.5336,0.0901,0.000000,0.579845,-0.562971,0.564505,-0.592117,0.575243,-0.561437
3.2725,0.016773,0.000000,-0.095121,0.095121,0.0000,0.0000,0.0000,-0.002352,-0.076699,0.079767,0.4253,0.4776,0.1493,0.000000,0.579845,-0.562971,0.564505,-0.590583,0.575243,-0.561437
3.2893,0.016755,0.000000,-0.100970,0.100970,0.0000,0.0000,0.0000,-0.002352,-0.076699,0.079767,0.4253,0.4776,0.1493,0.000000,0.579845,-0.562971,0.564505,-0.590583,0.575243,-0.561437
3.3060,0.016757,0.000000,-0.106819,0.106819,0.0000,0.0000,0.0000,-0.002350,-0.087437,0.081301,0.4265,0.4834,0.1432,0.000000,0.579845,-0.562971,0.564505,-0.590583,0.575243,-0.561437
3.3228,0.016758,0.000000,-0.112669,0.112669,0.0000,0.0000,0.0000,-0.002339,-0.090505,0.085903,0.4371,0.5336,0.0901,0.000000,0.579845,-0.562971,0.564505,-0.592117,0.575243,-0.561437
3.3395,0.016745,0.000000,-0.118514,0.118514,0.0000,0.0000,0.0000,-0.002352,-0.093573,0.098175,0.4253,0.4776,0.1493,0.000000,0.579845,-0.562971,0.564505,-0.590583,0.575243,-0.561437
3.3566,0.017034,0.000000,-0.124460,0.124460,0.0000,0.0000,0.0000,-0.002350,-0.102777,0.107379,0.4265,0.4834,0.1432,0.000000,0.579845,-0.562971,0.564505,-0.590583,0.575243,-0.561437
3.3733,0.016780,0.000000,-0.130317,0.130317,0.0000,0.0000,0.0000,-0.002350,-0.116583,0.113515,0.4265,0.4834,0.1432,0.000000,0.579845,-0.562971,0.564505,-0.590583,0.575243,-0.561437
3.3901,0.016761,0.000000,-0.136168,0.136168,0.0000,0.0000,0.0000,-0.002350,-0.116583,0.113515,0.4265,0.4834,0.1432,0.000000,0.579845,-0.562971,0.564505,-0.590583,0.575243,-0.561437
3.4068,0.016755,0.000000,-0.142017,0.142017,0.0000,0.0000,0.0000,-0.002350,-0.122718,0.119651,0.4265,0.4834,0.1432,0.000000,0.579845,-0.562971,0.564505,-0.590583,0.575243,-0.561437
3.4236,0.016717,0.000000,-0.147852,0.147852,0.0000,0.0000,0.0000,-0.002339,-0.125786,0.124252,0.4371,0.5336,0.0901,0.000000,0.579845,-0.562971,0.564505,-0.592117,0.575243,-0.561437
3.4403,0.016762,0.000000,-0.153703,0.153703,0.0000,0.0000,0.0000,-0.002352,-0.133456,0.127320,0.4253,0.4776,0.1493,0.000000,0.579845,-0.562971,0.564505,-0.590583,0.575243,-0.561437
3.4571,0.016754,0.000000,-0.159551,0.159551,0.0000,0.0000,0.0000,-0.002350,-0.141126,0.131922,0.4265,0.4834,0.1432,0.000000,0.579845,-0.562971,0.564505,-0.590583,0.575243,-0.561437
3.4739,0.016841,0.000000,-0.165430,0.165430,0.0000,0.0000,0.0000,-0.002350,-0.151864,0.144194,0.4265,0.4834,0.1432,0.000000,0.579845,-0.562971,0.564505,-0.590583,0.575243,-0.561437
3.4907,0.016761,0.000000,-0.171281,0.171281,0.0000,0.0000,0.0000,-0.002350,-0.151864,0.144194,0.4265,0.4834,0.1432,0.000000,0.579845,-0.562971,0.564505,-0.590583,0.575243,-0.561437
3.5074,0.016764,0.000000,-0.177132,0.177132,0.0000,0.0000,0.0000,-0.002339,-0.159534,0.156466,0.4371,0.5336,0.0901,0.000000,0.579845,-0.562971,0.564505,-0.592117,0.575243,-0.561437
3.5242,0.016750,0.000000,-0.182979,0.182979,0.0000,0.0000,0.0000,-0.002352,-0.162602,0.161068,0.4253,0.4776,0.1493,0.000000,0.579845,-0.562971,0.564505,-0.590583,0.575243,-0.561437
3.5410,0.016756,0.000000,-0.188828,0.188828,0.0000,0.0000,0.0000,-0.002339,-0.164136,0.159534,0.4373,0.5342,0.0894,0.000000,0.579845,-0.562971,0.564505,-0.592117,0.575243,-0.561437
3.5577,0.016755,0.000000,-0.194677,0.194677,0.0000,0.0000,0.0000,-0.002340,-0.170272,0.168738,0.4360,0.5283,0.0957,0.000000,0.579845,-0.562971,0.564505,-0.592117,0.575243,-0.561437
3.5745,0.016761,0.000000,-0.200527,0.200527,0.0000,0.0000,0.0000,-0.002340,-0.184078,0.184078,0.4360,0.5283,0.0957,0.000000,0.579845,-0.562971,0.564505,-0.590583,0.575243,-0.561437
3.5912,0.016751,0.000000,-0.206375,0.206375,0.0000,0.0000,0.0000,-0.002352,-0.184078,0.184078,0.4254,0.4782,0.1488,0.000000,0.579845,-0.562971,0.564505,-0.590583,0.575243,-0.561437
3.6080,0.016760,0.000000,-0.212225,0.212225,0.0000,0.0000,0.0000,-0.002350,-0.196350,0.190214,0.4265,0.4834,0.1432,0.000000,0.579845,-0.562971,0.564505,-0.590583,0.575243,-0.561437
3.6247,0.016751,0.000000,-0.218072,0.218072,0.0000,0.0000,0.0000,-0.002339,-0.196350,0.190214,0.4371,0.5336,0.0901,0.000000,0.579845,-0.562971,0.564505,-0.592117,0.575243,-0.561437
3.6416,0.016853,0.000000,-0.223955,0.223955,0.0000,0.0000,0.0000,-0.002352,-0.194816,0.196350,0.4253,0.4776,0.1493,0.000000,0.579845,-0.562971,0.564505,-0.590583,0.575243,-0.561437
3.6583,0.016763,0.000000,-0.229806,0.229806,0.0000,0.0000,0.0000,-0.002350,-0.207087,0.211689,0.4265,0.4834,0.1432,0.000000,0.579845,-0.562971,0.564505,-0.590583,0.575243,-0.561437
3.6751,0.016759,0.000000,-0.235657,0.235657,0.0000,0.0000,0.0000,-0.002350,-0.220893,0.220893,0.4265,0.4834,0.1432,0.000000,0.579845,-0.562971,0.564505,-0.590583,0.575243,-0.561437
3.6919,0.016755,0.000000,-0.241505,0.241505,0.0000,0.0000,0.0000,-0.002350,-0.220893,0.220893,0.4265,0.4834,0.1432,0.000000,0.579845,-0.562971,0.564505,-0.590583,0.575243,-0.561437
3.7086,0.016744,0.000000,-0.247350,0.247350,0.0000,0.0000,0.0000,-0.002350,-0.227029,0.220893,0.4265,0.4834,0.1432,0.000000,0.579845,-0.562971,0.564505,-0.590583,0.575243,-0.561437
3.7254,0.016827,0.000000,-0.253223,0.253223,0.0000,0.0000,0.0000,-0.002350,-0.228563,0.223961,0.4265,0.4834,0.1432,0.000000,0.579845,-0.562971,0.564505,-0.590583,0.575243,-0.561437
3.7422,0.016747,0.000000,-0.259069,0.259069,0.0000,0.0000,0.0000,-0.002339,-0.237767,0.239301,0.4371,0.5336,0.0901,0.000000,0.579845,-0.562971,0.564505,-0.592117,0.575243,-0.561437
3.7590,0.016773,0.000000,-0.264924,0.264924,0.0000,0.0000,0.0000,-0.002352,-0.251573,0.251573,0.4253,0.4776,0.1493,0.000000,0.579845,-0.562971,0.564505,-0.590583,0.575243,-0.561437
3.7757,0.016742,0.000000,-0.270768,0.270768,0.0000,0.0000,0.0000,-0.002352,-0.251573,0.251573,0.4253,0.4776,0.1493,0.000000,0.579845,-0.562971,0.564505,-0.590583,0.575243,-0.561437
3.7924,0.016749,0.000000,-0.276615,0.276615,0.0000,0.0000,0.0000,-0.002339,-0.254641,0.251573,0.4373,0.5342,0.0894,0.000000,0.579845,-0.562971,0.564505,-0.592117,0.575243,-0.561437
3.8092,0.016740,0.000000,-0.282458,0.282458,0.0000,0.0000,0.0000,-0.002352,-0.254641,0.253107,0.4252,0.4776,0.1494,0.000000,0.579845,-0.562971,0.564505,-0.590583,0.575243,-0.561437
3.8260,0.016791,0.000000,-0.288319,0.288319,0.0000,0.0000,0.0000,-0.002339,-0.263845,0.265379,0.4373,0.5343,0.0894,0.000000,0.579845,-0.562971,0.564505,-0.592117,0.575243,-0.561437
3.8427,0.016740,0.000000,-0.294163,0.294163,0.0000,0.0000,0.0000,-0.002352,-0.276117,0.273049,0.4252,0.4776,0.1494,0.000000,0.579845,-0.562971,0.564505,-0.590583,0.575243,-0.561437
3.8595,0.016769,0.000000,-0.300016,0.300016,0.0000,0.0000,0.0000,-0.002339,-0.285320,0.282252,0.4373,0.5343,0.0894,0.000000,0.579845,-0.562971,0.564505,-0.592117,0.575243,-0.561437
3.8762,0.016740,0.000000,-0.305860,0.305860,0.0000,0.0000,0.0000,-0.002339,-0.285320,0.282252,0.4373,0.5343,0.0894,0.000000,0.579845,-0.562971,0.564505,-0.592117,0.575243,-0.561437
3.8930,0.016755,0.000000,-0.311708,0.311708,0.0000,0.0000,0.0000,-0.002352,-0.288388,0.289922,0.4252,0.4776,0.1494,0.000000,0.579845,-0.562971,0.564505,-0.590583,0.575243,-0.561437
3.9097,0.016739,0.000000,-0.317551,0.317551,0.0000,0.0000,0.0000,-0.002339,-0.289922,0.289922,0.4373,0.5343,0.0894,0.000000,0.579845,-0.562971,0.564505,-0.592117,0.575243,-0.561437
3.9265,0.016808,0.000000,-0.323418,0.323418,0.0000,0.0000,0.0000,-0.002352,-0.299126,0.292990,0.4252,0.4776,0.1494,0.000000,0.579845,-0.562971,0.564505,-0.590583,0.575243,-0.561437
3.9433,0.016742,0.000000,-0.329262,0.329262,0.0000,0.0000,0.0000,-0.002350,-0.314466,0.303728,0.4265,0.4835,0.1432,0.000000,0.579845,-0.562971,0.564505,-0.590583,0.575243,-0.561437
3.9600,0.016766,0.000000,-0.335115,0.335115,0.0000,0.0000,0.0000,-0.002350,-0.323670,0.317534,0.4265,0.4835,0.1432,0.000000,0.579845,-0.562971,0.564505,-0.590583,0.575243,-0.561437
3.9768,0.016743,0.000000,-0.340959,0.340959,0.0000,0.0000,0.0000,-0.002350,-0.323670,0.317534,0.4265,0.4835,0.1432,0.000000,0.579845,-0.562971,0.564505,-0.590583,0.575243,-0.561437
3.9935,0.016744,0.000000,-0.346804,0.346804,0.0000,0.0000,0.0000,-0.002350,-0.325204,0.323670,0.4265,0.4835,0.1432,0.000000,0.579845,-0.562971,0.564505,-0.590583,0.575243,-0.561437
4.0103,0.016743,0.000000,-0.345483,0.345483,0.0000,0.0000,0.0000,-0.002350,-0.325204,0.322136,0.4265,0.4835,0.1432,0.000000,0.579845,-0.562971,0.564505,-0.590583,0.575243,-0.561437
4.0271,0.016829,0.000000,-0.339609,0.339609,0.0000,0.0000,0.0000,-0.002350,-0.331340,0.326738,0.4265,0.4835,0.1432,0.000000,0.579845,-0.562971,0.564505,-0.590583,0.575243,-0.561437
4.0438,0.016742,0.000000,-0.333765,0.333765,0.0000,0.0000,0.0000,-0.002350,-0.343612,0.342078,0.4265,0.4835,0.1432,0.000000,0.579845,-0.562971,0.564505,-0.590583,0.575243,-0.561437
4.0606,0.016765,0.000000,-0.327913,0.327913,0.0000,0.0000,0.0000,-0.002350,-0.354350,0.349748,0.4265,0.4835,0.1432,0.000000,0.579845,-0.562971,0.564505,-0.590583,0.575243,-0.561437
4.0773,0.016741,0.000000,-0.322069,0.322069,0.0000,0.0000,0.0000,-0.002350,-0.354350,0.349748,0.4265,0.4835,0.1432,0.000000,0.579845,-0.562971,0.564505,-0.590583,0.575243,-0.561437
4.0941,0.016741,0.000000,-0.316225,0.316225,0.0000,0.0000,0.0000,-0.002350,-0.354350,0.349748,0.4265,0.4835,0.1432,0.000000,0.579845,-0.562971,0.564505,-0.590583,0.575243,-0.561437
4.1108,0.016743,0.000000,-0.310381,0.310381,0.0000,0.0000,0.0000,-0.002350,-0.346680,0.342078,0.4265,0.4835,0.1432,0.000000,0.579845,-0.562971,0.564505,-0.590583,0.575243,-0.561437
4.1276,0.016750,0.000000,-0.304534,0.304534,0.0000,0.0000,0.0000,-0.002352,-0.340544,0.339010,0.4867,0.5513,0.1436,0.000000,0.579845,-0.562971,0.564505,-0.592117,0.575243,-0.559903
4.1443,0.016742,0.000000,-0.298690,0.298690,0.0000,0.0000,0.0000,-0.002350,-0.334408,0.331340,0.4201,0.4758,0.1438,0.000000,0.579845,-0.562971,0.564505,-0.590583,0.575243,-0.561437
4.1611,0.016754,0.000000,-0.292842,0.292842,0.0000,0.0000,0.0000,-0.002350,-0.325204,0.325204,0.4270,0.4836,0.1438,0.000000,0.579845,-0.562971,0.564505,-0.590583,0.575243,-0.561437
4.1778,0.016743,0.000000,-0.286998,0.286998,0.0000,0.0000,0.0000,-0.002350,-0.325204,0.325204,0.4270,0.4836,0.1438,0.000000,0.579845,-0.562971,0.564505,-0.590583,0.575243,-0.561437
4.1946,0.016746,0.000000,-0.281152,0.281152,0.0000,0.0000,0.0000,-0.002339,-0.306796,0.308330,0.4371,0.5336,0.0900,0.000000,0.579845,-0.562971,0.564505,-0.592117,0.575243,-0.561437
4.2113,0.016741,0.000000,-0.275309,0.275309,0.0000,0.0000,0.0000,-0.002340,-0.299126,0.305262,0.4361,0.5284,0.0956,0.000000,0.579845,-0.562971,0.564505,-0.592117,0.575243,-0.561437
4.2280,0.016747,0.000000,-0.269463,0.269463,0.0000,0.0000,0.0000,-0.002340,-0.299126,0.305262,0.4361,0.5284,0.0956,0.000000,0.579845,-0.562971,0.564505,-0.592117,0.575243,-0.561437
4.2448,0.016742,0.000000,-0.263619,0.263619,0.0000,0.0000,0.0000,-0.002340,-0.289922,0.299126,0.4361,0.5284,0.0956,0.000000,0.579845,-0.562971,0.564505,-0.592117,0.575243,-0.561437
4.2615,0.016747,0.000000,-0.257773,0.257773,0.0000,0.0000,0.0000,-0.002352,-0.285320,0.291456,0.4254,0.4782,0.1488,0.000000,0.579845,-0.562971,0.564505,-0.590583,0.575243,-0.561437
4.2783,0.016744,0.000000,-0.251928,0.251928,0.0000,0.0000,0.0000,-0.002350,-0.280718,0.285320,0.4265,0.4834,0.1432,0.000000,0.579845,-0.562971,0.564505,-0.590583,0.575243,-0.561437
4.2950,0.016747,0.000000,-0.246082,0.246082,0.0000,0.0000,0.0000,-0.002350,-0.274583,0.277651,0.4265,0.4834,0.1432,0.000000,0.579845,-0.562971,0.564505,-0.590583,0.575243,-0.561437
4.3118,0.016750,0.000000,-0.240236,0.240236,0.0000,0.0000,0.0000,-0.002350,-0.266913,0.268447,0.4265,0.4834,0.1432,0.000000,0.579845,-0.562971,0.564505,-0.590583,0.575243,-0.561437
4.3285,0.016719,0.000000,-0.234400,0.234400,0.0000,0.0000,0.0000,-0.002350,-0.266913,0.268447,0.4265,0.4834,0.1432,0.000000,0.579845,-0.562971,0.564505,-0.590583,0.575243,-0.561437
4.3452,0.016746,0.000000,-0.228554,0.228554,0.0000,0.0000,0.0000,-0.002350,-0.257709,0.259243,0.4265,0.4834,0.1432,0.000000,0.579845,-0.562971,0.564505,-0.590583,0.575243,-0.561437
4.3620,0.016744,0.000000,-0.222709,0.222709,0.0000,0.0000,0.0000,-0.002339,-0.251573,0.251573,0.4371,0.5336,0.0901,0.000000,0.579845,-0.562971,0.564505,-0.592117,0.575243,-0.561437
4.3787,0.016743,0.000000,-0.216865,0.216865,0.0000,0.0000,0.0000,-0.002340,-0.243903,0.246971,0.4360,0.5284,0.0956,0.000000,0.579845,-0.562971,0.564505,-0.592117,0.575243,-0.561437
4.3955,0.016742,0.000000,-0.211021,0.211021,0.0000,0.0000,0.0000,-0.002352,-0.234699,0.240835,0.4254,0.4782,0.1488,0.000000,0.579845,-0.562971,0.564505,-0.590583,0.575243,-0.561437
4.4122,0.016748,0.000000,-0.205175,0.205175,0.0000,0.0000,0.0000,-0.002339,-0.225495,0.233165,0.4373,0.5342,0.0895,0.000000,0.579845,-0.562971,0.564505,-0.592117,0.575243,-0.561437
4.4290,0.016749,0.000000,-0.199328,0.199328,0.0000,0.0000,0.0000,-0.002339,-0.225495,0.233165,0.4373,0.5342,0.0895,0.000000,0.579845,-0.562971,0.564505,-0.592117,0.575243,-0.561437
4.4457,0.016742,0.000000,-0.193484,0.193484,0.0000,0.0000,0.0000,-0.002352,-0.217825,0.225495,0.4252,0.4776,0.1494,0.000000,0.579845,-0.562971,0.564505,-0.590583,0.575243,-0.561437
4.4625,0.016742,0.000000,-0.187640,0.187640,0.0000,0.0000,0.0000,-0.002339,-0.210155,0.220893,0.4373,0.5343,0.0894,0.000000,0.579845,-0.562971,0.564505,-0.592117,0.575243,-0.561437
4.4792,0.016750,0.000000,-0.181793,0.181793,0.0000,0.0000,0.0000,-0.002352,-0.204019,0.214757,0.4252,0.4776,0.1494,0.000000,0.579845,-0.562971,0.564505,-0.590583,0.575243,-0.561437
4.4959,0.016744,0.000000,-0.175948,0.175948,0.0000,0.0000,0.0000,-0.002339,-0.200951,0.207087,0.4373,0.5343,0.0894,0.000000,0.579845,-0.562971,0.564505,-0.592117,0.575243,-0.561437
4.5127,0.016757,0.000000,-0.170098,0.170098,0.0000,0.0000,0.0000,-0.002352,-0.199418,0.197884,0.4252,0.4776,0.1494,0.000000,0.579845,-0.562971,0.564505,-0.590583,0.575243,-0.561437
4.5294,0.016746,0.000000,-0.164253,0.164253,0.0000,0.0000,0.0000,-0.002352,-0.199418,0.197884,0.4252,0.4776,0.1494,0.000000,0.579845,-0.562971,0.564505,-0.590583,0.575243,-0.561437
4.5462,0.016740,0.000000,-0.158410,0.158410,0.0000,0.0000,0.0000,-0.002363,-0.191748,0.190214,0.3873,0.5190,0.1963,0.000000,0.579845,-0.561437,0.564505,-0.590583,0.575243,-0.561437
4.5629,0.016737,0.000000,-0.152567,0.152567,0.0000,0.0000,0.0000,-0.002349,-0.181010,0.182544,0.4305,0.4791,0.1383,0.000000,0.579845,-0.562971,0.564505,-0.590583,0.575243,-0.561437
4.5797,0.016744,0.000000,-0.146723,0.146723,0.0000,0.0000,0.0000,-0.002339,-0.173340,0.173340,0.4367,0.5341,0.0906,0.000000,0.579845,-0.562971,0.564505,-0.592117,0.575243,-0.561437
4.5964,0.016751,0.000000,-0.140876,0.140876,0.0000,0.0000,0.0000,-0.002365,-0.164136,0.165670,0.3861,0.5131,0.2025,0.000000,0.579845,-0.561437,0.564505,-0.590583,0.575243,-0.561437
4.6132,0.016767,0.000000,-0.135023,0.135023,0.0000,0.0000,0.0000,-0.002365,-0.164136,0.165670,0.3861,0.5131,0.2025,0.000000,0.579845,-0.561437,0.564505,-0.590583,0.575243,-0.561437
4.6299,0.016738,0.000000,-0.129180,0.129180,0.0000,0.0000,0.0000,-0.002338,-0.154932,0.158000,0.4414,0.5306,0.0839,0.000000,0.579845,-0.562971,0.564505,-0.592117,0.575243,-0.561437
4.6467,0.016738,0.000000,-0.123337,0.123337,0.0000,0.0000,0.0000,-0.002340,-0.147262,0.148796,0.4356,0.5287,0.0963,0.000000,0.579845,-0.562971,0.564505,-0.592117,0.575243,-0.561437
4.6634,0.016742,0.000000,-0.117493,0.117493,0.0000,0.0000,0.0000,-0.002352,-0.145728,0.142660,0.4254,0.4781,0.1487,0.000000,0.579845,-0.562971,0.564505,-0.590583,0.575243,-0.561437
4.6802,0.016749,0.000000,-0.111647,0.111647,0.0000,0.0000,0.0000,-0.002350,-0.142660,0.134990,0.4265,0.4834,0.1432,0.000000,0.579845,-0.562971,0.564505,-0.590583,0.575243,-0.561437
4.6969,0.016744,0.000000,-0.105802,0.105802,0.0000,0.0000,0.0000,-0.002350,-0.133456,0.127320,0.4265,0.4834,0.1432,0.000000,0.579845,-0.562971,0.564505,-0.590583,0.575243,-0.561437
4.7136,0.016745,0.000000,-0.099957,0.099957,0.0000,0.0000,0.0000,-0.002350,-0.133456,0.127320,0.4265,0.4834,0.1432,0.000000,0.579845,-0.562971,0.564505,-0.590583,0.575243,-0.561437
4.7304,0.016750,0.000000,-0.094110,0.094110,0.0000,0.0000,0.0000,-0.002350,-0.121184,0.118117,0.4265,0.4834,0.1432,0.000000,0.579845,-0.562971,0.564505,-0.590583,0.575243,-0.561437
4.7471,0.016750,0.000000,-0.088263,0.088263,0.0000,0.0000,0.0000,-0.002352,-0.111981,0.113515,0.4867,0.5513,0.1436,0.000000,0.579845,-0.562971,0.564505,-0.592117,0.575243,-0.559903
4.7639,0.016747,0.000000,-0.082417,0.082417,0.0000,0.0000,0.0000,-0.002350,-0.105845,0.108913,0.4201,0.4758,0.1438,0.000000,0.579845,-0.562971,0.564505,-0.590583,0.575243,-0.561437
4.7807,0.016826,0.000000,-0.076544,0.076544,0.0000,0.0000,0.0000,-0.002350,-0.102777,0.101243,0.4270,0.4836,0.1438,0.000000,0.579845,-0.562971,0.564505,-0.590583,0.575243,-0.561437
4.7978,0.017091,0.000000,-0.070578,0.070578,0.0000,0.0000,0.0000,-0.002350,-0.096641,0.092039,0.4261,0.4825,0.1438,0.000000,0.579845,-0.562971,0.564505,-0.590583,0.575243,-0.561437
4.8146,0.016760,0.000000,-0.064727,0.064727,0.0000,0.0000,0.0000,-0.002350,-0.096641,0.092039,0.4261,0.4825,0.1438,0.000000,0.579845,-0.562971,0.564505,-0.590583,0.575243,-0.561437
4.8313,0.016741,0.000000,-0.058884,0.058884,0.0000,0.0000,0.0000,-0.002339,-0.088971,0.082835,0.4372,0.5337,0.0900,0.000000,0.579845,-0.562971,0.564505,-0.592117,0.575243,-0.561437
4.8481,0.016751,0.000000,-0.053036,0.053036,0.0000,0.0000,0.0000,-0.002352,-0.078233,0.075165,0.4253,0.4776,0.1493,0.000000,0.579845,-0.562971,0.564505,-0.590583,0.575243,-0.561437
4.8648,0.016754,0.000000,-0.047188,0.047188,0.0000,0.0000,0.0000,-0.002350,-0.069029,0.070563,0.4265,0.4834,0.1432,0.000000,0.579845,-0.562971,0.564505,-0.590583,0.575243,-0.561437
4.8816,0.016738,0.000000,-0.041346,0.041346,0.0000,0.0000,0.0000,-0.002350,-0.065961,0.065961,0.4265,0.4834,0.1432,0.000000,0.579845,-0.562971,0.564505,-0.590583,0.575243,-0.561437
4.8983,0.016738,0.000000,-0.035503,0.035503,0.0000,0.0000,0.0000,-0.002350,-0.061359,0.059825,0.4265,0.4834,0.1432,0.000000,0.579845,-0.562971,0.564505,-0.590583,0.575243,-0.561437
4.9150,0.016739,0.000000,-0.029660,0.029660,0.0000,0.0000,0.0000,-0.002350,-0.061359,0.059825,0.4265,0.4834,0.1432,0.000000,0.579845,-0.562971,0.564505,-0.590583,0.575243,-0.561437
4.9318,0.016746,0.000000,-0.023814,0.023814,0.0000,0.0000,0.0000,-0.002350,-0.050621,0.053689,0.4265,0.4834,0.1432,0.000000,0.579845,-0.562971,0.564505,-0.590583,0.575243,-0.561437
4.9485,0.016739,0.000000,-0.017971,0.017971,0.0000,0.0000,0.0000,-0.002350,-0.039884,0.046019,0.4265,0.4834,0.1432,0.000000,0.579845,-0.562971,0.564505,-0.590583,0.575243,-0.561437
4.9653,0.016740,0.000000,-0.012128,0.012128,0.0000,0.0000,0.0000,-0.002339,-0.033748,0.036816,0.4371,0.5336,0.0901,0.000000,0.579845,-0.562971,0.564505,-0.592117,0.575243,-0.561437
4.9820,0.016750,0.000000,-0.006281,0.006281,0.0000,0.0000,0.0000,-0.002340,-0.033748,0.032214,0.4360,0.5284,0.0956,0.000000,0.579845,-0.562971,0.564505,-0.592117,0.575243,-0.561437
4.9988,0.016770,0.000000,-0.000427,0.000427,0.0000,0.0000,0.0000,-0.002340,-0.026078,0.026078,0.4360,0.5284,0.0956,0.000000,0.579845,-0.562971,0.564505,-0.592117,0.575243,-0.561437
5.0155,0.016755,0.000000,-0.005421,0.005421,0.0000,0.0000,0.0000,-0.002340,-0.026078,0.026078,0.4360,0.5284,0.0956,0.000000,0.579845,-0.562971,0.564505,-0.592117,0.575243,-0.561437
5.0323,0.016741,0.000000,-0.011265,0.011265,0.0000,0.0000,0.0000,-0.002340,-0.012272,0.016874,0.4360,0.5284,0.0956,0.000000,0.579845,-0.562971,0.564505,-0.592117,0.575243,-0.561437
5.0490,0.016755,0.000000,-0.017114,0.017114,0.0000,0.0000,0.0000,-0.002340,-0.004602,0.004602,0.4360,0.5284,0.0956,0.000000,0.579845,-0.562971,0.564505,-0.592117,0.575243,-0.561437
5.0658,0.016814,0.000000,-0.022983,0.022983,0.0000,0.0000,0.0000,-0.002352,-0.003068,0.001534,0.4254,0.4782,0.1488,0.000000,0.579845,-0.562971,0.564505,-0.590583,0.575243,-0.561437
5.0826,0.016759,0.000000,-0.028833,0.028833,0.0000,0.0000,0.0000,-0.002339,-0.006136,0.001534,0.4373,0.5342,0.0895,0.000000,0.579845,-0.562971,0.564505,-0.592117,0.575243,-0.561437
5.0994,0.016805,0.000000,-0.034699,0.034699,0.0000,0.0000,0.0000,-0.002352,-0.013806,0.010738,0.4252,0.4776,0.1494,0.000000,0.579845,-0.562971,0.564505,-0.590583,0.575243,-0.561437
5.1162,0.016753,0.000000,-0.040547,0.040547,0.0000,0.0000,0.0000,-0.002352,-0.013806,0.010738,0.4252,0.4776,0.1494,0.000000,0.579845,-0.562971,0.564505,-0.590583,0.575243,-0.561437
5.1329,0.016742,0.000000,-0.046391,0.046391,0.0000,0.0000,0.0000,-0.002350,-0.026078,0.024544,0.4265,0.4835,0.1432,0.000000,0.579845,-0.562971,0.564505,-0.590583,0.575243,-0.561437
5.1497,0.016754,0.000000,-0.052239,0.052239,0.0000,0.0000,0.0000,-0.002350,-0.030680,0.026078,0.4265,0.4835,0.1432,0.000000,0.579845,-0.562971,0.564505,-0.590583,0.575243,-0.561437
5.1664,0.016745,0.000000,-0.058084,0.058084,0.0000,0.0000,0.0000,-0.002339,-0.029146,0.026078,0.4371,0.5336,0.0901,0.000000,0.579845,-0.562971,0.564505,-0.592117,0.575243,-0.561437
5.1832,0.016754,0.000000,-0.063933,0.063933,0.0000,0.0000,0.0000,-0.002365,-0.032214,0.035282,0.3860,0.5131,0.2025,0.000000,0.579845,-0.561437,0.564505,-0.590583,0.575243,-0.561437
5.1999,0.016769,0.000000,-0.069786,0.069786,0.0000,0.0000,0.0000,-0.002365,-0.032214,0.035282,0.3860,0.5131,0.2025,0.000000,0.579845,-0.561437,0.564505,-0.590583,0.575243,-0.561437
5.2167,0.016756,0.000000,-0.075635,0.075635,0.0000,0.0000,0.0000,-0.002349,-0.059825,0.059825,0.4306,0.4797,0.1376,0.000000,0.579845,-0.562971,0.564505,-0.590583,0.575243,-0.561437
5.2334,0.016752,0.000000,-0.081483,0.081483,0.0000,0.0000,0.0000,-0.002339,-0.064427,0.058291,0.4367,0.5340,0.0907,0.000000,0.579845,-0.562971,0.564505,-0.592117,0.575243,-0.561437
5.2502,0.016746,0.000000,-0.087328,0.087328,0.0000,0.0000,0.0000,-0.002352,-0.067495,0.062893,0.4253,0.4776,0.1493,0.000000,0.579845,-0.562971,0.564505,-0.590583,0.575243,-0.561437
5.2669,0.016749,0.000000,-0.093175,0.093175,0.0000,0.0000,0.0000,-0.002352,-0.067495,0.062893,0.4253,0.4776,0.1493,0.000000,0.579845,-0.562971,0.564505,-0.590583,0.575243,-0.561437
5.2837,0.016749,0.000000,-0.099021,0.099021,0.0000,0.0000,0.0000,-0.002350,-0.076699,0.076699,0.4265,0.4834,0.1432,0.000000,0.579845,-0.562971,0.564505,-0.590583,0.575243,-0.561437
5.3004,0.016745,0.000000,-0.104866,0.104866,0.0000,0.0000,0.0000,-0.002339,-0.085903,0.084369,0.4371,0.5336,0.0901,0.000000,0.579845,-0.562971,0.564505,-0.592117,0.575243,-0.561437
5.3172,0.016758,0.000000,-0.110716,0.110716,0.0000,0.0000,0.0000,-0.002353,-0.085903,0.085903,0.3969,0.5639,0.1488,0.000000,0.579845,-0.561437,0.564505,-0.592117,0.575243,-0.561437
5.3339,0.016748,0.000000,-0.116562,0.116562,0.0000,0.0000,0.0000,-0.002350,-0.088971,0.093573,0.4295,0.4745,0.1432,0.000000,0.579845,-0.562971,0.564505,-0.590583,0.575243,-0.561437
5.3507,0.016764,0.000000,-0.122413,0.122413,0.0000,0.0000,0.0000,-0.002351,-0.102777,0.107379,0.4261,0.4838,0.1438,0.000000,0.579845,-0.562971,0.564505,-0.590583,0.575243,-0.561437
5.3674,0.016744,0.000000,-0.128258,0.128258,0.0000,0.0000,0.0000,-0.002351,-0.102777,0.107379,0.4261,0.4838,0.1438,0.000000,0.579845,-0.562971,0.564505,-0.590583,0.575243,-0.561437
5.3842,0.016755,0.000000,-0.134107,0.134107,0.0000,0.0000,0.0000,-0.002339,-0.118117,0.115049,0.4372,0.5336,0.0900,0.000000,0.579845,-0.562971,0.564505,-0.592117,0.575243,-0.561437
5.4009,0.016745,0.000000,-0.139952,0.139952,0.0000,0.0000,0.0000,-0.002340,-0.122718,0.115049,0.4360,0.5284,0.0956,0.000000,0.579845,-0.562971,0.564505,-0.592117,0.575243,-0.561437
5.4177,0.016762,0.000000,-0.145803,0.145803,0.0000,0.0000,0.0000,-0.002352,-0.121184,0.119651,0.4254,0.4782,0.1488,0.000000,0.579845,-0.562971,0.564505,-0.590583,0.575243,-0.561437
5.4348,0.017091,0.000000,-0.151769,0.151769,0.0000,0.0000,0.0000,-0.002350,-0.127320,0.133456,0.4265,0.4834,0.1432,0.000000,0.579845,-0.562971,0.564505,-0.590583,0.575243,-0.561437
5.4515,0.016749,0.000000,-0.157615,0.157615,0.0000,0.0000,0.0000,-0.002350,-0.139592,0.144194,0.4265,0.4834,0.1432,0.000000,0.579845,-0.562971,0.564505,-0.590583,0.575243,-0.561437
5.4683,0.016741,0.000000,-0.163459,0.163459,0.0000,0.0000,0.0000,-0.002350,-0.139592,0.144194,0.4265,0.4834,0.1432,0.000000,0.579845,-0.562971,0.564505,-0.590583,0.575243,-0.561437
5.4850,0.016750,0.000000,-0.169306,0.169306,0.0000,0.0000,0.0000,-0.002339,-0.153398,0.148796,0.4371,0.5336,0.0901,0.000000,0.579845,-0.562971,0.564505,-0.592117,0.575243,-0.561437
