t,loop_dt,cmd_z,cmd_ant_l,cmd_ant_r,cmd_roll,cmd_pitch,cmd_yaw,pres_z,pres_ant_l,pres_ant_r,pres_roll,pres_pitch,pres_yaw,pres_j0,pres_j1,pres_j2,pres_j3,pres_j4,pres_j5,pres_j6
0.0000,0.000001,0.000000,-1.745329,1.745329,0.0000,0.0000,0.0000,-0.002499,-1.573864,1.567728,0.4587,0.7744,0.2915,0.000000,0.572175,-0.559903,0.564505,-0.592117,0.575243,-0.550699
0.0168,0.016762,0.000000,-1.744452,1.744452,0.0000,0.0000,0.0000,-0.002536,-1.573864,1.567728,0.3538,0.7763,0.3389,0.000000,0.570641,-0.558369,0.564505,-0.590583,0.575243,-0.550699
0.0335,0.016764,0.000000,-1.743574,1.743574,0.0000,0.0000,0.0000,-0.002536,-1.573864,1.567728,0.3538,0.7763,0.3389,0.000000,0.570641,-0.558369,0.564505,-0.590583,0.575243,-0.550699
0.0503,0.016748,0.000000,-1.742697,1.742697,0.0000,0.0000,0.0000,-0.002507,-1.573864,1.567728,0.4539,0.7250,0.3347,0.000000,0.572175,-0.559903,0.564505,-0.590583,0.575243,-0.550699
0.0670,0.016763,0.000000,-1.741819,1.741819,0.0000,0.0000,0.0000,-0.002486,-1.607612,1.610680,0.4042,0.7634,0.2280,0.000000,0.572175,-0.559903,0.564505,-0.592117,0.575243,-0.552233
0.0838,0.016757,0.000000,-1.740942,1.740942,0.0000,0.0000,0.0000,-0.002475,-1.682777,1.681243,0.3597,0.7417,0.1858,0.000000,0.572175,-0.559903,0.564505,-0.592117,0.575243,-0.553767
0.1006,0.016764,0.000000,-1.740064,1.740064,0.0000,0.0000,0.0000,-0.002474,-1.762544,1.761010,0.3041,0.6755,0.1905,0.000000,0.572175,-0.559903,0.564505,-0.590583,0.575243,-0.555301
0.1173,0.016769,0.000000,-1.739186,1.739186,0.0000,0.0000,0.0000,-0.002474,-1.790156,1.782486,0.3041,0.6755,0.1905,0.000000,0.572175,-0.559903,0.564505,-0.592117,0.575243,-0.556835
0.1341,0.016766,0.000000,-1.738308,1.738308,0.0000,0.0000,0.0000,-0.002449,-1.790156,1.782486,0.2708,0.7156,0.0828,0.000000,0.572175,-0.559903,0.564505,-0.592117,0.575243,-0.556835
0.1508,0.016753,0.000000,-1.737431,1.737431,0.0000,0.0000,0.0000,-0.002427,-1.785554,1.779418,0.2747,0.6782,0.0944,0.000000,0.573709,-0.559903,0.564505,-0.592117,0.575243,-0.558369
0.1676,0.016770,0.000000,-1.736553,1.736553,0.0000,0.0000,0.0000,-0.002392,-1.771748,1.768680,0.3138,0.6133,0.0404,0.000000,0.575243,-0.561437,0.564505,-0.592117,0.575243,-0.559903
0.1844,0.016759,0.000000,-1.735675,1.735675,0.0000,0.0000,0.0000,-0.002358,-1.761010,1.765612,0.3492,0.5513,-0.0068,0.000000,0.576777,-0.562971,0.564505,-0.592117,0.575243,-0.561437
0.2011,0.016764,0.000000,-1.734798,1.734798,0.0000,0.0000,0.0000,-0.002350,-1.753340,1.762544,0.3954,0.5421,0.0519,0.000000,0.578311,-0.562971,0.564505,-0.592117,0.575243,-0.561437
0.2179,0.016739,0.000000,-1.733921,1.733921,0.0000,0.0000,0.0000,-0.002350,-1.751806,1.762544,0.3954,0.5421,0.0519,0.000000,0.578311,-0.562971,0.564505,-0.590583,0.575243,-0.561437
0.2346,0.016762,0.000000,-1.733043,1.733043,0.0000,0.0000,0.0000,-0.002362,-1.751806,1.762544,0.3798,0.4924,0.0995,0.000000,0.578311,-0.562971,0.564505,-0.590583,0.575243,-0.561437
0.2514,0.016749,0.000000,-1.732167,1.732167,0.0000,0.0000,0.0000,-0.002361,-1.751806,1.759476,0.3815,0.4975,0.0946,0.000000,0.578311,-0.562971,0.564505,-0.590583,0.575243,-0.561437
0.2682,0.016762,0.000000,-1.731289,1.731289,0.0000,0.0000,0.0000,-0.002361,-1.751806,1.757942,0.3815,0.4975,0.0946,0.000000,0.578311,-0.562971,0.564505,-0.590583,0.575243,-0.561437
0.2849,0.016757,0.000000,-1.730411,1.730411,0.0000,0.0000,0.0000,-0.002363,-1.751806,1.756408,0.4415,0.5654,0.0948,0.000000,0.578311,-0.562971,0.564505,-0.592117,0.575243,-0.559903
0.3017,0.016756,0.000000,-1.729534,1.729534,0.0000,0.0000,0.0000,-0.002362,-1.751806,1.754874,0.4353,0.5583,0.0948,0.000000,0.578311,-0.562971,0.564505,-0.592117,0.575243,-0.559903
0.3184,0.016753,0.000000,-1.728657,1.728657,0.0000,0.0000,0.0000,-0.002362,-1.751806,1.754874,0.4353,0.5583,0.0948,0.000000,0.578311,-0.562971,0.564505,-0.592117,0.575243,-0.561437
0.3351,0.016721,0.000000,-1.727781,1.727781,0.0000,0.0000,0.0000,-0.002349,-1.751806,1.754874,0.3864,0.5414,0.0413,0.000000,0.578311,-0.562971,0.564505,-0.592117,0.575243,-0.561437
0.3519,0.016754,0.000000,-1.726904,1.726904,0.0000,0.0000,0.0000,-0.002364,-1.751806,1.754874,0.4410,0.5608,0.1004,0.000000,0.578311,-0.562971,0.564505,-0.592117,0.575243,-0.559903
0.3687,0.016769,0.000000,-1.726026,1.726026,0.0000,0.0000,0.0000,-0.002349,-1.751806,1.754874,0.3858,0.5411,0.0407,0.000000,0.578311,-0.562971,0.564505,-0.592117,0.575243,-0.561437
0.3854,0.016759,0.000000,-1.725149,1.725149,0.0000,0.0000,0.0000,-0.002351,-1.751806,1.754874,0.3916,0.5432,0.0469,0.000000,0.578311,-0.562971,0.564505,-0.592117,0.575243,-0.561437
0.4022,0.016767,0.000000,-1.724271,1.724271,0.0000,0.0000,0.0000,-0.002375,-1.751806,1.754874,0.4297,0.5098,0.1535,0.000000,0.578311,-0.562971,0.564505,-0.590583,0.575243,-0.559903
0.4190,0.016775,0.000000,-1.723392,1.723392,0.0000,0.0000,0.0000,-0.002375,-1.751806,1.754874,0.4297,0.5098,0.1535,0.000000,0.578311,-0.562971,0.564505,-0.590583,0.575243,-0.559903
0.4357,0.016775,0.000000,-1.722514,1.722514,0.0000,0.0000,0.0000,-0.002348,-1.751806,1.754874,0.3870,0.5465,0.0352,0.000000,0.578311,-0.562971,0.564505,-0.592117,0.575243,-0.561437
0.4525,0.016754,0.000000,-1.721637,1.721637,0.0000,0.0000,0.0000,-0.002351,-1.751806,1.754874,0.3915,0.5427,0.0475,0.000000,0.578311,-0.562971,0.564505,-0.592117,0.575243,-0.561437
0.4693,0.016762,0.000000,-1.720759,1.720759,0.0000,0.0000,0.0000,-0.002351,-1.751806,1.754874,0.3908,0.5432,0.0458,0.000000,0.578311,-0.562971,0.564505,-0.592117,0.575243,-0.561437
0.4860,0.016753,0.000000,-1.719882,1.719882,0.0000,0.0000,0.0000,-0.002362,-1.750272,1.754874,0.3803,0.4922,0.1002,0.000000,0.578311,-0.562971,0.564505,-0.590583,0.575243,-0.561437
0.5028,0.016753,0.000000,-1.719005,1.719005,0.0000,0.0000,0.0000,-0.002361,-1.751806,1.754874,0.3814,0.4975,0.0945,0.000000,0.578311,-0.562971,0.564505,-0.590583,0.575243,-0.561437
0.5195,0.016777,0.000000,-1.718126,1.718126,0.0000,0.0000,0.0000,-0.002350,-1.750272,1.754874,0.3920,0.5478,0.0413,0.000000,0.578311,-0.562971,0.564505,-0.592117,0.575243,-0.561437
0.5363,0.016762,0.000000,-1.717249,1.717249,0.0000,0.0000,0.0000,-0.002350,-1.750272,1.754874,0.3920,0.5478,0.0413,0.000000,0.578311,-0.562971,0.564505,-0.592117,0.575243,-0.561437
0.5531,0.016752,0.000000,-1.716371,1.716371,0.0000,0.0000,0.0000,-0.002351,-1.750272,1.754874,0.3909,0.5425,0.0469,0.000000,0.578311,-0.562971,0.564505,-0.592117,0.575243,-0.561437
0.5698,0.016756,0.000000,-1.715494,1.715494,0.0000,0.0000,0.0000,-0.002351,-1.750272,1.754874,0.3909,0.5425,0.0469,0.000000,0.578311,-0.562971,0.564505,-0.592117,0.575243,-0.561437
0.5866,0.016761,0.000000,-1.714617,1.714617,0.0000,0.0000,0.0000,-0.002351,-1.750272,1.754874,0.3909,0.5425,0.0469,0.000000,0.578311,-0.562971,0.564505,-0.592117,0.575243,-0.561437
0.6033,0.016765,0.000000,-1.713739,1.713739,0.0000,0.0000,0.0000,-0.002351,-1.750272,1.754874,0.3909,0.5425,0.0469,0.000000,0.578311,-0.562971,0.564505,-0.592117,0.575243,-0.561437
0.6201,0.016760,0.000000,-1.712861,1.712861,0.0000,0.0000,0.0000,-0.002351,-1.750272,1.754874,0.3909,0.5425,0.0469,0.000000,0.578311,-0.562971,0.564505,-0.590583,0.575243,-0.561437
0.6369,0.016773,0.000000,-1.711983,1.711983,0.0000,0.0000,0.0000,-0.002362,-1.750272,1.754874,0.3803,0.4923,0.1000,0.000000,0.578311,-0.562971,0.564505,-0.590583,0.575243,-0.561437
0.6536,0.016760,0.000000,-1.711105,1.711105,0.0000,0.0000,0.0000,-0.002349,-1.750272,1.754874,0.3921,0.5483,0.0408,0.000000,0.578311,-0.562971,0.564505,-0.592117,0.575243,-0.561437
0.6704,0.016763,0.000000,-1.710228,1.710228,0.0000,0.0000,0.0000,-0.002351,-1.750272,1.753340,0.3909,0.5425,0.0469,0.000000,0.578311,-0.562971,0.564505,-0.592117,0.575243,-0.561437
0.6871,0.016759,0.000000,-1.709350,1.709350,0.0000,0.0000,0.0000,-0.002351,-1.750272,1.753340,0.3909,0.5425,0.0469,0.000000,0.578311,-0.562971,0.564505,-0.592117,0.575243,-0.561437
0.7039,0.016766,0.000000,-1.708472,1.708472,0.0000,0.0000,0.0000,-0.002351,-1.750272,1.750272,0.3909,0.5425,0.0469,0.000000,0.578311,-0.562971,0.564505,-0.592117,0.575243,-0.561437
0.7207,0.016749,0.000000,-1.707595,1.707595,0.0000,0.0000,0.0000,-0.002362,-1.748738,1.745670,0.3803,0.4923,0.1000,0.000000,0.578311,-0.562971,0.564505,-0.590583,0.575243,-0.561437
0.7374,0.016755,0.000000,-1.706718,1.706718,0.0000,0.0000,0.0000,-0.002361,-1.748738,1.742602,0.3814,0.4975,0.0945,0.000000,0.578311,-0.562971,0.564505,-0.590583,0.575243,-0.561437
0.7542,0.016758,0.000000,-1.705841,1.705841,0.0000,0.0000,0.0000,-0.002350,-1.748738,1.741068,0.3920,0.5478,0.0413,0.000000,0.578311,-0.562971,0.564505,-0.592117,0.575243,-0.561437
0.7709,0.016758,0.000000,-1.704963,1.704963,0.0000,0.0000,0.0000,-0.002351,-1.748738,1.741068,0.3909,0.5425,0.0469,0.000000,0.578311,-0.562971,0.564505,-0.592117,0.575243,-0.561437
0.7877,0.016761,0.000000,-1.704086,1.704086,0.0000,0.0000,0.0000,-0.002351,-1.748738,1.741068,0.3909,0.5425,0.0469,0.000000,0.578311,-0.562971,0.564505,-0.592117,0.575243,-0.561437
0.8045,0.016761,0.000000,-1.703208,1.703208,0.0000,0.0000,0.0000,-0.002351,-1.748738,1.741068,0.3909,0.5425,0.0469,0.000000,0.578311,-0.562971,0.564505,-0.592117,0.575243,-0.561437
0.8212,0.016754,0.000000,-1.702331,1.702331,0.0000,0.0000,0.0000,-0.002350,-1.747204,1.741068,0.4301,0.4767,0.1538,0.000000,0.579845,-0.562971,0.564505,-0.590583,0.575243,-0.561437
0.8380,0.016752,0.000000,-1.701454,1.701454,0.0000,0.0000,0.0000,-0.002351,-1.741068,1.741068,0.3870,0.5499,0.0351,0.000000,0.578311,-0.562971,0.564505,-0.592117,0.575243,-0.561437
0.8547,0.016766,0.000000,-1.700576,1.700576,0.0000,0.0000,0.0000,-0.002364,-1.733398,1.741068,0.4410,0.5599,0.0131,-0.001534,0.578311,-0.562971,0.564505,-0.592117,0.575243,-0.559903
0.8717,0.016930,0.000000,-1.699689,1.699689,0.0000,0.0000,0.0000,-0.002349,-1.725728,1.741068,0.3858,0.5412,0.0407,0.000000,0.578311,-0.562971,0.564505,-0.592117,0.575243,-0.561437
0.8884,0.016760,0.000000,-1.698812,1.698812,0.0000,0.0000,0.0000,-0.002349,-1.725728,1.741068,0.3858,0.5412,0.0407,0.000000,0.578311,-0.562971,0.564505,-0.592117,0.575243,-0.561437
0.9052,0.016758,0.000000,-1.697934,1.697934,0.0000,0.0000,0.0000,-0.002364,-1.724194,1.741068,0.4411,0.5608,0.1004,0.000000,0.578311,-0.562971,0.564505,-0.592117,0.575243,-0.559903
0.9219,0.016768,0.000000,-1.697056,1.697056,0.0000,0.0000,0.0000,-0.002349,-1.724194,1.741068,0.3858,0.5411,0.0407,0.000000,0.578311,-0.562971,0.564505,-0.592117,0.575243,-0.561437
0.9387,0.016764,0.000000,-1.696179,1.696179,0.0000,0.0000,0.0000,-0.002351,-1.724194,1.741068,0.4306,0.4768,0.1545,0.000000,0.579845,-0.562971,0.564505,-0.590583,0.575243,-0.561437
0.9555,0.016787,0.000000,-1.695300,1.695300,0.0000,0.0000,0.0000,-0.002339,-1.724194,1.741068,0.4367,0.5343,0.0889,0.000000,0.579845,-0.562971,0.564505,-0.592117,0.575243,-0.561437
0.9724,0.016856,0.000000,-1.694417,1.694417,0.0000,0.0000,0.0000,-0.002352,-1.724194,1.741068,0.3863,0.5439,0.0419,0.000000,0.578311,-0.562971,0.564505,-0.592117,0.575243,-0.561437
0.9891,0.016757,0.000000,-1.693540,1.693540,0.0000,0.0000,0.0000,-0.002352,-1.724194,1.741068,0.3863,0.5439,0.0419,0.000000,0.578311,-0.562971,0.564505,-0.592117,0.575243,-0.561437
1.0059,0.016750,0.000000,-1.692663,1.692663,0.0000,0.0000,0.0000,-0.002351,-1.722660,1.741068,0.3915,0.5429,0.0468,0.000000,0.578311,-0.562971,0.564505,-0.592117,0.575243,-0.561437
1.0226,0.016752,0.000000,-1.691785,1.691785,0.0000,0.0000,0.0000,-0.002364,-1.724194,1.741068,0.4405,0.5606,0.0998,0.000000,0.578311,-0.562971,0.564505,-0.592117,0.575243,-0.559903
1.0394,0.016760,0.000000,-1.690908,1.690908,0.0000,0.0000,0.0000,-0.002338,-1.722660,1.741068,0.4357,0.5256,0.0946,0.000000,0.579845,-0.562971,0.564505,-0.592117,0.575243,-0.561437
1.0561,0.016777,0.000000,-1.690029,1.690029,0.0000,0.0000,0.0000,-0.002365,-1.722660,1.741068,0.4359,0.5624,0.0948,0.000000,0.578311,-0.562971,0.564505,-0.592117,0.575243,-0.559903
1.0729,0.016777,0.000000,-1.689151,1.689151,0.0000,0.0000,0.0000,-0.002349,-1.722660,1.741068,0.4254,0.4746,0.1488,0.000000,0.579845,-0.562971,0.564505,-0.590583,0.575243,-0.561437
1.0897,0.016755,0.000000,-1.688274,1.688274,0.0000,0.0000,0.0000,-0.002349,-1.722660,1.741068,0.4254,0.4746,0.1488,0.000000,0.579845,-0.562971,0.564505,-0.590583,0.575243,-0.561437
1.1064,0.016763,0.000000,-1.687396,1.687396,0.0000,0.0000,0.0000,-0.002351,-1.722660,1.741068,0.4265,0.4838,0.1432,0.000000,0.579845,-0.562971,0.564505,-0.590583,0.575243,-0.561437
1.1232,0.016751,0.000000,-1.686519,1.686519,0.0000,0.0000,0.0000,-0.002362,-1.722660,1.741068,0.3766,0.4984,0.0900,0.000000,0.578311,-0.562971,0.564505,-0.590583,0.575243,-0.561437
1.1400,0.016763,0.000000,-1.685641,1.685641,0.0000,0.0000,0.0000,-0.002349,-1.722660,1.741068,0.3925,0.5477,0.0418,0.000000,0.578311,-0.562971,0.564505,-0.592117,0.575243,-0.561437
1.1567,0.016756,0.000000,-1.684764,1.684764,0.0000,0.0000,0.0000,-0.002351,-1.722660,1.739534,0.3909,0.5425,0.0468,0.000000,0.578311,-0.562971,0.564505,-0.592117,0.575243,-0.561437
1.1735,0.016767,0.000000,-1.683886,1.683886,0.0000,0.0000,0.0000,-0.002362,-1.722660,1.738000,0.3803,0.4923,0.1000,0.000000,0.578311,-0.562971,0.564505,-0.590583,0.575243,-0.561437
1.1902,0.016746,0.000000,-1.683009,1.683009,0.0000,0.0000,0.0000,-0.002362,-1.722660,1.738000,0.3803,0.4923,0.1000,0.000000,0.578311,-0.562971,0.564505,-0.590583,0.575243,-0.561437
1.2070,0.016789,0.000000,-1.682130,1.682130,0.0000,0.0000,0.0000,-0.002349,-1.722660,1.733398,0.3921,0.5483,0.0408,0.000000,0.578311,-0.562971,0.564505,-0.592117,0.575243,-0.561437
1.2238,0.016748,0.000000,-1.681253,1.681253,0.0000,0.0000,0.0000,-0.002362,-1.722660,1.722660,0.3802,0.4917,0.1007,0.000000,0.578311,-0.562971,0.564505,-0.590583,0.575243,-0.561437
1.2405,0.016761,0.000000,-1.680376,1.680376,0.0000,0.0000,0.0000,-0.002361,-1.722660,1.711923,0.3814,0.4976,0.0944,0.000000,0.578311,-0.562971,0.564505,-0.590583,0.575243,-0.561437
1.2573,0.016755,0.000000,-1.679498,1.679498,0.0000,0.0000,0.0000,-0.002363,-1.722660,1.705787,0.4415,0.5654,0.0948,0.000000,0.578311,-0.562971,0.564505,-0.592117,0.575243,-0.559903
1.2740,0.016769,0.000000,-1.678620,1.678620,0.0000,0.0000,0.0000,-0.002349,-1.722660,1.701185,0.3858,0.5407,0.0413,0.000000,0.578311,-0.562971,0.564505,-0.592117,0.575243,-0.561437
1.2908,0.016752,0.000000,-1.677743,1.677743,0.0000,0.0000,0.0000,-0.002349,-1.722660,1.701185,0.3858,0.5407,0.0413,0.000000,0.578311,-0.562971,0.564505,-0.592117,0.575243,-0.561437
1.3076,0.016752,0.000000,-1.676866,1.676866,0.0000,0.0000,0.0000,-0.002362,-1.722660,1.701185,0.3808,0.4925,0.1006,0.000000,0.578311,-0.562971,0.564505,-0.590583,0.575243,-0.561437
1.3243,0.016753,0.000000,-1.675989,1.675989,0.0000,0.0000,0.0000,-0.002362,-1.722660,1.701185,0.4416,0.5659,0.0942,0.000000,0.578311,-0.562971,0.564505,-0.592117,0.575243,-0.559903
1.3411,0.016759,0.000000,-1.675111,1.675111,0.0000,0.0000,0.0000,-0.002349,-1.721126,1.701185,0.3858,0.5406,0.0414,0.000000,0.578311,-0.562971,0.564505,-0.592117,0.575243,-0.561437
1.3578,0.016749,0.000000,-1.674234,1.674234,0.0000,0.0000,0.0000,-0.002351,-1.721126,1.701185,0.3916,0.5433,0.0469,0.000000,0.578311,-0.562971,0.564505,-0.592117,0.575243,-0.561437
1.3746,0.016764,0.000000,-1.673357,1.673357,0.0000,0.0000,0.0000,-0.002351,-1.721126,1.701185,0.3916,0.5433,0.0469,0.000000,0.578311,-0.562971,0.564505,-0.592117,0.575243,-0.561437
1.3913,0.016748,0.000000,-1.672480,1.672480,0.0000,0.0000,0.0000,-0.002351,-1.721126,1.701185,0.3916,0.5433,0.0469,0.000000,0.578311,-0.562971,0.564505,-0.592117,0.575243,-0.561437
1.4081,0.016750,0.000000,-1.671603,1.671603,0.0000,0.0000,0.0000,-0.002364,-1.718058,1.701185,0.4405,0.5606,0.0998,0.000000,0.578311,-0.562971,0.564505,-0.592117,0.575243,-0.559903
1.4250,0.016904,0.000000,-1.670718,1.670718,0.0000,0.0000,0.0000,-0.002361,-1.708855,1.701185,0.3751,0.4904,0.0945,0.000000,0.578311,-0.562971,0.564505,-0.590583,0.575243,-0.561437
1.4417,0.016768,0.000000,-1.669840,1.669840,0.0000,0.0000,0.0000,-0.002338,-1.699651,1.701185,0.4425,0.5329,0.0952,0.000000,0.579845,-0.562971,0.564505,-0.592117,0.575243,-0.561437
1.4586,0.016832,0.000000,-1.668958,1.668958,0.0000,0.0000,0.0000,-0.002363,-1.695049,1.701185,0.3749,0.4933,0.0950,0.000000,0.578311,-0.562971,0.564505,-0.590583,0.575243,-0.561437
1.4753,0.016756,0.000000,-1.668081,1.668081,0.0000,0.0000,0.0000,-0.002363,-1.695049,1.701185,0.3749,0.4933,0.0950,0.000000,0.578311,-0.562971,0.564505,-0.590583,0.575243,-0.561437
1.4921,0.016757,0.000000,-1.667203,1.667203,0.0000,0.0000,0.0000,-0.002374,-1.695049,1.701185,0.4315,0.5150,0.1485,0.000000,0.578311,-0.562971,0.564505,-0.590583,0.575243,-0.559903
1.5088,0.016753,0.000000,-1.666326,1.666326,0.0000,0.0000,0.0000,-0.002348,-1.695049,1.701185,0.3868,0.5459,0.0357,0.000000,0.578311,-0.562971,0.564505,-0.592117,0.575243,-0.561437
1.5256,0.016761,0.000000,-1.665449,1.665449,0.0000,0.0000,0.0000,-0.002362,-1.695049,1.701185,0.3807,0.4920,0.1012,0.000000,0.578311,-0.562971,0.564505,-0.590583,0.575243,-0.561437
1.5424,0.016757,0.000000,-1.664571,1.664571,0.0000,0.0000,0.0000,-0.002349,-1.695049,1.701185,0.4312,0.4819,0.1482,0.000000,0.579845,-0.562971,0.564505,-0.590583,0.575243,-0.561437
1.5597,0.017336,0.000000,-1.663663,1.663663,0.0000,0.0000,0.0000,-0.002351,-1.695049,1.701185,0.3869,0.5494,0.0357,0.000000,0.578311,-0.562971,0.564505,-0.592117,0.575243,-0.561437
1.5767,0.016981,0.000000,-1.662774,1.662774,0.0000,0.0000,0.0000,-0.002351,-1.695049,1.701185,0.3869,0.5494,0.0357,0.000000,0.578311,-0.562971,0.564505,-0.592117,0.575243,-0.561437
1.5934,0.016751,0.000000,-1.661897,1.661897,0.0000,0.0000,0.0000,-0.002351,-1.695049,1.701185,0.3915,0.5424,0.0475,0.000000,0.578311,-0.562971,0.564505,-0.592117,0.575243,-0.561437
1.6102,0.016760,0.000000,-1.661020,1.661020,0.0000,0.0000,0.0000,-0.002362,-1.695049,1.701185,0.3802,0.4923,0.1000,0.000000,0.578311,-0.562971,0.564505,-0.590583,0.575243,-0.561437
1.6270,0.016758,0.000000,-1.660142,1.660142,0.0000,0.0000,0.0000,-0.002349,-1.695049,1.701185,0.3922,0.5483,0.0408,0.000000,0.578311,-0.562971,0.564505,-0.592117,0.575243,-0.561437
1.6437,0.016756,0.000000,-1.659265,1.659265,0.0000,0.0000,0.0000,-0.002364,-1.695049,1.701185,0.4404,0.5601,0.1004,0.000000,0.578311,-0.562971,0.564505,-0.592117,0.575243,-0.559903
1.6605,0.016763,0.000000,-1.658387,1.658387,0.0000,0.0000,0.0000,-0.002349,-1.695049,1.699651,0.3859,0.5412,0.0407,0.000000,0.578311,-0.562971,0.564505,-0.592117,0.575243,-0.561437
1.6772,0.016762,0.000000,-1.657510,1.657510,0.0000,0.0000,0.0000,-0.002349,-1.695049,1.699651,0.3859,0.5412,0.0407,0.000000,0.578311,-0.562971,0.564505,-0.592117,0.575243,-0.561437
1.6940,0.016750,0.000000,-1.656633,1.656633,0.0000,0.0000,0.0000,-0.002364,-1.693515,1.695049,0.4411,0.5608,0.1004,0.000000,0.578311,-0.562971,0.564505,-0.592117,0.575243,-0.559903
1.7107,0.016766,0.000000,-1.655755,1.655755,0.0000,0.0000,0.0000,-0.002349,-1.693515,1.688913,0.3858,0.5411,0.0407,0.000000,0.578311,-0.562971,0.564505,-0.592117,0.575243,-0.561437
1.7275,0.016765,0.000000,-1.654877,1.654877,0.0000,0.0000,0.0000,-0.002351,-1.693515,1.687379,0.3916,0.5432,0.0469,0.000000,0.578311,-0.562971,0.564505,-0.592117,0.575243,-0.561437
1.7448,0.017272,0.000000,-1.653973,1.653973,0.0000,0.0000,0.0000,-0.002351,-1.691981,1.685845,0.3916,0.5432,0.0469,0.000000,0.578311,-0.562971,0.564505,-0.592117,0.575243,-0.561437
1.7615,0.016760,0.000000,-1.653095,1.653095,0.0000,0.0000,0.0000,-0.002351,-1.691981,1.685845,0.3916,0.5432,0.0469,0.000000,0.578311,-0.562971,0.564505,-0.592117,0.575243,-0.561437
1.7783,0.016745,0.000000,-1.652218,1.652218,0.0000,0.0000,0.0000,-0.002351,-1.687379,1.685845,0.3916,0.5432,0.0469,0.000000,0.578311,-0.562971,0.564505,-0.592117,0.575243,-0.561437
1.7950,0.016747,0.000000,-1.651341,1.651341,0.0000,0.0000,0.0000,-0.002351,-1.681243,1.685845,0.3916,0.5432,0.0469,0.000000,0.578311,-0.562971,0.564505,-0.592117,0.575243,-0.561437
1.8118,0.016748,0.000000,-1.650464,1.650464,0.0000,0.0000,0.0000,-0.002351,-1.675107,1.685845,0.3916,0.5432,0.0469,0.000000,0.578311,-0.562971,0.564505,-0.592117,0.575243,-0.561437
1.8285,0.016751,0.000000,-1.649587,1.649587,0.0000,0.0000,0.0000,-0.002351,-1.673573,1.685845,0.3916,0.5432,0.0469,0.000000,0.578311,-0.562971,0.564505,-0.592117,0.575243,-0.561437
1.8453,0.016745,0.000000,-1.648711,1.648711,0.0000,0.0000,0.0000,-0.002362,-1.672039,1.685845,0.3802,0.4922,0.1000,0.000000,0.578311,-0.562971,0.564505,-0.590583,0.575243,-0.561437
1.8620,0.016751,0.000000,-1.647834,1.647834,0.0000,0.0000,0.0000,-0.002362,-1.672039,1.685845,0.3802,0.4922,0.1000,0.000000,0.578311,-0.562971,0.564505,-0.590583,0.575243,-0.561437
1.8788,0.016746,0.000000,-1.646957,1.646957,0.0000,0.0000,0.0000,-0.002349,-1.672039,1.685845,0.3922,0.5483,0.0408,0.000000,0.578311,-0.562971,0.564505,-0.592117,0.575243,-0.561437
1.8955,0.016755,0.000000,-1.646079,1.646079,0.0000,0.0000,0.0000,-0.002351,-1.672039,1.685845,0.3909,0.5425,0.0469,0.000000,0.578311,-0.562971,0.564505,-0.592117,0.575243,-0.561437
1.9123,0.016804,0.000000,-1.645200,1.645200,0.0000,0.0000,0.0000,-0.002351,-1.672039,1.685845,0.3909,0.5425,0.0469,0.000000,0.578311,-0.562971,0.564505,-0.592117,0.575243,-0.561437
1.9291,0.016756,0.000000,-1.644322,1.644322,0.0000,0.0000,0.0000,-0.002351,-1.672039,1.685845,0.3909,0.5425,0.0469,0.000000,0.578311,-0.562971,0.564505,-0.592117,0.575243,-0.561437
1.9458,0.016748,0.000000,-1.643445,1.643445,0.0000,0.0000,0.0000,-0.002362,-1.672039,1.685845,0.3803,0.4923,0.1000,0.000000,0.578311,-0.562971,0.564505,-0.590583,0.575243,-0.561437
1.9626,0.016750,0.000000,-1.642568,1.642568,0.0000,0.0000,0.0000,-0.002362,-1.672039,1.685845,0.3803,0.4923,0.1000,0.000000,0.578311,-0.562971,0.564505,-0.590583,0.575243,-0.561437
1.9793,0.016748,0.000000,-1.641691,1.641691,0.0000,0.0000,0.0000,-0.002361,-1.670505,1.681243,0.3814,0.4975,0.0945,0.000000,0.578311,-0.562971,0.564505,-0.590583,0.575243,-0.561437
1.9961,0.016751,0.000000,-1.640814,1.640814,0.0000,0.0000,0.0000,-0.002350,-1.670505,1.675107,0.3920,0.5478,0.0413,0.000000,0.578311,-0.562971,0.564505,-0.592117,0.575243,-0.561437
2.0128,0.016749,0.000000,-1.639937,1.639937,0.0000,0.0000,0.0000,-0.002377,-1.670505,1.668971,0.4013,0.5957,0.1535,0.000000,0.578311,-0.561437,0.564505,-0.592117,0.575243,-0.559903
2.0299,0.017098,0.000000,-1.639042,1.639042,0.0000,0.0000,0.0000,-0.002348,-1.667437,1.664369,0.3900,0.5375,0.0352,0.000000,0.578311,-0.562971,0.564505,-0.592117,0.575243,-0.561437
2.0467,0.016744,0.000000,-1.638165,1.638165,0.0000,0.0000,0.0000,-0.002351,-1.667437,1.662835,0.3911,0.5436,0.0475,0.000000,0.578311,-0.562971,0.564505,-0.592117,0.575243,-0.561437
2.0634,0.016751,0.000000,-1.637288,1.637288,0.0000,0.0000,0.0000,-0.002351,-1.667437,1.662835,0.3911,0.5436,0.0475,0.000000,0.578311,-0.562971,0.564505,-0.592117,0.575243,-0.561437
2.0802,0.016746,0.000000,-1.636411,1.636411,0.0000,0.0000,0.0000,-0.002351,-1.667437,1.662835,0.3910,0.5427,0.0458,0.000000,0.578311,-0.562971,0.564505,-0.592117,0.575243,-0.561437
2.0969,0.016745,0.000000,-1.635535,1.635535,0.0000,0.0000,0.0000,-0.002351,-1.667437,1.662835,0.3910,0.5427,0.0458,0.000000,0.578311,-0.562971,0.564505,-0.592117,0.575243,-0.561437
2.1137,0.016741,0.000000,-1.634658,1.634658,0.0000,0.0000,0.0000,-0.002339,-1.667437,1.662835,0.4409,0.5274,0.1002,0.000000,0.579845,-0.562971,0.564505,-0.592117,0.575243,-0.561437
2.1304,0.016757,0.000000,-1.633781,1.633781,0.0000,0.0000,0.0000,-0.002365,-1.667437,1.662835,0.3467,0.5801,0.0939,0.000000,0.578311,-0.561437,0.564505,-0.592117,0.575243,-0.561437
2.1472,0.016765,0.000000,-1.632903,1.632903,0.0000,0.0000,0.0000,-0.002374,-1.667437,1.662835,0.4344,0.5060,0.1486,0.000000,0.578311,-0.562971,0.564505,-0.590583,0.575243,-0.559903
2.1639,0.016753,0.000000,-1.632026,1.632026,0.0000,0.0000,0.0000,-0.002374,-1.667437,1.662835,0.4344,0.5060,0.1486,0.000000,0.578311,-0.562971,0.564505,-0.590583,0.575243,-0.559903
2.1807,0.016742,0.000000,-1.631149,1.631149,0.0000,0.0000,0.0000,-0.002348,-1.667437,1.662835,0.3865,0.5469,0.0357,0.000000,0.578311,-0.562971,0.564505,-0.592117,0.575243,-0.561437
2.1974,0.016747,0.000000,-1.630272,1.630272,0.0000,0.0000,0.0000,-0.002351,-1.667437,1.662835,0.3915,0.5426,0.0475,0.000000,0.578311,-0.562971,0.564505,-0.592117,0.575243,-0.561437
2.2142,0.016802,0.000000,-1.629393,1.629393,0.0000,0.0000,0.0000,-0.002362,-1.667437,1.662835,0.3802,0.4923,0.1000,0.000000,0.578311,-0.562971,0.564505,-0.590583,0.575243,-0.561437
2.2310,0.016754,0.000000,-1.628515,1.628515,0.0000,0.0000,0.0000,-0.002349,-1.667437,1.662835,0.3922,0.5483,0.0408,0.000000,0.578311,-0.562971,0.564505,-0.592117,0.575243,-0.561437
2.2477,0.016756,0.000000,-1.627638,1.627638,0.0000,0.0000,0.0000,-0.002351,-1.665903,1.662835,0.3909,0.5425,0.0469,0.000000,0.578311,-0.562971,0.564505,-0.592117,0.575243,-0.561437
2.2645,0.016750,0.000000,-1.626761,1.626761,0.0000,0.0000,0.0000,-0.002351,-1.665903,1.662835,0.3909,0.5425,0.0469,0.000000,0.578311,-0.562971,0.564505,-0.592117,0.575243,-0.561437
2.2812,0.016742,0.000000,-1.625884,1.625884,0.0000,0.0000,0.0000,-0.002351,-1.665903,1.662835,0.3909,0.5425,0.0469,0.000000,0.578311,-0.562971,0.564505,-0.592117,0.575243,-0.561437
2.2980,0.016741,0.000000,-1.625008,1.625008,0.0000,0.0000,0.0000,-0.002362,-1.665903,1.662835,0.3803,0.4923,0.1000,0.000000,0.578311,-0.562971,0.564505,-0.590583,0.575243,-0.561437
2.3147,0.016740,0.000000,-1.624131,1.624131,0.0000,0.0000,0.0000,-0.002362,-1.665903,1.662835,0.4417,0.5659,0.0942,0.000000,0.578311,-0.562971,0.564505,-0.592117,0.575243,-0.559903
2.3315,0.016785,0.000000,-1.623252,1.623252,0.0000,0.0000,0.0000,-0.002349,-1.665903,1.662835,0.3858,0.5406,0.0414,0.000000,0.578311,-0.562971,0.564505,-0.592117,0.575243,-0.561437
2.3483,0.016753,0.000000,-1.622375,1.622375,0.0000,0.0000,0.0000,-0.002349,-1.665903,1.662835,0.3858,0.5406,0.0414,0.000000,0.578311,-0.562971,0.564505,-0.592117,0.575243,-0.561437
2.3650,0.016750,0.000000,-1.621498,1.621498,0.0000,0.0000,0.0000,-0.002351,-1.665903,1.662835,0.3916,0.5433,0.0469,0.000000,0.578311,-0.562971,0.564505,-0.592117,0.575243,-0.561437
2.3817,0.016743,0.000000,-1.620621,1.620621,0.0000,0.0000,0.0000,-0.002351,-1.664369,1.662835,0.3916,0.5433,0.0469,0.000000,0.578311,-0.562971,0.564505,-0.592117,0.575243,-0.561437
2.3985,0.016747,0.000000,-1.619745,1.619745,0.0000,0.0000,0.0000,-0.002362,-1.661301,1.662835,0.3802,0.4922,0.1000,0.000000,0.578311,-0.562971,0.564505,-0.590583,0.575243,-0.561437
2.4153,0.016772,0.000000,-1.618866,1.618866,0.0000,0.0000,0.0000,-0.002361,-1.652097,1.661301,0.3814,0.4975,0.0945,0.000000,0.578311,-0.562971,0.564505,-0.590583,0.575243,-0.561437
2.4320,0.016742,0.000000,-1.617990,1.617990,0.0000,0.0000,0.0000,-0.002350,-1.644427,1.661301,0.3920,0.5478,0.0413,0.000000,0.578311,-0.562971,0.564505,-0.592117,0.575243,-0.561437
2.4488,0.016747,0.000000,-1.617113,1.617113,0.0000,0.0000,0.0000,-0.002351,-1.641359,1.661301,0.3909,0.5425,0.0469,0.000000,0.578311,-0.562971,0.564505,-0.592117,0.575243,-0.561437
2.4655,0.016753,0.000000,-1.616236,1.616236,0.0000,0.0000,0.0000,-0.002351,-1.641359,1.661301,0.3909,0.5425,0.0469,0.000000,0.578311,-0.562971,0.564505,-0.592117,0.575243,-0.561437
2.4822,0.016746,0.000000,-1.615359,1.615359,0.0000,0.0000,0.0000,-0.002351,-1.641359,1.661301,0.3909,0.5425,0.0469,0.000000,0.578311,-0.562971,0.564505,-0.592117,0.575243,-0.561437
2.4990,0.016747,0.000000,-1.614482,1.614482,0.0000,0.0000,0.0000,-0.002362,-1.641359,1.661301,0.3803,0.4923,0.1000,0.000000,0.578311,-0.562971,0.564505,-0.590583,0.575243,-0.561437
2.5157,0.016742,0.000000,-1.613605,1.613605,0.0000,0.0000,0.0000,-0.002349,-1.641359,1.661301,0.3921,0.5483,0.0408,0.000000,0.578311,-0.562971,0.564505,-0.592117,0.575243,-0.561437
2.5325,0.016751,0.000000,-1.612728,1.612728,0.0000,0.0000,0.0000,-0.002362,-1.641359,1.661301,0.3802,0.4917,0.1007,0.000000,0.578311,-0.562971,0.564505,-0.590583,0.575243,-0.561437
2.5493,0.016810,0.000000,-1.611848,1.611848,0.0000,0.0000,0.0000,-0.002349,-1.641359,1.661301,0.3922,0.5484,0.0407,0.000000,0.578311,-0.562971,0.564505,-0.592117,0.575243,-0.561437
2.5661,0.016753,0.000000,-1.610971,1.610971,0.0000,0.0000,0.0000,-0.002349,-1.641359,1.661301,0.3922,0.5484,0.0407,0.000000,0.578311,-0.562971,0.564505,-0.592117,0.575243,-0.561437
2.5828,0.016745,0.000000,-1.610094,1.610094,0.0000,0.0000,0.0000,-0.002339,-1.641359,1.659767,0.4407,0.5268,0.1008,0.000000,0.579845,-0.562971,0.564505,-0.592117,0.575243,-0.561437
2.5995,0.016749,0.000000,-1.609217,1.609217,0.0000,0.0000,0.0000,-0.002363,-1.641359,1.656699,0.3751,0.4939,0.0944,0.000000,0.578311,-0.562971,0.564505,-0.590583,0.575243,-0.561437
2.6163,0.016798,0.000000,-1.608338,1.608338,0.0000,0.0000,0.0000,-0.002362,-1.641359,1.649029,0.4422,0.5658,0.0948,0.000000,0.578311,-0.562971,0.564505,-0.592117,0.575243,-0.559903
2.6331,0.016751,0.000000,-1.607461,1.607461,0.0000,0.0000,0.0000,-0.002349,-1.641359,1.641359,0.3857,0.5406,0.0413,0.000000,0.578311,-0.562971,0.564505,-0.592117,0.575243,-0.561437
2.6500,0.016900,0.000000,-1.606576,1.606576,0.0000,0.0000,0.0000,-0.002351,-1.639825,1.636758,0.3916,0.5433,0.0469,0.000000,0.578311,-0.562971,0.564505,-0.592117,0.575243,-0.561437
2.6667,0.016750,0.000000,-1.605699,1.605699,0.0000,0.0000,0.0000,-0.002351,-1.639825,1.636758,0.3916,0.5433,0.0469,0.000000,0.578311,-0.562971,0.564505,-0.592117,0.575243,-0.561437
2.6835,0.016743,0.000000,-1.604822,1.604822,0.0000,0.0000,0.0000,-0.002351,-1.639825,1.633690,0.3916,0.5433,0.0469,0.000000,0.578311,-0.562971,0.564505,-0.592117,0.575243,-0.561437
2.7002,0.016749,0.000000,-1.603945,1.603945,0.0000,0.0000,0.0000,-0.002339,-1.639825,1.633690,0.4408,0.5274,0.1001,0.000000,0.579845,-0.562971,0.564505,-0.592117,0.575243,-0.561437
2.7170,0.016754,0.000000,-1.603068,1.603068,0.0000,0.0000,0.0000,-0.002352,-1.639825,1.633690,0.3859,0.5446,0.0408,0.000000,0.578311,-0.562971,0.564505,-0.592117,0.575243,-0.561437
2.7337,0.016746,0.000000,-1.602191,1.602191,0.0000,0.0000,0.0000,-0.002364,-1.639825,1.633690,0.4411,0.5604,0.1004,0.000000,0.578311,-0.562971,0.564505,-0.592117,0.575243,-0.559903
2.7505,0.016747,0.000000,-1.601314,1.601314,0.0000,0.0000,0.0000,-0.002364,-1.639825,1.633690,0.4411,0.5604,0.1004,0.000000,0.578311,-0.562971,0.564505,-0.592117,0.575243,-0.559903
2.7672,0.016753,0.000000,-1.600437,1.600437,0.0000,0.0000,0.0000,-0.002349,-1.639825,1.633690,0.3858,0.5412,0.0407,0.000000,0.578311,-0.562971,0.564505,-0.592117,0.575243,-0.561437
2.7840,0.016739,0.000000,-1.599561,1.599561,0.0000,0.0000,0.0000,-0.002362,-1.639825,1.633690,0.3808,0.4925,0.1007,0.000000,0.578311,-0.562971,0.564505,-0.590583,0.575243,-0.561437
2.8007,0.016745,0.000000,-1.598684,1.598684,0.0000,0.0000,0.0000,-0.002349,-1.639825,1.633690,0.3921,0.5483,0.0407,0.000000,0.578311,-0.562971,0.564505,-0.592117,0.575243,-0.561437
2.8175,0.016744,0.000000,-1.597807,1.597807,0.0000,0.0000,0.0000,-0.002351,-1.639825,1.633690,0.3909,0.5425,0.0469,0.000000,0.578311,-0.562971,0.564505,-0.592117,0.575243,-0.561437
2.8343,0.016880,0.000000,-1.596923,1.596923,0.0000,0.0000,0.0000,-0.002351,-1.639825,1.633690,0.3909,0.5425,0.0469,0.000000,0.578311,-0.562971,0.564505,-0.592117,0.575243,-0.561437
2.8511,0.016742,0.000000,-1.596047,1.596047,0.0000,0.0000,0.0000,-0.002351,-1.639825,1.633690,0.3909,0.5425,0.0469,0.000000,0.578311,-0.562971,0.564505,-0.592117,0.575243,-0.561437
2.8678,0.016753,0.000000,-1.595170,1.595170,0.0000,0.0000,0.0000,-0.002351,-1.639825,1.633690,0.3909,0.5425,0.0469,0.000000,0.578311,-0.562971,0.564505,-0.592117,0.575243,-0.561437
2.8846,0.016743,0.000000,-1.594293,1.594293,0.0000,0.0000,0.0000,-0.002362,-1.639825,1.633690,0.3803,0.4923,0.1000,0.000000,0.578311,-0.562971,0.564505,-0.590583,0.575243,-0.561437
2.9013,0.016749,0.000000,-1.593416,1.593416,0.0000,0.0000,0.0000,-0.002349,-1.639825,1.633690,0.3921,0.5483,0.0408,0.000000,0.578311,-0.562971,0.564505,-0.592117,0.575243,-0.561437
2.9181,0.016745,0.000000,-1.592539,1.592539,0.0000,0.0000,0.0000,-0.002339,-1.638291,1.633690,0.4407,0.5268,0.1008,0.000000,0.579845,-0.562971,0.564505,-0.592117,0.575243,-0.561437
2.9348,0.016755,0.000000,-1.591662,1.591662,0.0000,0.0000,0.0000,-0.002363,-1.635224,1.633690,0.3751,0.4939,0.0944,0.000000,0.578311,-0.562971,0.564505,-0.590583,0.575243,-0.561437
2.9516,0.016741,0.000000,-1.590785,1.590785,0.0000,0.0000,0.0000,-0.002363,-1.635224,1.633690,0.3751,0.4939,0.0944,0.000000,0.578311,-0.562971,0.564505,-0.590583,0.575243,-0.561437
2.9683,0.016748,0.000000,-1.589908,1.589908,0.0000,0.0000,0.0000,-0.002349,-1.627554,1.633690,0.3927,0.5482,0.0413,0.000000,0.578311,-0.562971,0.564505,-0.592117,0.575243,-0.561437
2.9851,0.016743,0.000000,-1.589032,1.589032,0.0000,0.0000,0.0000,-0.002351,-1.619884,1.632156,0.3909,0.5425,0.0469,0.000000,0.578311,-0.562971,0.564505,-0.592117,0.575243,-0.561437
3.0018,0.016756,0.000000,-1.588154,1.588154,0.0000,0.0000,0.0000,-0.002364,-1.615282,1.632156,0.4406,0.5607,0.0998,0.000000,0.578311,-0.562971,0.564505,-0.592117,0.575243,-0.559903
3.0186,0.016742,0.000000,-1.587278,1.587278,0.0000,0.0000,0.0000,-0.002349,-1.615282,1.627554,0.3859,0.5412,0.0408,0.000000,0.578311,-0.562971,0.564505,-0.592117,0.575243,-0.561437
3.0353,0.016780,0.000000,-1.586399,1.586399,0.0000,0.0000,0.0000,-0.002339,-1.615282,1.622952,0.4414,0.5276,0.1008,0.000000,0.579845,-0.562971,0.564505,-0.592117,0.575243,-0.561437
3.0521,0.016740,0.000000,-1.585523,1.585523,0.0000,0.0000,0.0000,-0.002339,-1.615282,1.622952,0.4414,0.5276,0.1008,0.000000,0.579845,-0.562971,0.564505,-0.592117,0.575243,-0.561437
3.0688,0.016752,0.000000,-1.584645,1.584645,0.0000,0.0000,0.0000,-0.002352,-1.615282,1.616816,0.3858,0.5446,0.0407,0.000000,0.578311,-0.562971,0.564505,-0.592117,0.575243,-0.561437
3.0856,0.016743,0.000000,-1.583769,1.583769,0.0000,0.0000,0.0000,-0.002364,-1.615282,1.610680,0.4411,0.5604,0.1004,0.000000,0.578311,-0.562971,0.564505,-0.592117,0.575243,-0.559903
3.1025,0.016915,0.000000,-1.582883,1.582883,0.0000,0.0000,0.0000,-0.002349,-1.615282,1.609146,0.3858,0.5412,0.0407,0.000000,0.578311,-0.562971,0.564505,-0.592117,0.575243,-0.561437
3.1192,0.016745,0.000000,-1.582006,1.582006,0.0000,0.0000,0.0000,-0.002351,-1.613748,1.607612,0.3916,0.5432,0.0469,0.000000,0.578311,-0.562971,0.564505,-0.592117,0.575243,-0.561437
3.1360,0.016777,0.000000,-1.581128,1.581128,0.0000,0.0000,0.0000,-0.002351,-1.613748,1.607612,0.3916,0.5432,0.0469,0.000000,0.578311,-0.562971,0.564505,-0.592117,0.575243,-0.561437
3.1528,0.016742,0.000000,-1.580251,1.580251,0.0000,0.0000,0.0000,-0.002351,-1.613748,1.607612,0.3916,0.5432,0.0469,0.000000,0.578311,-0.562971,0.564505,-0.592117,0.575243,-0.561437
3.1695,0.016741,0.000000,-1.579375,1.579375,0.0000,0.0000,0.0000,-0.002362,-1.613748,1.607612,0.3802,0.4922,0.1000,0.000000,0.578311,-0.562971,0.564505,-0.590583,0.575243,-0.561437
3.1862,0.016741,0.000000,-1.578498,1.578498,0.0000,0.0000,0.0000,-0.002361,-1.613748,1.607612,0.3814,0.4975,0.0945,0.000000,0.578311,-0.562971,0.564505,-0.590583,0.575243,-0.561437
3.2030,0.016757,0.000000,-1.577621,1.577621,0.0000,0.0000,0.0000,-0.002361,-1.613748,1.607612,0.3814,0.4975,0.0945,0.000000,0.578311,-0.562971,0.564505,-0.590583,0.575243,-0.561437
3.2197,0.016744,0.000000,-1.576744,1.576744,0.0000,0.0000,0.0000,-0.002350,-1.613748,1.607612,0.3920,0.5478,0.0413,0.000000,0.578311,-0.562971,0.564505,-0.592117,0.575243,-0.561437
3.2365,0.016751,0.000000,-1.575867,1.575867,0.0000,0.0000,0.0000,-0.002351,-1.613748,1.607612,0.3909,0.5425,0.0469,0.000000,0.578311,-0.562971,0.564505,-0.592117,0.575243,-0.561437
3.2532,0.016743,0.000000,-1.574990,1.574990,0.0000,0.0000,0.0000,-0.002351,-1.613748,1.607612,0.3909,0.5425,0.0469,0.000000,0.578311,-0.562971,0.564505,-0.592117,0.575243,-0.561437
3.2700,0.016752,0.000000,-1.574113,1.574113,0.0000,0.0000,0.0000,-0.002364,-1.613748,1.607612,0.4406,0.5607,0.0998,0.000000,0.578311,-0.562971,0.564505,-0.592117,0.575243,-0.559903
3.2869,0.016940,0.000000,-1.573226,1.573226,0.0000,0.0000,0.0000,-0.002362,-1.613748,1.607612,0.4354,0.5588,0.0943,0.000000,0.578311,-0.562971,0.564505,-0.592117,0.575243,-0.559903
3.3037,0.016758,0.000000,-1.572349,1.572349,0.0000,0.0000,0.0000,-0.002349,-1.612214,1.607612,0.3864,0.5414,0.0414,0.000000,0.578311,-0.562971,0.564505,-0.592117,0.575243,-0.561437
3.3205,0.016770,0.000000,-1.571471,1.571471,0.0000,0.0000,0.0000,-0.002375,-1.613748,1.607612,0.4303,0.5100,0.1541,0.000000,0.578311,-0.562971,0.564505,-0.590583,0.575243,-0.559903
3.3372,0.016773,0.000000,-1.570593,1.570593,0.0000,0.0000,0.0000,-0.002375,-1.613748,1.607612,0.4303,0.5100,0.1541,0.000000,0.578311,-0.562971,0.564505,-0.590583,0.575243,-0.559903
3.3540,0.016746,0.000000,-1.569716,1.569716,0.0000,0.0000,0.0000,-0.002373,-1.613748,1.607612,0.4257,0.5133,0.1423,0.000000,0.578311,-0.562971,0.564505,-0.590583,0.575243,-0.559903
3.3707,0.016748,0.000000,-1.568839,1.568839,0.0000,0.0000,0.0000,-0.002360,-1.612214,1.607612,0.3767,0.4953,0.0901,0.000000,0.578311,-0.562971,0.564505,-0.590583,0.575243,-0.561437
3.3875,0.016765,0.000000,-1.567961,1.567961,0.0000,0.0000,0.0000,-0.002350,-1.612214,1.607612,0.3925,0.5480,0.0418,0.000000,0.578311,-0.562971,0.564505,-0.592117,0.575243,-0.561437
3.4042,0.016765,0.000000,-1.567083,1.567083,0.0000,0.0000,0.0000,-0.002351,-1.612214,1.606078,0.3909,0.5425,0.0468,0.000000,0.578311,-0.562971,0.564505,-0.592117,0.575243,-0.561437
3.4210,0.016745,0.000000,-1.566206,1.566206,0.0000,0.0000,0.0000,-0.002351,-1.612214,1.607612,0.3909,0.5425,0.0468,0.000000,0.578311,-0.562971,0.564505,-0.592117,0.575243,-0.561437
3.4378,0.016762,0.000000,-1.565329,1.565329,0.0000,0.0000,0.0000,-0.002351,-1.612214,1.607612,0.3909,0.5425,0.0468,0.000000,0.578311,-0.562971,0.564505,-0.592117,0.575243,-0.561437
3.4545,0.016746,0.000000,-1.564452,1.564452,0.0000,0.0000,0.0000,-0.002362,-1.612214,1.607612,0.3803,0.4923,0.1000,0.000000,0.578311,-0.562971,0.564505,-0.590583,0.575243,-0.561437
3.4713,0.016754,0.000000,-1.563575,1.563575,0.0000,0.0000,0.0000,-0.002349,-1.612214,1.606078,0.3921,0.5483,0.0408,0.000000,0.578311,-0.562971,0.564505,-0.592117,0.575243,-0.561437
3.4880,0.016750,0.000000,-1.562698,1.562698,0.0000,0.0000,0.0000,-0.002351,-1.612214,1.606078,0.3909,0.5425,0.0469,0.000000,0.578311,-0.562971,0.564505,-0.592117,0.575243,-0.561437
3.5052,0.017180,0.000000,-1.561798,1.561798,0.0000,0.0000,0.0000,-0.002351,-1.612214,1.606078,0.3909,0.5425,0.0469,0.000000,0.578311,-0.562971,0.564505,-0.592117,0.575243,-0.561437
3.5219,0.016748,0.000000,-1.560921,1.560921,0.0000,0.0000,0.0000,-0.002339,-1.610680,1.606078,0.4409,0.5275,0.1001,0.000000,0.579845,-0.562971,0.564505,-0.592117,0.575243,-0.561437
3.5387,0.016764,0.000000,-1.560043,1.560043,0.0000,0.0000,0.0000,-0.002339,-1.610680,1.606078,0.4409,0.5275,0.1001,0.000000,0.579845,-0.562971,0.564505,-0.592117,0.575243,-0.561437
3.5554,0.016748,0.000000,-1.559167,1.559167,0.0000,0.0000,0.0000,-0.002352,-1.603010,1.606078,0.4249,0.4783,0.1483,0.000000,0.579845,-0.562971,0.564505,-0.590583,0.575243,-0.561437
3.5722,0.016754,0.000000,-1.558289,1.558289,0.0000,0.0000,0.0000,-0.002339,-1.595340,1.606078,0.4373,0.5342,0.0895,0.000000,0.579845,-0.562971,0.564505,-0.592117,0.575243,-0.561437
3.5889,0.016738,0.000000,-1.557413,1.557413,0.0000,0.0000,0.0000,-0.002352,-1.586136,1.606078,0.3862,0.5439,0.0419,0.000000,0.578311,-0.562971,0.564505,-0.592117,0.575243,-0.561437
3.6057,0.016755,0.000000,-1.556536,1.556536,0.0000,0.0000,0.0000,-0.002362,-1.584602,1.606078,0.3808,0.4922,0.1006,0.000000,0.578311,-0.562971,0.564505,-0.590583,0.575243,-0.561437
3.6225,0.016782,0.000000,-1.555657,1.555657,0.0000,0.0000,0.0000,-0.002363,-1.586136,1.606078,0.4416,0.5659,0.0942,0.000000,0.578311,-0.562971,0.564505,-0.592117,0.575243,-0.559903
3.6392,0.016762,0.000000,-1.554779,1.554779,0.0000,0.0000,0.0000,-0.002363,-1.586136,1.606078,0.4416,0.5659,0.0942,0.000000,0.578311,-0.562971,0.564505,-0.592117,0.575243,-0.559903
3.6560,0.016746,0.000000,-1.553902,1.553902,0.0000,0.0000,0.0000,-0.002361,-1.584602,1.606078,0.3750,0.4899,0.0951,0.000000,0.578311,-0.562971,0.564505,-0.590583,0.575243,-0.561437
3.6727,0.016754,0.000000,-1.553025,1.553025,0.0000,0.0000,0.0000,-0.002362,-1.586136,1.603010,0.4813,0.4998,0.2023,0.000000,0.579845,-0.562971,0.564505,-0.590583,0.575243,-0.559903
3.6895,0.016745,0.000000,-1.552148,1.552148,0.0000,0.0000,0.0000,-0.002349,-1.586136,1.598408,0.3816,0.5475,0.0301,0.000000,0.578311,-0.562971,0.564505,-0.592117,0.575243,-0.561437
3.7062,0.016761,0.000000,-1.551271,1.551271,0.0000,0.0000,0.0000,-0.002339,-1.584602,1.590738,0.4418,0.5269,0.1019,0.000000,0.579845,-0.562971,0.564505,-0.592117,0.575243,-0.561437
3.7230,0.016744,0.000000,-1.550394,1.550394,0.0000,0.0000,0.0000,-0.002352,-1.584602,1.583068,0.3858,0.5447,0.0406,0.000000,0.578311,-0.562971,0.564505,-0.592117,0.575243,-0.561437
3.7399,0.016888,0.000000,-1.549510,1.549510,0.0000,0.0000,0.0000,-0.002352,-1.584602,1.583068,0.3858,0.5447,0.0406,0.000000,0.578311,-0.562971,0.564505,-0.592117,0.575243,-0.561437
3.7566,0.016748,0.000000,-1.548633,1.548633,0.0000,0.0000,0.0000,-0.002351,-1.584602,1.581534,0.3916,0.5428,0.0470,0.000000,0.578311,-0.562971,0.564505,-0.592117,0.575243,-0.561437
3.7734,0.016751,0.000000,-1.547756,1.547756,0.0000,0.0000,0.0000,-0.002364,-1.586136,1.580000,0.4405,0.5606,0.0998,0.000000,0.578311,-0.562971,0.564505,-0.592117,0.575243,-0.559903
3.7901,0.016752,0.000000,-1.546879,1.546879,0.0000,0.0000,0.0000,-0.002349,-1.584602,1.580000,0.3859,0.5412,0.0408,0.000000,0.578311,-0.562971,0.564505,-0.592117,0.575243,-0.561437
3.8069,0.016763,0.000000,-1.546001,1.546001,0.0000,0.0000,0.0000,-0.002339,-1.584602,1.580000,0.4414,0.5276,0.1008,0.000000,0.579845,-0.562971,0.564505,-0.592117,0.575243,-0.561437
3.8237,0.016862,0.000000,-1.545118,1.545118,0.0000,0.0000,0.0000,-0.002365,-1.584602,1.580000,0.4353,0.5622,0.0942,0.000000,0.578311,-0.562971,0.564505,-0.592117,0.575243,-0.559903
3.8405,0.016745,0.000000,-1.544241,1.544241,0.0000,0.0000,0.0000,-0.002365,-1.584602,1.580000,0.4353,0.5622,0.0942,0.000000,0.578311,-0.562971,0.564505,-0.592117,0.575243,-0.559903
3.8572,0.016751,0.000000,-1.543364,1.543364,0.0000,0.0000,0.0000,-0.002361,-1.584602,1.580000,0.3757,0.4902,0.0951,0.000000,0.578311,-0.562971,0.564505,-0.590583,0.575243,-0.561437
3.8740,0.016747,0.000000,-1.542488,1.542488,0.0000,0.0000,0.0000,-0.002374,-1.583068,1.580000,0.4314,0.5153,0.1485,0.000000,0.578311,-0.562971,0.564505,-0.590583,0.575243,-0.559903
3.8907,0.016741,0.000000,-1.541611,1.541611,0.0000,0.0000,0.0000,-0.002360,-1.578466,1.580000,0.3761,0.4951,0.0895,0.000000,0.578311,-0.562971,0.564505,-0.590583,0.575243,-0.561437
3.9075,0.016746,0.000000,-1.540734,1.540734,0.0000,0.0000,0.0000,-0.002350,-1.572330,1.580000,0.3926,0.5480,0.0419,0.000000,0.578311,-0.562971,0.564505,-0.592117,0.575243,-0.561437
3.9243,0.016812,0.000000,-1.539854,1.539854,0.0000,0.0000,0.0000,-0.002351,-1.566194,1.580000,0.3909,0.5425,0.0468,0.000000,0.578311,-0.562971,0.564505,-0.592117,0.575243,-0.561437
3.9411,0.016761,0.000000,-1.538976,1.538976,0.0000,0.0000,0.0000,-0.002351,-1.566194,1.580000,0.3909,0.5425,0.0468,0.000000,0.578311,-0.562971,0.564505,-0.592117,0.575243,-0.561437
3.9578,0.016745,0.000000,-1.538100,1.538100,0.0000,0.0000,0.0000,-0.002351,-1.564660,1.580000,0.3909,0.5425,0.0468,0.000000,0.578311,-0.562971,0.564505,-0.592117,0.575243,-0.561437
3.9745,0.016749,0.000000,-1.537223,1.537223,0.0000,0.0000,0.0000,-0.002351,-1.564660,1.580000,0.3909,0.5425,0.0468,0.000000,0.578311,-0.562971,0.564505,-0.592117,0.575243,-0.561437
3.9913,0.016745,0.000000,-1.536346,1.536346,0.0000,0.0000,0.0000,-0.002351,-1.563126,1.580000,0.3909,0.5425,0.0468,0.000000,0.578311,-0.562971,0.564505,-0.592117,0.575243,-0.561437
4.0080,0.016748,0.000000,-1.535469,1.535469,0.0000,0.0000,0.0000,-0.002351,-1.563126,1.580000,0.3909,0.5425,0.0468,0.000000,0.578311,-0.562971,0.564505,-0.592117,0.575243,-0.561437
4.0248,0.016752,0.000000,-1.534592,1.534592,0.0000,0.0000,0.0000,-0.002351,-1.563126,1.580000,0.3909,0.5425,0.0468,0.000000,0.578311,-0.562971,0.564505,-0.590583,0.575243,-0.561437
4.0415,0.016746,0.000000,-1.533715,1.533715,0.0000,0.0000,0.0000,-0.002362,-1.563126,1.580000,0.3803,0.4923,0.1000,0.000000,0.578311,-0.562971,0.564505,-0.590583,0.575243,-0.561437
4.0583,0.016755,0.000000,-1.532838,1.532838,0.0000,0.0000,0.0000,-0.002361,-1.563126,1.580000,0.3814,0.4975,0.0945,0.000000,0.578311,-0.562971,0.564505,-0.590583,0.575243,-0.561437
4.0750,0.016750,0.000000,-1.531961,1.531961,0.0000,0.0000,0.0000,-0.002361,-1.563126,1.580000,0.3814,0.4975,0.0945,0.000000,0.578311,-0.562971,0.564505,-0.590583,0.575243,-0.561437
4.0918,0.016747,0.000000,-1.531084,1.531084,0.0000,0.0000,0.0000,-0.002350,-1.563126,1.580000,0.3920,0.5478,0.0413,0.000000,0.578311,-0.562971,0.564505,-0.592117,0.575243,-0.561437
4.1085,0.016746,0.000000,-1.530207,1.530207,0.0000,0.0000,0.0000,-0.002351,-1.563126,1.580000,0.3909,0.5425,0.0469,0.000000,0.578311,-0.562971,0.564505,-0.592117,0.575243,-0.561437
4.1253,0.016752,0.000000,-1.529330,1.529330,0.0000,0.0000,0.0000,-0.002351,-1.561592,1.580000,0.3909,0.5425,0.0469,0.000000,0.578311,-0.562971,0.564505,-0.592117,0.575243,-0.561437
4.1420,0.016746,0.000000,-1.528453,1.528453,0.0000,0.0000,0.0000,-0.002351,-1.561592,1.580000,0.3909,0.5425,0.0469,0.000000,0.578311,-0.562971,0.564505,-0.592117,0.575243,-0.561437
4.1588,0.016746,0.000000,-1.527576,1.527576,0.0000,0.0000,0.0000,-0.002364,-1.560058,1.580000,0.4406,0.5607,0.0998,0.000000,0.578311,-0.562971,0.564505,-0.592117,0.575243,-0.559903
4.1755,0.016748,0.000000,-1.526699,1.526699,0.0000,0.0000,0.0000,-0.002361,-1.560058,1.580000,0.3751,0.4904,0.0945,0.000000,0.578311,-0.562971,0.564505,-0.590583,0.575243,-0.561437
4.1923,0.016746,0.000000,-1.525822,1.525822,0.0000,0.0000,0.0000,-0.002350,-1.560058,1.580000,0.3927,0.5485,0.0413,0.000000,0.578311,-0.562971,0.564505,-0.592117,0.575243,-0.561437
4.2090,0.016747,0.000000,-1.524945,1.524945,0.0000,0.0000,0.0000,-0.002351,-1.560058,1.580000,0.3909,0.5424,0.0469,0.000000,0.578311,-0.562971,0.564505,-0.592117,0.575243,-0.561437
4.2258,0.016773,0.000000,-1.524067,1.524067,0.0000,0.0000,0.0000,-0.002351,-1.560058,1.578466,0.3909,0.5424,0.0469,0.000000,0.578311,-0.562971,0.564505,-0.592117,0.575243,-0.561437
4.2425,0.016746,0.000000,-1.523190,1.523190,0.0000,0.0000,0.0000,-0.002351,-1.560058,1.578466,0.3909,0.5424,0.0469,0.000000,0.578311,-0.562971,0.564505,-0.592117,0.575243,-0.561437
4.2592,0.016705,0.000000,-1.522316,1.522316,0.0000,0.0000,0.0000,-0.002375,-1.560058,1.573864,0.4298,0.5099,0.1535,0.000000,0.578311,-0.562971,0.564505,-0.590583,0.575243,-0.559903
4.2760,0.016742,0.000000,-1.521439,1.521439,0.0000,0.0000,0.0000,-0.002360,-1.560058,1.564660,0.3762,0.4957,0.0889,0.000000,0.578311,-0.562971,0.564505,-0.590583,0.575243,-0.561437
4.2927,0.016741,0.000000,-1.520563,1.520563,0.0000,0.0000,0.0000,-0.002350,-1.560058,1.556990,0.3926,0.5480,0.0419,0.000000,0.578311,-0.562971,0.564505,-0.592117,0.575243,-0.561437
4.3095,0.016743,0.000000,-1.519686,1.519686,0.0000,0.0000,0.0000,-0.002364,-1.560058,1.549321,0.4404,0.5601,0.1003,0.000000,0.578311,-0.562971,0.564505,-0.592117,0.575243,-0.559903
4.3262,0.016752,0.000000,-1.518809,1.518809,0.0000,0.0000,0.0000,-0.002349,-1.560058,1.546253,0.3859,0.5412,0.0407,0.000000,0.578311,-0.562971,0.564505,-0.592117,0.575243,-0.561437
4.3430,0.016755,0.000000,-1.517932,1.517932,0.0000,0.0000,0.0000,-0.002349,-1.560058,1.546253,0.3859,0.5412,0.0407,0.000000,0.578311,-0.562971,0.564505,-0.592117,0.575243,-0.561437
4.3597,0.016749,0.000000,-1.517055,1.517055,0.0000,0.0000,0.0000,-0.002351,-1.560058,1.544719,0.3916,0.5432,0.0469,0.000000,0.578311,-0.562971,0.564505,-0.592117,0.575243,-0.561437
4.3765,0.016747,0.000000,-1.516178,1.516178,0.0000,0.0000,0.0000,-0.002362,-1.560058,1.543185,0.3802,0.4922,0.1000,0.000000,0.578311,-0.562971,0.564505,-0.590583,0.575243,-0.561437
4.3932,0.016749,0.000000,-1.515301,1.515301,0.0000,0.0000,0.0000,-0.002362,-1.560058,1.541651,0.4417,0.5659,0.0942,0.000000,0.578311,-0.562971,0.564505,-0.592117,0.575243,-0.559903
4.4100,0.016743,0.000000,-1.514424,1.514424,0.0000,0.0000,0.0000,-0.002349,-1.558524,1.540117,0.3858,0.5406,0.0414,0.000000,0.578311,-0.562971,0.564505,-0.592117,0.575243,-0.561437
4.4267,0.016746,0.000000,-1.513547,1.513547,0.0000,0.0000,0.0000,-0.002349,-1.558524,1.540117,0.3858,0.5406,0.0414,0.000000,0.578311,-0.562971,0.564505,-0.592117,0.575243,-0.561437
4.4434,0.016695,0.000000,-1.512673,1.512673,0.0000,0.0000,0.0000,-0.002351,-1.558524,1.540117,0.3916,0.5433,0.0469,0.000000,0.578311,-0.562971,0.564505,-0.592117,0.575243,-0.561437
4.4601,0.016744,0.000000,-1.511796,1.511796,0.0000,0.0000,0.0000,-0.002362,-1.556990,1.540117,0.3802,0.4922,0.1000,0.000000,0.578311,-0.562971,0.564505,-0.590583,0.575243,-0.561437
4.4769,0.016742,0.000000,-1.510920,1.510920,0.0000,0.0000,0.0000,-0.002349,-1.547787,1.540117,0.3922,0.5483,0.0408,0.000000,0.578311,-0.562971,0.564505,-0.592117,0.575243,-0.561437
4.4938,0.016930,0.000000,-1.510033,1.510033,0.0000,0.0000,0.0000,-0.002362,-1.540117,1.540117,0.3802,0.4917,0.1007,0.000000,0.578311,-0.562971,0.564505,-0.590583,0.575243,-0.561437
4.5106,0.016749,0.000000,-1.509156,1.509156,0.0000,0.0000,0.0000,-0.002361,-1.533981,1.540117,0.3814,0.4976,0.0944,0.000000,0.578311,-0.562971,0.564505,-0.590583,0.575243,-0.561437
4.5273,0.016757,0.000000,-1.508279,1.508279,0.0000,0.0000,0.0000,-0.002350,-1.532447,1.540117,0.3920,0.5478,0.0413,0.000000,0.578311,-0.562971,0.564505,-0.592117,0.575243,-0.561437
4.5441,0.016741,0.000000,-1.507402,1.507402,0.0000,0.0000,0.0000,-0.002350,-1.532447,1.540117,0.3920,0.5478,0.0413,0.000000,0.578311,-0.562971,0.564505,-0.592117,0.575243,-0.561437
4.5608,0.016744,0.000000,-1.506526,1.506526,0.0000,0.0000,0.0000,-0.002351,-1.532447,1.540117,0.3909,0.5425,0.0469,0.000000,0.578311,-0.562971,0.564505,-0.592117,0.575243,-0.561437
4.5776,0.016742,0.000000,-1.505649,1.505649,0.0000,0.0000,0.0000,-0.002351,-1.532447,1.540117,0.3909,0.5425,0.0469,0.000000,0.578311,-0.562971,0.564505,-0.592117,0.575243,-0.561437
4.5943,0.016756,0.000000,-1.504772,1.504772,0.0000,0.0000,0.0000,-0.002351,-1.532447,1.540117,0.3909,0.5425,0.0469,0.000000,0.578311,-0.562971,0.564505,-0.592117,0.575243,-0.561437
4.6111,0.016741,0.000000,-1.503895,1.503895,0.0000,0.0000,0.0000,-0.002364,-1.532447,1.540117,0.4796,0.4943,0.2073,0.000000,0.579845,-0.562971,0.564505,-0.590583,0.575243,-0.559903
4.6278,0.016763,0.000000,-1.503018,1.503018,0.0000,0.0000,0.0000,-0.002364,-1.532447,1.540117,0.4796,0.4943,0.2073,0.000000,0.579845,-0.562971,0.564505,-0.590583,0.575243,-0.559903
4.6446,0.016742,0.000000,-1.502141,1.502141,0.0000,0.0000,0.0000,-0.002349,-1.532447,1.540117,0.3818,0.5480,0.0296,0.000000,0.578311,-0.562971,0.564505,-0.592117,0.575243,-0.561437
4.6613,0.016750,0.000000,-1.501264,1.501264,0.0000,0.0000,0.0000,-0.002351,-1.532447,1.540117,0.3920,0.5425,0.0481,0.000000,0.578311,-0.562971,0.564505,-0.592117,0.575243,-0.561437
4.6780,0.016742,0.000000,-1.500387,1.500387,0.0000,0.0000,0.0000,-0.002339,-1.532447,1.540117,0.4408,0.5275,0.1000,0.000000,0.579845,-0.562971,0.564505,-0.592117,0.575243,-0.561437
4.6948,0.016763,0.000000,-1.499510,1.499510,0.0000,0.0000,0.0000,-0.002352,-1.533981,1.538583,0.3859,0.5446,0.0408,0.000000,0.578311,-0.562971,0.564505,-0.592117,0.575243,-0.561437
4.7116,0.016748,0.000000,-1.498633,1.498633,0.0000,0.0000,0.0000,-0.002351,-1.532447,1.538583,0.3916,0.5429,0.0469,0.000000,0.578311,-0.562971,0.564505,-0.592117,0.575243,-0.561437
4.7283,0.016751,0.000000,-1.497756,1.497756,0.0000,0.0000,0.0000,-0.002351,-1.532447,1.538583,0.3916,0.5429,0.0469,0.000000,0.578311,-0.562971,0.564505,-0.592117,0.575243,-0.561437
4.7450,0.016740,0.000000,-1.496879,1.496879,0.0000,0.0000,0.0000,-0.002351,-1.532447,1.537049,0.3916,0.5429,0.0469,0.000000,0.578311,-0.562971,0.564505,-0.592117,0.575243,-0.561437
4.7618,0.016757,0.000000,-1.496002,1.496002,0.0000,0.0000,0.0000,-0.002351,-1.532447,1.532447,0.3916,0.5429,0.0469,0.000000,0.578311,-0.562971,0.564505,-0.592117,0.575243,-0.561437
4.7785,0.016740,0.000000,-1.495125,1.495125,0.0000,0.0000,0.0000,-0.002351,-1.532447,1.527845,0.3916,0.5429,0.0469,0.000000,0.578311,-0.562971,0.564505,-0.592117,0.575243,-0.561437
4.7953,0.016752,0.000000,-1.494248,1.494248,0.0000,0.0000,0.0000,-0.002351,-1.532447,1.523243,0.3916,0.5429,0.0469,0.000000,0.578311,-0.562971,0.564505,-0.592117,0.575243,-0.561437
4.8120,0.016748,0.000000,-1.493371,1.493371,0.0000,0.0000,0.0000,-0.002375,-1.532447,1.524777,0.4297,0.5099,0.1535,0.000000,0.578311,-0.562971,0.564505,-0.590583,0.575243,-0.559903
4.8288,0.016759,0.000000,-1.492494,1.492494,0.0000,0.0000,0.0000,-0.002375,-1.532447,1.524777,0.4297,0.5099,0.1535,0.000000,0.578311,-0.562971,0.564505,-0.590583,0.575243,-0.559903
4.8455,0.016741,0.000000,-1.491617,1.491617,0.0000,0.0000,0.0000,-0.002348,-1.532447,1.523243,0.4260,0.4801,0.1427,0.000000,0.579845,-0.562971,0.564505,-0.590583,0.575243,-0.561437
4.8623,0.016754,0.000000,-1.490740,1.490740,0.0000,0.0000,0.0000,-0.002364,-1.532447,1.523243,0.3482,0.5851,0.0895,0.000000,0.578311,-0.561437,0.564505,-0.592117,0.575243,-0.561437
4.8790,0.016740,0.000000,-1.489863,1.489863,0.0000,0.0000,0.0000,-0.002349,-1.527845,1.523243,0.3955,0.5386,0.0419,0.000000,0.578311,-0.562971,0.564505,-0.592117,0.575243,-0.561437
4.8958,0.016760,0.000000,-1.488986,1.488986,0.0000,0.0000,0.0000,-0.002351,-1.520175,1.523243,0.3906,0.5435,0.0468,0.000000,0.578311,-0.562971,0.564505,-0.592117,0.575243,-0.561437
4.9125,0.016745,0.000000,-1.488109,1.488109,0.0000,0.0000,0.0000,-0.002364,-1.514039,1.523243,0.4406,0.5606,0.0998,0.000000,0.578311,-0.562971,0.564505,-0.592117,0.575243,-0.559903
4.9293,0.016758,0.000000,-1.487232,1.487232,0.0000,0.0000,0.0000,-0.002364,-1.514039,1.523243,0.4406,0.5606,0.0998,0.000000,0.578311,-0.562971,0.564505,-0.592117,0.575243,-0.559903
4.9460,0.016742,0.000000,-1.486355,1.486355,0.0000,0.0000,0.0000,-0.002349,-1.510971,1.523243,0.3859,0.5412,0.0408,0.000000,0.578311,-0.562971,0.564505,-0.592117,0.575243,-0.561437
4.9628,0.016763,0.000000,-1.485477,1.485477,0.0000,0.0000,0.0000,-0.002362,-1.509437,1.523243,0.3808,0.4925,0.1007,0.000000,0.578311,-0.562971,0.564505,-0.590583,0.575243,-0.561437
4.9795,0.016740,0.000000,-1.484601,1.484601,0.0000,0.0000,0.0000,-0.002338,-1.509437,1.523243,0.4419,0.5327,0.0945,0.000000,0.579845,-0.562971,0.564505,-0.592117,0.575243,-0.561437
4.9963,0.016758,0.000000,-1.483723,1.483723,0.0000,0.0000,0.0000,-0.002352,-1.509437,1.523243,0.3857,0.5441,0.0413,0.000000,0.578311,-0.562971,0.564505,-0.592117,0.575243,-0.561437
5.0131,0.016763,0.000000,-1.482846,1.482846,0.0000,0.0000,0.0000,-0.002350,-1.509437,1.523243,0.3916,0.5429,-0.0410,-0.001534,0.578311,-0.562971,0.564505,-0.592117,0.575243,-0.561437
5.0298,0.016758,0.000000,-1.481968,1.481968,0.0000,0.0000,0.0000,-0.002350,-1.509437,1.523243,0.3916,0.5429,-0.0410,-0.001534,0.578311,-0.562971,0.564505,-0.592117,0.575243,-0.561437
5.0466,0.016741,0.000000,-1.481092,1.481092,0.0000,0.0000,0.0000,-0.002352,-1.509437,1.523243,0.4903,0.5450,0.1536,0.000000,0.579845,-0.562971,0.564505,-0.592117,0.575243,-0.559903
5.0633,0.016755,0.000000,-1.480214,1.480214,0.0000,0.0000,0.0000,-0.002339,-1.509437,1.521709,0.4305,0.5272,0.0890,0.000000,0.579845,-0.562971,0.564505,-0.592117,0.575243,-0.561437
5.0801,0.016744,0.000000,-1.479338,1.479338,0.0000,0.0000,0.0000,-0.002363,-1.509437,1.520175,0.3762,0.4939,0.0957,0.000000,0.578311,-0.562971,0.564505,-0.590583,0.575243,-0.561437
5.0968,0.016754,0.000000,-1.478460,1.478460,0.0000,0.0000,0.0000,-0.002361,-1.507903,1.515573,0.3818,0.4974,0.0950,0.000000,0.578311,-0.562971,0.564505,-0.590583,0.575243,-0.561437
5.1136,0.016820,0.000000,-1.477580,1.477580,0.0000,0.0000,0.0000,-0.002350,-1.507903,1.510971,0.3920,0.5478,0.0413,0.000000,0.578311,-0.562971,0.564505,-0.592117,0.575243,-0.561437
5.1304,0.016753,0.000000,-1.476703,1.476703,0.0000,0.0000,0.0000,-0.002350,-1.507903,1.510971,0.3920,0.5478,0.0413,0.000000,0.578311,-0.562971,0.564505,-0.592117,0.575243,-0.561437
5.1471,0.016743,0.000000,-1.475826,1.475826,0.0000,0.0000,0.0000,-0.002351,-1.507903,1.504835,0.3909,0.5425,0.0469,0.000000,0.578311,-0.562971,0.564505,-0.592117,0.575243,-0.561437
5.1639,0.016735,0.000000,-1.474950,1.474950,0.0000,0.0000,0.0000,-0.002362,-1.507903,1.501767,0.3803,0.4923,0.1000,0.000000,0.578311,-0.562971,0.564505,-0.590583,0.575243,-0.561437
5.1806,0.016750,0.000000,-1.474073,1.474073,0.0000,0.0000,0.0000,-0.002362,-1.507903,1.500233,0.4417,0.5659,0.0942,0.000000,0.578311,-0.562971,0.564505,-0.592117,0.575243,-0.559903
5.1974,0.016751,0.000000,-1.473196,1.473196,0.0000,0.0000,0.0000,-0.002349,-1.507903,1.500233,0.3858,0.5406,0.0414,0.000000,0.578311,-0.562971,0.564505,-0.592117,0.575243,-0.561437
5.2141,0.016766,0.000000,-1.472318,1.472318,0.0000,0.0000,0.0000,-0.002351,-1.507903,1.500233,0.3916,0.5433,0.0469,0.000000,0.578311,-0.562971,0.564505,-0.592117,0.575243,-0.561437
5.2309,0.016758,0.000000,-1.471440,1.471440,0.0000,0.0000,0.0000,-0.002351,-1.507903,1.500233,0.3916,0.5433,0.0469,0.000000,0.578311,-0.562971,0.564505,-0.592117,0.575243,-0.561437
5.2476,0.016743,0.000000,-1.470564,1.470564,0.0000,0.0000,0.0000,-0.002362,-1.506369,1.500233,0.3802,0.4922,0.1000,0.000000,0.578311,-0.562971,0.564505,-0.590583,0.575243,-0.561437
5.2644,0.016756,0.000000,-1.469686,1.469686,0.0000,0.0000,0.0000,-0.002349,-1.506369,1.500233,0.3922,0.5483,0.0408,0.000000,0.578311,-0.562971,0.564505,-0.592117,0.575243,-0.561437
5.2812,0.016819,0.000000,-1.468806,1.468806,0.0000,0.0000,0.0000,-0.002351,-1.506369,1.500233,0.3909,0.5425,0.0469,0.000000,0.578311,-0.562971,0.564505,-0.592117,0.575243,-0.561437
5.2980,0.016744,0.000000,-1.467929,1.467929,0.0000,0.0000,0.0000,-0.002339,-1.506369,1.500233,0.4409,0.5275,0.1001,0.000000,0.579845,-0.562971,0.564505,-0.592117,0.575243,-0.561437
5.3148,0.016831,0.000000,-1.467048,1.467048,0.0000,0.0000,0.0000,-0.002339,-1.506369,1.500233,0.4409,0.5275,0.1001,0.000000,0.578311,-0.562971,0.564505,-0.592117,0.575243,-0.561437
5.3315,0.016752,0.000000,-1.466170,1.466170,0.0000,0.0000,0.0000,-0.002352,-1.506369,1.500233,0.3859,0.5446,0.0408,0.000000,0.578311,-0.562971,0.564505,-0.592117,0.575243,-0.561437
5.3483,0.016746,0.000000,-1.465294,1.465294,0.0000,0.0000,0.0000,-0.002351,-1.506369,1.500233,0.3916,0.5429,0.0469,0.000000,0.578311,-0.562971,0.564505,-0.592117,0.575243,-0.561437
5.3650,0.016754,0.000000,-1.464416,1.464416,0.0000,0.0000,0.0000,-0.002364,-1.506369,1.500233,0.4405,0.5606,0.0998,0.000000,0.578311,-0.562971,0.564505,-0.592117,0.575243,-0.559903
5.3819,0.016842,0.000000,-1.463535,1.463535,0.0000,0.0000,0.0000,-0.002349,-1.504835,1.500233,0.3859,0.5412,0.0408,0.000000,0.578311,-0.562971,0.564505,-0.592117,0.575243,-0.561437
5.3986,0.016750,0.000000,-1.462658,1.462658,0.0000,0.0000,0.0000,-0.002339,-1.504835,1.500233,0.4414,0.5276,0.1008,0.000000,0.579845,-0.562971,0.564505,-0.592117,0.575243,-0.561437
5.4154,0.016748,0.000000,-1.461781,1.461781,0.0000,0.0000,0.0000,-0.002363,-1.504835,1.500233,0.3750,0.4939,0.0944,0.000000,0.578311,-0.562971,0.564505,-0.590583,0.575243,-0.561437
5.4321,0.016752,0.000000,-1.460903,1.460903,0.0000,0.0000,0.0000,-0.002363,-1.504835,1.500233,0.3750,0.4939,0.0944,0.000000,0.578311,-0.562971,0.564505,-0.590583,0.575243,-0.561437
5.4489,0.016743,0.000000,-1.460027,1.460027,0.0000,0.0000,0.0000,-0.002338,-1.504835,1.500233,0.4425,0.5325,0.0952,0.000000,0.579845,-0.562971,0.564505,-0.592117,0.575243,-0.561437
5.4656,0.016753,0.000000,-1.459150,1.459150,0.0000,0.0000,0.0000,-0.002376,-1.500233,1.500233,0.4244,0.5110,0.1485,0.000000,0.578311,-0.562971,0.564505,-0.590583,0.575243,-0.559903
5.4824,0.016744,0.000000,-1.458273,1.458273,0.0000,0.0000,0.0000,-0.002348,-1.492563,1.500233,0.3875,0.5464,0.0357,0.000000,0.578311,-0.562971,0.564505,-0.592117,0.575243,-0.561437
