t,loop_dt,cmd_z,cmd_ant_l,cmd_ant_r,cmd_roll,cmd_pitch,cmd_yaw,pres_z,pres_ant_l,pres_ant_r,pres_roll,pres_pitch,pres_yaw,pres_j0,pres_j1,pres_j2,pres_j3,pres_j4,pres_j5,pres_j6
0.0000,0.000001,0.000000,0.000001,-0.000001,0.0000,0.0000,0.0000,-0.002894,-0.176408,0.173340,-0.0226,0.7405,0.0364,0.000000,0.558369,-0.550699,0.562971,-0.572175,0.558369,-0.555301
0.0186,0.018610,0.000058,0.015298,-0.015298,0.0000,0.0000,0.0000,-0.002756,-0.176408,0.173340,0.0662,0.5894,0.0480,0.000000,0.562971,-0.555301,0.564505,-0.573709,0.561437,-0.558369
0.0354,0.016802,0.000111,0.029066,-0.029066,0.0000,0.0000,0.0000,-0.002646,-0.176408,0.173340,0.0282,0.5884,0.0465,0.000000,0.566039,-0.556835,0.566039,-0.576777,0.564505,-0.561437
0.0522,0.016745,0.000164,0.042707,-0.042707,0.0000,0.0000,0.0000,-0.002646,-0.176408,0.173340,0.0282,0.5884,0.0465,0.000000,0.566039,-0.556835,0.566039,-0.576777,0.564505,-0.561437
0.0689,0.016744,0.000216,0.056229,-0.056229,0.0000,0.0000,0.0000,-0.002545,-0.148796,0.145728,0.1108,0.5883,0.1007,0.000000,0.569107,-0.559903,0.569107,-0.578311,0.566039,-0.562971
0.0856,0.016743,0.000269,0.069594,-0.069594,0.0000,0.0000,0.0000,-0.002432,-0.082835,0.085903,0.1525,0.5709,-0.0115,0.000000,0.572175,-0.562971,0.570641,-0.581379,0.567573,-0.566039
0.1024,0.016740,0.000321,0.082765,-0.082765,0.0000,0.0000,0.0000,-0.002407,-0.010738,0.018408,0.1979,0.6589,0.0539,0.000000,0.573709,-0.562971,0.572175,-0.582913,0.567573,-0.566039
0.1191,0.016741,0.000374,0.095707,-0.095707,0.0000,0.0000,0.0000,-0.002362,0.055223,-0.046019,0.2538,0.6512,0.0474,0.000000,0.576777,-0.562971,0.572175,-0.584447,0.567573,-0.567573
0.1359,0.016748,0.000426,0.108389,-0.108389,0.0000,0.0000,0.0000,-0.002317,0.088971,-0.085903,0.3083,0.6176,0.0483,0.000000,0.578311,-0.564505,0.572175,-0.585981,0.569107,-0.567573
0.1526,0.016740,0.000479,0.120767,-0.120767,0.0000,0.0000,0.0000,-0.002317,0.088971,-0.085903,0.3083,0.6176,0.0483,0.000000,0.578311,-0.564505,0.572175,-0.585981,0.569107,-0.567573
0.1694,0.016751,0.000531,0.132818,-0.132818,0.0000,0.0000,0.0000,-0.002260,0.088971,-0.088971,0.3135,0.5694,-0.0054,0.000000,0.579845,-0.566039,0.572175,-0.587515,0.570641,-0.569107
0.1861,0.016739,0.000583,0.144493,-0.144493,0.0000,0.0000,0.0000,-0.002216,0.082835,-0.087437,0.3226,0.4549,0.1072,0.000000,0.581379,-0.567573,0.572175,-0.587515,0.573709,-0.569107
0.2028,0.016744,0.000636,0.155771,-0.155771,0.0000,0.0000,0.0000,-0.002134,0.093573,-0.095107,0.4214,0.3642,0.0424,0.000000,0.584447,-0.570641,0.572175,-0.589049,0.575243,-0.570641
0.2196,0.016743,0.000688,0.166618,-0.166618,0.0000,0.0000,0.0000,-0.002058,0.115049,-0.110447,0.4323,0.4437,0.1029,0.000000,0.587515,-0.570641,0.573709,-0.592117,0.576777,-0.572175
0.2363,0.016743,0.000740,0.177005,-0.177005,0.0000,0.0000,0.0000,-0.002058,0.115049,-0.110447,0.4323,0.4437,0.1029,0.000000,0.587515,-0.570641,0.573709,-0.592117,0.576777,-0.572175
0.2531,0.016742,0.000792,0.186901,-0.186901,0.0000,0.0000,0.0000,-0.002016,0.138058,-0.131922,0.3136,0.4008,0.0958,0.000000,0.587515,-0.570641,0.573709,-0.593651,0.579845,-0.573709
0.2698,0.016754,0.000844,0.196287,-0.196287,0.0000,0.0000,0.0000,-0.001984,0.159534,-0.150330,0.2480,0.4048,0.0424,0.000000,0.587515,-0.570641,0.573709,-0.595185,0.581379,-0.575243
0.2866,0.016746,0.000895,0.205125,-0.205125,0.0000,0.0000,0.0000,-0.001951,0.168738,-0.165670,0.1481,0.3183,-0.0062,0.000000,0.587515,-0.570641,0.572175,-0.596719,0.584447,-0.576777
0.3033,0.016761,0.000947,0.213402,-0.213402,0.0000,0.0000,0.0000,-0.001869,0.170272,-0.179476,0.0815,0.2606,-0.0549,0.000000,0.590583,-0.570641,0.572175,-0.598253,0.585981,-0.581379
0.3201,0.016745,0.000999,0.221081,-0.221081,0.0000,0.0000,0.0000,-0.001805,0.179476,-0.190214,0.0319,0.2672,-0.0503,0.000000,0.592117,-0.570641,0.572175,-0.601320,0.589049,-0.582913
0.3368,0.016756,0.001050,0.228153,-0.228153,0.0000,0.0000,0.0000,-0.001805,0.179476,-0.190214,0.0319,0.2672,-0.0503,0.000000,0.592117,-0.570641,0.572175,-0.601320,0.589049,-0.582913
0.3536,0.016747,0.001102,0.234589,-0.234589,0.0000,0.0000,0.0000,-0.001763,0.202485,-0.202485,0.0474,0.3192,0.0564,0.000000,0.593651,-0.570641,0.573709,-0.602854,0.590583,-0.582913
0.3703,0.016755,0.001153,0.240379,-0.240379,0.0000,0.0000,0.0000,-0.001658,0.219359,-0.213223,0.0075,0.4182,0.0983,0.000000,0.596719,-0.570641,0.576777,-0.605922,0.592117,-0.585981
0.3871,0.016746,0.001204,0.245500,-0.245500,0.0000,0.0000,0.0000,-0.001593,0.217825,-0.220893,-0.1272,0.4764,0.2005,0.000000,0.596719,-0.570641,0.579845,-0.607456,0.595185,-0.587515
0.4038,0.016757,0.001255,0.249945,-0.249945,0.0000,0.0000,0.0000,-0.001563,0.217825,-0.228563,-0.1140,0.4723,0.3517,0.000000,0.598253,-0.570641,0.581379,-0.607456,0.596719,-0.587515
0.4206,0.016747,0.001306,0.253695,-0.253695,0.0000,0.0000,0.0000,-0.001470,0.234699,-0.237767,-0.0667,0.5283,0.5520,0.000000,0.602854,-0.570641,0.584447,-0.608990,0.598253,-0.589049
0.4373,0.016752,0.001357,0.256744,-0.256744,0.0000,0.0000,0.0000,-0.001470,0.234699,-0.237767,-0.0667,0.5283,0.5520,0.000000,0.602854,-0.570641,0.584447,-0.608990,0.598253,-0.589049
0.4541,0.016740,0.001407,0.259080,-0.259080,0.0000,0.0000,0.0000,-0.001405,0.250039,-0.246971,-0.0434,0.6071,0.5314,0.000000,0.604388,-0.572175,0.587515,-0.610524,0.598253,-0.590583
0.4708,0.016754,0.001458,0.260701,-0.260701,0.0000,0.0000,0.0000,-0.001374,0.250039,-0.248505,-0.0064,0.6653,0.4796,0.000000,0.604388,-0.573709,0.589049,-0.612058,0.598253,-0.590583
0.4876,0.016743,0.001508,0.261600,-0.261600,0.0000,0.0000,0.0000,-0.001290,0.246971,-0.250039,0.0675,0.6922,0.5402,0.000000,0.605922,-0.576777,0.592117,-0.613592,0.599786,-0.590583
0.5043,0.016756,0.001558,0.261775,-0.261775,0.0000,0.0000,0.0000,-0.001186,0.256175,-0.254641,0.1658,0.6034,0.5904,0.000000,0.608990,-0.581379,0.595185,-0.613592,0.601320,-0.592117
0.5211,0.016745,0.001608,0.261225,-0.261225,0.0000,0.0000,0.0000,-0.001108,0.260777,-0.262311,0.2512,0.5760,0.5329,0.000000,0.610524,-0.585981,0.598253,-0.613592,0.601320,-0.593651
0.5378,0.016750,0.001658,0.259953,-0.259953,0.0000,0.0000,0.0000,-0.001108,0.260777,-0.262311,0.2512,0.5760,0.5329,0.000000,0.610524,-0.585981,0.598253,-0.613592,0.601320,-0.593651
0.5546,0.016746,0.001707,0.257961,-0.257961,0.0000,0.0000,0.0000,-0.001016,0.257709,-0.262311,0.2988,0.5085,0.5403,0.000000,0.612058,-0.590583,0.601320,-0.613592,0.602854,-0.595185
0.5713,0.016759,0.001757,0.255253,-0.255253,0.0000,0.0000,0.0000,-0.000949,0.257709,-0.262311,0.2620,0.4958,0.5401,0.000000,0.612058,-0.593651,0.604388,-0.613592,0.604388,-0.596719
0.5881,0.016743,0.001806,0.251841,-0.251841,0.0000,0.0000,0.0000,-0.000880,0.263845,-0.262311,0.3120,0.4766,0.4326,0.000000,0.612058,-0.598253,0.607456,-0.613592,0.604388,-0.598253
0.6048,0.016753,0.001855,0.247729,-0.247729,0.0000,0.0000,0.0000,-0.000812,0.262311,-0.260777,0.3143,0.3912,0.2271,0.000000,0.612058,-0.602854,0.608990,-0.613592,0.604388,-0.601320
0.6217,0.016867,0.001904,0.242897,-0.242897,0.0000,0.0000,0.0000,-0.000794,0.256175,-0.257709,0.3036,0.3488,0.1399,0.000000,0.612058,-0.604388,0.608990,-0.613592,0.604388,-0.602854
0.6385,0.016754,0.001952,0.237422,-0.237422,0.0000,0.0000,0.0000,-0.000794,0.256175,-0.257709,0.3036,0.3488,0.1399,0.000000,0.612058,-0.604388,0.608990,-0.613592,0.604388,-0.602854
0.6552,0.016742,0.002001,0.231294,-0.231294,0.0000,0.0000,0.0000,-0.000759,0.253107,-0.254641,0.3331,0.2672,-0.0141,0.000000,0.612058,-0.607456,0.608990,-0.613592,0.604388,-0.604388
0.6720,0.016756,0.002049,0.224521,-0.224521,0.0000,0.0000,0.0000,-0.000738,0.253107,-0.254641,0.3900,0.3104,0.0022,0.000000,0.613592,-0.607456,0.608990,-0.615126,0.604388,-0.604388
0.6887,0.016748,0.002097,0.217129,-0.217129,0.0000,0.0000,0.0000,-0.000655,0.248505,-0.250039,0.5324,0.2892,-0.1624,0.000000,0.616660,-0.610524,0.608990,-0.618194,0.604388,-0.605922
0.7055,0.016753,0.002144,0.209133,-0.209133,0.0000,0.0000,0.0000,-0.000616,0.242369,-0.242369,0.5496,0.3420,-0.1453,0.000000,0.618194,-0.610524,0.608990,-0.621262,0.605922,-0.605922
0.7222,0.016728,0.002192,0.200572,-0.200572,0.0000,0.0000,0.0000,-0.000597,0.233165,-0.230097,0.6462,0.3050,-0.0376,0.000000,0.621262,-0.610524,0.608990,-0.621262,0.605922,-0.605922
0.7389,0.016756,0.002239,0.191441,-0.191441,0.0000,0.0000,0.0000,-0.000597,0.233165,-0.230097,0.6462,0.3050,-0.0376,0.000000,0.621262,-0.610524,0.608990,-0.621262,0.605922,-0.605922
0.7557,0.016747,0.002286,0.181785,-0.181785,0.0000,0.0000,0.0000,-0.000563,0.220893,-0.219359,0.6472,0.3268,-0.1031,0.000000,0.622796,-0.610524,0.608990,-0.622796,0.605922,-0.607456
0.7724,0.016754,0.002333,0.171622,-0.171622,0.0000,0.0000,0.0000,-0.000495,0.207087,-0.208621,0.6698,0.3602,-0.2048,0.000000,0.625864,-0.610524,0.608990,-0.625864,0.605922,-0.610524
0.7892,0.016744,0.002379,0.160990,-0.160990,0.0000,0.0000,0.0000,-0.000429,0.196350,-0.200951,0.6011,0.3373,-0.3043,0.000000,0.625864,-0.612058,0.608990,-0.628932,0.608990,-0.612058
0.8059,0.016760,0.002425,0.149902,-0.149902,0.0000,0.0000,0.0000,-0.000429,0.187146,-0.199418,0.6011,0.3373,-0.3043,0.000000,0.628932,-0.615126,0.608990,-0.630466,0.612058,-0.615126
0.8227,0.016749,0.002471,0.138405,-0.138405,0.0000,0.0000,0.0000,-0.000326,0.187146,-0.199418,0.6185,0.1873,-0.3491,0.000000,0.628932,-0.615126,0.608990,-0.630466,0.612058,-0.615126
0.8394,0.016758,0.002517,0.126519,-0.126519,0.0000,0.0000,0.0000,-0.000277,0.177942,-0.196350,0.5499,0.1530,-0.2904,0.000000,0.630466,-0.615126,0.608990,-0.632000,0.615126,-0.616660
0.8562,0.016747,0.002562,0.114292,-0.114292,0.0000,0.0000,0.0000,-0.000174,0.162602,-0.181010,0.4534,0.1076,-0.3517,0.000000,0.633534,-0.615126,0.608990,-0.635068,0.618194,-0.621262
0.8730,0.016755,0.002607,0.101741,-0.101741,0.0000,0.0000,0.0000,-0.000112,0.147262,-0.162602,0.4353,0.0276,-0.3457,0.000000,0.635068,-0.616660,0.608990,-0.636602,0.621262,-0.622796
0.8897,0.016746,0.002652,0.088916,-0.088916,0.0000,0.0000,0.0000,-0.000058,0.130388,-0.141126,0.4575,-0.0320,-0.2918,0.000000,0.636602,-0.618194,0.608990,-0.638136,0.624330,-0.622796
0.9065,0.016757,0.002696,0.075835,-0.075835,0.0000,0.0000,0.0000,-0.000058,0.130388,-0.141126,0.4575,-0.0320,-0.2918,0.000000,0.636602,-0.618194,0.608990,-0.638136,0.624330,-0.622796
0.9232,0.016749,0.002740,0.062552,-0.062552,0.0000,0.0000,0.0000,0.000031,0.115049,-0.122718,0.4102,-0.0741,-0.1879,0.000000,0.639670,-0.618194,0.608990,-0.641204,0.628932,-0.624330
0.9400,0.016764,0.002784,0.049083,-0.049083,0.0000,0.0000,0.0000,0.000043,0.102777,-0.107379,0.4851,-0.0512,-0.0892,0.000000,0.641204,-0.618194,0.608990,-0.642738,0.630466,-0.622796
0.9567,0.016742,0.002828,0.035496,-0.035496,0.0000,0.0000,0.0000,0.000088,0.088971,-0.092039,0.4217,-0.0207,-0.1000,0.000000,0.641204,-0.618194,0.608990,-0.645806,0.633534,-0.622796
0.9735,0.016760,0.002871,0.021795,-0.021795,0.0000,0.0000,0.0000,0.000106,0.070563,-0.073631,0.4005,-0.0075,-0.0991,0.000000,0.641204,-0.618194,0.608990,-0.647340,0.635068,-0.622796
0.9902,0.016745,0.002914,0.008047,-0.008047,0.0000,0.0000,0.0000,0.000131,0.052155,-0.055223,0.3812,0.0933,0.0100,0.000000,0.641204,-0.618194,0.612058,-0.647340,0.635068,-0.622796
1.0070,0.016756,0.002957,-0.005732,0.005732,0.0000,0.0000,0.0000,0.000131,0.052155,-0.055223,0.3812,0.0933,0.0100,0.000000,0.641204,-0.618194,0.612058,-0.647340,0.635068,-0.622796
1.0237,0.016748,0.002999,-0.019489,0.019489,0.0000,0.0000,0.0000,0.000216,0.035282,-0.033748,0.2357,0.2015,0.1624,0.000000,0.641204,-0.618194,0.616660,-0.648874,0.638136,-0.624330
1.0405,0.016751,0.003041,-0.033195,0.033195,0.0000,0.0000,0.0000,0.000219,0.019942,-0.013806,0.2998,0.3078,0.2008,0.000000,0.641204,-0.618194,0.618194,-0.650408,0.638136,-0.622796
1.0572,0.016745,0.003082,-0.046803,0.046803,0.0000,0.0000,0.0000,0.000269,0.006136,-0.003068,0.2716,0.4987,0.3059,0.000000,0.641204,-0.618194,0.622796,-0.651942,0.638136,-0.622796
1.0740,0.016750,0.003124,-0.060287,0.060287,0.0000,0.0000,0.0000,0.000312,-0.012272,0.009204,0.2251,0.5963,0.4042,0.000000,0.641204,-0.618194,0.625864,-0.653476,0.639670,-0.622796
1.0908,0.016844,0.003165,-0.073677,0.073677,0.0000,0.0000,0.0000,0.000380,-0.030680,0.027612,0.3060,0.7577,0.6143,0.000000,0.644272,-0.618194,0.630466,-0.655010,0.639670,-0.622796
1.1076,0.016758,0.003205,-0.086795,0.086795,0.0000,0.0000,0.0000,0.000380,-0.030680,0.027612,0.3060,0.7577,0.6143,0.000000,0.644272,-0.618194,0.630466,-0.655010,0.639670,-0.622796
1.1243,0.016705,0.003245,-0.099632,0.099632,0.0000,0.0000,0.0000,0.000444,-0.046019,0.047553,0.3077,0.8932,0.7020,0.000000,0.645806,-0.618194,0.633534,-0.658078,0.641204,-0.622796
1.1410,0.016756,0.003285,-0.112232,0.112232,0.0000,0.0000,0.0000,0.000522,-0.062893,0.065961,0.3837,0.9475,0.7494,0.000000,0.648874,-0.619728,0.636602,-0.659612,0.641204,-0.624330
1.1578,0.016740,0.003325,-0.124510,0.124510,0.0000,0.0000,0.0000,0.000586,-0.079767,0.078233,0.4135,1.0087,0.8555,0.000000,0.650408,-0.621262,0.639670,-0.661146,0.642738,-0.624330
1.1748,0.017002,0.003365,-0.136628,0.136628,0.0000,0.0000,0.0000,0.000666,-0.093573,0.088971,0.5137,0.9855,0.9023,0.000000,0.653476,-0.624330,0.642738,-0.661146,0.642738,-0.625864
1.1915,0.016776,0.003403,-0.148202,0.148202,0.0000,0.0000,0.0000,0.000743,-0.113515,0.107379,0.6940,0.9532,0.9559,0.000000,0.656544,-0.628932,0.645806,-0.661146,0.642738,-0.625864
1.2083,0.016763,0.003442,-0.159357,0.159357,0.0000,0.0000,0.0000,0.000743,-0.113515,0.107379,0.6940,0.9532,0.9559,0.000000,0.656544,-0.628932,0.645806,-0.661146,0.642738,-0.625864
1.2251,0.016744,0.003480,-0.170058,0.170058,0.0000,0.0000,0.0000,0.000784,-0.130388,0.125786,0.7021,0.9396,0.9516,0.000000,0.658078,-0.630466,0.647340,-0.661146,0.642738,-0.627398
1.2418,0.016748,0.003517,-0.180290,0.180290,0.0000,0.0000,0.0000,0.000866,-0.144194,0.142660,0.8915,0.9064,1.0104,0.000000,0.661146,-0.635068,0.650408,-0.661146,0.642738,-0.627398
1.2585,0.016750,0.003554,-0.190025,0.190025,0.0000,0.0000,0.0000,0.000920,-0.153398,0.148796,0.8993,0.7911,0.8393,0.000000,0.662680,-0.638136,0.650408,-0.661146,0.642738,-0.630466
1.2753,0.016750,0.003591,-0.199234,0.199234,0.0000,0.0000,0.0000,0.000988,-0.162602,0.156466,0.9524,0.8012,0.8589,0.000000,0.664214,-0.641204,0.653476,-0.661146,0.642738,-0.632000
1.2920,0.016746,0.003628,-0.207889,0.207889,0.0000,0.0000,0.0000,0.001019,-0.177942,0.171806,0.9748,0.7135,0.6909,0.000000,0.664214,-0.644272,0.653476,-0.661146,0.642738,-0.633534
1.3088,0.016757,0.003664,-0.215974,0.215974,0.0000,0.0000,0.0000,0.001019,-0.177942,0.171806,0.9748,0.7135,0.6909,0.000000,0.664214,-0.644272,0.653476,-0.661146,0.642738,-0.633534
1.3255,0.016741,0.003699,-0.223454,0.223454,0.0000,0.0000,0.0000,0.001052,-0.196350,0.191748,1.0102,0.6563,0.6536,0.000000,0.665748,-0.645806,0.653476,-0.661146,0.642738,-0.635068
1.3423,0.016746,0.003734,-0.230318,0.230318,0.0000,0.0000,0.0000,0.001097,-0.204019,0.204019,1.1796,0.5635,0.6584,0.000000,0.668816,-0.648874,0.653476,-0.661146,0.642738,-0.635068
1.3590,0.016701,0.003769,-0.236528,0.236528,0.0000,0.0000,0.0000,0.001152,-0.207087,0.207087,1.1619,0.5398,0.4923,0.000000,0.670350,-0.650408,0.653476,-0.662680,0.642738,-0.638136
1.3757,0.016752,0.003804,-0.242104,0.242104,0.0000,0.0000,0.0000,0.001182,-0.216291,0.210155,1.1377,0.6247,0.3437,0.000000,0.670350,-0.650408,0.653476,-0.665748,0.642738,-0.639670
1.3926,0.016836,0.003838,-0.247032,0.247032,0.0000,0.0000,0.0000,0.001213,-0.231631,0.222427,1.1514,0.6339,0.3044,0.000000,0.671884,-0.650408,0.653476,-0.667282,0.642738,-0.641204
1.4093,0.016757,0.003871,-0.251251,0.251251,0.0000,0.0000,0.0000,0.001213,-0.231631,0.222427,1.1514,0.6339,0.3044,0.000000,0.671884,-0.650408,0.653476,-0.667282,0.642738,-0.641204
1.4261,0.016743,0.003904,-0.254772,0.254772,0.0000,0.0000,0.0000,0.001246,-0.243903,0.240835,1.0743,0.6320,0.2523,0.000000,0.671884,-0.650408,0.653476,-0.668816,0.644272,-0.642738
1.4428,0.016749,0.003937,-0.257588,0.257588,0.0000,0.0000,0.0000,0.001302,-0.243903,0.243903,1.0066,0.5998,0.2019,0.000000,0.673418,-0.650408,0.653476,-0.670350,0.645806,-0.645806
1.4596,0.016746,0.003969,-0.259691,0.259691,0.0000,0.0000,0.0000,0.001354,-0.242369,0.243903,1.0078,0.6205,0.2620,0.000000,0.674952,-0.650408,0.653476,-0.673418,0.648874,-0.645806
1.4763,0.016756,0.004001,-0.261076,0.261076,0.0000,0.0000,0.0000,0.001393,-0.250039,0.254641,1.0405,0.6692,0.2558,0.000000,0.676486,-0.650408,0.653476,-0.676486,0.650408,-0.645806
1.4931,0.016743,0.004032,-0.261737,0.261737,0.0000,0.0000,0.0000,0.001393,-0.260777,0.259243,1.0405,0.6692,0.2558,0.000000,0.678020,-0.650408,0.653476,-0.679553,0.653476,-0.648874
1.5098,0.016757,0.004063,-0.261675,0.261675,0.0000,0.0000,0.0000,0.001471,-0.260777,0.259243,0.9347,0.6477,0.1998,0.000000,0.678020,-0.650408,0.653476,-0.679553,0.653476,-0.648874
1.5266,0.016748,0.004094,-0.260887,0.260887,0.0000,0.0000,0.0000,0.001499,-0.262311,0.257709,0.8802,0.6328,0.2600,0.000000,0.678020,-0.650408,0.653476,-0.681087,0.656544,-0.648874
1.5433,0.016749,0.004124,-0.259378,0.259378,0.0000,0.0000,0.0000,0.001496,-0.260777,0.260777,0.8859,0.6343,0.2538,0.000000,0.678020,-0.650408,0.653476,-0.681087,0.656544,-0.648874
1.5601,0.016742,0.004153,-0.257152,0.257152,0.0000,0.0000,0.0000,0.001530,-0.260777,0.262311,0.8698,0.6993,0.1980,0.000000,0.678020,-0.650408,0.653476,-0.684155,0.658078,-0.648874
1.5768,0.016759,0.004182,-0.254211,0.254211,0.0000,0.0000,0.0000,0.001526,-0.260777,0.259243,0.8715,0.6925,0.2038,0.000000,0.678020,-0.650408,0.653476,-0.684155,0.658078,-0.648874
1.5941,0.017293,0.004212,-0.250438,0.250438,0.0000,0.0000,0.0000,0.001527,-0.260777,0.260777,0.8712,0.6934,0.2030,0.000000,0.678020,-0.650408,0.653476,-0.684155,0.658078,-0.648874
1.6109,0.016757,0.004240,-0.246076,0.246076,0.0000,0.0000,0.0000,0.001527,-0.260777,0.260777,0.8712,0.6934,0.2030,0.000000,0.678020,-0.650408,0.653476,-0.684155,0.658078,-0.648874
1.6276,0.016743,0.004267,-0.241038,0.241038,0.0000,0.0000,0.0000,0.001527,-0.260777,0.260777,0.8712,0.6934,0.2030,0.000000,0.678020,-0.650408,0.653476,-0.684155,0.658078,-0.648874
1.6444,0.016747,0.004295,-0.235331,0.235331,0.0000,0.0000,0.0000,0.001527,-0.259243,0.256175,0.8712,0.6934,0.2030,0.000000,0.678020,-0.650408,0.653476,-0.684155,0.658078,-0.648874
1.6611,0.016752,0.004321,-0.228971,0.228971,0.0000,0.0000,0.0000,0.001537,-0.257709,0.254641,0.9197,0.6789,0.2595,0.000000,0.679553,-0.650408,0.653476,-0.684155,0.658078,-0.648874
1.6779,0.016756,0.004348,-0.221975,0.221975,0.0000,0.0000,0.0000,0.001549,-0.254641,0.253107,0.9525,0.6453,0.1982,0.000000,0.679553,-0.651942,0.653476,-0.684155,0.658078,-0.648874
1.6951,0.017194,0.004374,-0.214158,0.214158,0.0000,0.0000,0.0000,0.001593,-0.250039,0.250039,0.9688,0.5546,0.4273,0.000000,0.682621,-0.651942,0.653476,-0.684155,0.661146,-0.648874
1.7118,0.016756,0.004399,-0.205938,0.205938,0.0000,0.0000,0.0000,0.001593,-0.250039,0.250039,0.9688,0.5546,0.4273,0.000000,0.682621,-0.651942,0.653476,-0.684155,0.661146,-0.648874
1.7286,0.016746,0.004424,-0.197153,0.197153,0.0000,0.0000,0.0000,0.001612,-0.240835,0.243903,1.0042,0.6002,0.5155,0.000000,0.684155,-0.651942,0.655010,-0.684155,0.661146,-0.648874
1.7453,0.016746,0.004448,-0.187823,0.187823,0.0000,0.0000,0.0000,0.001705,-0.230097,0.236233,0.9613,0.7636,0.7293,0.000000,0.685689,-0.651942,0.659612,-0.687223,0.664214,-0.648874
1.7621,0.016745,0.004472,-0.177973,0.177973,0.0000,0.0000,0.0000,0.001778,-0.220893,0.228563,1.0999,0.7145,0.7642,0.000000,0.688757,-0.655010,0.661146,-0.688757,0.665748,-0.648874
1.7788,0.016752,0.004495,-0.167627,0.167627,0.0000,0.0000,0.0000,0.001877,-0.208621,0.219359,1.1701,0.7047,0.9292,0.000000,0.691825,-0.658078,0.664214,-0.690291,0.668816,-0.648874
1.7956,0.016747,0.004518,-0.156819,0.156819,0.0000,0.0000,0.0000,0.001975,-0.197884,0.208621,1.2376,0.8358,0.9695,0.000000,0.693359,-0.661146,0.668816,-0.693359,0.670350,-0.648874
1.8123,0.016753,0.004540,-0.145574,0.145574,0.0000,0.0000,0.0000,0.001975,-0.197884,0.208621,1.2376,0.8358,0.9695,0.000000,0.693359,-0.661146,0.668816,-0.693359,0.670350,-0.648874
1.8291,0.016748,0.004562,-0.133929,0.133929,0.0000,0.0000,0.0000,0.002050,-0.187146,0.194816,1.2192,0.8338,1.0211,0.000000,0.693359,-0.664214,0.671884,-0.694893,0.673418,-0.648874
1.8458,0.016748,0.004584,-0.121914,0.121914,0.0000,0.0000,0.0000,0.002102,-0.176408,0.181010,1.3447,0.8486,0.9611,0.000000,0.694893,-0.667282,0.673418,-0.696427,0.673418,-0.648874
1.8626,0.016740,0.004604,-0.109567,0.109567,0.0000,0.0000,0.0000,0.002158,-0.167204,0.167204,1.4328,0.8619,1.0251,0.000000,0.696427,-0.670350,0.676486,-0.696427,0.673418,-0.648874
1.8793,0.016753,0.004625,-0.096907,0.096907,0.0000,0.0000,0.0000,0.002190,-0.153398,0.153398,1.4878,0.8395,0.9629,0.000000,0.696427,-0.673418,0.678020,-0.696427,0.673418,-0.648874
1.8961,0.016752,0.004644,-0.083979,0.083979,0.0000,0.0000,0.0000,0.002200,-0.141126,0.138058,1.5463,0.8891,0.9148,0.000000,0.696427,-0.674952,0.679553,-0.696427,0.671884,-0.648874
1.9128,0.016757,0.004664,-0.070815,0.070815,0.0000,0.0000,0.0000,0.002200,-0.141126,0.138058,1.5463,0.8891,0.9148,0.000000,0.696427,-0.674952,0.679553,-0.696427,0.671884,-0.648874
1.9296,0.016743,0.004682,-0.057466,0.057466,0.0000,0.0000,0.0000,0.002236,-0.122718,0.118117,1.5290,0.8650,0.9755,0.000000,0.696427,-0.676486,0.681087,-0.696427,0.673418,-0.648874
1.9463,0.016743,0.004700,-0.043958,0.043958,0.0000,0.0000,0.0000,0.002270,-0.108913,0.104311,1.5948,0.8467,0.9135,0.000000,0.696427,-0.679553,0.682621,-0.696427,0.673418,-0.648874
1.9630,0.016738,0.004718,-0.030333,0.030333,0.0000,0.0000,0.0000,0.002277,-0.092039,0.088971,1.5989,0.8977,0.8642,0.000000,0.696427,-0.679553,0.682621,-0.697961,0.673418,-0.648874
1.9798,0.016749,0.004735,-0.016615,0.016615,0.0000,0.0000,0.0000,0.002264,-0.078233,0.075165,1.6362,0.9255,0.8142,0.000000,0.696427,-0.679553,0.682621,-0.697961,0.671884,-0.648874
1.9965,0.016750,0.004752,-0.002849,0.002849,0.0000,0.0000,0.0000,0.002300,-0.061359,0.056757,1.7288,0.9231,0.7640,0.000000,0.697961,-0.681087,0.682621,-0.699495,0.671884,-0.648874
2.0133,0.016750,0.004768,0.010924,-0.010924,0.0000,0.0000,0.0000,0.002300,-0.061359,0.056757,1.7288,0.9231,0.7640,0.000000,0.697961,-0.681087,0.682621,-0.699495,0.671884,-0.648874
2.0300,0.016743,0.004784,0.024660,-0.024660,0.0000,0.0000,0.0000,0.002295,-0.041417,0.038350,1.6440,0.9252,0.8807,0.000000,0.697961,-0.679553,0.682621,-0.699495,0.673418,-0.648874
2.0468,0.016748,0.004799,0.038333,-0.038333,0.0000,0.0000,0.0000,0.002306,-0.021476,0.024544,1.7008,0.9115,0.9252,0.000000,0.699495,-0.679553,0.682621,-0.699495,0.673418,-0.648874
2.0635,0.016750,0.004813,0.051902,-0.051902,0.0000,0.0000,0.0000,0.002305,-0.004602,0.010738,1.6949,0.9129,0.9206,0.000000,0.699495,-0.679553,0.682621,-0.699495,0.673418,-0.648874
2.0803,0.016760,0.004827,0.065334,-0.065334,0.0000,0.0000,0.0000,0.002316,0.010738,-0.004602,1.7434,0.8993,0.9778,0.000000,0.701029,-0.679553,0.682621,-0.699495,0.673418,-0.648874
2.0971,0.016803,0.004841,0.078620,-0.078620,0.0000,0.0000,0.0000,0.002303,0.027612,-0.026078,1.7761,0.9339,0.9168,0.000000,0.701029,-0.679553,0.682621,-0.699495,0.671884,-0.648874
2.1138,0.016760,0.004854,0.091653,-0.091653,0.0000,0.0000,0.0000,0.002303,0.027612,-0.026078,1.7761,0.9339,0.9168,0.000000,0.701029,-0.679553,0.682621,-0.699495,0.671884,-0.648874
2.1306,0.016752,0.004866,0.104426,-0.104426,0.0000,0.0000,0.0000,0.002294,0.046019,-0.046019,1.7248,0.9437,0.8664,0.000000,0.699495,-0.679553,0.682621,-0.699495,0.671884,-0.648874
2.1473,0.016747,0.004878,0.116907,-0.116907,0.0000,0.0000,0.0000,0.002317,0.062893,-0.062893,1.7403,0.8961,0.9835,0.000000,0.701029,-0.679553,0.682621,-0.699495,0.673418,-0.648874
2.1641,0.016751,0.004889,0.129066,-0.129066,0.0000,0.0000,0.0000,0.002315,0.076699,-0.076699,1.7387,0.9011,0.9713,0.000000,0.701029,-0.679553,0.682621,-0.699495,0.673418,-0.648874
2.1809,0.016770,0.004900,0.140882,-0.140882,0.0000,0.0000,0.0000,0.002315,0.088971,-0.087437,1.7387,0.9011,0.9713,0.000000,0.701029,-0.679553,0.682621,-0.699495,0.673418,-0.648874
2.1976,0.016745,0.004910,0.152289,-0.152289,0.0000,0.0000,0.0000,0.002327,0.105845,-0.101243,1.7011,0.8675,1.0277,0.000000,0.701029,-0.679553,0.682621,-0.699495,0.674952,-0.648874
2.2144,0.016746,0.004920,0.163277,-0.163277,0.0000,0.0000,0.0000,0.002327,0.105845,-0.101243,1.7011,0.8675,1.0277,0.000000,0.701029,-0.679553,0.682621,-0.699495,0.674952,-0.648874
2.2311,0.016745,0.004929,0.173811,-0.173811,0.0000,0.0000,0.0000,0.002337,0.125786,-0.118117,1.6674,0.8380,1.0770,0.000000,0.701029,-0.679553,0.682621,-0.699495,0.676486,-0.648874
2.2478,0.016741,0.004937,0.183863,-0.183863,0.0000,0.0000,0.0000,0.002370,0.144194,-0.133456,1.7303,0.9039,0.9039,0.000000,0.701029,-0.681087,0.682621,-0.702563,0.676486,-0.648874
2.2646,0.016753,0.004945,0.193413,-0.193413,0.0000,0.0000,0.0000,0.002354,0.148796,-0.145728,1.6865,0.9321,0.9783,0.000000,0.701029,-0.679553,0.682621,-0.702563,0.676486,-0.648874
2.2815,0.016924,0.004953,0.202516,-0.202516,0.0000,0.0000,0.0000,0.002345,0.156466,-0.162602,1.6431,0.9424,0.9138,0.000000,0.699495,-0.679553,0.682621,-0.702563,0.676486,-0.648874
2.2983,0.016756,0.004960,0.210965,-0.210965,0.0000,0.0000,0.0000,0.002345,0.156466,-0.162602,1.6431,0.9424,0.9138,0.000000,0.699495,-0.679553,0.682621,-0.702563,0.676486,-0.648874
2.3150,0.016714,0.004966,0.218811,-0.218811,0.0000,0.0000,0.0000,0.002379,0.173340,-0.177942,1.6689,0.9440,0.9766,0.000000,0.701029,-0.679553,0.682621,-0.704097,0.678020,-0.648874
2.3317,0.016743,0.004972,0.226065,-0.226065,0.0000,0.0000,0.0000,0.002365,0.193282,-0.190214,1.6552,0.8949,1.0259,0.000000,0.701029,-0.679553,0.682621,-0.702563,0.678020,-0.648874
2.3485,0.016745,0.004977,0.232695,-0.232695,0.0000,0.0000,0.0000,0.002378,0.204019,-0.200951,1.6190,0.8670,1.0761,0.000000,0.701029,-0.679553,0.682621,-0.702563,0.679553,-0.648874
2.3652,0.016742,0.004982,0.238680,-0.238680,0.0000,0.0000,0.0000,0.002387,0.205553,-0.210155,1.6337,0.9189,1.0150,0.000000,0.701029,-0.679553,0.682621,-0.704097,0.679553,-0.648874
2.3820,0.016748,0.004986,0.244007,-0.244007,0.0000,0.0000,0.0000,0.002386,0.211689,-0.219359,1.6322,0.9135,1.0213,0.000000,0.701029,-0.679553,0.682621,-0.704097,0.679553,-0.648874
2.3987,0.016743,0.004990,0.248657,-0.248657,0.0000,0.0000,0.0000,0.002386,0.211689,-0.219359,1.6322,0.9135,1.0213,0.000000,0.701029,-0.679553,0.682621,-0.704097,0.679553,-0.648874
2.4155,0.016744,0.004993,0.252620,-0.252620,0.0000,0.0000,0.0000,0.002409,0.228563,-0.228563,1.6807,0.9277,0.9085,0.000000,0.701029,-0.681087,0.682621,-0.705631,0.679553,-0.648874
2.4322,0.016737,0.004995,0.255882,-0.255882,0.0000,0.0000,0.0000,0.002394,0.239301,-0.240835,1.6384,0.9614,0.9765,0.000000,0.701029,-0.679553,0.682621,-0.705631,0.679553,-0.648874
2.4489,0.016745,0.004997,0.258438,-0.258438,0.0000,0.0000,0.0000,0.002407,0.239301,-0.243903,1.6538,1.0067,0.9135,0.000000,0.701029,-0.679553,0.682621,-0.707165,0.679553,-0.648874
2.4657,0.016747,0.004999,0.260280,-0.260280,0.0000,0.0000,0.0000,0.002405,0.239301,-0.243903,1.6522,1.0020,0.9200,0.000000,0.701029,-0.679553,0.682621,-0.707165,0.679553,-0.648874
2.4826,0.016951,0.005000,0.261410,-0.261410,0.0000,0.0000,0.0000,0.002407,0.260777,-0.259243,1.6786,0.9184,0.9190,0.000000,0.701029,-0.681087,0.682621,-0.705631,0.679553,-0.648874
2.4994,0.016747,0.005000,0.261799,-0.261799,0.0000,0.0000,0.0000,0.002407,0.260777,-0.259243,1.6786,0.9184,0.9190,0.000000,0.701029,-0.681087,0.682621,-0.705631,0.679553,-0.648874
2.5161,0.016743,0.005000,0.261463,-0.261463,0.0000,0.0000,0.0000,0.002407,0.257709,-0.262311,1.6758,0.9271,0.9191,0.000000,0.701029,-0.681087,0.682621,-0.705631,0.679553,-0.648874
2.5329,0.016748,0.004999,0.260404,-0.260404,0.0000,0.0000,0.0000,0.002407,0.257709,-0.262311,1.6758,0.9271,0.9191,0.000000,0.701029,-0.681087,0.682621,-0.705631,0.679553,-0.648874
2.5496,0.016740,0.004998,0.258625,-0.258625,0.0000,0.0000,0.0000,0.002395,0.257709,-0.259243,1.6389,0.9615,0.9754,0.000000,0.701029,-0.679553,0.682621,-0.705631,0.679553,-0.648874
2.5664,0.016747,0.004996,0.256130,-0.256130,0.0000,0.0000,0.0000,0.002407,0.262311,-0.262311,1.6538,1.0067,0.9136,0.000000,0.701029,-0.679553,0.682621,-0.707165,0.679553,-0.648874
2.5831,0.016747,0.004993,0.252926,-0.252926,0.0000,0.0000,0.0000,0.002395,0.256175,-0.259243,1.6411,0.9532,0.9760,0.000000,0.701029,-0.679553,0.682621,-0.705631,0.679553,-0.648874
2.5999,0.016743,0.004990,0.249023,-0.249023,0.0000,0.0000,0.0000,0.002395,0.256175,-0.259243,1.6411,0.9532,0.9760,0.000000,0.701029,-0.679553,0.682621,-0.705631,0.679553,-0.648874
2.6166,0.016750,0.004987,0.244429,-0.244429,0.0000,0.0000,0.0000,0.002396,0.257709,-0.259243,1.6425,0.9587,0.9695,0.000000,0.701029,-0.679553,0.682621,-0.705631,0.679553,-0.648874
2.6333,0.016739,0.004982,0.239163,-0.239163,0.0000,0.0000,0.0000,0.002396,0.257709,-0.259243,1.6425,0.9587,0.9695,0.000000,0.701029,-0.679553,0.682621,-0.705631,0.679553,-0.648874
2.6501,0.016743,0.004978,0.233233,-0.233233,0.0000,0.0000,0.0000,0.002406,0.253107,-0.254641,1.6903,0.9450,1.0270,0.000000,0.702563,-0.679553,0.682621,-0.705631,0.679553,-0.648874
2.6668,0.016748,0.004973,0.226656,-0.226656,0.0000,0.0000,0.0000,0.002416,0.248505,-0.250039,1.7333,0.9334,1.0778,0.000000,0.704097,-0.679553,0.682621,-0.705631,0.679553,-0.648874
2.6837,0.016836,0.004967,0.219413,-0.219413,0.0000,0.0000,0.0000,0.002415,0.243903,-0.242369,1.7288,0.9346,1.0725,0.000000,0.704097,-0.679553,0.682621,-0.705631,0.679553,-0.648874
2.7004,0.016744,0.004960,0.211601,-0.211601,0.0000,0.0000,0.0000,0.002415,0.243903,-0.242369,1.7288,0.9346,1.0725,0.000000,0.704097,-0.679553,0.682621,-0.705631,0.679553,-0.648874
2.7172,0.016741,0.004954,0.203204,-0.203204,0.0000,0.0000,0.0000,0.002435,0.236233,-0.233165,1.8251,0.9084,1.1868,0.000000,0.707165,-0.679553,0.682621,-0.705631,0.679553,-0.648874
2.7339,0.016743,0.004946,0.194245,-0.194245,0.0000,0.0000,0.0000,0.002433,0.228563,-0.228563,1.8151,0.9112,1.1749,0.000000,0.707165,-0.679553,0.682621,-0.705631,0.679553,-0.648874
2.7506,0.016739,0.004938,0.184750,-0.184750,0.0000,0.0000,0.0000,0.002434,0.219359,-0.222427,1.8165,0.9108,1.1765,0.000000,0.707165,-0.679553,0.682621,-0.705631,0.679553,-0.648874
2.7674,0.016741,0.004930,0.174744,-0.174744,0.0000,0.0000,0.0000,0.002434,0.207087,-0.211689,1.8165,0.9108,1.1765,0.000000,0.707165,-0.679553,0.682621,-0.705631,0.679553,-0.648874
2.7842,0.016789,0.004921,0.164223,-0.164223,0.0000,0.0000,0.0000,0.002434,0.194816,-0.200951,1.8165,0.9108,1.1765,0.000000,0.707165,-0.679553,0.682621,-0.705631,0.679553,-0.648874
2.8009,0.016746,0.004911,0.153274,-0.153274,0.0000,0.0000,0.0000,0.002434,0.194816,-0.200951,1.8165,0.9108,1.1765,0.000000,0.707165,-0.679553,0.682621,-0.705631,0.679553,-0.648874
2.8177,0.016749,0.004901,0.141900,-0.141900,0.0000,0.0000,0.0000,0.002444,0.182544,-0.193282,1.8638,0.8981,1.2329,0.000000,0.708699,-0.679553,0.682621,-0.705631,0.679553,-0.648874
2.8344,0.016750,0.004890,0.130132,-0.130132,0.0000,0.0000,0.0000,0.002432,0.170272,-0.182544,1.8110,0.9123,1.1701,0.000000,0.707165,-0.679553,0.682621,-0.705631,0.679553,-0.648874
2.8512,0.016752,0.004879,0.118002,-0.118002,0.0000,0.0000,0.0000,0.002444,0.159534,-0.171806,1.8644,0.8979,1.2335,0.000000,0.708699,-0.679553,0.682621,-0.705631,0.679553,-0.648874
2.8679,0.016758,0.004867,0.105541,-0.105541,0.0000,0.0000,0.0000,0.002443,0.147262,-0.156466,1.8588,0.8994,1.2269,0.000000,0.708699,-0.679553,0.682621,-0.705631,0.679553,-0.648874
2.8847,0.016748,0.004855,0.092795,-0.092795,0.0000,0.0000,0.0000,0.002466,0.131922,-0.142660,1.9079,0.9129,1.1154,0.000000,0.708699,-0.681087,0.682621,-0.707165,0.679553,-0.648874
2.9014,0.016752,0.004842,0.079790,-0.079790,0.0000,0.0000,0.0000,0.002466,0.131922,-0.142660,1.9079,0.9129,1.1154,0.000000,0.708699,-0.681087,0.682621,-0.707165,0.679553,-0.648874
2.9182,0.016745,0.004828,0.066568,-0.066568,0.0000,0.0000,0.0000,0.002440,0.116583,-0.125786,1.8543,0.8979,1.2392,0.000000,0.708699,-0.679553,0.682621,-0.705631,0.679553,-0.648874
2.9349,0.016747,0.004814,0.053161,-0.053161,0.0000,0.0000,0.0000,0.002453,0.104311,-0.113515,1.8710,0.9483,1.1705,0.000000,0.708699,-0.679553,0.682621,-0.707165,0.679553,-0.648874
2.9517,0.016753,0.004800,0.039602,-0.039602,0.0000,0.0000,0.0000,0.002431,0.087437,-0.095107,1.8103,0.9071,1.1766,0.000000,0.707165,-0.679553,0.682621,-0.705631,0.679553,-0.648874
2.9684,0.016751,0.004785,0.025935,-0.025935,0.0000,0.0000,0.0000,0.002434,0.073631,-0.079767,1.8166,0.9114,1.1759,0.000000,0.707165,-0.679553,0.682621,-0.705631,0.679553,-0.648874
2.9852,0.016755,0.004769,0.012192,-0.012192,0.0000,0.0000,0.0000,0.002434,0.073631,-0.079767,1.8166,0.9114,1.1759,0.000000,0.707165,-0.679553,0.682621,-0.705631,0.679553,-0.648874
3.0019,0.016752,0.004753,-0.001581,0.001581,0.0000,0.0000,0.0000,0.002434,0.055223,-0.058291,1.8166,0.9114,1.1759,0.000000,0.707165,-0.679553,0.682621,-0.705631,0.679553,-0.648874
3.0187,0.016749,0.004737,-0.015348,0.015348,0.0000,0.0000,0.0000,0.002444,0.036816,-0.038350,1.8271,0.9598,1.1201,0.000000,0.707165,-0.679553,0.682621,-0.707165,0.679553,-0.648874
3.0354,0.016759,0.004720,-0.029080,0.029080,0.0000,0.0000,0.0000,0.002443,0.021476,-0.018408,1.8260,0.9547,1.1259,0.000000,0.707165,-0.679553,0.682621,-0.707165,0.679553,-0.648874
3.0521,0.016712,0.004702,-0.042694,0.042694,0.0000,0.0000,0.0000,0.002443,0.003068,-0.001534,1.8628,0.8935,1.2381,0.000000,0.708699,-0.679553,0.682621,-0.705631,0.679553,-0.648874
3.0689,0.016757,0.004684,-0.056226,0.056226,0.0000,0.0000,0.0000,0.002453,-0.016874,0.018408,1.8702,0.9488,1.1706,0.000000,0.708699,-0.679553,0.682621,-0.707165,0.679553,-0.648874
3.0856,0.016717,0.004665,-0.069570,0.069570,0.0000,0.0000,0.0000,0.002453,-0.016874,0.018408,1.8702,0.9488,1.1706,0.000000,0.708699,-0.679553,0.682621,-0.707165,0.679553,-0.648874
3.1024,0.016758,0.004646,-0.082755,0.082755,0.0000,0.0000,0.0000,0.002444,-0.035282,0.035282,1.8477,0.8717,1.1202,0.000000,0.707165,-0.681087,0.682621,-0.705631,0.679553,-0.648874
3.1191,0.016745,0.004626,-0.095700,0.095700,0.0000,0.0000,0.0000,0.002443,-0.049087,0.047553,1.8606,0.9021,1.2387,0.000000,0.708699,-0.679553,0.682621,-0.705631,0.679553,-0.648874
3.1359,0.016748,0.004606,-0.108384,0.108384,0.0000,0.0000,0.0000,0.002433,-0.059825,0.055223,1.8114,0.9119,1.1695,0.000000,0.707165,-0.679553,0.682621,-0.705631,0.679553,-0.648874
3.1526,0.016741,0.004586,-0.120761,0.120761,0.0000,0.0000,0.0000,0.002434,-0.070563,0.070563,1.8165,0.9109,1.1767,0.000000,0.707165,-0.679553,0.682621,-0.705631,0.679553,-0.648874
3.1695,0.016928,0.004564,-0.132938,0.132938,0.0000,0.0000,0.0000,0.002434,-0.070563,0.070563,1.8165,0.9109,1.1767,0.000000,0.707165,-0.679553,0.682621,-0.705631,0.679553,-0.648874
3.1863,0.016745,0.004542,-0.144613,0.144613,0.0000,0.0000,0.0000,0.002446,-0.088971,0.093573,1.8533,0.8757,1.1196,0.000000,0.707165,-0.681087,0.682621,-0.705631,0.679553,-0.648874
3.2031,0.016801,0.004520,-0.155925,0.155925,0.0000,0.0000,0.0000,0.002442,-0.113515,0.115049,1.8600,0.9017,1.2388,0.000000,0.708699,-0.679553,0.682621,-0.705631,0.679553,-0.648874
3.2198,0.016749,0.004497,-0.166770,0.166770,0.0000,0.0000,0.0000,0.002433,-0.130388,0.125786,1.8114,0.9119,1.1695,0.000000,0.707165,-0.679553,0.682621,-0.705631,0.679553,-0.648874
3.2368,0.016984,0.004474,-0.177295,0.177295,0.0000,0.0000,0.0000,0.002434,-0.139592,0.130388,1.8165,0.9109,1.1767,0.000000,0.707165,-0.679553,0.682621,-0.705631,0.679553,-0.648874
3.2536,0.016746,0.004450,-0.187179,0.187179,0.0000,0.0000,0.0000,0.002444,-0.148796,0.142660,1.8638,0.8981,1.2329,0.000000,0.708699,-0.679553,0.682621,-0.705631,0.679553,-0.648874
3.2703,0.016783,0.004426,-0.196565,0.196565,0.0000,0.0000,0.0000,0.002443,-0.167204,0.164136,1.8589,0.8994,1.2270,0.000000,0.708699,-0.679553,0.682621,-0.705631,0.679553,-0.648874
3.2871,0.016751,0.004401,-0.205389,0.205389,0.0000,0.0000,0.0000,0.002443,-0.167204,0.164136,1.8589,0.8994,1.2270,0.000000,0.708699,-0.679553,0.682621,-0.705631,0.679553,-0.648874
3.3039,0.016758,0.004376,-0.213647,0.213647,0.0000,0.0000,0.0000,0.002443,-0.185612,0.184078,1.8589,0.8994,1.2270,0.000000,0.708699,-0.679553,0.682621,-0.705631,0.679553,-0.648874
3.3206,0.016743,0.004350,-0.221306,0.221306,0.0000,0.0000,0.0000,0.002433,-0.194816,0.191748,1.8116,0.9122,1.1707,0.000000,0.707165,-0.679553,0.682621,-0.705631,0.679553,-0.648874
3.3373,0.016747,0.004324,-0.228355,0.228355,0.0000,0.0000,0.0000,0.002444,-0.199418,0.196350,1.8643,0.8979,1.2335,0.000000,0.708699,-0.679553,0.682621,-0.705631,0.679553,-0.648874
3.3541,0.016748,0.004297,-0.234773,0.234773,0.0000,0.0000,0.0000,0.002432,-0.207087,0.207087,1.8110,0.9123,1.1700,0.000000,0.707165,-0.679553,0.682621,-0.705631,0.679553,-0.648874
3.3713,0.017244,0.004269,-0.240701,0.240701,0.0000,0.0000,0.0000,0.002444,-0.223961,0.220893,1.8644,0.8979,1.2336,0.000000,0.708699,-0.679553,0.682621,-0.705631,0.679553,-0.648874
3.3881,0.016750,0.004242,-0.245784,0.245784,0.0000,0.0000,0.0000,0.002444,-0.223961,0.220893,1.8644,0.8979,1.2336,0.000000,0.708699,-0.679553,0.682621,-0.705631,0.679553,-0.648874
3.4049,0.016777,0.004213,-0.250192,0.250192,0.0000,0.0000,0.0000,0.002432,-0.234699,0.234699,1.8110,0.9123,1.1700,0.000000,0.707165,-0.679553,0.682621,-0.705631,0.679553,-0.648874
3.4216,0.016745,0.004185,-0.253900,0.253900,0.0000,0.0000,0.0000,0.002434,-0.234699,0.234699,1.8165,0.9108,1.1766,0.000000,0.707165,-0.679553,0.682621,-0.705631,0.679553,-0.648874
3.4383,0.016742,0.004156,-0.256904,0.256904,0.0000,0.0000,0.0000,0.002434,-0.237767,0.236233,1.8165,0.9108,1.1766,0.000000,0.707165,-0.679553,0.682621,-0.705631,0.679553,-0.648874
3.4551,0.016746,0.004126,-0.259199,0.259199,0.0000,0.0000,0.0000,0.002434,-0.250039,0.246971,1.8165,0.9108,1.1766,0.000000,0.707165,-0.679553,0.682621,-0.705631,0.679553,-0.648874
3.4719,0.016768,0.004096,-0.260777,0.260777,0.0000,0.0000,0.0000,0.002434,-0.259243,0.257709,1.8165,0.9108,1.1766,0.000000,0.707165,-0.679553,0.682621,-0.705631,0.679553,-0.648874
3.4886,0.016746,0.004066,-0.261632,0.261632,0.0000,0.0000,0.0000,0.002434,-0.259243,0.257709,1.8165,0.9108,1.1766,0.000000,0.707165,-0.679553,0.682621,-0.705631,0.679553,-0.648874
3.5054,0.016750,0.004035,-0.261762,0.261762,0.0000,0.0000,0.0000,0.002444,-0.257709,0.257709,1.8271,0.9599,1.1201,0.000000,0.707165,-0.679553,0.682621,-0.707165,0.679553,-0.648874
3.5221,0.016745,0.004004,-0.261168,0.261168,0.0000,0.0000,0.0000,0.002443,-0.257709,0.256175,1.8627,0.8930,1.2388,0.000000,0.708699,-0.679553,0.682621,-0.705631,0.679553,-0.648874
3.5389,0.016750,0.003972,-0.259852,0.259852,0.0000,0.0000,0.0000,0.002433,-0.263845,0.260777,1.8112,0.9128,1.1695,0.000000,0.707165,-0.679553,0.682621,-0.705631,0.679553,-0.648874
3.5556,0.016754,0.003940,-0.257815,0.257815,0.0000,0.0000,0.0000,0.002444,-0.262311,0.260777,1.8644,0.8979,1.2336,0.000000,0.708699,-0.679553,0.682621,-0.705631,0.679553,-0.648874
3.5726,0.016973,0.003907,-0.255023,0.255023,0.0000,0.0000,0.0000,0.002453,-0.262311,0.260777,1.8700,0.9483,1.1710,0.000000,0.708699,-0.679553,0.682621,-0.707165,0.679553,-0.648874
3.5893,0.016740,0.003874,-0.251560,0.251560,0.0000,0.0000,0.0000,0.002453,-0.262311,0.260777,1.8700,0.9483,1.1710,0.000000,0.708699,-0.679553,0.682621,-0.707165,0.679553,-0.648874
3.6061,0.016756,0.003840,-0.247396,0.247396,0.0000,0.0000,0.0000,0.002431,-0.262311,0.259243,1.8104,0.9071,1.1765,0.000000,0.707165,-0.679553,0.682621,-0.705631,0.679553,-0.648874
3.6228,0.016745,0.003806,-0.242551,0.242551,0.0000,0.0000,0.0000,0.002444,-0.260777,0.257709,1.8645,0.8985,1.2329,0.000000,0.708699,-0.679553,0.682621,-0.705631,0.679553,-0.648874
3.6396,0.016748,0.003772,-0.237034,0.237034,0.0000,0.0000,0.0000,0.002453,-0.259243,0.256175,1.8700,0.9483,1.1711,0.000000,0.708699,-0.679553,0.682621,-0.707165,0.679553,-0.648874
3.6563,0.016752,0.003737,-0.230859,0.230859,0.0000,0.0000,0.0000,0.002442,-0.257709,0.254641,1.8582,0.8942,1.2334,0.000000,0.708699,-0.679553,0.682621,-0.705631,0.679553,-0.648874
3.6731,0.016769,0.003702,-0.224037,0.224037,0.0000,0.0000,0.0000,0.002443,-0.254641,0.253107,1.8595,0.8998,1.2269,0.000000,0.708699,-0.679553,0.682621,-0.705631,0.679553,-0.648874
3.6898,0.016742,0.003667,-0.216607,0.216607,0.0000,0.0000,0.0000,0.002443,-0.254641,0.253107,1.8595,0.8998,1.2269,0.000000,0.708699,-0.679553,0.682621,-0.705631,0.679553,-0.648874
3.7066,0.016755,0.003631,-0.208570,0.208570,0.0000,0.0000,0.0000,0.002453,-0.251573,0.250039,1.8705,0.9481,1.1717,0.000000,0.708699,-0.679553,0.682621,-0.707165,0.679553,-0.648874
3.7233,0.016746,0.003594,-0.199961,0.199961,0.0000,0.0000,0.0000,0.002454,-0.243903,0.245437,1.8955,0.8589,1.1770,0.000000,0.708699,-0.681087,0.682621,-0.705631,0.679553,-0.648874
3.7401,0.016784,0.003557,-0.190777,0.190777,0.0000,0.0000,0.0000,0.002431,-0.233165,0.237767,1.8077,0.9164,1.1759,0.000000,0.707165,-0.679553,0.682621,-0.705631,0.679553,-0.648874
3.7569,0.016757,0.003520,-0.181079,0.181079,0.0000,0.0000,0.0000,0.002454,-0.222427,0.227029,1.8759,0.9464,1.1771,0.000000,0.708699,-0.679553,0.682621,-0.707165,0.679553,-0.648874
3.7736,0.016773,0.003483,-0.170869,0.170869,0.0000,0.0000,0.0000,0.002431,-0.210155,0.217825,1.8098,0.9073,1.1759,0.000000,0.707165,-0.679553,0.682621,-0.705631,0.679553,-0.648874
3.7904,0.016736,0.003445,-0.160209,0.160209,0.0000,0.0000,0.0000,0.002431,-0.210155,0.217825,1.8098,0.9073,1.1759,0.000000,0.707165,-0.679553,0.682621,-0.705631,0.679553,-0.648874
3.8071,0.016756,0.003406,-0.149093,0.149093,0.0000,0.0000,0.0000,0.002434,-0.197884,0.207087,1.8167,0.9114,1.1760,0.000000,0.707165,-0.679553,0.682621,-0.705631,0.679553,-0.648874
3.8239,0.016742,0.003368,-0.137573,0.137573,0.0000,0.0000,0.0000,0.002444,-0.188680,0.196350,1.8271,0.9598,1.1201,0.000000,0.707165,-0.679553,0.682621,-0.707165,0.679553,-0.648874
3.8406,0.016754,0.003329,-0.125664,0.125664,0.0000,0.0000,0.0000,0.002422,-0.177942,0.184078,1.7670,0.9188,1.1250,0.000000,0.705631,-0.679553,0.682621,-0.705631,0.679553,-0.648874
3.8574,0.016742,0.003289,-0.113416,0.113416,0.0000,0.0000,0.0000,0.002414,-0.168738,0.168738,1.7253,0.9361,1.0676,0.000000,0.704097,-0.679553,0.682621,-0.705631,0.679553,-0.648874
3.8741,0.016760,0.003249,-0.100841,0.100841,0.0000,0.0000,0.0000,0.002415,-0.153398,0.151864,1.6928,0.9962,0.9608,0.000000,0.702563,-0.679553,0.682621,-0.707165,0.679553,-0.648874
3.8909,0.016738,0.003209,-0.088003,0.088003,0.0000,0.0000,0.0000,0.002415,-0.153398,0.151864,1.6928,0.9962,0.9608,0.000000,0.702563,-0.679553,0.682621,-0.707165,0.679553,-0.648874
3.9076,0.016750,0.003169,-0.074912,0.074912,0.0000,0.0000,0.0000,0.002404,-0.136524,0.134990,1.6482,1.0030,0.9151,0.000000,0.701029,-0.679553,0.682621,-0.707165,0.679553,-0.648874
3.9244,0.016737,0.003128,-0.061624,0.061624,0.0000,0.0000,0.0000,0.002395,-0.122718,0.119651,1.6417,0.9536,0.9758,0.000000,0.701029,-0.679553,0.682621,-0.705631,0.679553,-0.648874
3.9411,0.016752,0.003087,-0.048154,0.048154,0.0000,0.0000,0.0000,0.002385,-0.107379,0.105845,1.5944,0.9719,0.9127,0.000000,0.699495,-0.679553,0.682621,-0.705631,0.679553,-0.648874
3.9579,0.016739,0.003045,-0.034561,0.034561,0.0000,0.0000,0.0000,0.002365,-0.092039,0.088971,1.5403,0.9344,0.9185,0.000000,0.697961,-0.679553,0.682621,-0.704097,0.679553,-0.648874
3.9746,0.016751,0.003003,-0.020863,0.020863,0.0000,0.0000,0.0000,0.002346,-0.073631,0.072097,1.4869,0.9028,0.9171,0.000000,0.696427,-0.679553,0.682621,-0.702563,0.679553,-0.648874
3.9913,0.016736,0.002961,-0.007119,0.007119,0.0000,0.0000,0.0000,0.002346,-0.073631,0.072097,1.4869,0.9028,0.9171,0.000000,0.696427,-0.679553,0.682621,-0.702563,0.679553,-0.648874
4.0081,0.016749,0.002918,0.006655,-0.006655,0.0000,0.0000,0.0000,0.002348,-0.056757,0.055223,1.4925,0.9061,0.9173,0.000000,0.696427,-0.679553,0.682621,-0.702563,0.679553,-0.648874
4.0248,0.016744,0.002875,0.020406,-0.020406,0.0000,0.0000,0.0000,0.002315,-0.038350,0.039884,1.4221,0.8213,0.9724,0.000000,0.694893,-0.679553,0.682621,-0.699495,0.679553,-0.648874
4.0416,0.016752,0.002832,0.034108,-0.034108,0.0000,0.0000,0.0000,0.002308,-0.026078,0.027612,1.3814,0.8435,0.9101,0.000000,0.693359,-0.679553,0.682621,-0.699495,0.679553,-0.648874
4.0583,0.016738,0.002789,0.047704,-0.047704,0.0000,0.0000,0.0000,0.002287,-0.009204,0.010738,1.3267,0.8057,0.9159,0.000000,0.691825,-0.679553,0.682621,-0.697961,0.679553,-0.648874
4.0751,0.016772,0.002745,0.061195,-0.061195,0.0000,0.0000,0.0000,0.002287,0.009204,-0.006136,1.3267,0.8057,0.9159,0.000000,0.691825,-0.679553,0.682621,-0.697961,0.679553,-0.648874
4.0918,0.016738,0.002701,0.074489,-0.074489,0.0000,0.0000,0.0000,0.002289,0.009204,-0.006136,1.3324,0.8097,0.9153,0.000000,0.691825,-0.679553,0.682621,-0.697961,0.679553,-0.648874
4.1086,0.016751,0.002656,0.087587,-0.087587,0.0000,0.0000,0.0000,0.002266,0.027612,-0.026078,1.2730,0.7738,0.9147,0.000000,0.690291,-0.679553,0.682621,-0.696427,0.679553,-0.648874
4.1253,0.016740,0.002612,0.100435,-0.100435,0.0000,0.0000,0.0000,0.002213,0.044485,-0.044485,1.1511,0.6575,0.9694,0.000000,0.687223,-0.679553,0.682621,-0.691825,0.679553,-0.648874
4.1421,0.016755,0.002567,0.113015,-0.113015,0.0000,0.0000,0.0000,0.002218,0.061359,-0.058291,1.1638,0.6696,0.9637,0.000000,0.687223,-0.679553,0.682621,-0.691825,0.679553,-0.648874
4.1588,0.016744,0.002521,0.125276,-0.125276,0.0000,0.0000,0.0000,0.002218,0.072097,-0.073631,1.1628,0.6687,0.9642,0.000000,0.687223,-0.679553,0.682621,-0.691825,0.679553,-0.648874
4.1756,0.016772,0.002476,0.137208,-0.137208,0.0000,0.0000,0.0000,0.002218,0.072097,-0.073631,1.1628,0.6687,0.9642,0.000000,0.687223,-0.679553,0.682621,-0.691825,0.679553,-0.648874
4.1923,0.016743,0.002430,0.148741,-0.148741,0.0000,0.0000,0.0000,0.002184,0.084369,-0.090505,1.0558,0.6468,0.9074,0.000000,0.684155,-0.679553,0.682621,-0.690291,0.679553,-0.648874
4.2091,0.016746,0.002384,0.159864,-0.159864,0.0000,0.0000,0.0000,0.002176,0.105845,-0.105845,1.0187,0.6631,0.8570,0.000000,0.682621,-0.679553,0.682621,-0.690291,0.679553,-0.648874
4.2258,0.016737,0.002337,0.170540,-0.170540,0.0000,0.0000,0.0000,0.002154,0.125786,-0.118117,0.9639,0.6262,0.8618,0.000000,0.681087,-0.679553,0.682621,-0.688757,0.679553,-0.648874
4.2426,0.016747,0.002291,0.180749,-0.180749,0.0000,0.0000,0.0000,0.002122,0.139592,-0.130388,0.9006,0.5454,0.9167,0.000000,0.679553,-0.679553,0.682621,-0.685689,0.679553,-0.648874
4.2593,0.016742,0.002244,0.190456,-0.190456,0.0000,0.0000,0.0000,0.002101,0.147262,-0.144194,0.9073,0.4552,0.9103,0.000000,0.679553,-0.679553,0.681087,-0.684155,0.679553,-0.648874
4.2761,0.016768,0.002197,0.199650,-0.199650,0.0000,0.0000,0.0000,0.002101,0.147262,-0.144194,0.9073,0.4552,0.9103,0.000000,0.679553,-0.679553,0.681087,-0.684155,0.679553,-0.648874
4.2928,0.016741,0.002149,0.208276,-0.208276,0.0000,0.0000,0.0000,0.002068,0.158000,-0.161068,0.8585,0.3801,0.8541,0.000000,0.678020,-0.679553,0.679553,-0.682621,0.679553,-0.648874
4.3096,0.016749,0.002102,0.216331,-0.216331,0.0000,0.0000,0.0000,0.002047,0.173340,-0.177942,0.8256,0.3530,0.7475,0.000000,0.676486,-0.679553,0.678020,-0.682621,0.679553,-0.648874
4.3263,0.016741,0.002054,0.223783,-0.223783,0.0000,0.0000,0.0000,0.002026,0.193282,-0.193282,0.7704,0.3206,0.7584,0.000000,0.674952,-0.679553,0.678020,-0.681087,0.679553,-0.648874
4.3431,0.016750,0.002006,0.230619,-0.230619,0.0000,0.0000,0.0000,0.001970,0.205553,-0.202485,0.7005,0.3925,0.7015,0.000000,0.673418,-0.676486,0.676486,-0.681087,0.678020,-0.648874
4.3598,0.016743,0.001957,0.236815,-0.236815,0.0000,0.0000,0.0000,0.001905,0.216291,-0.213223,0.6219,0.4040,0.7073,0.000000,0.671884,-0.673418,0.674952,-0.679553,0.676486,-0.648874
4.3766,0.016763,0.001909,0.242362,-0.242362,0.0000,0.0000,0.0000,0.001905,0.216291,-0.213223,0.6219,0.4040,0.7073,0.000000,0.671884,-0.673418,0.674952,-0.679553,0.676486,-0.648874
4.3933,0.016742,0.001860,0.247231,-0.247231,0.0000,0.0000,0.0000,0.001864,0.223961,-0.220893,0.5824,0.2891,0.8180,0.000000,0.671884,-0.671884,0.673418,-0.676486,0.676486,-0.648874
4.4101,0.016750,0.001811,0.251418,-0.251418,0.0000,0.0000,0.0000,0.001810,0.228563,-0.231631,0.6125,0.2843,0.6387,0.000000,0.670350,-0.671884,0.671884,-0.674952,0.673418,-0.648874
4.4268,0.016738,0.001762,0.254907,-0.254907,0.0000,0.0000,0.0000,0.001780,0.231631,-0.239301,0.5878,0.2837,0.6015,0.000000,0.668816,-0.671884,0.671884,-0.673418,0.671884,-0.648874
4.4436,0.016757,0.001713,0.257694,-0.257694,0.0000,0.0000,0.0000,0.001772,0.239301,-0.240835,0.6276,0.3178,0.5498,0.000000,0.668816,-0.671884,0.671884,-0.673418,0.670350,-0.648874
4.4604,0.016884,0.001663,0.259780,-0.259780,0.0000,0.0000,0.0000,0.001713,0.253107,-0.245437,0.5958,0.2987,0.3876,0.000000,0.667282,-0.670350,0.668816,-0.673418,0.668816,-0.648874
4.4772,0.016762,0.001613,0.261128,-0.261128,0.0000,0.0000,0.0000,0.001713,0.253107,-0.245437,0.5958,0.2987,0.3876,0.000000,0.667282,-0.670350,0.668816,-0.673418,0.668816,-0.648874
4.4939,0.016737,0.001563,0.261752,-0.261752,0.0000,0.0000,0.0000,0.001553,0.254641,-0.254641,0.3301,0.2003,0.2926,0.000000,0.661146,-0.665748,0.664214,-0.668816,0.667282,-0.648874
4.5107,0.016742,0.001513,0.261652,-0.261652,0.0000,0.0000,0.0000,0.001546,0.254641,-0.259243,0.2826,0.2798,0.4138,0.000000,0.661146,-0.662680,0.664214,-0.668816,0.667282,-0.648874
4.5275,0.016819,0.001463,0.260823,-0.260823,0.0000,0.0000,0.0000,0.001534,0.256175,-0.257709,0.2979,0.2219,0.3454,0.000000,0.661146,-0.662680,0.662680,-0.668816,0.667282,-0.648874
4.5443,0.016752,0.001412,0.259274,-0.259274,0.0000,0.0000,0.0000,0.001500,0.259243,-0.262311,0.3129,0.1625,0.4082,0.000000,0.661146,-0.662680,0.662680,-0.665748,0.665748,-0.648874
4.5611,0.016822,0.001362,0.256995,-0.256995,0.0000,0.0000,0.0000,0.001433,0.260777,-0.262311,0.3543,0.1864,0.2905,0.000000,0.659612,-0.662680,0.662680,-0.662680,0.661146,-0.648874
4.5796,0.018481,0.001306,0.253665,-0.253665,0.0000,0.0000,0.0000,0.001392,0.260777,-0.262311,0.3119,0.2181,0.1916,0.000000,0.658078,-0.661146,0.661146,-0.662680,0.659612,-0.648874
4.5963,0.016753,0.001255,0.249908,-0.249908,0.0000,0.0000,0.0000,0.001392,0.260777,-0.262311,0.3119,0.2181,0.1916,0.000000,0.658078,-0.661146,0.661146,-0.662680,0.659612,-0.648874
4.6131,0.016749,0.001204,0.245459,-0.245459,0.0000,0.0000,0.0000,0.001312,0.259243,-0.262311,0.2026,0.2489,0.0351,0.000000,0.655010,-0.658078,0.658078,-0.662680,0.658078,-0.648874
4.6298,0.016743,0.001153,0.240333,-0.240333,0.0000,0.0000,0.0000,0.001284,0.259243,-0.259243,0.0898,0.1618,0.1069,0.000000,0.653476,-0.656544,0.656544,-0.661146,0.659612,-0.648874
4.6466,0.016753,0.001101,0.234538,-0.234538,0.0000,0.0000,0.0000,0.001251,0.256175,-0.256175,0.0639,0.1057,0.1549,0.000000,0.653476,-0.655010,0.655010,-0.659612,0.659612,-0.648874
4.6633,0.016750,0.001050,0.228095,-0.228095,0.0000,0.0000,0.0000,0.001038,0.253107,-0.248505,0.0827,0.2143,0.0390,0.000000,0.648874,-0.650408,0.651942,-0.655010,0.651942,-0.645806
4.6801,0.016770,0.000998,0.221012,-0.221012,0.0000,0.0000,0.0000,0.001038,0.253107,-0.248505,0.0827,0.2143,0.0390,0.000000,0.648874,-0.650408,0.651942,-0.655010,0.651942,-0.645806
4.6968,0.016748,0.000947,0.213327,-0.213327,0.0000,0.0000,0.0000,0.001000,0.248505,-0.242369,0.2054,0.1876,-0.0043,0.000000,0.648874,-0.650408,0.650408,-0.653476,0.648874,-0.644272
4.7136,0.016757,0.000895,0.205046,-0.205046,0.0000,0.0000,0.0000,0.000956,0.240835,-0.236233,0.1819,0.1402,-0.1105,0.000000,0.647340,-0.650408,0.648874,-0.651942,0.647340,-0.644272
4.7303,0.016749,0.000843,0.196201,-0.196201,0.0000,0.0000,0.0000,0.000972,0.228563,-0.230097,0.1950,0.1951,-0.1548,0.000000,0.647340,-0.650408,0.648874,-0.653476,0.647340,-0.644272
4.7471,0.016760,0.000791,0.186807,-0.186807,0.0000,0.0000,0.0000,0.000898,0.217825,-0.222427,0.1068,0.1709,-0.1501,0.000000,0.644272,-0.648874,0.647340,-0.651942,0.647340,-0.642738
4.7638,0.016746,0.000739,0.176903,-0.176903,0.0000,0.0000,0.0000,0.000724,0.205553,-0.210155,0.0129,0.0899,0.1256,0.000000,0.641204,-0.642738,0.642738,-0.647340,0.647340,-0.638136
4.7806,0.016771,0.000687,0.166495,-0.166495,0.0000,0.0000,0.0000,0.000724,0.205553,-0.210155,0.0129,0.0899,0.1256,0.000000,0.641204,-0.642738,0.642738,-0.647340,0.647340,-0.638136
4.7974,0.016752,0.000635,0.155636,-0.155636,0.0000,0.0000,0.0000,0.000730,0.194816,-0.197884,0.0442,0.0673,0.1521,0.000000,0.642738,-0.641204,0.641204,-0.647340,0.647340,-0.638136
4.8141,0.016743,0.000583,0.144353,-0.144353,0.0000,0.0000,0.0000,0.000717,0.184078,-0.190214,0.0789,0.1038,0.0941,0.000000,0.642738,-0.641204,0.641204,-0.647340,0.645806,-0.638136
4.8308,0.016743,0.000530,0.132671,-0.132671,0.0000,0.0000,0.0000,0.000622,0.171806,-0.177942,0.1193,0.1497,-0.0101,0.000000,0.639670,-0.641204,0.641204,-0.644272,0.641204,-0.636602
4.8476,0.016748,0.000478,0.120617,-0.120617,0.0000,0.0000,0.0000,0.000571,0.158000,-0.165670,0.0937,0.1766,-0.0543,0.000000,0.636602,-0.641204,0.641204,-0.642738,0.639670,-0.635068
4.8646,0.016962,0.000425,0.108070,-0.108070,0.0000,0.0000,0.0000,0.000491,0.144194,-0.151864,0.1177,0.1052,0.0052,0.000000,0.635068,-0.639670,0.638136,-0.641204,0.639670,-0.632000
4.8813,0.016750,0.000373,0.095378,-0.095378,0.0000,0.0000,0.0000,0.000491,0.144194,-0.151864,0.1177,0.1052,0.0052,0.000000,0.635068,-0.639670,0.638136,-0.641204,0.639670,-0.632000
4.8980,0.016746,0.000320,0.082426,-0.082426,0.0000,0.0000,0.0000,0.000451,0.133456,-0.141126,0.0987,0.1475,0.1091,0.000000,0.635068,-0.636602,0.636602,-0.641204,0.639670,-0.630466
4.9148,0.016748,0.000268,0.069243,-0.069243,0.0000,0.0000,0.0000,0.000406,0.118117,-0.127320,0.0731,0.1592,0.0981,0.000000,0.633534,-0.635068,0.635068,-0.641204,0.639670,-0.628932
4.9315,0.016749,0.000215,0.055869,-0.055869,0.0000,0.0000,0.0000,0.000302,0.102777,-0.113515,-0.0052,0.0916,0.0444,0.000000,0.630466,-0.633534,0.633534,-0.636602,0.636602,-0.628932
4.9483,0.016748,0.000162,0.042341,-0.042341,0.0000,0.0000,0.0000,0.000240,0.085903,-0.092039,0.0792,0.0987,-0.0599,0.000000,0.628932,-0.633534,0.632000,-0.635068,0.633534,-0.627398
4.9650,0.016750,0.000110,0.028693,-0.028693,0.0000,0.0000,0.0000,0.000186,0.070563,-0.070563,0.1195,0.0822,0.0059,0.000000,0.628932,-0.632000,0.630466,-0.633534,0.632000,-0.625864
4.9818,0.016795,0.000057,0.014930,-0.014930,0.0000,0.0000,0.0000,0.000186,0.070563,-0.070563,0.1195,0.0822,0.0059,0.000000,0.628932,-0.632000,0.630466,-0.633534,0.632000,-0.625864
4.9986,0.016747,0.000004,0.001165,-0.001165,0.0000,0.0000,0.0000,0.000106,0.055223,-0.050621,0.2132,0.1848,-0.0558,0.000000,0.627398,-0.630466,0.628932,-0.633534,0.628932,-0.622796
5.0153,0.016742,-0.000048,-0.012600,0.012600,0.0000,0.0000,0.0000,0.000053,0.036816,-0.036816,0.1442,0.1401,0.1151,0.000000,0.625864,-0.628932,0.628932,-0.630466,0.628932,-0.621262
5.0321,0.016747,-0.000101,-0.026335,0.026335,0.0000,0.0000,0.0000,0.000010,0.021476,-0.024544,-0.0511,0.1606,0.0972,0.000000,0.622796,-0.625864,0.627398,-0.630466,0.630466,-0.621262
5.0491,0.016982,-0.000154,-0.040187,0.040187,0.0000,0.0000,0.0000,0.000002,0.001534,-0.004602,-0.0203,0.1081,0.0443,0.000000,0.622796,-0.625864,0.625864,-0.630466,0.630466,-0.621262
5.0658,0.016758,-0.000207,-0.053744,0.053744,0.0000,0.0000,0.0000,0.000002,0.001534,-0.004602,-0.0203,0.1081,0.0443,0.000000,0.622796,-0.625864,0.625864,-0.630466,0.630466,-0.621262
5.0826,0.016743,-0.000259,-0.067141,0.067141,0.0000,0.0000,0.0000,-0.000180,-0.013806,0.016874,0.0742,0.1139,-0.0051,0.000000,0.619728,-0.622796,0.621262,-0.627398,0.625864,-0.616660
5.0993,0.016745,-0.000312,-0.080354,0.080354,0.0000,0.0000,0.0000,-0.000247,-0.029146,0.035282,0.1906,0.1663,-0.0545,0.000000,0.619728,-0.621262,0.619728,-0.625864,0.621262,-0.615126
5.1160,0.016747,-0.000364,-0.093346,0.093346,0.0000,0.0000,0.0000,-0.000264,-0.046019,0.044485,0.2939,0.1264,-0.0494,0.000000,0.619728,-0.622796,0.619728,-0.624330,0.619728,-0.613592
5.1328,0.016750,-0.000417,-0.106081,0.106081,0.0000,0.0000,0.0000,-0.000299,-0.064427,0.050621,0.1851,0.1307,0.0048,0.000000,0.618194,-0.621262,0.619728,-0.622796,0.619728,-0.613592
5.1495,0.016747,-0.000469,-0.118521,0.118521,0.0000,0.0000,0.0000,-0.000417,-0.082835,0.065961,-0.0277,0.1465,0.1083,0.000000,0.613592,-0.616660,0.618194,-0.619728,0.619728,-0.612058
5.1663,0.016747,-0.000521,-0.130633,0.130633,0.0000,0.0000,0.0000,-0.000417,-0.082835,0.065961,-0.0277,0.1465,0.1083,0.000000,0.613592,-0.616660,0.618194,-0.619728,0.619728,-0.612058
5.1830,0.016744,-0.000574,-0.142381,0.142381,0.0000,0.0000,0.0000,-0.000515,-0.102777,0.090505,0.0156,0.1453,0.1518,0.000000,0.612058,-0.613592,0.615126,-0.618194,0.618194,-0.608990
5.1998,0.016746,-0.000626,-0.153737,0.153737,0.0000,0.0000,0.0000,-0.000554,-0.113515,0.115049,0.0708,0.1803,0.1471,0.000000,0.612058,-0.612058,0.613592,-0.618194,0.616660,-0.607456
5.2165,0.016748,-0.000678,-0.164669,0.164669,0.0000,0.0000,0.0000,-0.000538,-0.122718,0.127320,0.0756,0.2273,0.0930,0.000000,0.612058,-0.612058,0.613592,-0.619728,0.616660,-0.607456
5.2333,0.016750,-0.000730,-0.175145,0.175145,0.0000,0.0000,0.0000,-0.000601,-0.138058,0.133456,0.0538,0.1208,0.0443,0.000000,0.610524,-0.612058,0.612058,-0.616660,0.615126,-0.607456
5.2501,0.016783,-0.000782,-0.185157,0.185157,0.0000,0.0000,0.0000,-0.000754,-0.156466,0.148796,0.0628,0.1481,-0.0049,0.000000,0.605922,-0.610524,0.610524,-0.612058,0.610524,-0.604388
5.2668,0.016749,-0.000834,-0.194635,0.194635,0.0000,0.0000,0.0000,-0.000754,-0.156466,0.148796,0.0628,0.1481,-0.0049,0.000000,0.605922,-0.610524,0.610524,-0.612058,0.610524,-0.604388
5.2836,0.016743,-0.000886,-0.203571,0.203571,0.0000,0.0000,0.0000,-0.000811,-0.173340,0.167204,0.1289,0.1638,0.1091,0.000000,0.605922,-0.608990,0.610524,-0.608990,0.607456,-0.602854
5.3003,0.016752,-0.000938,-0.211949,0.211949,0.0000,0.0000,0.0000,-0.000830,-0.182544,0.181010,0.1820,0.1278,0.0970,0.000000,0.605922,-0.608990,0.608990,-0.608990,0.607456,-0.601320
5.3171,0.016743,-0.000989,-0.219735,0.219735,0.0000,0.0000,0.0000,-0.000890,-0.188680,0.184078,0.1588,0.0971,0.0438,0.000000,0.604388,-0.607456,0.605922,-0.608990,0.607456,-0.599786
5.3338,0.016751,-0.001041,-0.226917,0.226917,0.0000,0.0000,0.0000,-0.000933,-0.199418,0.190214,0.1330,0.1166,0.0492,0.000000,0.602854,-0.605922,0.604388,-0.608990,0.607456,-0.598253
5.3505,0.016748,-0.001092,-0.233470,0.233470,0.0000,0.0000,0.0000,-0.000965,-0.213223,0.205553,-0.0018,0.1814,-0.0056,0.000000,0.599786,-0.604388,0.604388,-0.608990,0.607456,-0.598253
5.3673,0.016753,-0.001144,-0.239378,0.239378,0.0000,0.0000,0.0000,-0.000965,-0.213223,0.205553,-0.0018,0.1814,-0.0056,0.000000,0.599786,-0.604388,0.604388,-0.608990,0.607456,-0.598253
5.3840,0.016742,-0.001195,-0.244620,0.244620,0.0000,0.0000,0.0000,-0.001072,-0.225495,0.225495,0.0018,0.1934,0.0544,0.000000,0.598253,-0.601320,0.602854,-0.605922,0.604388,-0.596719
5.4008,0.016758,-0.001246,-0.249189,0.249189,0.0000,0.0000,0.0000,-0.001135,-0.230097,0.231631,0.1178,0.1252,0.0482,0.000000,0.598253,-0.601320,0.601320,-0.602854,0.601320,-0.595185
5.4176,0.016751,-0.001297,-0.253067,0.253067,0.0000,0.0000,0.0000,-0.001190,-0.231631,0.230097,0.1660,0.0981,0.2111,0.000000,0.598253,-0.599786,0.599786,-0.601320,0.601320,-0.592117
5.4346,0.017092,-0.001349,-0.256301,0.256301,0.0000,0.0000,0.0000,-0.001197,-0.245437,0.234699,0.1715,0.0501,0.1399,0.000000,0.598253,-0.599786,0.598253,-0.601320,0.601320,-0.592117
5.4514,0.016743,-0.001399,-0.258752,0.258752,0.0000,0.0000,0.0000,-0.001307,-0.254641,0.248505,0.1214,0.1406,0.0932,0.000000,0.595185,-0.596719,0.596719,-0.599786,0.598253,-0.590583
5.4682,0.016813,-0.001450,-0.260494,0.260494,0.0000,0.0000,0.0000,-0.001307,-0.254641,0.248505,0.1214,0.1406,0.0932,0.000000,0.595185,-0.596719,0.596719,-0.599786,0.598253,-0.590583
5.4849,0.016745,-0.001500,-0.261507,0.261507,0.0000,0.0000,0.0000,-0.001493,-0.253107,0.256175,-0.0607,0.2147,-0.0101,0.000000,0.587515,-0.592117,0.593651,-0.596719,0.595185,-0.587515
5.5017,0.016750,-0.001550,-0.261796,0.261796,0.0000,0.0000,0.0000,-0.001498,-0.254641,0.256175,-0.0704,0.1909,0.0006,0.000000,0.587515,-0.590583,0.592117,-0.596719,0.595185,-0.587515
