t,loop_dt,cmd_z,cmd_ant_l,cmd_ant_r,cmd_roll,cmd_pitch,cmd_yaw,pres_z,pres_ant_l,pres_ant_r,pres_roll,pres_pitch,pres_yaw,pres_j0,pres_j1,pres_j2,pres_j3,pres_j4,pres_j5,pres_j6
0.0000,0.000001,-0.005000,-1.564660,1.566194,0.0000,0.0000,0.0000,-0.002487,-1.566194,1.566194,0.4947,0.7420,0.2440,0.000000,0.572175,-0.561437,0.564505,-0.592117,0.575243,-0.550699
0.0168,0.016813,-0.004992,-1.564660,1.566194,0.0000,0.0000,0.0000,-0.002488,-1.566194,1.566194,0.4889,0.7438,0.2378,0.000000,0.572175,-0.561437,0.564505,-0.592117,0.575243,-0.550699
0.0337,0.016878,-0.004983,-1.564660,1.566194,0.0000,0.0000,0.0000,-0.002488,-1.566194,1.566194,0.4889,0.7438,0.2378,0.000000,0.572175,-0.561437,0.564505,-0.592117,0.575243,-0.550699
0.0504,0.016743,-0.004975,-1.564660,1.566194,0.0000,0.0000,0.0000,-0.002488,-1.566194,1.566194,0.4889,0.7438,0.2378,0.000000,0.572175,-0.561437,0.564505,-0.592117,0.575243,-0.550699
0.0672,0.016753,-0.004966,-1.564660,1.566194,0.0000,0.0000,0.0000,-0.002560,-1.566194,1.566194,0.4184,0.6553,0.1319,0.000000,0.569107,-0.561437,0.562971,-0.589049,0.573709,-0.550699
0.0839,0.016744,-0.004958,-1.564660,1.566194,0.0000,0.0000,0.0000,-0.002553,-1.566194,1.566194,0.4257,0.6645,0.1429,0.000000,0.569107,-0.561437,0.562971,-0.589049,0.573709,-0.550699
0.1008,0.016898,-0.004950,-1.564660,1.566194,0.0000,0.0000,0.0000,-0.003272,-1.566194,1.566194,0.3828,0.6310,0.0356,0.000000,0.553767,-0.547631,0.549165,-0.572175,0.556835,-0.538427
0.1176,0.016745,-0.004941,-1.564660,1.566194,0.0000,0.0000,0.0000,-0.005106,-1.566194,1.566194,0.1953,0.4177,0.0982,0.000000,0.513884,-0.509282,0.510816,-0.527689,0.518486,-0.503146
0.1343,0.016750,-0.004933,-1.564660,1.566194,0.0000,0.0000,0.0000,-0.005106,-1.566194,1.566194,0.1953,0.4177,0.0982,0.000000,0.498544,-0.498544,0.501612,-0.510816,0.504680,-0.493942
0.1511,0.016746,-0.004924,-1.564660,1.566194,0.0000,0.0000,0.0000,-0.005537,-1.566194,1.566194,0.0407,0.3855,0.0404,0.000000,0.498544,-0.498544,0.501612,-0.510816,0.504680,-0.493942
0.1678,0.016752,-0.004916,-1.564660,1.566194,0.0000,0.0000,0.0000,-0.005694,-1.566194,1.566194,-0.0847,0.1809,0.1501,0.000000,0.493942,-0.495476,0.498544,-0.501612,0.501612,-0.492408
0.1846,0.016744,-0.004908,-1.564660,1.566194,0.0000,0.0000,0.0000,-0.005678,-1.566194,1.566194,-0.0618,0.1147,0.2422,0.000000,0.493942,-0.497010,0.500078,-0.498544,0.501612,-0.492408
0.2013,0.016746,-0.004899,-1.564660,1.566194,0.0000,0.0000,0.0000,-0.005679,-1.566194,1.566194,-0.0942,0.2087,0.2325,0.000000,0.493942,-0.495476,0.500078,-0.500078,0.501612,-0.492408
0.2181,0.016746,-0.004891,-1.564660,1.566194,0.0000,0.0000,0.0000,-0.005679,-1.566194,1.566194,-0.0908,0.1989,0.2335,0.000000,0.493942,-0.495476,0.500078,-0.500078,0.501612,-0.492408
0.2350,0.016902,-0.004883,-1.564660,1.566194,0.0000,0.0000,0.0000,-0.005679,-1.566194,1.566194,-0.0913,0.2003,0.2333,0.000000,0.493942,-0.495476,0.500078,-0.500078,0.501612,-0.492408
0.2517,0.016743,-0.004874,-1.564660,1.566194,0.0000,0.0000,0.0000,-0.005679,-1.566194,1.566194,-0.0913,0.2003,0.2333,0.000000,0.493942,-0.495476,0.500078,-0.500078,0.501612,-0.492408
0.2685,0.016754,-0.004866,-1.564660,1.566194,0.0000,0.0000,0.0000,-0.005679,-1.566194,1.566194,-0.0913,0.2003,0.2333,0.000000,0.493942,-0.495476,0.500078,-0.500078,0.501612,-0.492408
0.2852,0.016743,-0.004857,-1.564660,1.566194,0.0000,0.0000,0.0000,-0.005679,-1.566194,1.566194,-0.0913,0.2003,0.2333,0.000000,0.493942,-0.495476,0.500078,-0.500078,0.501612,-0.492408
0.3022,0.016962,-0.004849,-1.564660,1.566194,0.0000,0.0000,0.0000,-0.005679,-1.566194,1.566194,-0.0913,0.2003,0.2333,0.000000,0.493942,-0.495476,0.500078,-0.500078,0.501612,-0.492408
0.3189,0.016741,-0.004841,-1.564660,1.566194,0.0000,0.0000,0.0000,-0.005679,-1.566194,1.566194,-0.0913,0.2003,0.2333,0.000000,0.493942,-0.495476,0.500078,-0.500078,0.501612,-0.492408
0.3357,0.016777,-0.004832,-1.564660,1.566194,0.0000,0.0000,0.0000,-0.005679,-1.567728,1.566194,-0.0913,0.2003,0.2333,0.000000,0.493942,-0.495476,0.500078,-0.500078,0.501612,-0.492408
0.3524,0.016743,-0.004824,-1.564660,1.566194,0.0000,0.0000,0.0000,-0.005679,-1.567728,1.566194,-0.0913,0.2003,0.2333,0.000000,0.493942,-0.495476,0.500078,-0.500078,0.501612,-0.492408
0.3692,0.016747,-0.004815,-1.564660,1.566194,0.0000,0.0000,0.0000,-0.005679,-1.566194,1.566194,-0.0913,0.2003,0.2333,0.000000,0.493942,-0.495476,0.500078,-0.500078,0.501612,-0.492408
0.3859,0.016744,-0.004807,-1.564660,1.566194,0.0000,0.0000,0.0000,-0.005679,-1.567728,1.566194,-0.0913,0.2003,0.2333,0.000000,0.493942,-0.495476,0.500078,-0.500078,0.501612,-0.492408
0.4027,0.016759,-0.004799,-1.564660,1.566194,0.0000,0.0000,0.0000,-0.005679,-1.566194,1.566194,-0.0913,0.2003,0.2333,0.000000,0.493942,-0.495476,0.500078,-0.500078,0.501612,-0.492408
0.4194,0.016744,-0.004790,-1.564660,1.566194,0.0000,0.0000,0.0000,-0.005692,-1.567728,1.566194,-0.0810,0.1478,0.1818,0.000000,0.493942,-0.495476,0.498544,-0.500078,0.501612,-0.492408
0.4366,0.017152,-0.004782,-1.564660,1.566194,0.0000,0.0000,0.0000,-0.005678,-1.567728,1.566194,-0.0922,0.2053,0.2388,0.000000,0.493942,-0.495476,0.500078,-0.500078,0.501612,-0.492408
0.4533,0.016746,-0.004773,-1.564660,1.566194,0.0000,0.0000,0.0000,-0.005678,-1.567728,1.566194,-0.0922,0.2053,0.2388,0.000000,0.493942,-0.495476,0.500078,-0.500078,0.501612,-0.492408
0.4701,0.016758,-0.004765,-1.564660,1.566194,0.0000,0.0000,0.0000,-0.005692,-1.566194,1.566194,-0.0809,0.1473,0.1812,0.000000,0.493942,-0.495476,0.498544,-0.500078,0.501612,-0.492408
0.4868,0.016749,-0.004757,-1.564660,1.566194,0.0000,0.0000,0.0000,-0.005678,-1.566194,1.566194,-0.0922,0.2053,0.2388,0.000000,0.493942,-0.495476,0.500078,-0.500078,0.501612,-0.492408
0.5036,0.016752,-0.004748,-1.564660,1.566194,0.0000,0.0000,0.0000,-0.005679,-1.566194,1.566194,-0.0910,0.1993,0.2328,0.000000,0.493942,-0.495476,0.500078,-0.500078,0.501612,-0.492408
0.5203,0.016750,-0.004740,-1.564660,1.566194,0.0000,0.0000,0.0000,-0.005679,-1.567728,1.566194,-0.0910,0.1993,0.2328,0.000000,0.493942,-0.495476,0.500078,-0.500078,0.501612,-0.492408
0.5371,0.016757,-0.004731,-1.564660,1.566194,0.0000,0.0000,0.0000,-0.005679,-1.566194,1.566194,-0.0910,0.1993,0.2328,0.000000,0.493942,-0.495476,0.500078,-0.500078,0.501612,-0.492408
0.5538,0.016743,-0.004723,-1.564660,1.566194,0.0000,0.0000,0.0000,-0.005679,-1.566194,1.566194,-0.0910,0.1993,0.2328,0.000000,0.493942,-0.495476,0.500078,-0.500078,0.501612,-0.492408
0.5706,0.016755,-0.004715,-1.564660,1.566194,0.0000,0.0000,0.0000,-0.005679,-1.566194,1.566194,-0.0910,0.1993,0.2328,0.000000,0.493942,-0.495476,0.500078,-0.500078,0.501612,-0.492408
0.5873,0.016741,-0.004706,-1.564660,1.566194,0.0000,0.0000,0.0000,-0.005679,-1.566194,1.566194,-0.0910,0.1993,0.2328,0.000000,0.493942,-0.495476,0.500078,-0.500078,0.501612,-0.492408
0.6041,0.016758,-0.004698,-1.564660,1.566194,0.0000,0.0000,0.0000,-0.005679,-1.566194,1.566194,-0.0910,0.1993,0.2328,0.000000,0.493942,-0.495476,0.500078,-0.500078,0.501612,-0.492408
0.6208,0.016739,-0.004690,-1.564660,1.566194,0.0000,0.0000,0.0000,-0.005679,-1.566194,1.566194,-0.0910,0.1993,0.2328,0.000000,0.493942,-0.495476,0.500078,-0.500078,0.501612,-0.492408
0.6377,0.016906,-0.004681,-1.564660,1.566194,0.0000,0.0000,0.0000,-0.005679,-1.566194,1.566194,-0.0910,0.1993,0.2328,0.000000,0.493942,-0.495476,0.500078,-0.500078,0.501612,-0.492408
0.6545,0.016743,-0.004673,-1.564660,1.566194,0.0000,0.0000,0.0000,-0.005679,-1.566194,1.566194,-0.0910,0.1993,0.2328,0.000000,0.493942,-0.495476,0.500078,-0.500078,0.501612,-0.492408
0.6712,0.016752,-0.004664,-1.564660,1.566194,0.0000,0.0000,0.0000,-0.005679,-1.567728,1.566194,-0.0910,0.1993,0.2328,0.000000,0.493942,-0.495476,0.500078,-0.500078,0.501612,-0.492408
0.6880,0.016748,-0.004656,-1.564660,1.566194,0.0000,0.0000,0.0000,-0.005679,-1.566194,1.566194,-0.0910,0.1993,0.2328,0.000000,0.493942,-0.495476,0.500078,-0.500078,0.501612,-0.492408
0.7047,0.016757,-0.004648,-1.564660,1.566194,0.0000,0.0000,0.0000,-0.005679,-1.566194,1.566194,-0.0910,0.1993,0.2328,0.000000,0.493942,-0.495476,0.500078,-0.500078,0.501612,-0.492408
0.7215,0.016746,-0.004639,-1.564660,1.566194,0.0000,0.0000,0.0000,-0.005679,-1.566194,1.566194,-0.0910,0.1993,0.2328,0.000000,0.493942,-0.495476,0.500078,-0.500078,0.501612,-0.492408
0.7382,0.016758,-0.004631,-1.564660,1.566194,0.0000,0.0000,0.0000,-0.005679,-1.566194,1.566194,-0.0910,0.1993,0.2328,0.000000,0.493942,-0.495476,0.500078,-0.500078,0.501612,-0.492408
0.7550,0.016745,-0.004623,-1.564660,1.566194,0.0000,0.0000,0.0000,-0.005679,-1.567728,1.566194,-0.0910,0.1993,0.2328,0.000000,0.493942,-0.495476,0.500078,-0.500078,0.501612,-0.492408
0.7717,0.016757,-0.004614,-1.564660,1.566194,0.0000,0.0000,0.0000,-0.005679,-1.566194,1.566194,-0.0910,0.1993,0.2328,0.000000,0.493942,-0.495476,0.500078,-0.500078,0.501612,-0.492408
0.7885,0.016744,-0.004606,-1.564660,1.566194,0.0000,0.0000,0.0000,-0.005679,-1.567728,1.566194,-0.0910,0.1993,0.2328,0.000000,0.493942,-0.495476,0.500078,-0.500078,0.501612,-0.492408
0.8052,0.016761,-0.004597,-1.564660,1.566194,0.0000,0.0000,0.0000,-0.005679,-1.566194,1.566194,-0.0910,0.1993,0.2328,0.000000,0.493942,-0.495476,0.500078,-0.500078,0.501612,-0.492408
0.8220,0.016747,-0.004589,-1.564660,1.566194,0.0000,0.0000,0.0000,-0.005679,-1.566194,1.566194,-0.0910,0.1993,0.2328,0.000000,0.493942,-0.495476,0.500078,-0.500078,0.501612,-0.492408
0.8388,0.016773,-0.004581,-1.564660,1.566194,0.0000,0.0000,0.0000,-0.005679,-1.566194,1.566194,-0.0910,0.1993,0.2328,0.000000,0.493942,-0.495476,0.500078,-0.500078,0.501612,-0.492408
0.8555,0.016741,-0.004572,-1.564660,1.566194,0.0000,0.0000,0.0000,-0.005679,-1.566194,1.566194,-0.0910,0.1993,0.2328,0.000000,0.493942,-0.495476,0.500078,-0.500078,0.501612,-0.492408
0.8723,0.016756,-0.004564,-1.564660,1.566194,0.0000,0.0000,0.0000,-0.005679,-1.566194,1.566194,-0.0910,0.1993,0.2328,0.000000,0.493942,-0.495476,0.500078,-0.500078,0.501612,-0.492408
0.8890,0.016759,-0.004555,-1.564660,1.566194,0.0000,0.0000,0.0000,-0.005679,-1.566194,1.566194,-0.0910,0.1993,0.2328,0.000000,0.493942,-0.495476,0.500078,-0.500078,0.501612,-0.492408
0.9058,0.016765,-0.004547,-1.564660,1.566194,0.0000,0.0000,0.0000,-0.005679,-1.566194,1.566194,-0.0910,0.1993,0.2328,0.000000,0.493942,-0.495476,0.500078,-0.500078,0.501612,-0.492408
0.9225,0.016743,-0.004539,-1.564660,1.566194,0.0000,0.0000,0.0000,-0.005679,-1.566194,1.566194,-0.0910,0.1993,0.2328,0.000000,0.493942,-0.495476,0.500078,-0.500078,0.501612,-0.492408
0.9394,0.016906,-0.004530,-1.564660,1.566194,0.0000,0.0000,0.0000,-0.005679,-1.566194,1.566194,-0.0910,0.1993,0.2328,0.000000,0.493942,-0.495476,0.500078,-0.500078,0.501612,-0.492408
0.9562,0.016744,-0.004522,-1.564660,1.566194,0.0000,0.0000,0.0000,-0.005679,-1.566194,1.566194,-0.0910,0.1993,0.2328,0.000000,0.493942,-0.495476,0.500078,-0.500078,0.501612,-0.492408
0.9729,0.016724,-0.004514,-1.564660,1.566194,0.0000,0.0000,0.0000,-0.005679,-1.566194,1.566194,-0.0910,0.1993,0.2328,0.000000,0.493942,-0.495476,0.500078,-0.500078,0.501612,-0.492408
0.9897,0.016758,-0.004505,-1.564660,1.566194,0.0000,0.0000,0.0000,-0.005679,-1.566194,1.566194,-0.0910,0.1993,0.2328,0.000000,0.493942,-0.495476,0.500078,-0.500078,0.501612,-0.492408
1.0064,0.016761,-0.004497,-1.564660,1.566194,0.0000,0.0000,0.0000,-0.005679,-1.567728,1.566194,-0.0910,0.1993,0.2328,0.000000,0.493942,-0.495476,0.500078,-0.500078,0.501612,-0.492408
1.0232,0.016782,-0.004488,-1.564660,1.566194,0.0000,0.0000,0.0000,-0.005679,-1.566194,1.566194,-0.0910,0.1993,0.2328,0.000000,0.493942,-0.495476,0.500078,-0.500078,0.501612,-0.492408
1.0399,0.016741,-0.004480,-1.564660,1.566194,0.0000,0.0000,0.0000,-0.005679,-1.566194,1.566194,-0.0910,0.1993,0.2328,0.000000,0.493942,-0.495476,0.500078,-0.500078,0.501612,-0.492408
1.0567,0.016745,-0.004472,-1.564660,1.566194,0.0000,0.0000,0.0000,-0.005679,-1.566194,1.566194,-0.0910,0.1993,0.2328,0.000000,0.493942,-0.495476,0.500078,-0.500078,0.501612,-0.492408
1.0734,0.016751,-0.004463,-1.564660,1.566194,0.0000,0.0000,0.0000,-0.005679,-1.566194,1.566194,-0.0910,0.1993,0.2328,0.000000,0.493942,-0.495476,0.500078,-0.500078,0.501612,-0.492408
1.0902,0.016747,-0.004455,-1.564660,1.566194,0.0000,0.0000,0.0000,-0.005679,-1.566194,1.566194,-0.0910,0.1993,0.2328,0.000000,0.493942,-0.495476,0.500078,-0.500078,0.501612,-0.492408
1.1069,0.016765,-0.004447,-1.564660,1.566194,0.0000,0.0000,0.0000,-0.005679,-1.566194,1.566194,-0.0910,0.1993,0.2328,0.000000,0.493942,-0.495476,0.500078,-0.500078,0.501612,-0.492408
1.1238,0.016825,-0.004438,-1.564660,1.566194,0.0000,0.0000,0.0000,-0.005679,-1.567728,1.566194,-0.0910,0.1993,0.2328,0.000000,0.493942,-0.495476,0.500078,-0.500078,0.501612,-0.492408
1.1405,0.016754,-0.004430,-1.564660,1.566194,0.0000,0.0000,0.0000,-0.005679,-1.567728,1.566194,-0.0910,0.1993,0.2328,0.000000,0.493942,-0.495476,0.500078,-0.500078,0.501612,-0.492408
1.1573,0.016748,-0.004421,-1.564660,1.566194,0.0000,0.0000,0.0000,-0.005679,-1.567728,1.566194,-0.0910,0.1993,0.2328,0.000000,0.493942,-0.495476,0.500078,-0.500078,0.501612,-0.492408
1.1740,0.016752,-0.004413,-1.564660,1.566194,0.0000,0.0000,0.0000,-0.005679,-1.566194,1.566194,-0.0910,0.1993,0.2328,0.000000,0.493942,-0.495476,0.500078,-0.500078,0.501612,-0.492408
1.1908,0.016750,-0.004405,-1.564660,1.566194,0.0000,0.0000,0.0000,-0.005679,-1.567728,1.566194,-0.0910,0.1993,0.2328,0.000000,0.493942,-0.495476,0.500078,-0.500078,0.501612,-0.492408
1.2075,0.016756,-0.004396,-1.564660,1.566194,0.0000,0.0000,0.0000,-0.005679,-1.567728,1.566194,-0.0910,0.1993,0.2328,0.000000,0.493942,-0.495476,0.500078,-0.500078,0.501612,-0.492408
1.2243,0.016745,-0.004388,-1.564660,1.566194,0.0000,0.0000,0.0000,-0.005679,-1.567728,1.566194,-0.0910,0.1993,0.2328,0.000000,0.493942,-0.495476,0.500078,-0.500078,0.501612,-0.492408
1.2410,0.016753,-0.004379,-1.564660,1.566194,0.0000,0.0000,0.0000,-0.005679,-1.567728,1.566194,-0.0910,0.1993,0.2328,0.000000,0.493942,-0.495476,0.500078,-0.500078,0.501612,-0.492408
1.2578,0.016754,-0.004371,-1.564660,1.566194,0.0000,0.0000,0.0000,-0.005679,-1.567728,1.566194,-0.0910,0.1993,0.2328,0.000000,0.493942,-0.495476,0.500078,-0.500078,0.501612,-0.492408
1.2745,0.016751,-0.004363,-1.564660,1.566194,0.0000,0.0000,0.0000,-0.005679,-1.566194,1.566194,-0.0910,0.1993,0.2328,0.000000,0.493942,-0.495476,0.500078,-0.500078,0.501612,-0.492408
1.2913,0.016791,-0.004354,-1.564660,1.566194,0.0000,0.0000,0.0000,-0.005692,-1.566194,1.566194,-0.0810,0.1479,0.1818,0.000000,0.493942,-0.495476,0.498544,-0.500078,0.501612,-0.492408
1.3081,0.016757,-0.004346,-1.564660,1.566194,0.0000,0.0000,0.0000,-0.005691,-1.566194,1.566194,-0.0821,0.1533,0.1871,0.000000,0.493942,-0.495476,0.498544,-0.500078,0.501612,-0.492408
1.3248,0.016733,-0.004338,-1.564660,1.566194,0.0000,0.0000,0.0000,-0.005678,-1.567728,1.566194,-0.0921,0.2047,0.2382,0.000000,0.493942,-0.495476,0.500078,-0.500078,0.501612,-0.492408
1.3416,0.016761,-0.004329,-1.564660,1.566194,0.0000,0.0000,0.0000,-0.005678,-1.567728,1.566194,-0.0921,0.2047,0.2382,0.000000,0.493942,-0.495476,0.500078,-0.500078,0.501612,-0.492408
1.3583,0.016750,-0.004321,-1.564660,1.566194,0.0000,0.0000,0.0000,-0.005692,-1.566194,1.566194,-0.0809,0.1474,0.1813,0.000000,0.493942,-0.495476,0.498544,-0.500078,0.501612,-0.492408
1.3751,0.016749,-0.004312,-1.564660,1.566194,0.0000,0.0000,0.0000,-0.005678,-1.566194,1.566194,-0.0922,0.2053,0.2388,0.000000,0.493942,-0.495476,0.500078,-0.500078,0.501612,-0.492408
1.3918,0.016753,-0.004304,-1.564660,1.566194,0.0000,0.0000,0.0000,-0.005692,-1.566194,1.566194,-0.0809,0.1473,0.1812,0.000000,0.493942,-0.495476,0.498544,-0.500078,0.501612,-0.492408
1.4086,0.016755,-0.004296,-1.564660,1.566194,0.0000,0.0000,0.0000,-0.005678,-1.567728,1.566194,-0.0922,0.2053,0.2388,0.000000,0.493942,-0.495476,0.500078,-0.500078,0.501612,-0.492408
1.4253,0.016757,-0.004287,-1.564660,1.566194,0.0000,0.0000,0.0000,-0.005679,-1.566194,1.566194,-0.0910,0.1993,0.2328,0.000000,0.493942,-0.495476,0.500078,-0.500078,0.501612,-0.492408
1.4421,0.016751,-0.004279,-1.564660,1.566194,0.0000,0.0000,0.0000,-0.005679,-1.566194,1.566194,-0.0910,0.1993,0.2328,0.000000,0.493942,-0.495476,0.500078,-0.500078,0.501612,-0.492408
1.4588,0.016745,-0.004271,-1.564660,1.566194,0.0000,0.0000,0.0000,-0.005679,-1.567728,1.566194,-0.0910,0.1993,0.2328,0.000000,0.493942,-0.495476,0.500078,-0.500078,0.501612,-0.492408
1.4756,0.016751,-0.004262,-1.564660,1.566194,0.0000,0.0000,0.0000,-0.005679,-1.567728,1.566194,-0.0910,0.1993,0.2328,0.000000,0.493942,-0.495476,0.500078,-0.500078,0.501612,-0.492408
1.4923,0.016754,-0.004254,-1.564660,1.566194,0.0000,0.0000,0.0000,-0.005679,-1.566194,1.566194,-0.0910,0.1993,0.2328,0.000000,0.493942,-0.495476,0.500078,-0.500078,0.501612,-0.492408
1.5091,0.016757,-0.004245,-1.564660,1.566194,0.0000,0.0000,0.0000,-0.005692,-1.566194,1.566194,-0.0810,0.1479,0.1818,0.000000,0.493942,-0.495476,0.498544,-0.500078,0.501612,-0.492408
1.5259,0.016758,-0.004237,-1.564660,1.566194,0.0000,0.0000,0.0000,-0.005692,-1.567728,1.566194,-0.0810,0.1479,0.1818,0.000000,0.493942,-0.495476,0.500078,-0.500078,0.501612,-0.492408
1.5426,0.016779,-0.004229,-1.564660,1.566194,0.0000,0.0000,0.0000,-0.005678,-1.567728,1.566194,-0.0922,0.2053,0.2388,0.000000,0.493942,-0.495476,0.500078,-0.500078,0.501612,-0.492408
1.5594,0.016743,-0.004220,-1.564660,1.566194,0.0000,0.0000,0.0000,-0.005679,-1.567728,1.566194,-0.0910,0.1993,0.2328,0.000000,0.493942,-0.495476,0.500078,-0.500078,0.501612,-0.492408
1.5761,0.016752,-0.004212,-1.564660,1.566194,0.0000,0.0000,0.0000,-0.005679,-1.566194,1.566194,-0.0910,0.1993,0.2328,0.000000,0.493942,-0.495476,0.500078,-0.500078,0.501612,-0.492408
1.5929,0.016749,-0.004204,-1.564660,1.566194,0.0000,0.0000,0.0000,-0.005679,-1.566194,1.566194,-0.0910,0.1993,0.2328,0.000000,0.493942,-0.495476,0.500078,-0.500078,0.501612,-0.492408
1.6097,0.016812,-0.004195,-1.564660,1.566194,0.0000,0.0000,0.0000,-0.005679,-1.567728,1.566194,-0.0910,0.1993,0.2328,0.000000,0.493942,-0.495476,0.500078,-0.500078,0.501612,-0.492408
1.6278,0.018157,-0.004186,-1.564660,1.566194,0.0000,0.0000,0.0000,-0.005679,-1.567728,1.566194,-0.0910,0.1993,0.2328,0.000000,0.493942,-0.495476,0.500078,-0.500078,0.501612,-0.492408
1.6446,0.016752,-0.004178,-1.564660,1.566194,0.0000,0.0000,0.0000,-0.005679,-1.567728,1.566194,-0.0910,0.1993,0.2328,0.000000,0.493942,-0.495476,0.500078,-0.500078,0.501612,-0.492408
1.6613,0.016752,-0.004169,-1.564660,1.566194,0.0000,0.0000,0.0000,-0.005692,-1.566194,1.566194,-0.0810,0.1479,0.1818,0.000000,0.493942,-0.495476,0.498544,-0.500078,0.501612,-0.492408
1.6781,0.016745,-0.004161,-1.564660,1.566194,0.0000,0.0000,0.0000,-0.005678,-1.566194,1.566194,-0.0922,0.2053,0.2388,0.000000,0.493942,-0.495476,0.500078,-0.500078,0.501612,-0.492408
1.6948,0.016748,-0.004153,-1.564660,1.566194,0.0000,0.0000,0.0000,-0.005679,-1.566194,1.566194,-0.0910,0.1993,0.2328,0.000000,0.493942,-0.495476,0.500078,-0.500078,0.501612,-0.492408
1.7117,0.016902,-0.004144,-1.564660,1.566194,0.0000,0.0000,0.0000,-0.005692,-1.566194,1.566194,-0.0810,0.1479,0.1818,0.000000,0.493942,-0.495476,0.498544,-0.500078,0.501612,-0.492408
1.7285,0.016765,-0.004136,-1.564660,1.566194,0.0000,0.0000,0.0000,-0.005678,-1.566194,1.566194,-0.0922,0.2053,0.2388,0.000000,0.493942,-0.495476,0.500078,-0.500078,0.501612,-0.492408
1.7453,0.016752,-0.004127,-1.564660,1.566194,0.0000,0.0000,0.0000,-0.005678,-1.566194,1.566194,-0.0922,0.2053,0.2388,0.000000,0.493942,-0.495476,0.500078,-0.500078,0.501612,-0.492408
1.7620,0.016749,-0.004119,-1.564660,1.566194,0.0000,0.0000,0.0000,-0.005679,-1.566194,1.566194,-0.0910,0.1993,0.2328,0.000000,0.493942,-0.495476,0.500078,-0.500078,0.501612,-0.492408
1.7788,0.016748,-0.004111,-1.564660,1.566194,0.0000,0.0000,0.0000,-0.005679,-1.566194,1.566194,-0.0910,0.1993,0.2328,0.000000,0.493942,-0.495476,0.500078,-0.500078,0.501612,-0.492408
1.7955,0.016744,-0.004102,-1.564660,1.566194,0.0000,0.0000,0.0000,-0.005679,-1.566194,1.566194,-0.0910,0.1993,0.2328,0.000000,0.493942,-0.495476,0.500078,-0.500078,0.501612,-0.492408
1.8122,0.016745,-0.004094,-1.564660,1.566194,0.0000,0.0000,0.0000,-0.005679,-1.566194,1.566194,-0.0910,0.1993,0.2328,0.000000,0.493942,-0.495476,0.500078,-0.500078,0.501612,-0.492408
1.8294,0.017191,-0.004085,-1.564660,1.566194,0.0000,0.0000,0.0000,-0.005679,-1.566194,1.566194,-0.0910,0.1993,0.2328,0.000000,0.493942,-0.495476,0.500078,-0.500078,0.501612,-0.492408
1.8462,0.016739,-0.004077,-1.564660,1.566194,0.0000,0.0000,0.0000,-0.005679,-1.566194,1.566194,-0.0910,0.1993,0.2328,0.000000,0.493942,-0.495476,0.500078,-0.500078,0.501612,-0.492408
1.8629,0.016745,-0.004069,-1.564660,1.566194,0.0000,0.0000,0.0000,-0.005679,-1.566194,1.566194,-0.0910,0.1993,0.2328,0.000000,0.493942,-0.495476,0.500078,-0.500078,0.501612,-0.492408
1.8797,0.016747,-0.004060,-1.564660,1.566194,0.0000,0.0000,0.0000,-0.005679,-1.566194,1.566194,-0.0910,0.1993,0.2328,0.000000,0.493942,-0.495476,0.500078,-0.500078,0.501612,-0.492408
1.8964,0.016756,-0.004052,-1.564660,1.566194,0.0000,0.0000,0.0000,-0.005679,-1.566194,1.566194,-0.0910,0.1993,0.2328,0.000000,0.493942,-0.495476,0.500078,-0.500078,0.501612,-0.492408
1.9132,0.016745,-0.004043,-1.564660,1.566194,0.0000,0.0000,0.0000,-0.005679,-1.567728,1.566194,-0.0910,0.1993,0.2328,0.000000,0.493942,-0.495476,0.500078,-0.500078,0.501612,-0.492408
1.9299,0.016744,-0.004035,-1.564660,1.566194,0.0000,0.0000,0.0000,-0.005679,-1.567728,1.566194,-0.0910,0.1993,0.2328,0.000000,0.493942,-0.495476,0.500078,-0.500078,0.501612,-0.492408
1.9467,0.016742,-0.004027,-1.564660,1.566194,0.0000,0.0000,0.0000,-0.005679,-1.566194,1.566194,-0.0910,0.1993,0.2328,0.000000,0.493942,-0.495476,0.500078,-0.500078,0.501612,-0.492408
1.9634,0.016748,-0.004018,-1.564660,1.566194,0.0000,0.0000,0.0000,-0.005679,-1.566194,1.566194,-0.0910,0.1993,0.2328,0.000000,0.493942,-0.495476,0.500078,-0.500078,0.501612,-0.492408
1.9801,0.016742,-0.004010,-1.564660,1.566194,0.0000,0.0000,0.0000,-0.005692,-1.567728,1.566194,-0.0810,0.1479,0.1818,0.000000,0.493942,-0.495476,0.498544,-0.500078,0.501612,-0.492408
1.9969,0.016741,-0.004002,-1.564660,1.566194,0.0000,0.0000,0.0000,-0.005678,-1.567728,1.566194,-0.0922,0.2053,0.2388,0.000000,0.493942,-0.495476,0.500078,-0.500078,0.501612,-0.492408
2.0136,0.016747,-0.003993,-1.564660,1.566194,0.0000,0.0000,0.0000,-0.005679,-1.566194,1.566194,-0.0910,0.1993,0.2328,0.000000,0.493942,-0.495476,0.500078,-0.500078,0.501612,-0.492408
2.0304,0.016744,-0.003985,-1.564660,1.566194,0.0000,0.0000,0.0000,-0.005679,-1.566194,1.566194,-0.0910,0.1993,0.2328,0.000000,0.493942,-0.495476,0.500078,-0.500078,0.501612,-0.492408
2.0471,0.016746,-0.003976,-1.564660,1.566194,0.0000,0.0000,0.0000,-0.005679,-1.567728,1.566194,-0.0910,0.1993,0.2328,0.000000,0.493942,-0.495476,0.500078,-0.500078,0.501612,-0.492408
2.0639,0.016750,-0.003968,-1.564660,1.566194,0.0000,0.0000,0.0000,-0.005679,-1.567728,1.566194,-0.0910,0.1993,0.2328,0.000000,0.493942,-0.495476,0.500078,-0.500078,0.501612,-0.492408
2.0806,0.016741,-0.003960,-1.564660,1.566194,0.0000,0.0000,0.0000,-0.005679,-1.566194,1.566194,-0.0910,0.1993,0.2328,0.000000,0.493942,-0.495476,0.500078,-0.500078,0.501612,-0.492408
2.0974,0.016745,-0.003951,-1.564660,1.566194,0.0000,0.0000,0.0000,-0.005692,-1.566194,1.566194,-0.0810,0.1479,0.1818,0.000000,0.493942,-0.495476,0.498544,-0.500078,0.501612,-0.492408
2.1141,0.016743,-0.003943,-1.564660,1.566194,0.0000,0.0000,0.0000,-0.005678,-1.566194,1.566194,-0.0922,0.2053,0.2388,0.000000,0.493942,-0.495476,0.500078,-0.500078,0.501612,-0.492408
2.1309,0.016750,-0.003935,-1.564660,1.566194,0.0000,0.0000,0.0000,-0.005678,-1.566194,1.566194,-0.0922,0.2053,0.2388,0.000000,0.493942,-0.495476,0.500078,-0.500078,0.501612,-0.492408
2.1476,0.016743,-0.003926,-1.564660,1.566194,0.0000,0.0000,0.0000,-0.005679,-1.566194,1.566194,-0.0910,0.1993,0.2328,0.000000,0.493942,-0.495476,0.500078,-0.500078,0.501612,-0.492408
2.1644,0.016756,-0.003918,-1.564660,1.566194,0.0000,0.0000,0.0000,-0.005679,-1.567728,1.566194,-0.0910,0.1993,0.2328,0.000000,0.493942,-0.495476,0.500078,-0.500078,0.501612,-0.492408
2.1811,0.016743,-0.003909,-1.564660,1.566194,0.0000,0.0000,0.0000,-0.005679,-1.566194,1.566194,-0.0910,0.1993,0.2328,0.000000,0.493942,-0.495476,0.500078,-0.500078,0.501612,-0.492408
2.1978,0.016755,-0.003901,-1.564660,1.566194,0.0000,0.0000,0.0000,-0.005679,-1.566194,1.566194,-0.0910,0.1993,0.2328,0.000000,0.493942,-0.495476,0.500078,-0.500078,0.501612,-0.492408
2.2146,0.016748,-0.003893,-1.564660,1.566194,0.0000,0.0000,0.0000,-0.005679,-1.566194,1.566194,-0.0910,0.1993,0.2328,0.000000,0.493942,-0.495476,0.500078,-0.500078,0.501612,-0.492408
2.2313,0.016752,-0.003884,-1.564660,1.566194,0.0000,0.0000,0.0000,-0.005679,-1.566194,1.566194,-0.0910,0.1993,0.2328,0.000000,0.493942,-0.495476,0.500078,-0.500078,0.501612,-0.492408
2.2481,0.016744,-0.003876,-1.564660,1.566194,0.0000,0.0000,0.0000,-0.005679,-1.566194,1.566194,-0.0910,0.1993,0.2328,0.000000,0.493942,-0.495476,0.500078,-0.500078,0.501612,-0.492408
2.2649,0.016758,-0.003868,-1.564660,1.566194,0.0000,0.0000,0.0000,-0.005679,-1.566194,1.566194,-0.0910,0.1993,0.2328,0.000000,0.493942,-0.495476,0.500078,-0.500078,0.501612,-0.492408
2.2816,0.016753,-0.003859,-1.564660,1.566194,0.0000,0.0000,0.0000,-0.005679,-1.566194,1.566194,-0.0910,0.1993,0.2328,0.000000,0.493942,-0.495476,0.500078,-0.500078,0.501612,-0.492408
2.2984,0.016751,-0.003851,-1.564660,1.566194,0.0000,0.0000,0.0000,-0.005679,-1.566194,1.566194,-0.0910,0.1993,0.2328,0.000000,0.493942,-0.495476,0.500078,-0.500078,0.501612,-0.492408
2.3151,0.016744,-0.003842,-1.564660,1.566194,0.0000,0.0000,0.0000,-0.005679,-1.566194,1.566194,-0.0910,0.1993,0.2328,0.000000,0.493942,-0.495476,0.500078,-0.500078,0.501612,-0.492408
2.3319,0.016761,-0.003834,-1.564660,1.566194,0.0000,0.0000,0.0000,-0.005679,-1.566194,1.566194,-0.0910,0.1993,0.2328,0.000000,0.493942,-0.495476,0.500078,-0.500078,0.501612,-0.492408
2.3486,0.016747,-0.003826,-1.564660,1.566194,0.0000,0.0000,0.0000,-0.005679,-1.566194,1.566194,-0.0910,0.1993,0.2328,0.000000,0.493942,-0.495476,0.500078,-0.500078,0.501612,-0.492408
2.3654,0.016760,-0.003817,-1.564660,1.566194,0.0000,0.0000,0.0000,-0.005679,-1.567728,1.566194,-0.0910,0.1993,0.2328,0.000000,0.493942,-0.495476,0.500078,-0.500078,0.501612,-0.492408
2.3821,0.016741,-0.003809,-1.564660,1.566194,0.0000,0.0000,0.0000,-0.005679,-1.567728,1.566194,-0.0910,0.1993,0.2328,0.000000,0.493942,-0.495476,0.500078,-0.500078,0.501612,-0.492408
2.3989,0.016760,-0.003801,-1.564660,1.566194,0.0000,0.0000,0.0000,-0.005679,-1.567728,1.566194,-0.0910,0.1993,0.2328,0.000000,0.493942,-0.495476,0.500078,-0.500078,0.501612,-0.492408
2.4156,0.016746,-0.003792,-1.564660,1.566194,0.0000,0.0000,0.0000,-0.005679,-1.567728,1.566194,-0.0910,0.1993,0.2328,0.000000,0.493942,-0.495476,0.500078,-0.500078,0.501612,-0.492408
2.4324,0.016758,-0.003784,-1.564660,1.566194,0.0000,0.0000,0.0000,-0.005679,-1.567728,1.566194,-0.0910,0.1993,0.2328,0.000000,0.493942,-0.495476,0.500078,-0.500078,0.501612,-0.492408
2.4491,0.016745,-0.003775,-1.564660,1.566194,0.0000,0.0000,0.0000,-0.005692,-1.566194,1.566194,-0.0810,0.1479,0.1818,0.000000,0.493942,-0.495476,0.498544,-0.500078,0.501612,-0.492408
2.4658,0.016721,-0.003767,-1.564660,1.566194,0.0000,0.0000,0.0000,-0.005678,-1.567728,1.566194,-0.0922,0.2053,0.2388,0.000000,0.493942,-0.495476,0.500078,-0.500078,0.501612,-0.492408
2.4826,0.016756,-0.003759,-1.564660,1.566194,0.0000,0.0000,0.0000,-0.005679,-1.567728,1.566194,-0.0910,0.1993,0.2328,0.000000,0.493942,-0.495476,0.500078,-0.500078,0.501612,-0.492408
2.4994,0.016767,-0.003750,-1.564660,1.566194,0.0000,0.0000,0.0000,-0.005679,-1.566194,1.566194,-0.0910,0.1993,0.2328,0.000000,0.493942,-0.495476,0.500078,-0.500078,0.501612,-0.492408
2.5161,0.016779,-0.003742,-1.564660,1.566194,0.0000,0.0000,0.0000,-0.005679,-1.566194,1.566194,-0.0910,0.1993,0.2328,0.000000,0.493942,-0.495476,0.500078,-0.500078,0.501612,-0.492408
2.5329,0.016757,-0.003734,-1.564660,1.566194,0.0000,0.0000,0.0000,-0.005679,-1.566194,1.566194,-0.0910,0.1993,0.2328,0.000000,0.493942,-0.495476,0.500078,-0.500078,0.501612,-0.492408
2.5496,0.016751,-0.003725,-1.564660,1.566194,0.0000,0.0000,0.0000,-0.005679,-1.566194,1.566194,-0.0910,0.1993,0.2328,0.000000,0.493942,-0.495476,0.500078,-0.500078,0.501612,-0.492408
2.5664,0.016760,-0.003717,-1.564660,1.566194,0.0000,0.0000,0.0000,-0.005679,-1.566194,1.566194,-0.0910,0.1993,0.2328,0.000000,0.493942,-0.495476,0.500078,-0.500078,0.501612,-0.492408
2.5832,0.016767,-0.003708,-1.564660,1.566194,0.0000,0.0000,0.0000,-0.005692,-1.566194,1.566194,-0.0810,0.1479,0.1818,0.000000,0.493942,-0.495476,0.498544,-0.500078,0.501612,-0.492408
2.5999,0.016769,-0.003700,-1.564660,1.566194,0.0000,0.0000,0.0000,-0.005678,-1.567728,1.566194,-0.0922,0.2053,0.2388,0.000000,0.493942,-0.495476,0.500078,-0.500078,0.501612,-0.492408
2.6167,0.016772,-0.003692,-1.564660,1.566194,0.0000,0.0000,0.0000,-0.005679,-1.566194,1.566194,-0.0910,0.1993,0.2328,0.000000,0.493942,-0.495476,0.500078,-0.500078,0.501612,-0.492408
2.6335,0.016764,-0.003683,-1.564660,1.566194,0.0000,0.0000,0.0000,-0.005679,-1.566194,1.566194,-0.0910,0.1993,0.2328,0.000000,0.493942,-0.495476,0.500078,-0.500078,0.501612,-0.492408
2.6502,0.016714,-0.003675,-1.564660,1.566194,0.0000,0.0000,0.0000,-0.005679,-1.566194,1.566194,-0.0910,0.1993,0.2328,0.000000,0.493942,-0.495476,0.500078,-0.500078,0.501612,-0.492408
2.6670,0.016759,-0.003667,-1.564660,1.566194,0.0000,0.0000,0.0000,-0.005679,-1.567728,1.566194,-0.0910,0.1993,0.2328,0.000000,0.493942,-0.495476,0.500078,-0.500078,0.501612,-0.492408
2.6837,0.016758,-0.003658,-1.564660,1.566194,0.0000,0.0000,0.0000,-0.005679,-1.566194,1.566194,-0.0910,0.1993,0.2328,0.000000,0.493942,-0.495476,0.500078,-0.500078,0.501612,-0.492408
2.7005,0.016758,-0.003650,-1.564660,1.566194,0.0000,0.0000,0.0000,-0.005679,-1.566194,1.566194,-0.0910,0.1993,0.2328,0.000000,0.493942,-0.495476,0.500078,-0.500078,0.501612,-0.492408
2.7172,0.016764,-0.003641,-1.564660,1.566194,0.0000,0.0000,0.0000,-0.005679,-1.566194,1.566194,-0.0910,0.1993,0.2328,0.000000,0.493942,-0.495476,0.500078,-0.500078,0.501612,-0.492408
2.7340,0.016770,-0.003633,-1.564660,1.566194,0.0000,0.0000,0.0000,-0.005679,-1.566194,1.566194,-0.0910,0.1993,0.2328,0.000000,0.493942,-0.495476,0.500078,-0.500078,0.501612,-0.492408
2.7508,0.016756,-0.003625,-1.564660,1.566194,0.0000,0.0000,0.0000,-0.005679,-1.566194,1.566194,-0.0910,0.1993,0.2328,0.000000,0.493942,-0.495476,0.500078,-0.500078,0.501612,-0.492408
2.7675,0.016761,-0.003616,-1.564660,1.566194,0.0000,0.0000,0.0000,-0.005679,-1.566194,1.566194,-0.0910,0.1993,0.2328,0.000000,0.493942,-0.495476,0.500078,-0.500078,0.501612,-0.492408
2.7843,0.016760,-0.003608,-1.564660,1.566194,0.0000,0.0000,0.0000,-0.005679,-1.567728,1.566194,-0.0910,0.1993,0.2328,0.000000,0.493942,-0.495476,0.500078,-0.500078,0.501612,-0.492408
2.8010,0.016763,-0.003599,-1.564660,1.566194,0.0000,0.0000,0.0000,-0.005679,-1.567728,1.566194,-0.0910,0.1993,0.2328,0.000000,0.493942,-0.495476,0.500078,-0.500078,0.501612,-0.492408
2.8178,0.016761,-0.003591,-1.564660,1.566194,0.0000,0.0000,0.0000,-0.005679,-1.566194,1.566194,-0.0910,0.1993,0.2328,0.000000,0.493942,-0.495476,0.500078,-0.500078,0.501612,-0.492408
2.8346,0.016809,-0.003583,-1.564660,1.566194,0.0000,0.0000,0.0000,-0.005679,-1.566194,1.566194,-0.0910,0.1993,0.2328,0.000000,0.493942,-0.495476,0.500078,-0.500078,0.501612,-0.492408
2.8514,0.016754,-0.003574,-1.564660,1.566194,0.0000,0.0000,0.0000,-0.005679,-1.567728,1.566194,-0.0910,0.1993,0.2328,0.000000,0.493942,-0.495476,0.500078,-0.500078,0.501612,-0.492408
2.8681,0.016761,-0.003566,-1.564660,1.566194,0.0000,0.0000,0.0000,-0.005679,-1.566194,1.566194,-0.0910,0.1993,0.2328,0.000000,0.493942,-0.495476,0.500078,-0.500078,0.501612,-0.492408
2.8849,0.016766,-0.003558,-1.564660,1.566194,0.0000,0.0000,0.0000,-0.005679,-1.566194,1.566194,-0.0910,0.1993,0.2328,0.000000,0.493942,-0.495476,0.500078,-0.500078,0.501612,-0.492408
2.9017,0.016816,-0.003549,-1.564660,1.566194,0.0000,0.0000,0.0000,-0.005692,-1.566194,1.566194,-0.0810,0.1479,0.1818,0.000000,0.493942,-0.495476,0.498544,-0.500078,0.501612,-0.492408
2.9185,0.016763,-0.003541,-1.564660,1.566194,0.0000,0.0000,0.0000,-0.005692,-1.566194,1.566194,-0.0810,0.1479,0.1818,0.000000,0.493942,-0.495476,0.498544,-0.500078,0.501612,-0.492408
2.9352,0.016766,-0.003532,-1.564660,1.566194,0.0000,0.0000,0.0000,-0.005678,-1.567728,1.566194,-0.0922,0.2053,0.2388,0.000000,0.493942,-0.495476,0.500078,-0.500078,0.501612,-0.492408
2.9520,0.016757,-0.003524,-1.564660,1.566194,0.0000,0.0000,0.0000,-0.005679,-1.566194,1.566194,-0.0910,0.1993,0.2328,0.000000,0.493942,-0.495476,0.500078,-0.500078,0.501612,-0.492408
2.9688,0.016799,-0.003516,-1.564660,1.566194,0.0000,0.0000,0.0000,-0.005679,-1.566194,1.566194,-0.0910,0.1993,0.2328,0.000000,0.493942,-0.495476,0.500078,-0.500078,0.501612,-0.492408
2.9855,0.016751,-0.003507,-1.564660,1.566194,0.0000,0.0000,0.0000,-0.005679,-1.566194,1.566194,-0.0910,0.1993,0.2328,0.000000,0.493942,-0.495476,0.500078,-0.500078,0.501612,-0.492408
3.0028,0.017206,-0.003499,-1.564660,1.566194,0.0000,0.0000,0.0000,-0.005679,-1.567728,1.566194,-0.0910,0.1993,0.2328,0.000000,0.493942,-0.495476,0.500078,-0.500078,0.501612,-0.492408
3.0195,0.016756,-0.003490,-1.564660,1.566194,0.0000,0.0000,0.0000,-0.005679,-1.567728,1.566194,-0.0910,0.1993,0.2328,0.000000,0.493942,-0.495476,0.500078,-0.500078,0.501612,-0.492408
3.0363,0.016763,-0.003482,-1.564660,1.566194,0.0000,0.0000,0.0000,-0.005679,-1.567728,1.566194,-0.0910,0.1993,0.2328,0.000000,0.493942,-0.495476,0.500078,-0.500078,0.501612,-0.492408
3.0530,0.016770,-0.003473,-1.564660,1.566194,0.0000,0.0000,0.0000,-0.005679,-1.566194,1.566194,-0.0910,0.1993,0.2328,0.000000,0.493942,-0.495476,0.500078,-0.500078,0.501612,-0.492408
3.0698,0.016766,-0.003465,-1.564660,1.566194,0.0000,0.0000,0.0000,-0.005679,-1.567728,1.566194,-0.0910,0.1993,0.2328,0.000000,0.493942,-0.495476,0.500078,-0.500078,0.501612,-0.492408
3.0866,0.016747,-0.003457,-1.564660,1.566194,0.0000,0.0000,0.0000,-0.005679,-1.566194,1.566194,-0.0910,0.1993,0.2328,0.000000,0.493942,-0.495476,0.500078,-0.500078,0.501612,-0.492408
3.1033,0.016773,-0.003448,-1.564660,1.566194,0.0000,0.0000,0.0000,-0.005679,-1.566194,1.566194,-0.0910,0.1993,0.2328,0.000000,0.493942,-0.495476,0.500078,-0.500078,0.501612,-0.492408
3.1201,0.016750,-0.003440,-1.564660,1.566194,0.0000,0.0000,0.0000,-0.005679,-1.566194,1.566194,-0.0910,0.1993,0.2328,0.000000,0.493942,-0.495476,0.500078,-0.500078,0.501612,-0.492408
3.1368,0.016759,-0.003432,-1.564660,1.566194,0.0000,0.0000,0.0000,-0.005679,-1.566194,1.566194,-0.0910,0.1993,0.2328,0.000000,0.493942,-0.495476,0.500078,-0.500078,0.501612,-0.492408
3.1536,0.016746,-0.003423,-1.564660,1.566194,0.0000,0.0000,0.0000,-0.005692,-1.567728,1.566194,-0.0810,0.1479,0.1818,0.000000,0.493942,-0.495476,0.498544,-0.500078,0.501612,-0.492408
3.1703,0.016760,-0.003415,-1.564660,1.566194,0.0000,0.0000,0.0000,-0.005678,-1.566194,1.566194,-0.0922,0.2053,0.2388,0.000000,0.493942,-0.495476,0.500078,-0.500078,0.501612,-0.492408
3.1871,0.016745,-0.003406,-1.564660,1.566194,0.0000,0.0000,0.0000,-0.005679,-1.567728,1.566194,-0.0910,0.1993,0.2328,0.000000,0.493942,-0.495476,0.500078,-0.500078,0.501612,-0.492408
3.2039,0.016774,-0.003398,-1.564660,1.566194,0.0000,0.0000,0.0000,-0.005679,-1.567728,1.566194,-0.0910,0.1993,0.2328,0.000000,0.493942,-0.495476,0.500078,-0.500078,0.501612,-0.492408
3.2206,0.016750,-0.003390,-1.564660,1.566194,0.0000,0.0000,0.0000,-0.005679,-1.567728,1.566194,-0.0910,0.1993,0.2328,0.000000,0.493942,-0.495476,0.500078,-0.500078,0.501612,-0.492408
3.2374,0.016752,-0.003381,-1.564660,1.566194,0.0000,0.0000,0.0000,-0.005679,-1.567728,1.566194,-0.0910,0.1993,0.2328,0.000000,0.493942,-0.495476,0.500078,-0.500078,0.501612,-0.492408
3.2541,0.016752,-0.003373,-1.564660,1.566194,0.0000,0.0000,0.0000,-0.005679,-1.567728,1.566194,-0.0910,0.1993,0.2328,0.000000,0.493942,-0.495476,0.500078,-0.500078,0.501612,-0.492408
3.2709,0.016757,-0.003365,-1.564660,1.566194,0.0000,0.0000,0.0000,-0.005679,-1.566194,1.566194,-0.0910,0.1993,0.2328,0.000000,0.493942,-0.495476,0.500078,-0.500078,0.501612,-0.492408
3.2876,0.016762,-0.003356,-1.564660,1.566194,0.0000,0.0000,0.0000,-0.005679,-1.566194,1.566194,-0.0910,0.1993,0.2328,0.000000,0.493942,-0.495476,0.500078,-0.500078,0.501612,-0.492408
3.3049,0.017233,-0.003348,-1.564660,1.566194,0.0000,0.0000,0.0000,-0.005679,-1.566194,1.566194,-0.0910,0.1993,0.2328,0.000000,0.493942,-0.495476,0.500078,-0.500078,0.501612,-0.492408
3.3216,0.016754,-0.003339,-1.564660,1.566194,0.0000,0.0000,0.0000,-0.005679,-1.566194,1.566194,-0.0910,0.1993,0.2328,0.000000,0.493942,-0.495476,0.500078,-0.500078,0.501612,-0.492408
3.3384,0.016756,-0.003331,-1.564660,1.566194,0.0000,0.0000,0.0000,-0.005679,-1.566194,1.566194,-0.0910,0.1993,0.2328,0.000000,0.493942,-0.495476,0.500078,-0.500078,0.501612,-0.492408
3.3551,0.016753,-0.003322,-1.564660,1.566194,0.0000,0.0000,0.0000,-0.005679,-1.566194,1.566194,-0.0910,0.1993,0.2328,0.000000,0.493942,-0.495476,0.500078,-0.500078,0.501612,-0.492408
3.3719,0.016763,-0.003314,-1.564660,1.566194,0.0000,0.0000,0.0000,-0.005679,-1.566194,1.566194,-0.0910,0.1993,0.2328,0.000000,0.493942,-0.495476,0.500078,-0.500078,0.501612,-0.492408
3.3888,0.016940,-0.003306,-1.564660,1.566194,0.0000,0.0000,0.0000,-0.005679,-1.567728,1.566194,-0.0910,0.1993,0.2328,0.000000,0.493942,-0.495476,0.500078,-0.500078,0.501612,-0.492408
3.4056,0.016758,-0.003297,-1.564660,1.566194,0.0000,0.0000,0.0000,-0.005679,-1.567728,1.566194,-0.0910,0.1993,0.2328,0.000000,0.493942,-0.495476,0.500078,-0.500078,0.501612,-0.492408
3.4223,0.016753,-0.003289,-1.564660,1.566194,0.0000,0.0000,0.0000,-0.005667,-1.566194,1.566194,-0.0811,0.2521,0.1817,0.000000,0.493942,-0.495476,0.500078,-0.501612,0.501612,-0.492408
3.4391,0.016756,-0.003280,-1.564660,1.566194,0.0000,0.0000,0.0000,-0.005655,-1.567728,1.566194,-0.0720,0.2987,0.1353,0.000000,0.493942,-0.495476,0.500078,-0.503146,0.501612,-0.492408
3.4559,0.016751,-0.003272,-1.564660,1.566194,0.0000,0.0000,0.0000,-0.005657,-1.567728,1.566194,-0.0730,0.2938,0.1401,0.000000,0.493942,-0.495476,0.500078,-0.503146,0.501612,-0.492408
3.4726,0.016758,-0.003264,-1.564660,1.566194,0.0000,0.0000,0.0000,-0.005657,-1.566194,1.566194,-0.0730,0.2938,0.1401,0.000000,0.493942,-0.495476,0.500078,-0.503146,0.501612,-0.492408
3.4894,0.016754,-0.003255,-1.564660,1.566194,0.0000,0.0000,0.0000,-0.005657,-1.566194,1.566194,-0.0730,0.2938,0.1401,0.000000,0.493942,-0.495476,0.500078,-0.504680,0.501612,-0.492408
3.5061,0.016759,-0.003247,-1.564660,1.566194,0.0000,0.0000,0.0000,-0.005644,-1.566194,1.566194,-0.0628,0.3464,0.0878,0.000000,0.493942,-0.495476,0.500078,-0.504680,0.501612,-0.492408
3.5229,0.016753,-0.003239,-1.564660,1.566194,0.0000,0.0000,0.0000,-0.005658,-1.566194,1.566194,-0.0740,0.2889,0.1451,0.000000,0.493942,-0.495476,0.500078,-0.503146,0.501612,-0.492408
3.5396,0.016759,-0.003230,-1.564660,1.566194,0.0000,0.0000,0.0000,-0.005656,-1.566194,1.566194,-0.0728,0.2949,0.1391,0.000000,0.493942,-0.495476,0.500078,-0.503146,0.501612,-0.492408
3.5564,0.016763,-0.003222,-1.564660,1.566194,0.0000,0.0000,0.0000,-0.005669,-1.566194,1.566194,-0.0628,0.2422,0.0881,0.000000,0.493942,-0.495476,0.498544,-0.503146,0.501612,-0.492408
3.5731,0.016751,-0.003213,-1.564660,1.566194,0.0000,0.0000,0.0000,-0.005655,-1.566194,1.566194,-0.0739,0.2997,0.1450,0.000000,0.493942,-0.495476,0.500078,-0.503146,0.501612,-0.492408
3.5900,0.016821,-0.003205,-1.564660,1.566194,0.0000,0.0000,0.0000,-0.005657,-1.567728,1.566194,-0.0728,0.2937,0.1391,0.000000,0.493942,-0.495476,0.500078,-0.503146,0.501612,-0.492408
3.6067,0.016756,-0.003197,-1.564660,1.566194,0.0000,0.0000,0.0000,-0.005657,-1.567728,1.566194,-0.0728,0.2937,0.1391,0.000000,0.493942,-0.495476,0.500078,-0.503146,0.501612,-0.492408
3.6235,0.016760,-0.003188,-1.564660,1.566194,0.0000,0.0000,0.0000,-0.005669,-1.567728,1.566194,-0.0628,0.2423,0.0881,0.000000,0.493942,-0.495476,0.498544,-0.503146,0.501612,-0.492408
3.6402,0.016753,-0.003180,-1.564660,1.566194,0.0000,0.0000,0.0000,-0.005655,-1.566194,1.566194,-0.0739,0.2997,0.1450,0.000000,0.493942,-0.495476,0.500078,-0.503146,0.501612,-0.492408
3.6570,0.016753,-0.003172,-1.564660,1.566194,0.0000,0.0000,0.0000,-0.005657,-1.567728,1.566194,-0.0728,0.2937,0.1391,0.000000,0.493942,-0.495476,0.500078,-0.503146,0.501612,-0.492408
3.6737,0.016754,-0.003163,-1.564660,1.566194,0.0000,0.0000,0.0000,-0.005657,-1.566194,1.566194,-0.0728,0.2937,0.1391,0.000000,0.493942,-0.495476,0.500078,-0.503146,0.501612,-0.492408
3.6905,0.016765,-0.003155,-1.564660,1.566194,0.0000,0.0000,0.0000,-0.005657,-1.566194,1.566194,-0.0728,0.2937,0.1391,0.000000,0.493942,-0.495476,0.500078,-0.503146,0.501612,-0.492408
3.7073,0.016755,-0.003146,-1.564660,1.566194,0.0000,0.0000,0.0000,-0.005657,-1.566194,1.566194,-0.0728,0.2937,0.1391,0.000000,0.493942,-0.495476,0.500078,-0.503146,0.501612,-0.492408
3.7240,0.016750,-0.003138,-1.564660,1.566194,0.0000,0.0000,0.0000,-0.005657,-1.566194,1.566194,-0.0728,0.2937,0.1391,0.000000,0.493942,-0.495476,0.500078,-0.503146,0.501612,-0.492408
3.7408,0.016795,-0.003130,-1.564660,1.566194,0.0000,0.0000,0.0000,-0.005657,-1.566194,1.566194,-0.0728,0.2937,0.1391,0.000000,0.493942,-0.495476,0.500078,-0.503146,0.501612,-0.492408
3.7576,0.016757,-0.003121,-1.564660,1.566194,0.0000,0.0000,0.0000,-0.005657,-1.566194,1.566194,-0.0728,0.2937,0.1391,0.000000,0.493942,-0.495476,0.500078,-0.503146,0.501612,-0.492408
3.7743,0.016755,-0.003113,-1.564660,1.566194,0.0000,0.0000,0.0000,-0.005657,-1.566194,1.566194,-0.0728,0.2937,0.1391,0.000000,0.493942,-0.495476,0.500078,-0.503146,0.501612,-0.492408
3.7911,0.016751,-0.003104,-1.564660,1.566194,0.0000,0.0000,0.0000,-0.005657,-1.566194,1.566194,-0.0728,0.2937,0.1391,0.000000,0.493942,-0.495476,0.500078,-0.503146,0.501612,-0.492408
3.8078,0.016755,-0.003096,-1.564660,1.566194,0.0000,0.0000,0.0000,-0.005657,-1.566194,1.566194,-0.0728,0.2937,0.1391,0.000000,0.493942,-0.495476,0.500078,-0.503146,0.501612,-0.492408
3.8246,0.016752,-0.003088,-1.564660,1.566194,0.0000,0.0000,0.0000,-0.005657,-1.567728,1.566194,-0.0728,0.2937,0.1391,0.000000,0.493942,-0.495476,0.500078,-0.503146,0.501612,-0.492408
3.8413,0.016753,-0.003079,-1.564660,1.566194,0.0000,0.0000,0.0000,-0.005657,-1.567728,1.566194,-0.0728,0.2937,0.1391,0.000000,0.493942,-0.495476,0.500078,-0.503146,0.501612,-0.492408
3.8581,0.016759,-0.003071,-1.564660,1.566194,0.0000,0.0000,0.0000,-0.005657,-1.566194,1.566194,-0.0728,0.2937,0.1391,0.000000,0.493942,-0.495476,0.500078,-0.503146,0.501612,-0.492408
3.8749,0.016777,-0.003063,-1.564660,1.566194,0.0000,0.0000,0.0000,-0.005657,-1.566194,1.566194,-0.0728,0.2937,0.1391,0.000000,0.493942,-0.495476,0.500078,-0.503146,0.501612,-0.492408
3.8916,0.016766,-0.003054,-1.564660,1.566194,0.0000,0.0000,0.0000,-0.005657,-1.566194,1.566194,-0.0728,0.2937,0.1391,0.000000,0.493942,-0.495476,0.500078,-0.503146,0.501612,-0.492408
3.9084,0.016759,-0.003046,-1.564660,1.566194,0.0000,0.0000,0.0000,-0.005657,-1.566194,1.566194,-0.0728,0.2937,0.1391,0.000000,0.493942,-0.495476,0.500078,-0.503146,0.501612,-0.492408
3.9251,0.016750,-0.003037,-1.564660,1.566194,0.0000,0.0000,0.0000,-0.005657,-1.567728,1.566194,-0.0728,0.2937,0.1391,0.000000,0.493942,-0.495476,0.500078,-0.503146,0.501612,-0.492408
3.9419,0.016755,-0.003029,-1.564660,1.566194,0.0000,0.0000,0.0000,-0.005644,-1.567728,1.566194,-0.0628,0.3464,0.0879,0.000000,0.493942,-0.495476,0.500078,-0.504680,0.501612,-0.492408
3.9586,0.016748,-0.003021,-1.564660,1.566194,0.0000,0.0000,0.0000,-0.005658,-1.566194,1.566194,-0.0739,0.2889,0.1450,0.000000,0.493942,-0.495476,0.500078,-0.503146,0.501612,-0.492408
3.9754,0.016761,-0.003012,-1.564660,1.566194,0.0000,0.0000,0.0000,-0.005656,-1.566194,1.566194,-0.0728,0.2949,0.1391,0.000000,0.493942,-0.495476,0.500078,-0.503146,0.501612,-0.492408
3.9922,0.016761,-0.003004,-1.564660,1.566194,0.0000,0.0000,0.0000,-0.005631,-1.567728,1.566194,-0.0729,0.3984,0.1396,0.000000,0.493942,-0.495476,0.501612,-0.504680,0.501612,-0.492408
4.0089,0.016757,-0.002996,-1.564660,1.566194,0.0000,0.0000,0.0000,-0.005631,-1.567728,1.566194,-0.0729,0.3984,0.1396,0.000000,0.493942,-0.495476,0.501612,-0.504680,0.501612,-0.492408
4.0257,0.016754,-0.002987,-1.564660,1.566194,0.0000,0.0000,0.0000,-0.005609,-1.567728,1.566194,-0.0430,0.4045,0.1398,0.000000,0.493942,-0.497010,0.503146,-0.504680,0.501612,-0.492408
4.0424,0.016757,-0.002979,-1.564660,1.566194,0.0000,0.0000,0.0000,-0.005611,-1.566194,1.566194,-0.0462,0.4039,0.1398,0.000000,0.493942,-0.497010,0.503146,-0.504680,0.501612,-0.492408
4.0592,0.016746,-0.002970,-1.564660,1.566194,0.0000,0.0000,0.0000,-0.005586,-1.566194,1.566194,-0.0256,0.5081,0.0361,0.000000,0.493942,-0.497010,0.503146,-0.507748,0.501612,-0.492408
4.0759,0.016756,-0.002962,-1.564660,1.566194,0.0000,0.0000,0.0000,-0.005588,-1.566194,1.566194,-0.0277,0.4972,0.0469,0.000000,0.493942,-0.497010,0.503146,-0.507748,0.501612,-0.492408
4.0927,0.016767,-0.002954,-1.564660,1.566194,0.0000,0.0000,0.0000,-0.005588,-1.566194,1.566194,-0.0277,0.4972,0.0469,0.000000,0.493942,-0.497010,0.503146,-0.507748,0.501612,-0.492408
4.1095,0.016758,-0.002945,-1.564660,1.566194,0.0000,0.0000,0.0000,-0.005588,-1.566194,1.566194,-0.0274,0.4987,0.0454,0.000000,0.493942,-0.497010,0.503146,-0.507748,0.501612,-0.492408
4.1262,0.016754,-0.002937,-1.564660,1.566194,0.0000,0.0000,0.0000,-0.005563,-1.567728,1.566194,-0.0072,0.6021,-0.0579,0.000000,0.493942,-0.497010,0.503146,-0.510816,0.501612,-0.492408
4.1430,0.016757,-0.002929,-1.564660,1.566194,0.0000,0.0000,0.0000,-0.005566,-1.567728,1.566194,-0.0093,0.5912,-0.0471,0.000000,0.493942,-0.497010,0.503146,-0.510816,0.501612,-0.492408
4.1597,0.016758,-0.002920,-1.564660,1.566194,0.0000,0.0000,0.0000,-0.005553,-1.567728,1.566194,0.0011,0.6442,-0.1001,0.000000,0.493942,-0.497010,0.503146,-0.512350,0.501612,-0.492408
4.1765,0.016762,-0.002912,-1.564660,1.566194,0.0000,0.0000,0.0000,-0.005542,-1.566194,1.566194,0.0102,0.6905,-0.1466,0.000000,0.493942,-0.497010,0.503146,-0.513884,0.501612,-0.492408
4.1933,0.016773,-0.002903,-1.564660,1.566194,0.0000,0.0000,0.0000,-0.005542,-1.566194,1.566194,0.0102,0.6905,-0.1466,0.000000,0.493942,-0.497010,0.503146,-0.513884,0.501612,-0.492408
4.2100,0.016759,-0.002895,-1.564660,1.566194,0.0000,0.0000,0.0000,-0.005531,-1.566194,1.566194,0.0195,0.7374,-0.1937,0.000000,0.493942,-0.497010,0.503146,-0.515418,0.501612,-0.492408
4.2268,0.016758,-0.002887,-1.564660,1.566194,0.0000,0.0000,0.0000,-0.005532,-1.566194,1.566194,0.0186,0.7325,-0.1888,0.000000,0.493942,-0.497010,0.503146,-0.515418,0.501612,-0.492408
4.2436,0.016775,-0.002878,-1.564660,1.566194,0.0000,0.0000,0.0000,-0.005532,-1.566194,1.566194,0.0186,0.7325,-0.1888,0.000000,0.493942,-0.497010,0.503146,-0.515418,0.501612,-0.492408
4.2603,0.016752,-0.002870,-1.564660,1.566194,0.0000,0.0000,0.0000,-0.005532,-1.566194,1.566194,0.0186,0.7325,-0.1888,0.000000,0.493942,-0.497010,0.503146,-0.515418,0.501612,-0.492408
4.2771,0.016773,-0.002861,-1.564660,1.566194,0.0000,0.0000,0.0000,-0.005520,-1.567728,1.566194,0.0289,0.7847,-0.2414,0.000000,0.493942,-0.497010,0.503146,-0.516952,0.501612,-0.492408
4.2938,0.016757,-0.002853,-1.564660,1.566194,0.0000,0.0000,0.0000,-0.005520,-1.567728,1.566194,0.0289,0.7847,-0.2414,0.000000,0.493942,-0.497010,0.503146,-0.516952,0.501612,-0.492408
4.3106,0.016766,-0.002845,-1.564660,1.566194,0.0000,0.0000,0.0000,-0.005508,-1.567728,1.566194,0.0783,0.7623,-0.1840,0.000000,0.495476,-0.497010,0.503146,-0.516952,0.501612,-0.492408
4.3276,0.017037,-0.002836,-1.564660,1.566194,0.0000,0.0000,0.0000,-0.005497,-1.566194,1.566194,0.0835,0.8164,-0.2420,0.000000,0.495476,-0.497010,0.503146,-0.518486,0.501612,-0.492408
4.3444,0.016758,-0.002828,-1.564660,1.566194,0.0000,0.0000,0.0000,-0.005511,-1.566194,1.566194,0.0325,0.8276,-0.2879,0.000000,0.493942,-0.497010,0.503146,-0.518486,0.501612,-0.492408
4.3612,0.016750,-0.002819,-1.564660,1.566194,0.0000,0.0000,0.0000,-0.005497,-1.567728,1.566194,0.0883,0.8095,-0.2312,0.000000,0.495476,-0.497010,0.503146,-0.518486,0.501612,-0.492408
4.3779,0.016761,-0.002811,-1.564660,1.566194,0.0000,0.0000,0.0000,-0.005497,-1.567728,1.566194,0.0883,0.8095,-0.2312,0.000000,0.495476,-0.497010,0.503146,-0.518486,0.501612,-0.492408
4.3947,0.016750,-0.002803,-1.564660,1.566194,0.0000,0.0000,0.0000,-0.005511,-1.566194,1.566194,0.0320,0.8283,-0.2890,0.000000,0.493942,-0.497010,0.503146,-0.518486,0.501612,-0.492408
4.4114,0.016757,-0.002794,-1.564660,1.566194,0.0000,0.0000,0.0000,-0.005510,-1.566194,1.566194,0.0379,0.8264,-0.2830,0.000000,0.493942,-0.497010,0.503146,-0.518486,0.501612,-0.492408
4.4282,0.016750,-0.002786,-1.564660,1.566194,0.0000,0.0000,0.0000,-0.005510,-1.566194,1.566194,0.0379,0.8264,-0.2830,0.000000,0.493942,-0.497010,0.503146,-0.518486,0.501612,-0.492408
4.4449,0.016757,-0.002778,-1.564660,1.566194,0.0000,0.0000,0.0000,-0.005497,-1.566194,1.566194,0.0877,0.8096,-0.2317,0.000000,0.495476,-0.497010,0.503146,-0.518486,0.501612,-0.492408
4.4617,0.016755,-0.002769,-1.564660,1.566194,0.0000,0.0000,0.0000,-0.005497,-1.567728,1.566194,0.0877,0.8096,-0.2317,0.000000,0.493942,-0.497010,0.503146,-0.518486,0.501612,-0.492408
4.4784,0.016751,-0.002761,-1.564660,1.566194,0.0000,0.0000,0.0000,-0.005511,-1.567728,1.566194,0.0321,0.8283,-0.2889,0.000000,0.493942,-0.497010,0.503146,-0.518486,0.501612,-0.492408
4.4952,0.016761,-0.002752,-1.564660,1.566194,0.0000,0.0000,0.0000,-0.005510,-1.567728,1.566194,0.0378,0.8264,-0.2830,0.000000,0.493942,-0.497010,0.503146,-0.518486,0.501612,-0.492408
4.5120,0.016766,-0.002744,-1.564660,1.566194,0.0000,0.0000,0.0000,-0.005497,-1.566194,1.566194,0.0877,0.8096,-0.2317,0.000000,0.495476,-0.497010,0.503146,-0.518486,0.501612,-0.492408
4.5287,0.016754,-0.002736,-1.564660,1.566194,0.0000,0.0000,0.0000,-0.005499,-1.566194,1.566194,0.0825,0.8114,-0.2370,0.000000,0.495476,-0.497010,0.503146,-0.518486,0.501612,-0.492408
4.5455,0.016762,-0.002727,-1.564660,1.566194,0.0000,0.0000,0.0000,-0.005499,-1.566194,1.566194,0.0825,0.8114,-0.2370,0.000000,0.495476,-0.497010,0.503146,-0.518486,0.501612,-0.492408
4.5622,0.016762,-0.002719,-1.564660,1.566194,0.0000,0.0000,0.0000,-0.005499,-1.567728,1.566194,0.0825,0.8114,-0.2370,0.000000,0.495476,-0.497010,0.503146,-0.518486,0.501612,-0.492408
4.5790,0.016754,-0.002711,-1.564660,1.566194,0.0000,0.0000,0.0000,-0.005499,-1.567728,1.566194,0.0825,0.8114,-0.2370,0.000000,0.495476,-0.497010,0.503146,-0.518486,0.501612,-0.492408
4.5957,0.016748,-0.002702,-1.564660,1.566194,0.0000,0.0000,0.0000,-0.005499,-1.566194,1.566194,0.0825,0.8114,-0.2370,0.000000,0.495476,-0.497010,0.503146,-0.518486,0.501612,-0.492408
4.6125,0.016756,-0.002694,-1.564660,1.566194,0.0000,0.0000,0.0000,-0.005499,-1.566194,1.566194,0.0825,0.8114,-0.2370,0.000000,0.495476,-0.497010,0.503146,-0.518486,0.501612,-0.492408
4.6292,0.016751,-0.002685,-1.564660,1.566194,0.0000,0.0000,0.0000,-0.005511,-1.566194,1.566194,0.0326,0.8281,-0.2884,0.000000,0.493942,-0.497010,0.503146,-0.518486,0.501612,-0.492408
4.6460,0.016754,-0.002677,-1.564660,1.566194,0.0000,0.0000,0.0000,-0.005510,-1.566194,1.566194,0.0378,0.8264,-0.2830,0.000000,0.493942,-0.497010,0.503146,-0.518486,0.501612,-0.492408
4.6628,0.016754,-0.002669,-1.564660,1.566194,0.0000,0.0000,0.0000,-0.005510,-1.566194,1.566194,0.0378,0.8264,-0.2830,0.000000,0.493942,-0.497010,0.503146,-0.518486,0.501612,-0.492408
4.6795,0.016754,-0.002660,-1.564660,1.566194,0.0000,0.0000,0.0000,-0.005497,-1.566194,1.566194,0.0877,0.8096,-0.2317,0.000000,0.495476,-0.497010,0.503146,-0.518486,0.501612,-0.492408
4.6963,0.016759,-0.002652,-1.564660,1.566194,0.0000,0.0000,0.0000,-0.005499,-1.566194,1.566194,0.0825,0.8114,-0.2370,0.000000,0.495476,-0.497010,0.503146,-0.518486,0.501612,-0.492408
4.7130,0.016760,-0.002643,-1.564660,1.566194,0.0000,0.0000,0.0000,-0.005499,-1.567728,1.566194,0.0825,0.8114,-0.2370,0.000000,0.495476,-0.497010,0.503146,-0.518486,0.501612,-0.492408
4.7298,0.016751,-0.002635,-1.564660,1.566194,0.0000,0.0000,0.0000,-0.005499,-1.566194,1.566194,0.0825,0.8114,-0.2370,0.000000,0.495476,-0.497010,0.503146,-0.518486,0.501612,-0.492408
4.7465,0.016769,-0.002627,-1.564660,1.566194,0.0000,0.0000,0.0000,-0.005498,-1.567728,1.566194,0.1231,0.7427,-0.1325,0.000000,0.497010,-0.497010,0.503146,-0.516952,0.501612,-0.492408
4.7633,0.016755,-0.002618,-1.564660,1.566194,0.0000,0.0000,0.0000,-0.005498,-1.567728,1.566194,0.1231,0.7427,-0.1325,0.000000,0.497010,-0.497010,0.503146,-0.516952,0.501612,-0.492408
4.7801,0.016763,-0.002610,-1.564660,1.566194,0.0000,0.0000,0.0000,-0.005474,-1.566194,1.566194,0.1797,0.7847,-0.1435,0.000000,0.498544,-0.497010,0.503146,-0.518486,0.501612,-0.492408
4.7968,0.016714,-0.002602,-1.564660,1.566194,0.0000,0.0000,0.0000,-0.005476,-1.567728,1.566194,0.1738,0.7803,-0.1423,0.000000,0.498544,-0.497010,0.503146,-0.518486,0.501612,-0.492408
4.8146,0.017844,-0.002593,-1.564660,1.566194,0.0000,0.0000,0.0000,-0.005476,-1.566194,1.566194,0.1738,0.7803,-0.1423,0.000000,0.498544,-0.497010,0.503146,-0.518486,0.501612,-0.492408
4.8314,0.016756,-0.002584,-1.564660,1.566194,0.0000,0.0000,0.0000,-0.005476,-1.567728,1.566194,0.1738,0.7803,-0.1423,0.000000,0.498544,-0.497010,0.503146,-0.518486,0.501612,-0.492408
4.8482,0.016813,-0.002576,-1.564660,1.566194,0.0000,0.0000,0.0000,-0.005451,-1.567728,1.566194,0.2751,0.7472,-0.0385,0.000000,0.501612,-0.497010,0.503146,-0.518486,0.501612,-0.492408
4.8649,0.016755,-0.002568,-1.564660,1.566194,0.0000,0.0000,0.0000,-0.005451,-1.567728,1.566194,0.2751,0.7472,-0.0385,0.000000,0.501612,-0.497010,0.503146,-0.518486,0.501612,-0.492408
4.8817,0.016757,-0.002559,-1.564660,1.566194,0.0000,0.0000,0.0000,-0.005415,-1.566194,1.566194,0.2839,0.8199,0.0030,0.000000,0.501612,-0.498544,0.506214,-0.518486,0.501612,-0.492408
4.8985,0.016776,-0.002551,-1.564660,1.566194,0.0000,0.0000,0.0000,-0.005394,-1.566194,1.566194,0.3836,0.7788,0.1028,0.000000,0.504680,-0.498544,0.506214,-0.518486,0.501612,-0.492408
4.9152,0.016762,-0.002542,-1.564660,1.566194,0.0000,0.0000,0.0000,-0.005384,-1.566194,1.566194,0.4234,0.7665,0.1445,0.000000,0.506214,-0.498544,0.506214,-0.518486,0.501612,-0.492408
4.9320,0.016779,-0.002534,-1.564660,1.566194,0.0000,0.0000,0.0000,-0.005361,-1.567728,1.566194,0.4690,0.8221,0.3480,0.000000,0.509282,-0.497010,0.507748,-0.518486,0.501612,-0.492408
4.9488,0.016767,-0.002526,-1.564660,1.566194,0.0000,0.0000,0.0000,-0.005364,-1.567728,1.566194,0.5247,0.7478,0.3270,0.000000,0.510816,-0.497010,0.506214,-0.518486,0.501612,-0.492408
4.9656,0.016770,-0.002517,-1.564660,1.566194,0.0000,0.0000,0.0000,-0.005364,-1.567728,1.566194,0.5247,0.7478,0.3270,0.000000,0.510816,-0.497010,0.506214,-0.518486,0.501612,-0.492408
4.9823,0.016748,-0.002509,-1.564660,1.566194,0.0000,0.0000,0.0000,-0.005340,-1.566194,1.566194,0.5795,0.7909,0.3295,0.000000,0.512350,-0.497010,0.506214,-0.520019,0.501612,-0.492408
4.9991,0.016768,-0.002500,-1.564660,1.566194,0.0000,0.0000,0.0000,-0.005319,-1.567728,1.566194,0.6345,0.8218,0.3297,0.000000,0.513884,-0.497010,0.506214,-0.521553,0.501612,-0.492408
5.0159,0.016820,-0.002492,-1.564660,1.566194,0.0000,0.0000,0.0000,-0.005297,-1.566194,1.566194,0.6500,0.9220,0.2258,0.000000,0.513884,-0.497010,0.506214,-0.524621,0.501612,-0.492408
5.0327,0.016772,-0.002484,-1.564660,1.566194,0.0000,0.0000,0.0000,-0.005297,-1.567728,1.566194,0.6500,0.9220,0.2258,0.000000,0.513884,-0.497010,0.506214,-0.526155,0.501612,-0.492408
5.0494,0.016756,-0.002475,-1.564660,1.566194,0.0000,0.0000,0.0000,-0.005288,-1.567728,1.566194,0.6591,0.9632,0.1847,0.000000,0.513884,-0.497010,0.506214,-0.526155,0.501612,-0.492408
5.0662,0.016766,-0.002467,-1.564660,1.566194,0.0000,0.0000,0.0000,-0.005263,-1.567728,1.566194,0.6580,0.8892,0.1887,0.000000,0.513884,-0.498544,0.506214,-0.526155,0.503146,-0.492408
5.0831,0.016884,-0.002458,-1.564660,1.566194,0.0000,0.0000,0.0000,-0.005291,-1.566194,1.566194,0.6583,0.9666,0.1886,0.000000,0.513884,-0.497010,0.506214,-0.526155,0.501612,-0.492408
5.0999,0.016839,-0.002450,-1.564660,1.566194,0.0000,0.0000,0.0000,-0.005288,-1.567728,1.566194,0.6583,0.9585,0.1886,0.000000,0.513884,-0.497010,0.506214,-0.526155,0.501612,-0.492408
5.1167,0.016747,-0.002442,-1.564660,1.566194,0.0000,0.0000,0.0000,-0.005289,-1.566194,1.566194,0.6583,0.9596,0.1886,0.000000,0.513884,-0.497010,0.506214,-0.526155,0.501612,-0.492408
5.1334,0.016776,-0.002433,-1.564660,1.566194,0.0000,0.0000,0.0000,-0.005289,-1.566194,1.566194,0.6583,0.9596,0.1886,0.000000,0.513884,-0.497010,0.506214,-0.526155,0.501612,-0.492408
5.1502,0.016751,-0.002425,-1.564660,1.566194,0.0000,0.0000,0.0000,-0.005289,-1.566194,1.566194,0.6583,0.9596,0.1886,0.000000,0.513884,-0.497010,0.506214,-0.526155,0.501612,-0.492408
5.1670,0.016767,-0.002417,-1.564660,1.566194,0.0000,0.0000,0.0000,-0.005289,-1.567728,1.566194,0.6583,0.9596,0.1886,0.000000,0.513884,-0.497010,0.506214,-0.526155,0.501612,-0.492408
5.1837,0.016752,-0.002408,-1.564660,1.566194,0.0000,0.0000,0.0000,-0.005289,-1.567728,1.566194,0.6583,0.9596,0.1886,0.000000,0.513884,-0.497010,0.506214,-0.526155,0.501612,-0.492408
5.2005,0.016770,-0.002400,-1.564660,1.566194,0.0000,0.0000,0.0000,-0.005265,-1.566194,1.566194,0.7585,0.9267,0.2934,0.000000,0.516952,-0.497010,0.506214,-0.526155,0.501612,-0.492408
5.2172,0.016756,-0.002391,-1.564660,1.566194,0.0000,0.0000,0.0000,-0.005256,-1.566194,1.566194,0.7588,0.9818,0.2305,0.000000,0.516952,-0.497010,0.506214,-0.527689,0.501612,-0.492408
5.2340,0.016780,-0.002383,-1.564660,1.566194,0.0000,0.0000,0.0000,-0.005256,-1.566194,1.566194,0.7588,0.9818,0.2305,0.000000,0.516952,-0.497010,0.506214,-0.527689,0.501612,-0.492408
5.2508,0.016756,-0.002375,-1.564660,1.566194,0.0000,0.0000,0.0000,-0.005257,-1.566194,1.566194,0.7587,0.9760,0.2371,0.000000,0.516952,-0.497010,0.506214,-0.527689,0.501612,-0.492408
5.2675,0.016765,-0.002366,-1.564660,1.566194,0.0000,0.0000,0.0000,-0.005257,-1.566194,1.566194,0.7587,0.9760,0.2371,0.000000,0.516952,-0.497010,0.506214,-0.527689,0.501612,-0.492408
5.2843,0.016759,-0.002358,-1.564660,1.566194,0.0000,0.0000,0.0000,-0.005222,-1.566194,1.566194,0.8697,0.9959,0.2894,0.000000,0.520019,-0.497010,0.506214,-0.529223,0.501612,-0.492408
5.3010,0.016755,-0.002349,-1.564660,1.566194,0.0000,0.0000,0.0000,-0.005226,-1.566194,1.566194,0.8581,0.9939,0.2839,0.000000,0.520019,-0.497010,0.506214,-0.529223,0.501612,-0.492408
5.3178,0.016755,-0.002341,-1.564660,1.566194,0.0000,0.0000,0.0000,-0.005225,-1.566194,1.566194,0.8597,0.9941,0.2847,0.000000,0.520019,-0.497010,0.506214,-0.529223,0.501612,-0.492408
5.3347,0.016919,-0.002333,-1.564660,1.566194,0.0000,0.0000,0.0000,-0.005225,-1.566194,1.566194,0.8597,0.9941,0.2847,0.000000,0.520019,-0.497010,0.506214,-0.529223,0.501612,-0.492408
5.3515,0.016753,-0.002324,-1.564660,1.566194,0.0000,0.0000,0.0000,-0.005199,-1.566194,1.566194,0.8589,0.9244,0.2840,0.000000,0.520019,-0.498544,0.506214,-0.529223,0.503146,-0.492408
5.3682,0.016760,-0.002316,-1.564660,1.566194,0.0000,0.0000,0.0000,-0.005202,-1.566194,1.566194,0.7784,0.9333,0.3868,0.000000,0.520019,-0.497010,0.506214,-0.529223,0.504680,-0.492408
5.3850,0.016752,-0.002308,-1.564660,1.566194,0.0000,0.0000,0.0000,-0.005189,-1.566194,1.566194,0.7464,0.8984,0.4274,0.000000,0.520019,-0.497010,0.506214,-0.529223,0.506214,-0.492408
5.4017,0.016756,-0.002299,-1.564660,1.566194,0.0000,0.0000,0.0000,-0.005152,-1.566194,1.566194,0.7095,0.7984,0.4743,0.000000,0.520019,-0.498544,0.506214,-0.529223,0.509282,-0.492408
5.4186,0.016835,-0.002291,-1.564660,1.566194,0.0000,0.0000,0.0000,-0.005144,-1.566194,1.566194,0.6732,0.7748,0.5209,0.000000,0.520019,-0.498544,0.506214,-0.529223,0.510816,-0.492408
5.4353,0.016765,-0.002282,-1.564660,1.566194,0.0000,0.0000,0.0000,-0.005144,-1.566194,1.566194,0.6732,0.7748,0.5209,0.000000,0.520019,-0.498544,0.506214,-0.529223,0.510816,-0.492408
