t,loop_dt,cmd_z,cmd_ant_l,cmd_ant_r,cmd_roll,cmd_pitch,cmd_yaw,pres_z,pres_ant_l,pres_ant_r,pres_roll,pres_pitch,pres_yaw,pres_j0,pres_j1,pres_j2,pres_j3,pres_j4,pres_j5,pres_j6
0.0000,0.000001,-0.005000,-1.567728,1.566194,0.0000,0.0000,0.0000,-0.000335,-1.569262,1.566194,0.0657,0.6625,0.9363,0.000000,0.622796,-0.604388,0.621262,-0.630466,0.625864,-0.605922
0.0168,0.016805,-0.004983,-1.567728,1.566194,0.0000,0.0000,0.0000,-0.000335,-1.569262,1.566194,0.0657,0.6625,0.9363,0.000000,0.622796,-0.604388,0.621262,-0.630466,0.625864,-0.605922
0.0336,0.016747,-0.004966,-1.567728,1.566194,0.0000,0.0000,0.0000,-0.000347,-1.569262,1.566194,0.0550,0.6112,0.9918,0.000000,0.622796,-0.604388,0.621262,-0.628932,0.625864,-0.605922
0.0503,0.016763,-0.004950,-1.567728,1.566194,0.0000,0.0000,0.0000,-0.000358,-1.569262,1.566194,0.0071,0.6317,0.9311,0.000000,0.621262,-0.604388,0.621262,-0.628932,0.625864,-0.605922
0.0674,0.017060,-0.004933,-1.567728,1.566194,0.0000,0.0000,0.0000,-0.000515,-1.569262,1.566194,0.0012,0.5796,0.9907,0.000000,0.618194,-0.601320,0.618194,-0.624330,0.622796,-0.602854
0.0841,0.016754,-0.004916,-1.567728,1.566194,0.0000,0.0000,0.0000,-0.001590,-1.569262,1.566194,-0.0001,0.4871,0.8123,0.000000,0.595185,-0.579845,0.593651,-0.601320,0.599786,-0.581379
0.1009,0.016759,-0.004899,-1.567728,1.566194,0.0000,0.0000,0.0000,-0.002951,-1.569262,1.566194,-0.0333,0.5131,0.6588,0.000000,0.561437,-0.552233,0.564505,-0.570641,0.569107,-0.550699
0.1177,0.016761,-0.004882,-1.567728,1.566194,0.0000,0.0000,0.0000,-0.002951,-1.569262,1.566194,-0.0333,0.5131,0.6588,0.000000,0.561437,-0.552233,0.564505,-0.570641,0.569107,-0.550699
0.1345,0.016891,-0.004865,-1.567728,1.566194,0.0000,0.0000,0.0000,-0.004261,-1.569262,1.566194,-0.0036,0.4977,0.6643,0.000000,0.532291,-0.523087,0.535359,-0.539961,0.538427,-0.521553
0.1513,0.016753,-0.004849,-1.567728,1.566194,0.0000,0.0000,0.0000,-0.005246,-1.569262,1.566194,0.0223,0.4481,0.5008,0.000000,0.507748,-0.503146,0.512350,-0.516952,0.515418,-0.498544
0.1681,0.016762,-0.004832,-1.567728,1.566194,0.0000,0.0000,0.0000,-0.005762,-1.569262,1.566194,-0.0720,0.3313,0.3599,0.000000,0.493942,-0.492408,0.500078,-0.501612,0.501612,-0.489340
0.1848,0.016758,-0.004815,-1.567728,1.566194,0.0000,0.0000,0.0000,-0.005810,-1.569262,1.566194,-0.0428,0.3079,0.2713,0.000000,0.490874,-0.492408,0.498544,-0.498544,0.498544,-0.487806
0.2016,0.016773,-0.004798,-1.567728,1.566194,0.0000,0.0000,0.0000,-0.005810,-1.569262,1.566194,-0.0428,0.3079,0.2713,0.000000,0.490874,-0.492408,0.498544,-0.498544,0.498544,-0.487806
0.2183,0.016751,-0.004782,-1.567728,1.566194,0.0000,0.0000,0.0000,-0.005805,-1.569262,1.566194,-0.0459,0.3103,0.2805,0.000000,0.490874,-0.492408,0.498544,-0.498544,0.498544,-0.487806
0.2351,0.016759,-0.004765,-1.567728,1.566194,0.0000,0.0000,0.0000,-0.005806,-1.569262,1.566194,-0.0455,0.3100,0.2792,0.000000,0.490874,-0.492408,0.498544,-0.498544,0.498544,-0.487806
0.2519,0.016753,-0.004748,-1.567728,1.566194,0.0000,0.0000,0.0000,-0.005806,-1.569262,1.566194,-0.0455,0.3100,0.2792,0.000000,0.490874,-0.492408,0.498544,-0.498544,0.498544,-0.487806
0.2686,0.016757,-0.004731,-1.567728,1.566194,0.0000,0.0000,0.0000,-0.005793,-1.569262,1.566194,-0.0854,0.2752,0.3313,0.000000,0.490874,-0.492408,0.498544,-0.498544,0.500078,-0.487806
0.2854,0.016757,-0.004715,-1.567728,1.566194,0.0000,0.0000,0.0000,-0.005807,-1.569262,1.566194,-0.0415,0.3137,0.2742,0.000000,0.490874,-0.492408,0.498544,-0.498544,0.498544,-0.487806
0.3021,0.016766,-0.004698,-1.567728,1.566194,0.0000,0.0000,0.0000,-0.005805,-1.569262,1.566194,-0.0460,0.3097,0.2802,0.000000,0.490874,-0.492408,0.498544,-0.498544,0.498544,-0.487806
0.3189,0.016764,-0.004681,-1.567728,1.566194,0.0000,0.0000,0.0000,-0.005805,-1.569262,1.566194,-0.0460,0.3097,0.2802,0.000000,0.490874,-0.492408,0.498544,-0.498544,0.498544,-0.487806
0.3357,0.016761,-0.004664,-1.567728,1.566194,0.0000,0.0000,0.0000,-0.005805,-1.569262,1.566194,-0.0460,0.3097,0.2802,0.000000,0.490874,-0.492408,0.498544,-0.498544,0.498544,-0.487806
0.3524,0.016752,-0.004648,-1.567728,1.566194,0.0000,0.0000,0.0000,-0.005805,-1.569262,1.566194,-0.0460,0.3097,0.2802,0.000000,0.490874,-0.492408,0.498544,-0.498544,0.498544,-0.487806
0.3692,0.016800,-0.004631,-1.567728,1.566194,0.0000,0.0000,0.0000,-0.005805,-1.569262,1.566194,-0.0460,0.3097,0.2802,0.000000,0.490874,-0.492408,0.498544,-0.498544,0.498544,-0.487806
0.3860,0.016755,-0.004614,-1.567728,1.566194,0.0000,0.0000,0.0000,-0.005805,-1.569262,1.566194,-0.0460,0.3097,0.2802,0.000000,0.490874,-0.492408,0.498544,-0.498544,0.498544,-0.487806
0.4031,0.017181,-0.004597,-1.567728,1.566194,0.0000,0.0000,0.0000,-0.005805,-1.569262,1.566194,-0.0460,0.3097,0.2802,0.000000,0.490874,-0.492408,0.498544,-0.498544,0.498544,-0.487806
0.4199,0.016753,-0.004580,-1.567728,1.566194,0.0000,0.0000,0.0000,-0.005805,-1.569262,1.566194,-0.0460,0.3097,0.2802,0.000000,0.490874,-0.492408,0.498544,-0.498544,0.498544,-0.487806
0.4367,0.016762,-0.004563,-1.567728,1.566194,0.0000,0.0000,0.0000,-0.005805,-1.569262,1.566194,-0.0460,0.3097,0.2802,0.000000,0.490874,-0.492408,0.498544,-0.498544,0.498544,-0.487806
0.4534,0.016757,-0.004547,-1.567728,1.566194,0.0000,0.0000,0.0000,-0.005805,-1.569262,1.566194,-0.0460,0.3097,0.2802,0.000000,0.490874,-0.492408,0.498544,-0.498544,0.498544,-0.487806
0.4702,0.016769,-0.004530,-1.567728,1.566194,0.0000,0.0000,0.0000,-0.005805,-1.569262,1.566194,-0.0460,0.3097,0.2802,0.000000,0.490874,-0.492408,0.498544,-0.498544,0.498544,-0.487806
0.4870,0.016794,-0.004513,-1.567728,1.566194,0.0000,0.0000,0.0000,-0.005805,-1.569262,1.566194,-0.0460,0.3097,0.2802,0.000000,0.490874,-0.492408,0.498544,-0.498544,0.498544,-0.487806
0.5038,0.016771,-0.004496,-1.567728,1.566194,0.0000,0.0000,0.0000,-0.005805,-1.569262,1.566194,-0.0460,0.3097,0.2802,0.000000,0.490874,-0.492408,0.498544,-0.498544,0.498544,-0.487806
0.5205,0.016762,-0.004479,-1.567728,1.566194,0.0000,0.0000,0.0000,-0.005805,-1.569262,1.566194,-0.0460,0.3097,0.2802,0.000000,0.490874,-0.492408,0.498544,-0.498544,0.498544,-0.487806
0.5375,0.017013,-0.004462,-1.567728,1.566194,0.0000,0.0000,0.0000,-0.005805,-1.569262,1.566194,-0.0460,0.3097,0.2802,0.000000,0.490874,-0.492408,0.498544,-0.498544,0.498544,-0.487806
0.5543,0.016772,-0.004446,-1.567728,1.566194,0.0000,0.0000,0.0000,-0.005805,-1.569262,1.566194,-0.0460,0.3097,0.2802,0.000000,0.490874,-0.492408,0.498544,-0.498544,0.498544,-0.487806
0.5711,0.016762,-0.004429,-1.567728,1.566194,0.0000,0.0000,0.0000,-0.005805,-1.569262,1.566194,-0.0460,0.3097,0.2802,0.000000,0.490874,-0.492408,0.498544,-0.498544,0.498544,-0.487806
0.5878,0.016767,-0.004412,-1.567728,1.566194,0.0000,0.0000,0.0000,-0.005805,-1.569262,1.566194,-0.0460,0.3097,0.2802,0.000000,0.490874,-0.492408,0.498544,-0.498544,0.498544,-0.487806
0.6046,0.016761,-0.004395,-1.567728,1.566194,0.0000,0.0000,0.0000,-0.005805,-1.569262,1.566194,-0.0460,0.3097,0.2802,0.000000,0.490874,-0.492408,0.498544,-0.498544,0.498544,-0.487806
0.6213,0.016761,-0.004379,-1.567728,1.566194,0.0000,0.0000,0.0000,-0.005805,-1.569262,1.566194,-0.0460,0.3097,0.2802,0.000000,0.490874,-0.492408,0.498544,-0.498544,0.498544,-0.487806
0.6381,0.016770,-0.004362,-1.567728,1.566194,0.0000,0.0000,0.0000,-0.005805,-1.569262,1.566194,-0.0460,0.3097,0.2802,0.000000,0.490874,-0.492408,0.498544,-0.498544,0.498544,-0.487806
0.6549,0.016766,-0.004345,-1.567728,1.566194,0.0000,0.0000,0.0000,-0.005805,-1.569262,1.566194,-0.0460,0.3097,0.2802,0.000000,0.490874,-0.492408,0.498544,-0.498544,0.498544,-0.487806
0.6720,0.017118,-0.004328,-1.567728,1.566194,0.0000,0.0000,0.0000,-0.005805,-1.569262,1.566194,-0.0460,0.3097,0.2802,0.000000,0.490874,-0.492408,0.498544,-0.498544,0.498544,-0.487806
0.6889,0.016851,-0.004311,-1.567728,1.566194,0.0000,0.0000,0.0000,-0.005805,-1.569262,1.566194,-0.0460,0.3097,0.2802,0.000000,0.490874,-0.492408,0.498544,-0.498544,0.498544,-0.487806
0.7056,0.016758,-0.004294,-1.567728,1.566194,0.0000,0.0000,0.0000,-0.005805,-1.569262,1.566194,-0.0460,0.3097,0.2802,0.000000,0.490874,-0.492408,0.498544,-0.498544,0.498544,-0.487806
0.7224,0.016760,-0.004278,-1.567728,1.566194,0.0000,0.0000,0.0000,-0.005805,-1.569262,1.566194,-0.0460,0.3097,0.2802,0.000000,0.490874,-0.492408,0.498544,-0.498544,0.498544,-0.487806
0.7391,0.016754,-0.004261,-1.567728,1.566194,0.0000,0.0000,0.0000,-0.005805,-1.570796,1.566194,-0.0460,0.3097,0.2802,0.000000,0.490874,-0.492408,0.498544,-0.498544,0.498544,-0.487806
0.7559,0.016759,-0.004244,-1.567728,1.566194,0.0000,0.0000,0.0000,-0.005805,-1.569262,1.566194,-0.0460,0.3097,0.2802,0.000000,0.490874,-0.492408,0.498544,-0.498544,0.498544,-0.487806
0.7727,0.016775,-0.004227,-1.567728,1.566194,0.0000,0.0000,0.0000,-0.005805,-1.569262,1.566194,-0.0460,0.3097,0.2802,0.000000,0.490874,-0.492408,0.498544,-0.498544,0.498544,-0.487806
0.7894,0.016758,-0.004211,-1.567728,1.566194,0.0000,0.0000,0.0000,-0.005805,-1.569262,1.566194,-0.0460,0.3097,0.2802,0.000000,0.490874,-0.492408,0.498544,-0.498544,0.498544,-0.487806
0.8062,0.016754,-0.004194,-1.567728,1.566194,0.0000,0.0000,0.0000,-0.005805,-1.569262,1.566194,-0.0460,0.3097,0.2802,0.000000,0.490874,-0.492408,0.498544,-0.498544,0.498544,-0.487806
0.8229,0.016770,-0.004177,-1.567728,1.566194,0.0000,0.0000,0.0000,-0.005805,-1.569262,1.566194,-0.0460,0.3097,0.2802,0.000000,0.490874,-0.492408,0.498544,-0.498544,0.498544,-0.487806
0.8397,0.016751,-0.004160,-1.567728,1.566194,0.0000,0.0000,0.0000,-0.005805,-1.569262,1.566194,-0.0460,0.3097,0.2802,0.000000,0.490874,-0.492408,0.498544,-0.498544,0.498544,-0.487806
0.8564,0.016753,-0.004144,-1.567728,1.566194,0.0000,0.0000,0.0000,-0.005805,-1.569262,1.566194,-0.0460,0.3097,0.2802,0.000000,0.490874,-0.492408,0.498544,-0.498544,0.498544,-0.487806
0.8737,0.017208,-0.004126,-1.567728,1.566194,0.0000,0.0000,0.0000,-0.005805,-1.570796,1.566194,-0.0460,0.3097,0.2802,0.000000,0.490874,-0.492408,0.498544,-0.498544,0.498544,-0.487806
0.8904,0.016759,-0.004110,-1.567728,1.566194,0.0000,0.0000,0.0000,-0.005805,-1.570796,1.566194,-0.0460,0.3097,0.2802,0.000000,0.490874,-0.492408,0.498544,-0.498544,0.498544,-0.487806
0.9072,0.016749,-0.004093,-1.567728,1.566194,0.0000,0.0000,0.0000,-0.005805,-1.569262,1.566194,-0.0460,0.3097,0.2802,0.000000,0.490874,-0.492408,0.498544,-0.498544,0.498544,-0.487806
0.9239,0.016784,-0.004076,-1.567728,1.566194,0.0000,0.0000,0.0000,-0.005805,-1.569262,1.566194,-0.0460,0.3097,0.2802,0.000000,0.490874,-0.492408,0.498544,-0.498544,0.498544,-0.487806
0.9407,0.016778,-0.004059,-1.567728,1.566194,0.0000,0.0000,0.0000,-0.005805,-1.569262,1.566194,-0.0460,0.3097,0.2802,0.000000,0.490874,-0.492408,0.498544,-0.498544,0.498544,-0.487806
0.9575,0.016758,-0.004043,-1.567728,1.566194,0.0000,0.0000,0.0000,-0.005793,-1.569262,1.566194,-0.0355,0.3623,0.2279,0.000000,0.490874,-0.492408,0.498544,-0.500078,0.498544,-0.487806
0.9747,0.017195,-0.004025,-1.567728,1.566194,0.0000,0.0000,0.0000,-0.005793,-1.569262,1.566194,-0.0355,0.3623,0.2279,0.000000,0.490874,-0.492408,0.498544,-0.498544,0.500078,-0.487806
0.9914,0.016767,-0.004009,-1.567728,1.566194,0.0000,0.0000,0.0000,-0.005794,-1.569262,1.566194,-0.0865,0.2698,0.3366,0.000000,0.490874,-0.492408,0.498544,-0.498544,0.500078,-0.487806
1.0082,0.016753,-0.003992,-1.567728,1.566194,0.0000,0.0000,0.0000,-0.005807,-1.569262,1.566194,-0.0414,0.3143,0.2737,0.000000,0.490874,-0.492408,0.498544,-0.498544,0.498544,-0.487806
1.0250,0.016784,-0.003975,-1.567728,1.566194,0.0000,0.0000,0.0000,-0.005793,-1.569262,1.566194,-0.0859,0.2748,0.3318,0.000000,0.490874,-0.492408,0.498544,-0.498544,0.500078,-0.487806
1.0417,0.016755,-0.003958,-1.567728,1.566194,0.0000,0.0000,0.0000,-0.005794,-1.569262,1.566194,-0.0812,0.2789,0.3258,0.000000,0.490874,-0.492408,0.498544,-0.498544,0.500078,-0.487806
1.0585,0.016764,-0.003942,-1.567728,1.566194,0.0000,0.0000,0.0000,-0.005782,-1.569262,1.566194,-0.0717,0.3307,0.2747,0.000000,0.490874,-0.492408,0.498544,-0.500078,0.500078,-0.487806
1.0753,0.016794,-0.003925,-1.567728,1.566194,0.0000,0.0000,0.0000,-0.005783,-1.569262,1.566194,-0.0727,0.3253,0.2800,0.000000,0.490874,-0.492408,0.498544,-0.500078,0.500078,-0.487806
1.0920,0.016757,-0.003908,-1.567728,1.566194,0.0000,0.0000,0.0000,-0.005783,-1.569262,1.566194,-0.0727,0.3253,0.2800,0.000000,0.490874,-0.492408,0.498544,-0.500078,0.500078,-0.487806
1.1088,0.016752,-0.003891,-1.567728,1.566194,0.0000,0.0000,0.0000,-0.005783,-1.569262,1.566194,-0.0727,0.3253,0.2800,0.000000,0.490874,-0.492408,0.498544,-0.500078,0.500078,-0.487806
1.1256,0.016757,-0.003874,-1.567728,1.566194,0.0000,0.0000,0.0000,-0.005783,-1.570796,1.566194,-0.0727,0.3253,0.2800,0.000000,0.490874,-0.492408,0.498544,-0.500078,0.500078,-0.487806
1.1423,0.016759,-0.003858,-1.567728,1.566194,0.0000,0.0000,0.0000,-0.005783,-1.569262,1.566194,-0.0727,0.3253,0.2800,0.000000,0.490874,-0.492408,0.498544,-0.500078,0.500078,-0.487806
1.1591,0.016773,-0.003841,-1.567728,1.566194,0.0000,0.0000,0.0000,-0.005783,-1.570796,1.566194,-0.0727,0.3253,0.2800,0.000000,0.490874,-0.492408,0.498544,-0.500078,0.500078,-0.487806
1.1759,0.016764,-0.003824,-1.567728,1.566194,0.0000,0.0000,0.0000,-0.005783,-1.570796,1.566194,-0.0727,0.3253,0.2800,0.000000,0.490874,-0.492408,0.498544,-0.500078,0.500078,-0.487806
1.1926,0.016753,-0.003807,-1.567728,1.566194,0.0000,0.0000,0.0000,-0.005783,-1.570796,1.566194,-0.0727,0.3253,0.2800,0.000000,0.490874,-0.492408,0.498544,-0.500078,0.500078,-0.487806
1.2094,0.016750,-0.003791,-1.567728,1.566194,0.0000,0.0000,0.0000,-0.005783,-1.569262,1.566194,-0.0727,0.3253,0.2800,0.000000,0.490874,-0.492408,0.498544,-0.500078,0.500078,-0.487806
1.2264,0.016994,-0.003774,-1.567728,1.566194,0.0000,0.0000,0.0000,-0.005783,-1.569262,1.566194,-0.0727,0.3253,0.2800,0.000000,0.490874,-0.492408,0.498544,-0.500078,0.500078,-0.487806
1.2431,0.016757,-0.003757,-1.567728,1.566194,0.0000,0.0000,0.0000,-0.005783,-1.569262,1.566194,-0.0727,0.3253,0.2800,0.000000,0.490874,-0.492408,0.498544,-0.500078,0.500078,-0.487806
1.2599,0.016753,-0.003740,-1.567728,1.566194,0.0000,0.0000,0.0000,-0.005783,-1.569262,1.566194,-0.0727,0.3253,0.2800,0.000000,0.490874,-0.492408,0.498544,-0.500078,0.500078,-0.487806
1.2766,0.016756,-0.003723,-1.567728,1.566194,0.0000,0.0000,0.0000,-0.005783,-1.569262,1.566194,-0.0727,0.3253,0.2800,0.000000,0.490874,-0.492408,0.498544,-0.500078,0.500078,-0.487806
1.2934,0.016752,-0.003707,-1.567728,1.566194,0.0000,0.0000,0.0000,-0.005783,-1.569262,1.566194,-0.0727,0.3253,0.2800,0.000000,0.490874,-0.492408,0.498544,-0.500078,0.500078,-0.487806
1.3101,0.016746,-0.003690,-1.567728,1.566194,0.0000,0.0000,0.0000,-0.005783,-1.569262,1.566194,-0.0727,0.3253,0.2800,0.000000,0.490874,-0.492408,0.498544,-0.500078,0.500078,-0.487806
1.3269,0.016757,-0.003673,-1.567728,1.566194,0.0000,0.0000,0.0000,-0.005783,-1.569262,1.566194,-0.0727,0.3253,0.2800,0.000000,0.490874,-0.492408,0.498544,-0.500078,0.500078,-0.487806
1.3436,0.016755,-0.003656,-1.567728,1.566194,0.0000,0.0000,0.0000,-0.005783,-1.569262,1.566194,-0.0727,0.3253,0.2800,0.000000,0.490874,-0.492408,0.498544,-0.500078,0.500078,-0.487806
1.3604,0.016759,-0.003640,-1.567728,1.566194,0.0000,0.0000,0.0000,-0.005783,-1.569262,1.566194,-0.0727,0.3253,0.2800,0.000000,0.490874,-0.492408,0.498544,-0.500078,0.500078,-0.487806
1.3771,0.016758,-0.003623,-1.567728,1.566194,0.0000,0.0000,0.0000,-0.005783,-1.570796,1.566194,-0.0727,0.3253,0.2800,0.000000,0.490874,-0.492408,0.498544,-0.500078,0.500078,-0.487806
1.3939,0.016779,-0.003606,-1.567728,1.566194,0.0000,0.0000,0.0000,-0.005783,-1.570796,1.566194,-0.0727,0.3253,0.2800,0.000000,0.490874,-0.492408,0.498544,-0.500078,0.500078,-0.487806
1.4107,0.016759,-0.003589,-1.567728,1.566194,0.0000,0.0000,0.0000,-0.005783,-1.569262,1.566194,-0.0727,0.3253,0.2800,0.000000,0.490874,-0.492408,0.498544,-0.500078,0.500078,-0.487806
1.4275,0.016768,-0.003573,-1.567728,1.566194,0.0000,0.0000,0.0000,-0.005783,-1.569262,1.566194,-0.0727,0.3253,0.2800,0.000000,0.490874,-0.492408,0.498544,-0.500078,0.500078,-0.487806
1.4442,0.016760,-0.003556,-1.567728,1.566194,0.0000,0.0000,0.0000,-0.005783,-1.569262,1.566194,-0.0727,0.3253,0.2800,0.000000,0.490874,-0.492408,0.498544,-0.500078,0.500078,-0.487806
1.4616,0.017361,-0.003538,-1.567728,1.566194,0.0000,0.0000,0.0000,-0.005783,-1.569262,1.566194,-0.0727,0.3253,0.2800,0.000000,0.490874,-0.492408,0.498544,-0.500078,0.500078,-0.487806
1.4783,0.016759,-0.003522,-1.567728,1.566194,0.0000,0.0000,0.0000,-0.005783,-1.569262,1.566194,-0.0727,0.3253,0.2800,0.000000,0.490874,-0.492408,0.498544,-0.500078,0.500078,-0.487806
1.4951,0.016754,-0.003505,-1.567728,1.566194,0.0000,0.0000,0.0000,-0.005783,-1.570796,1.566194,-0.0727,0.3253,0.2800,0.000000,0.490874,-0.492408,0.498544,-0.500078,0.500078,-0.487806
1.5121,0.016974,-0.003488,-1.567728,1.566194,0.0000,0.0000,0.0000,-0.005770,-1.569262,1.566194,-0.0223,0.3089,0.3311,0.000000,0.492408,-0.492408,0.498544,-0.500078,0.500078,-0.487806
1.5288,0.016762,-0.003471,-1.567728,1.566194,0.0000,0.0000,0.0000,-0.005772,-1.570796,1.566194,-0.1176,0.2927,0.3258,0.000000,0.490874,-0.492408,0.498544,-0.500078,0.501612,-0.487806
1.5456,0.016758,-0.003454,-1.567728,1.566194,0.0000,0.0000,0.0000,-0.005771,-1.569262,1.566194,-0.0176,0.3123,0.3264,0.000000,0.492408,-0.492408,0.498544,-0.500078,0.500078,-0.487806
1.5627,0.017154,-0.003437,-1.567728,1.566194,0.0000,0.0000,0.0000,-0.005759,-1.570796,1.566194,-0.0678,0.2755,0.3779,0.000000,0.492408,-0.492408,0.498544,-0.500078,0.501612,-0.487806
1.5795,0.016769,-0.003420,-1.567728,1.566194,0.0000,0.0000,0.0000,-0.005759,-1.570796,1.566194,-0.0678,0.2755,0.3779,0.000000,0.492408,-0.492408,0.498544,-0.500078,0.501612,-0.487806
1.5963,0.016761,-0.003404,-1.567728,1.566194,0.0000,0.0000,0.0000,-0.005773,-1.570796,1.566194,-0.1128,0.2962,0.3209,0.000000,0.490874,-0.492408,0.498544,-0.500078,0.501612,-0.487806
1.6130,0.016763,-0.003387,-1.567728,1.566194,0.0000,0.0000,0.0000,-0.005771,-1.569262,1.566194,-0.1082,0.2941,0.3269,0.000000,0.490874,-0.492408,0.498544,-0.500078,0.501612,-0.487806
1.6298,0.016758,-0.003370,-1.567728,1.566194,0.0000,0.0000,0.0000,-0.005771,-1.570796,1.566194,-0.1082,0.2941,0.3269,0.000000,0.490874,-0.492408,0.498544,-0.500078,0.501612,-0.487806
1.6466,0.016768,-0.003353,-1.567728,1.566194,0.0000,0.0000,0.0000,-0.005771,-1.569262,1.566194,-0.1082,0.2941,0.3269,0.000000,0.490874,-0.492408,0.498544,-0.500078,0.501612,-0.487806
1.6638,0.017271,-0.003336,-1.567728,1.566194,0.0000,0.0000,0.0000,-0.005771,-1.569262,1.566194,-0.1082,0.2941,0.3269,0.000000,0.490874,-0.492408,0.498544,-0.500078,0.501612,-0.487806
1.6806,0.016766,-0.003319,-1.567728,1.566194,0.0000,0.0000,0.0000,-0.005771,-1.569262,1.566194,-0.1082,0.2941,0.3269,0.000000,0.490874,-0.492408,0.498544,-0.500078,0.501612,-0.487806
1.6973,0.016751,-0.003303,-1.567728,1.566194,0.0000,0.0000,0.0000,-0.005746,-1.570796,1.566194,-0.0484,0.3296,0.3261,0.000000,0.492408,-0.492408,0.498544,-0.501612,0.501612,-0.487806
1.7141,0.016759,-0.003286,-1.567728,1.566194,0.0000,0.0000,0.0000,-0.005723,-1.569262,1.566194,-0.0950,0.3605,0.2229,0.000000,0.492408,-0.492408,0.498544,-0.503146,0.501612,-0.489340
1.7309,0.016758,-0.003269,-1.567728,1.566194,0.0000,0.0000,0.0000,-0.005726,-1.570796,1.566194,-0.0297,0.4269,0.2334,0.000000,0.492408,-0.492408,0.498544,-0.504680,0.501612,-0.487806
1.7476,0.016755,-0.003252,-1.567728,1.566194,0.0000,0.0000,0.0000,-0.005701,-1.569262,1.566194,-0.0365,0.3856,0.2325,0.000000,0.493942,-0.492408,0.498544,-0.504680,0.501612,-0.489340
1.7646,0.016945,-0.003235,-1.567728,1.566194,0.0000,0.0000,0.0000,-0.005703,-1.570796,1.566194,-0.0358,0.3899,0.2326,0.000000,0.493942,-0.492408,0.498544,-0.504680,0.501612,-0.489340
1.7813,0.016774,-0.003219,-1.567728,1.566194,0.0000,0.0000,0.0000,-0.005703,-1.570796,1.566194,-0.0358,0.3899,0.2326,0.000000,0.493942,-0.492408,0.498544,-0.504680,0.501612,-0.489340
1.7981,0.016751,-0.003202,-1.567728,1.566194,0.0000,0.0000,0.0000,-0.005690,-1.569262,1.566194,0.0144,0.3726,0.2843,0.000000,0.495476,-0.492408,0.498544,-0.504680,0.501612,-0.489340
1.8148,0.016757,-0.003185,-1.567728,1.566194,0.0000,0.0000,0.0000,-0.005717,-1.570796,1.566194,-0.0512,0.3391,0.2790,0.000000,0.493942,-0.492408,0.498544,-0.503146,0.501612,-0.489340
1.8316,0.016756,-0.003168,-1.567728,1.566194,0.0000,0.0000,0.0000,-0.005689,-1.570796,1.566194,0.0160,0.3779,0.2795,0.000000,0.495476,-0.492408,0.498544,-0.504680,0.501612,-0.489340
1.8483,0.016754,-0.003152,-1.567728,1.566194,0.0000,0.0000,0.0000,-0.005704,-1.569262,1.566194,-0.0413,0.3907,0.2277,0.000000,0.493942,-0.492408,0.498544,-0.504680,0.501612,-0.489340
1.8653,0.016936,-0.003135,-1.567728,1.566194,0.0000,0.0000,0.0000,-0.005716,-1.569262,1.566194,0.0150,0.4069,0.2846,0.000000,0.493942,-0.492408,0.498544,-0.504680,0.501612,-0.487806
1.8820,0.016755,-0.003118,-1.567728,1.566194,0.0000,0.0000,0.0000,-0.005716,-1.569262,1.566194,0.0150,0.4069,0.2846,0.000000,0.493942,-0.492408,0.498544,-0.504680,0.501612,-0.487806
1.8988,0.016752,-0.003101,-1.567728,1.566194,0.0000,0.0000,0.0000,-0.005689,-1.569262,1.566194,0.0091,0.3708,0.2789,0.000000,0.495476,-0.492408,0.498544,-0.504680,0.501612,-0.489340
1.9155,0.016757,-0.003084,-1.567728,1.566194,0.0000,0.0000,0.0000,-0.005680,-1.569262,1.566194,0.0198,0.4266,0.2277,0.000000,0.495476,-0.492408,0.498544,-0.506214,0.501612,-0.489340
1.9323,0.016759,-0.003068,-1.567728,1.566194,0.0000,0.0000,0.0000,-0.005681,-1.569262,1.566194,-0.0214,0.4896,0.1294,0.000000,0.493942,-0.492408,0.498544,-0.507748,0.501612,-0.489340
1.9491,0.016750,-0.003051,-1.567728,1.566194,0.0000,0.0000,0.0000,-0.005680,-1.569262,1.566194,-0.0171,0.4831,0.1397,0.000000,0.493942,-0.492408,0.498544,-0.507748,0.501612,-0.489340
1.9658,0.016775,-0.003034,-1.567728,1.566194,0.0000,0.0000,0.0000,-0.005680,-1.569262,1.566194,-0.0171,0.4831,0.1397,0.000000,0.493942,-0.492408,0.498544,-0.507748,0.501612,-0.489340
1.9827,0.016870,-0.003017,-1.567728,1.566194,0.0000,0.0000,0.0000,-0.005680,-1.569262,1.566194,-0.0171,0.4831,0.1397,0.000000,0.493942,-0.492408,0.498544,-0.507748,0.501612,-0.489340
1.9995,0.016761,-0.003001,-1.567728,1.566194,0.0000,0.0000,0.0000,-0.005668,-1.569262,1.566194,0.0327,0.4669,0.1904,0.000000,0.495476,-0.492408,0.498544,-0.507748,0.501612,-0.489340
2.0162,0.016756,-0.002984,-1.567728,1.566194,0.0000,0.0000,0.0000,-0.005669,-1.569262,1.566194,0.0275,0.4686,0.1851,0.000000,0.495476,-0.492408,0.498544,-0.507748,0.501612,-0.489340
2.0330,0.016747,-0.002967,-1.567728,1.566194,0.0000,0.0000,0.0000,-0.005669,-1.569262,1.566194,0.0275,0.4686,0.1851,0.000000,0.495476,-0.492408,0.498544,-0.507748,0.501612,-0.489340
2.0499,0.016911,-0.002950,-1.567728,1.566194,0.0000,0.0000,0.0000,-0.005669,-1.569262,1.566194,0.0275,0.4686,0.1851,0.000000,0.495476,-0.492408,0.498544,-0.507748,0.501612,-0.489340
2.0666,0.016757,-0.002933,-1.567728,1.566194,0.0000,0.0000,0.0000,-0.005669,-1.569262,1.566194,0.0275,0.4686,0.1851,0.000000,0.495476,-0.492408,0.498544,-0.507748,0.501612,-0.489340
2.0834,0.016757,-0.002917,-1.567728,1.566194,0.0000,0.0000,0.0000,-0.005669,-1.569262,1.566194,0.0275,0.4686,0.1851,0.000000,0.495476,-0.492408,0.498544,-0.507748,0.501612,-0.489340
2.1001,0.016750,-0.002900,-1.567728,1.566194,0.0000,0.0000,0.0000,-0.005669,-1.569262,1.566194,0.0275,0.4686,0.1851,0.000000,0.495476,-0.492408,0.498544,-0.507748,0.501612,-0.489340
2.1169,0.016756,-0.002883,-1.567728,1.566194,0.0000,0.0000,0.0000,-0.005669,-1.570796,1.566194,0.0275,0.4686,0.1851,0.000000,0.495476,-0.492408,0.498544,-0.507748,0.501612,-0.489340
2.1337,0.016752,-0.002866,-1.567728,1.566194,0.0000,0.0000,0.0000,-0.005669,-1.569262,1.566194,0.0275,0.4686,0.1851,0.000000,0.495476,-0.492408,0.498544,-0.507748,0.501612,-0.489340
2.1504,0.016763,-0.002850,-1.567728,1.566194,0.0000,0.0000,0.0000,-0.005669,-1.569262,1.566194,0.0275,0.4686,0.1851,0.000000,0.495476,-0.492408,0.498544,-0.507748,0.501612,-0.489340
2.1672,0.016755,-0.002833,-1.567728,1.566194,0.0000,0.0000,0.0000,-0.005669,-1.569262,1.566194,0.0275,0.4686,0.1851,0.000000,0.495476,-0.492408,0.498544,-0.507748,0.501612,-0.489340
2.1839,0.016754,-0.002816,-1.567728,1.566194,0.0000,0.0000,0.0000,-0.005669,-1.569262,1.566194,0.0275,0.4686,0.1851,0.000000,0.495476,-0.492408,0.498544,-0.507748,0.501612,-0.489340
2.2007,0.016756,-0.002799,-1.567728,1.566194,0.0000,0.0000,0.0000,-0.005669,-1.570796,1.566194,0.0275,0.4686,0.1851,0.000000,0.495476,-0.492408,0.498544,-0.507748,0.501612,-0.489340
2.2174,0.016759,-0.002783,-1.567728,1.566194,0.0000,0.0000,0.0000,-0.005669,-1.569262,1.566194,0.0275,0.4686,0.1851,0.000000,0.495476,-0.492408,0.498544,-0.507748,0.501612,-0.489340
2.2342,0.016757,-0.002766,-1.567728,1.566194,0.0000,0.0000,0.0000,-0.005669,-1.569262,1.566194,0.0275,0.4686,0.1851,0.000000,0.495476,-0.492408,0.498544,-0.507748,0.501612,-0.489340
2.2513,0.017111,-0.002749,-1.567728,1.566194,0.0000,0.0000,0.0000,-0.005669,-1.569262,1.566194,0.0275,0.4686,0.1851,0.000000,0.495476,-0.492408,0.498544,-0.507748,0.501612,-0.489340
2.2681,0.016750,-0.002732,-1.567728,1.566194,0.0000,0.0000,0.0000,-0.005669,-1.570796,1.566194,0.0275,0.4686,0.1851,0.000000,0.495476,-0.492408,0.498544,-0.507748,0.501612,-0.489340
2.2848,0.016760,-0.002715,-1.567728,1.566194,0.0000,0.0000,0.0000,-0.005645,-1.570796,1.566194,0.0484,0.5723,0.0819,0.000000,0.495476,-0.492408,0.498544,-0.510816,0.501612,-0.489340
2.3016,0.016804,-0.002698,-1.567728,1.566194,0.0000,0.0000,0.0000,-0.005647,-1.570796,1.566194,0.0463,0.5615,0.0927,0.000000,0.495476,-0.492408,0.498544,-0.510816,0.501612,-0.489340
2.3184,0.016755,-0.002682,-1.567728,1.566194,0.0000,0.0000,0.0000,-0.005622,-1.569262,1.566194,0.0670,0.6663,-0.0123,0.000000,0.495476,-0.492408,0.498544,-0.513884,0.501612,-0.489340
2.3358,0.017460,-0.002664,-1.567728,1.566194,0.0000,0.0000,0.0000,-0.005625,-1.569262,1.566194,0.0247,0.7238,-0.1052,0.000000,0.493942,-0.492408,0.498544,-0.515418,0.501612,-0.489340
2.3526,0.016775,-0.002647,-1.567728,1.566194,0.0000,0.0000,0.0000,-0.005625,-1.569262,1.566194,0.0247,0.7238,-0.1052,0.000000,0.493942,-0.492408,0.498544,-0.515418,0.501612,-0.489340
2.3694,0.016758,-0.002631,-1.567728,1.566194,0.0000,0.0000,0.0000,-0.005588,-1.569262,1.566194,0.1002,0.8044,-0.1477,0.000000,0.495476,-0.492408,0.498544,-0.518486,0.501612,-0.489340
2.3861,0.016756,-0.002614,-1.567728,1.566194,0.0000,0.0000,0.0000,-0.005580,-1.569262,1.566194,0.1027,0.8475,-0.1953,0.000000,0.495476,-0.492408,0.498544,-0.520019,0.501612,-0.489340
2.4029,0.016761,-0.002597,-1.567728,1.566194,0.0000,0.0000,0.0000,-0.005557,-1.570796,1.566194,0.1633,0.8779,-0.1905,0.000000,0.497010,-0.492408,0.498544,-0.521553,0.501612,-0.489340
2.4196,0.016758,-0.002580,-1.567728,1.566194,0.0000,0.0000,0.0000,-0.005510,-1.570796,1.566194,0.2181,1.0136,-0.1915,0.000000,0.498544,-0.492408,0.500078,-0.524621,0.501612,-0.489340
2.4364,0.016771,-0.002564,-1.567728,1.566194,0.0000,0.0000,0.0000,-0.005517,-1.570796,1.566194,0.2331,0.9984,-0.2953,0.000000,0.498544,-0.492408,0.498544,-0.526155,0.501612,-0.489340
2.4532,0.016748,-0.002547,-1.567728,1.566194,0.0000,0.0000,0.0000,-0.005517,-1.570796,1.566194,0.2331,0.9984,-0.2953,0.000000,0.498544,-0.492408,0.498544,-0.526155,0.501612,-0.489340
2.4699,0.016770,-0.002530,-1.567728,1.566194,0.0000,0.0000,0.0000,-0.005504,-1.569262,1.566194,0.2820,0.9833,-0.2324,0.000000,0.500078,-0.492408,0.498544,-0.526155,0.501612,-0.489340
2.4867,0.016764,-0.002513,-1.567728,1.566194,0.0000,0.0000,0.0000,-0.005493,-1.569262,1.566194,0.3274,0.9684,-0.1868,0.000000,0.501612,-0.492408,0.498544,-0.526155,0.501612,-0.489340
2.5035,0.016759,-0.002497,-1.567728,1.566194,0.0000,0.0000,0.0000,-0.005459,-1.570796,1.566194,0.4341,0.9885,-0.1394,0.000000,0.504680,-0.492408,0.498544,-0.527689,0.501612,-0.489340
2.5202,0.016754,-0.002480,-1.567728,1.566194,0.0000,0.0000,0.0000,-0.005450,-1.569262,1.566194,0.4733,0.9701,-0.0922,0.000000,0.506214,-0.492408,0.498544,-0.527689,0.501612,-0.489340
2.5370,0.016764,-0.002463,-1.567728,1.566194,0.0000,0.0000,0.0000,-0.005428,-1.570796,1.566194,0.5699,0.9395,0.0074,0.000000,0.509282,-0.492408,0.498544,-0.527689,0.501612,-0.489340
2.5537,0.016759,-0.002446,-1.567728,1.566194,0.0000,0.0000,0.0000,-0.005428,-1.570796,1.566194,0.5699,0.9395,0.0074,0.000000,0.509282,-0.492408,0.498544,-0.527689,0.501612,-0.489340
2.5705,0.016750,-0.002430,-1.567728,1.566194,0.0000,0.0000,0.0000,-0.005395,-1.569262,1.566194,0.6711,0.9618,0.0495,0.000000,0.512350,-0.492408,0.498544,-0.529223,0.501612,-0.489340
2.5872,0.016758,-0.002413,-1.567728,1.566194,0.0000,0.0000,0.0000,-0.005385,-1.570796,1.566194,0.6500,1.0120,0.0970,0.000000,0.512350,-0.492408,0.500078,-0.529223,0.501612,-0.489340
2.6040,0.016757,-0.002396,-1.567728,1.566194,0.0000,0.0000,0.0000,-0.005386,-1.570796,1.566194,0.6916,0.9392,0.1964,0.000000,0.513884,-0.492408,0.500078,-0.527689,0.501612,-0.489340
2.6208,0.016757,-0.002379,-1.567728,1.566194,0.0000,0.0000,0.0000,-0.005361,-1.569262,1.566194,0.6875,1.0507,0.1860,0.000000,0.513884,-0.492408,0.501612,-0.529223,0.501612,-0.489340
2.6375,0.016762,-0.002362,-1.567728,1.566194,0.0000,0.0000,0.0000,-0.005337,-1.570796,1.566194,0.6667,1.1437,0.2911,0.000000,0.513884,-0.492408,0.504680,-0.529223,0.501612,-0.489340
2.6543,0.016782,-0.002346,-1.567728,1.566194,0.0000,0.0000,0.0000,-0.005337,-1.570796,1.566194,0.6667,1.1437,0.2911,0.000000,0.513884,-0.492408,0.504680,-0.529223,0.501612,-0.489340
2.6710,0.016750,-0.002329,-1.567728,1.566194,0.0000,0.0000,0.0000,-0.005301,-1.569262,1.566194,0.6976,1.2224,0.4367,0.000000,0.515418,-0.492408,0.507748,-0.529223,0.501612,-0.489340
2.6878,0.016753,-0.002312,-1.567728,1.566194,0.0000,0.0000,0.0000,-0.005293,-1.570796,1.566194,0.7443,1.1981,0.4740,0.000000,0.516952,-0.492408,0.507748,-0.529223,0.501612,-0.489340
2.7046,0.016753,-0.002295,-1.567728,1.566194,0.0000,0.0000,0.0000,-0.005256,-1.570796,1.566194,0.7679,1.2889,0.6270,0.000000,0.518486,-0.492408,0.510816,-0.529223,0.501612,-0.489340
2.7213,0.016756,-0.002279,-1.567728,1.566194,0.0000,0.0000,0.0000,-0.005223,-1.569262,1.566194,0.7936,1.3674,0.7682,0.000000,0.520019,-0.492408,0.513884,-0.529223,0.501612,-0.489340
2.7381,0.016772,-0.002262,-1.567728,1.566194,0.0000,0.0000,0.0000,-0.005215,-1.569262,1.566194,0.8407,1.3433,0.8062,0.000000,0.521553,-0.492408,0.513884,-0.529223,0.501612,-0.489340
2.7548,0.016759,-0.002245,-1.567728,1.566194,0.0000,0.0000,0.0000,-0.005215,-1.569262,1.566194,0.8407,1.3433,0.8062,0.000000,0.521553,-0.492408,0.513884,-0.529223,0.501612,-0.489340
2.7716,0.016750,-0.002228,-1.567728,1.566194,0.0000,0.0000,0.0000,-0.005189,-1.570796,1.566194,0.7355,1.3088,0.6979,0.000000,0.521553,-0.492408,0.513884,-0.529223,0.501612,-0.492408
2.7883,0.016758,-0.002212,-1.567728,1.566194,0.0000,0.0000,0.0000,-0.005127,-1.570796,1.566194,0.5547,1.2596,0.7593,0.000000,0.521553,-0.492408,0.515418,-0.529223,0.504680,-0.495476
2.8051,0.016757,-0.002195,-1.567728,1.566194,0.0000,0.0000,0.0000,-0.005085,-1.570796,1.566194,0.5828,1.1802,0.8573,0.000000,0.524621,-0.492408,0.515418,-0.529223,0.506214,-0.497010
2.8223,0.017198,-0.002178,-1.567728,1.566194,0.0000,0.0000,0.0000,-0.004988,-1.569262,1.566194,0.3600,1.2208,0.7408,0.000000,0.524621,-0.492408,0.516952,-0.532291,0.509282,-0.501612
2.8391,0.016769,-0.002161,-1.567728,1.566194,0.0000,0.0000,0.0000,-0.004988,-1.569262,1.566194,0.3600,1.2208,0.7408,0.000000,0.524621,-0.492408,0.516952,-0.532291,0.509282,-0.501612
2.8558,0.016755,-0.002144,-1.567728,1.566194,0.0000,0.0000,0.0000,-0.004921,-1.569262,1.566194,0.2935,1.1985,0.7523,0.000000,0.524621,-0.493942,0.518486,-0.533825,0.512350,-0.503146
2.8726,0.016756,-0.002127,-1.567728,1.566194,0.0000,0.0000,0.0000,-0.004928,-1.569262,1.566194,0.3004,1.2008,0.7511,0.000000,0.524621,-0.493942,0.518486,-0.533825,0.512350,-0.503146
2.8893,0.016756,-0.002111,-1.567728,1.566194,0.0000,0.0000,0.0000,-0.004803,-1.570796,1.566194,0.2411,1.0979,0.7509,0.000000,0.527689,-0.495476,0.518486,-0.536893,0.516952,-0.506214
2.9061,0.016753,-0.002094,-1.567728,1.566194,0.0000,0.0000,0.0000,-0.004739,-1.569262,1.566194,0.1576,1.0905,0.7504,0.000000,0.527689,-0.497010,0.520019,-0.538427,0.520019,-0.507748
2.9230,0.016893,-0.002077,-1.567728,1.566194,0.0000,0.0000,0.0000,-0.004695,-1.569262,1.566194,0.1276,1.0552,0.6460,0.000000,0.527689,-0.498544,0.520019,-0.539961,0.521553,-0.509282
2.9400,0.017052,-0.002060,-1.567728,1.566194,0.0000,0.0000,0.0000,-0.004695,-1.569262,1.566194,0.1276,1.0552,0.6460,0.000000,0.527689,-0.498544,0.520019,-0.539961,0.521553,-0.509282
2.9568,0.016743,-0.002043,-1.567728,1.566194,0.0000,0.0000,0.0000,-0.004675,-1.570796,1.566194,0.1015,1.0766,0.6562,0.000000,0.527689,-0.498544,0.520019,-0.541495,0.523087,-0.509282
2.9735,0.016744,-0.002026,-1.567728,1.566194,0.0000,0.0000,0.0000,-0.004677,-1.570796,1.566194,0.1042,1.0744,0.6551,0.000000,0.527689,-0.498544,0.520019,-0.541495,0.523087,-0.509282
2.9903,0.016761,-0.002010,-1.567728,1.566194,0.0000,0.0000,0.0000,-0.004638,-1.569262,1.566194,0.1053,1.0724,0.4988,0.000000,0.527689,-0.500078,0.520019,-0.543029,0.523087,-0.510816
3.0070,0.016753,-0.001993,-1.567728,1.566194,0.0000,0.0000,0.0000,-0.004631,-1.569262,1.566194,0.1550,1.1943,0.5671,0.000000,0.527689,-0.500078,0.521553,-0.544563,0.523087,-0.509282
3.0240,0.016937,-0.001976,-1.567728,1.566194,0.0000,0.0000,0.0000,-0.004607,-1.569262,1.566194,0.2011,1.1976,0.4560,0.000000,0.527689,-0.501612,0.521553,-0.546097,0.523087,-0.509282
3.0407,0.016765,-0.001959,-1.567728,1.566194,0.0000,0.0000,0.0000,-0.004607,-1.569262,1.566194,0.2011,1.1976,0.4560,0.000000,0.527689,-0.501612,0.521553,-0.546097,0.523087,-0.509282
3.0575,0.016743,-0.001943,-1.567728,1.566194,0.0000,0.0000,0.0000,-0.004596,-1.570796,1.566194,0.1464,1.1790,0.4151,0.000000,0.527689,-0.501612,0.521553,-0.546097,0.523087,-0.510816
3.0742,0.016751,-0.001926,-1.567728,1.566194,0.0000,0.0000,0.0000,-0.004572,-1.570796,1.566194,0.1131,1.2142,0.3142,0.000000,0.527689,-0.501612,0.521553,-0.547631,0.523087,-0.512350
3.0910,0.016749,-0.001909,-1.567728,1.566194,0.0000,0.0000,0.0000,-0.004562,-1.570796,1.566194,0.1569,1.1750,0.2733,0.000000,0.527689,-0.503146,0.521553,-0.547631,0.523087,-0.512350
3.1077,0.016757,-0.001892,-1.567728,1.566194,0.0000,0.0000,0.0000,-0.004536,-1.569262,1.566194,0.1428,1.1254,0.1736,0.000000,0.527689,-0.504680,0.521553,-0.547631,0.523087,-0.513884
3.1245,0.016747,-0.001876,-1.567728,1.566194,0.0000,0.0000,0.0000,-0.004539,-1.570796,1.566194,0.1442,1.1306,0.1840,0.000000,0.527689,-0.504680,0.521553,-0.547631,0.523087,-0.513884
3.1412,0.016745,-0.001859,-1.567728,1.566194,0.0000,0.0000,0.0000,-0.004539,-1.570796,1.566194,0.1442,1.1306,0.1840,0.000000,0.527689,-0.504680,0.521553,-0.547631,0.523087,-0.513884
3.1580,0.016743,-0.001842,-1.567728,1.566194,0.0000,0.0000,0.0000,-0.004539,-1.569262,1.566194,0.1442,1.1306,0.1840,0.000000,0.527689,-0.504680,0.521553,-0.547631,0.523087,-0.513884
3.1747,0.016756,-0.001825,-1.567728,1.566194,0.0000,0.0000,0.0000,-0.004525,-1.569262,1.566194,0.1842,1.0945,0.1314,0.000000,0.527689,-0.506214,0.521553,-0.547631,0.523087,-0.513884
3.1915,0.016747,-0.001809,-1.567728,1.566194,0.0000,0.0000,0.0000,-0.004540,-1.570796,1.566194,0.1399,1.1338,0.1884,0.000000,0.527689,-0.504680,0.521553,-0.547631,0.523087,-0.513884
3.2082,0.016757,-0.001792,-1.567728,1.566194,0.0000,0.0000,0.0000,-0.004539,-1.569262,1.566194,0.1445,1.1297,0.1825,0.000000,0.527689,-0.504680,0.521553,-0.547631,0.523087,-0.513884
3.2250,0.016742,-0.001775,-1.567728,1.566194,0.0000,0.0000,0.0000,-0.004552,-1.570796,1.566194,0.1548,1.0781,0.1309,0.000000,0.527689,-0.504680,0.520019,-0.547631,0.523087,-0.513884
3.2417,0.016747,-0.001758,-1.567728,1.566194,0.0000,0.0000,0.0000,-0.004552,-1.570796,1.566194,0.1548,1.0781,0.1309,0.000000,0.527689,-0.504680,0.520019,-0.547631,0.523087,-0.513884
3.2585,0.016742,-0.001742,-1.567728,1.566194,0.0000,0.0000,0.0000,-0.004537,-1.570796,1.566194,0.1430,1.1356,0.1885,0.000000,0.527689,-0.504680,0.521553,-0.547631,0.523087,-0.513884
3.2752,0.016751,-0.001725,-1.567728,1.566194,0.0000,0.0000,0.0000,-0.004539,-1.569262,1.566194,0.1442,1.1296,0.1825,0.000000,0.527689,-0.504680,0.521553,-0.547631,0.523087,-0.513884
3.2920,0.016741,-0.001708,-1.567728,1.566194,0.0000,0.0000,0.0000,-0.004539,-1.570796,1.566194,0.1442,1.1296,0.1825,0.000000,0.527689,-0.504680,0.521553,-0.547631,0.523087,-0.513884
3.3087,0.016718,-0.001691,-1.567728,1.566194,0.0000,0.0000,0.0000,-0.004539,-1.570796,1.566194,0.1442,1.1296,0.1825,0.000000,0.527689,-0.504680,0.521553,-0.547631,0.523087,-0.513884
3.3254,0.016742,-0.001675,-1.567728,1.566194,0.0000,0.0000,0.0000,-0.004539,-1.570796,1.566194,0.1442,1.1296,0.1825,0.000000,0.527689,-0.504680,0.521553,-0.547631,0.523087,-0.513884
3.3422,0.016753,-0.001658,-1.567728,1.566194,0.0000,0.0000,0.0000,-0.004539,-1.570796,1.566194,0.1442,1.1296,0.1825,0.000000,0.527689,-0.504680,0.521553,-0.547631,0.523087,-0.513884
3.3589,0.016743,-0.001641,-1.567728,1.566194,0.0000,0.0000,0.0000,-0.004539,-1.570796,1.566194,0.1442,1.1296,0.1825,0.000000,0.527689,-0.504680,0.521553,-0.547631,0.523087,-0.513884
3.3757,0.016755,-0.001624,-1.567728,1.566194,0.0000,0.0000,0.0000,-0.004539,-1.569262,1.566194,0.1442,1.1296,0.1825,0.000000,0.527689,-0.504680,0.521553,-0.547631,0.523087,-0.513884
3.3924,0.016741,-0.001608,-1.567728,1.566194,0.0000,0.0000,0.0000,-0.004539,-1.570796,1.566194,0.1442,1.1296,0.1825,0.000000,0.527689,-0.504680,0.521553,-0.547631,0.523087,-0.513884
3.4092,0.016751,-0.001591,-1.567728,1.566194,0.0000,0.0000,0.0000,-0.004539,-1.570796,1.566194,0.1442,1.1296,0.1825,0.000000,0.527689,-0.504680,0.521553,-0.547631,0.523087,-0.513884
3.4259,0.016751,-0.001574,-1.567728,1.566194,0.0000,0.0000,0.0000,-0.004539,-1.569262,1.566194,0.1442,1.1296,0.1825,0.000000,0.527689,-0.504680,0.521553,-0.547631,0.523087,-0.513884
3.4427,0.016758,-0.001557,-1.567728,1.566194,0.0000,0.0000,0.0000,-0.004539,-1.569262,1.566194,0.1442,1.1296,0.1825,0.000000,0.527689,-0.504680,0.521553,-0.547631,0.523087,-0.513884
3.4594,0.016746,-0.001541,-1.567728,1.566194,0.0000,0.0000,0.0000,-0.004525,-1.569262,1.566194,0.1842,1.0947,0.1316,0.000000,0.527689,-0.506214,0.521553,-0.547631,0.523087,-0.513884
3.4762,0.016754,-0.001524,-1.567728,1.566194,0.0000,0.0000,0.0000,-0.004540,-1.569262,1.566194,0.1399,1.1338,0.1884,0.000000,0.527689,-0.504680,0.521553,-0.547631,0.523087,-0.513884
3.4929,0.016751,-0.001507,-1.567728,1.566194,0.0000,0.0000,0.0000,-0.004539,-1.570796,1.566194,0.1445,1.1297,0.1825,0.000000,0.527689,-0.504680,0.521553,-0.547631,0.523087,-0.513884
3.5097,0.016754,-0.001490,-1.567728,1.566194,0.0000,0.0000,0.0000,-0.004539,-1.569262,1.566194,0.1445,1.1297,0.1825,0.000000,0.527689,-0.504680,0.521553,-0.547631,0.523087,-0.513884
3.5265,0.016825,-0.001474,-1.567728,1.566194,0.0000,0.0000,0.0000,-0.004525,-1.570796,1.566194,0.1842,1.0946,0.1316,0.000000,0.527689,-0.506214,0.521553,-0.547631,0.523087,-0.513884
3.5433,0.016758,-0.001457,-1.567728,1.566194,0.0000,0.0000,0.0000,-0.004525,-1.570796,1.566194,0.1842,1.0946,0.1316,0.000000,0.527689,-0.506214,0.521553,-0.547631,0.523087,-0.513884
3.5600,0.016761,-0.001440,-1.567728,1.566194,0.0000,0.0000,0.0000,-0.004540,-1.570796,1.566194,0.1399,1.1338,0.1884,0.000000,0.527689,-0.504680,0.521553,-0.547631,0.523087,-0.513884
3.5768,0.016757,-0.001423,-1.567728,1.566194,0.0000,0.0000,0.0000,-0.004525,-1.569262,1.566194,0.1847,1.0942,0.1310,0.000000,0.527689,-0.506214,0.521553,-0.547631,0.523087,-0.513884
3.5935,0.016748,-0.001406,-1.567728,1.566194,0.0000,0.0000,0.0000,-0.004540,-1.570796,1.566194,0.1399,1.1339,0.1885,0.000000,0.527689,-0.504680,0.521553,-0.547631,0.523087,-0.513884
3.6106,0.017121,-0.001389,-1.567728,1.566194,0.0000,0.0000,0.0000,-0.004525,-1.569262,1.566194,0.1847,1.0942,0.1310,0.000000,0.527689,-0.506214,0.521553,-0.547631,0.523087,-0.513884
3.6274,0.016748,-0.001373,-1.567728,1.566194,0.0000,0.0000,0.0000,-0.004525,-1.569262,1.566194,0.1847,1.0942,0.1310,0.000000,0.527689,-0.506214,0.521553,-0.547631,0.523087,-0.513884
3.6441,0.016756,-0.001356,-1.567728,1.566194,0.0000,0.0000,0.0000,-0.004527,-1.570796,1.566194,0.1800,1.0983,0.1370,0.000000,0.527689,-0.506214,0.521553,-0.547631,0.523087,-0.513884
3.6609,0.016740,-0.001339,-1.567728,1.566194,0.0000,0.0000,0.0000,-0.004540,-1.569262,1.566194,0.1403,1.1334,0.1878,0.000000,0.527689,-0.504680,0.521553,-0.547631,0.523087,-0.513884
3.6776,0.016743,-0.001322,-1.567728,1.566194,0.0000,0.0000,0.0000,-0.004499,-1.569262,1.566194,0.1631,1.1984,0.2356,0.000000,0.527689,-0.506214,0.524621,-0.547631,0.523087,-0.513884
3.6944,0.016744,-0.001306,-1.567728,1.566194,0.0000,0.0000,0.0000,-0.004466,-1.570796,1.566194,0.1500,1.3470,0.2825,0.000000,0.527689,-0.506214,0.527689,-0.549165,0.523087,-0.513884
3.7111,0.016758,-0.001289,-1.567728,1.566194,0.0000,0.0000,0.0000,-0.004456,-1.569262,1.566194,0.1404,1.3834,0.3299,0.000000,0.527689,-0.506214,0.529223,-0.549165,0.523087,-0.513884
3.7279,0.016740,-0.001272,-1.567728,1.566194,0.0000,0.0000,0.0000,-0.004456,-1.569262,1.566194,0.1404,1.3834,0.3299,0.000000,0.527689,-0.506214,0.529223,-0.549165,0.523087,-0.513884
3.7446,0.016751,-0.001255,-1.567728,1.566194,0.0000,0.0000,0.0000,-0.004331,-1.570796,1.566194,0.3514,1.4994,0.3285,0.000000,0.530757,-0.510816,0.533825,-0.552233,0.523087,-0.513884
3.7614,0.016743,-0.001239,-1.567728,1.566194,0.0000,0.0000,0.0000,-0.004245,-1.569262,1.566194,0.5099,1.5906,0.3315,0.000000,0.533825,-0.513884,0.536893,-0.555301,0.523087,-0.513884
3.7781,0.016760,-0.001222,-1.567728,1.566194,0.0000,0.0000,0.0000,-0.004142,-1.570796,1.566194,0.7140,1.6489,0.2826,0.000000,0.536893,-0.518486,0.539961,-0.558369,0.523087,-0.513884
3.7949,0.016741,-0.001205,-1.567728,1.566194,0.0000,0.0000,0.0000,-0.004052,-1.570796,1.566194,0.9023,1.6593,0.2917,0.000000,0.539961,-0.523087,0.543029,-0.559903,0.523087,-0.513884
3.8116,0.016759,-0.001188,-1.567728,1.566194,0.0000,0.0000,0.0000,-0.003974,-1.570796,1.566194,1.1028,1.6230,0.2416,0.000000,0.543029,-0.527689,0.544563,-0.561437,0.523087,-0.513884
3.8284,0.016746,-0.001172,-1.567728,1.566194,0.0000,0.0000,0.0000,-0.003974,-1.570796,1.566194,1.1028,1.6230,0.2416,0.000000,0.543029,-0.527689,0.544563,-0.561437,0.523087,-0.513884
3.8451,0.016757,-0.001155,-1.567728,1.566194,0.0000,0.0000,0.0000,-0.003906,-1.570796,1.566194,1.1715,1.6088,0.2478,0.000000,0.544563,-0.530757,0.546097,-0.562971,0.524621,-0.513884
3.8619,0.016742,-0.001138,-1.567728,1.566194,0.0000,0.0000,0.0000,-0.003825,-1.570796,1.566194,1.1945,1.5905,0.0906,0.000000,0.546097,-0.533825,0.547631,-0.564505,0.524621,-0.516952
3.8787,0.016846,-0.001121,-1.567728,1.566194,0.0000,0.0000,0.0000,-0.003746,-1.570796,1.566194,1.2714,1.6619,0.1625,0.000000,0.549165,-0.535359,0.550699,-0.566039,0.524621,-0.518486
3.8955,0.016748,-0.001105,-1.567728,1.566194,0.0000,0.0000,0.0000,-0.003691,-1.570796,1.566194,1.2933,1.5319,-0.0027,0.000000,0.550699,-0.538427,0.550699,-0.566039,0.524621,-0.521553
3.9122,0.016763,-0.001088,-1.567728,1.566194,0.0000,0.0000,0.0000,-0.003659,-1.569262,1.566194,1.2118,1.5445,-0.0398,0.000000,0.550699,-0.538427,0.550699,-0.567573,0.526155,-0.523087
3.9290,0.016746,-0.001071,-1.567728,1.566194,0.0000,0.0000,0.0000,-0.003659,-1.569262,1.566194,1.2118,1.5445,-0.0398,0.000000,0.550699,-0.538427,0.550699,-0.567573,0.526155,-0.523087
3.9457,0.016756,-0.001054,-1.567728,1.566194,0.0000,0.0000,0.0000,-0.003599,-1.569262,1.566194,1.1700,1.4220,-0.0898,0.000000,0.552233,-0.539961,0.550699,-0.567573,0.527689,-0.526155
3.9625,0.016743,-0.001038,-1.567728,1.566194,0.0000,0.0000,0.0000,-0.003494,-1.570796,1.566194,1.1557,1.3654,-0.1389,0.000000,0.555301,-0.541495,0.550699,-0.570641,0.530757,-0.529223
3.9793,0.016828,-0.001021,-1.567728,1.566194,0.0000,0.0000,0.0000,-0.003454,-1.570796,1.566194,0.9769,1.2675,-0.1367,0.000000,0.555301,-0.541495,0.550699,-0.570641,0.533825,-0.532291
3.9960,0.016746,-0.001004,-1.567728,1.566194,0.0000,0.0000,0.0000,-0.003408,-1.570796,1.566194,0.9150,1.1756,-0.0329,0.000000,0.556835,-0.541495,0.550699,-0.570641,0.536893,-0.533825
4.0128,0.016762,-0.000987,-1.567728,1.566194,0.0000,0.0000,0.0000,-0.003387,-1.570796,1.566194,0.8316,1.1334,-0.0450,0.000000,0.556835,-0.541495,0.550699,-0.570641,0.538427,-0.535359
4.0296,0.016743,-0.000970,-1.567728,1.566194,0.0000,0.0000,0.0000,-0.003387,-1.570796,1.566194,0.8316,1.1334,-0.0450,0.000000,0.556835,-0.541495,0.550699,-0.570641,0.538427,-0.535359
4.0463,0.016754,-0.000954,-1.567728,1.566194,0.0000,0.0000,0.0000,-0.003389,-1.569262,1.566194,0.8403,1.1378,-0.0437,0.000000,0.556835,-0.541495,0.550699,-0.570641,0.538427,-0.535359
4.0630,0.016740,-0.000937,-1.567728,1.566194,0.0000,0.0000,0.0000,-0.003363,-1.570796,1.566194,0.7589,1.0691,0.0603,0.000000,0.556835,-0.541495,0.550699,-0.570641,0.541495,-0.535359
4.0798,0.016746,-0.000920,-1.567728,1.566194,0.0000,0.0000,0.0000,-0.003366,-1.570796,1.566194,0.7674,1.0762,0.0494,0.000000,0.556835,-0.541495,0.550699,-0.570641,0.541495,-0.535359
4.0965,0.016754,-0.000903,-1.567728,1.566194,0.0000,0.0000,0.0000,-0.003340,-1.570796,1.566194,0.6863,1.0073,0.1549,0.000000,0.556835,-0.541495,0.550699,-0.570641,0.544563,-0.535359
4.1133,0.016756,-0.000887,-1.567728,1.566194,0.0000,0.0000,0.0000,-0.003343,-1.570796,1.566194,0.6948,1.0145,0.1439,0.000000,0.556835,-0.541495,0.550699,-0.570641,0.544563,-0.535359
4.1300,0.016743,-0.000870,-1.567728,1.566194,0.0000,0.0000,0.0000,-0.003343,-1.570796,1.566194,0.6948,1.0145,0.1439,0.000000,0.556835,-0.541495,0.550699,-0.570641,0.544563,-0.535359
4.1468,0.016752,-0.000853,-1.567728,1.566194,0.0000,0.0000,0.0000,-0.003331,-1.569262,1.566194,0.7048,1.0648,0.0920,0.000000,0.556835,-0.541495,0.550699,-0.572175,0.544563,-0.535359
4.1635,0.016738,-0.000836,-1.567728,1.566194,0.0000,0.0000,0.0000,-0.003320,-1.570796,1.566194,0.6637,1.0254,0.1497,0.000000,0.556835,-0.541495,0.550699,-0.572175,0.546097,-0.535359
4.1803,0.016762,-0.000820,-1.567728,1.566194,0.0000,0.0000,0.0000,-0.003322,-1.569262,1.566194,0.7189,1.1146,0.0383,0.000000,0.556835,-0.541495,0.550699,-0.573709,0.544563,-0.535359
4.1970,0.016742,-0.000803,-1.567728,1.566194,0.0000,0.0000,0.0000,-0.003322,-1.569262,1.566194,0.7132,1.1053,0.0499,0.000000,0.556835,-0.541495,0.550699,-0.573709,0.544563,-0.535359
4.2138,0.016768,-0.000786,-1.567728,1.566194,0.0000,0.0000,0.0000,-0.003309,-1.569262,1.566194,0.6737,1.0722,0.1009,0.000000,0.556835,-0.541495,0.550699,-0.573709,0.546097,-0.535359
4.2306,0.016742,-0.000769,-1.567728,1.566194,0.0000,0.0000,0.0000,-0.003309,-1.569262,1.566194,0.6737,1.0722,0.1009,0.000000,0.556835,-0.541495,0.550699,-0.573709,0.546097,-0.535359
4.2474,0.016822,-0.000753,-1.567728,1.566194,0.0000,0.0000,0.0000,-0.003310,-1.569262,1.566194,0.6778,1.0757,0.0956,0.000000,0.556835,-0.541495,0.550699,-0.573709,0.546097,-0.535359
4.2642,0.016778,-0.000736,-1.567728,1.566194,0.0000,0.0000,0.0000,-0.003310,-1.570796,1.566194,0.6778,1.0757,0.0956,0.000000,0.556835,-0.541495,0.550699,-0.573709,0.546097,-0.535359
4.2809,0.016769,-0.000719,-1.567728,1.566194,0.0000,0.0000,0.0000,-0.003310,-1.570796,1.566194,0.6778,1.0757,0.0956,0.000000,0.556835,-0.541495,0.550699,-0.573709,0.546097,-0.535359
4.2977,0.016747,-0.000702,-1.567728,1.566194,0.0000,0.0000,0.0000,-0.003310,-1.569262,1.566194,0.6778,1.0757,0.0956,0.000000,0.556835,-0.541495,0.550699,-0.573709,0.546097,-0.535359
4.3144,0.016768,-0.000686,-1.567728,1.566194,0.0000,0.0000,0.0000,-0.003310,-1.569262,1.566194,0.6678,1.0916,-0.0092,0.000000,0.556835,-0.541495,0.550699,-0.573709,0.544563,-0.536893
4.3312,0.016741,-0.000669,-1.567728,1.566194,0.0000,0.0000,0.0000,-0.003310,-1.569262,1.566194,0.6678,1.0916,-0.0092,0.000000,0.556835,-0.541495,0.550699,-0.573709,0.544563,-0.536893
4.3479,0.016753,-0.000652,-1.567728,1.566194,0.0000,0.0000,0.0000,-0.003284,-1.570796,1.566194,0.5791,1.0381,0.0008,0.000000,0.556835,-0.541495,0.550699,-0.573709,0.546097,-0.538427
4.3647,0.016742,-0.000635,-1.567728,1.566194,0.0000,0.0000,0.0000,-0.003287,-1.570796,1.566194,0.5883,1.0437,-0.0003,0.000000,0.556835,-0.541495,0.550699,-0.573709,0.546097,-0.538427
4.3814,0.016753,-0.000619,-1.567728,1.566194,0.0000,0.0000,0.0000,-0.003299,-1.569262,1.566194,0.6275,1.0772,-0.0524,0.000000,0.556835,-0.541495,0.550699,-0.573709,0.544563,-0.538427
4.3982,0.016748,-0.000602,-1.567728,1.566194,0.0000,0.0000,0.0000,-0.003274,-1.570796,1.566194,0.6331,1.0237,0.0588,0.000000,0.558369,-0.541495,0.550699,-0.573709,0.546097,-0.538427
4.4149,0.016755,-0.000585,-1.567728,1.566194,0.0000,0.0000,0.0000,-0.003274,-1.570796,1.566194,0.6331,1.0237,0.0588,0.000000,0.558369,-0.541495,0.550699,-0.573709,0.546097,-0.538427
4.4317,0.016743,-0.000568,-1.567728,1.566194,0.0000,0.0000,0.0000,-0.003288,-1.569262,1.566194,0.5827,1.0452,-0.0063,0.000000,0.556835,-0.541495,0.550699,-0.573709,0.546097,-0.538427
4.4484,0.016750,-0.000552,-1.567728,1.566194,0.0000,0.0000,0.0000,-0.003287,-1.570796,1.566194,0.5879,1.0430,0.0005,0.000000,0.556835,-0.541495,0.550699,-0.573709,0.546097,-0.538427
4.4652,0.016739,-0.000535,-1.567728,1.566194,0.0000,0.0000,0.0000,-0.003300,-1.569262,1.566194,0.5981,0.9914,-0.0533,0.000000,0.556835,-0.541495,0.549165,-0.573709,0.546097,-0.538427
4.4824,0.017193,-0.000518,-1.567728,1.566194,0.0000,0.0000,0.0000,-0.003298,-1.569262,1.566194,0.6265,1.0827,-0.0469,0.000000,0.556835,-0.541495,0.550699,-0.573709,0.544563,-0.538427
4.4991,0.016742,-0.000501,-1.567728,1.566194,0.0000,0.0000,0.0000,-0.003274,-1.569262,1.566194,0.6332,1.0231,0.0582,0.000000,0.558369,-0.541495,0.550699,-0.573709,0.546097,-0.538427
4.5158,0.016756,-0.000484,-1.567728,1.566194,0.0000,0.0000,0.0000,-0.003274,-1.569262,1.566194,0.6332,1.0231,0.0582,0.000000,0.558369,-0.541495,0.550699,-0.573709,0.546097,-0.538427
4.5326,0.016744,-0.000467,-1.567728,1.566194,0.0000,0.0000,0.0000,-0.003288,-1.570796,1.566194,0.5827,1.0453,-0.0062,0.000000,0.556835,-0.541495,0.550699,-0.573709,0.546097,-0.538427
4.5493,0.016749,-0.000451,-1.567728,1.566194,0.0000,0.0000,0.0000,-0.003287,-1.569262,1.566194,0.5879,1.0430,0.0005,0.000000,0.556835,-0.541495,0.550699,-0.573709,0.546097,-0.538427
4.5661,0.016751,-0.000434,-1.567728,1.566194,0.0000,0.0000,0.0000,-0.003299,-1.570796,1.566194,0.6275,1.0773,-0.0525,0.000000,0.556835,-0.541495,0.550699,-0.573709,0.544563,-0.538427
4.5828,0.016745,-0.000417,-1.567728,1.566194,0.0000,0.0000,0.0000,-0.003259,-1.570796,1.566194,0.6624,0.9688,-0.0999,0.000000,0.556835,-0.544563,0.550699,-0.573709,0.546097,-0.538427
4.5997,0.016812,-0.000400,-1.567728,1.566194,0.0000,0.0000,0.0000,-0.003252,-1.570796,1.566194,0.7883,0.9629,-0.1465,0.000000,0.558369,-0.546097,0.550699,-0.573709,0.544563,-0.538427
4.6164,0.016748,-0.000384,-1.567728,1.566194,0.0000,0.0000,0.0000,-0.003252,-1.570796,1.566194,0.7883,0.9629,-0.1465,0.000000,0.558369,-0.546097,0.550699,-0.573709,0.544563,-0.538427
4.6331,0.016741,-0.000367,-1.567728,1.566194,0.0000,0.0000,0.0000,-0.003251,-1.570796,1.566194,0.6851,0.9454,-0.1428,0.000000,0.556835,-0.546097,0.550699,-0.573709,0.546097,-0.538427
4.6499,0.016747,-0.000350,-1.567728,1.566194,0.0000,0.0000,0.0000,-0.003227,-1.570796,1.566194,0.7853,0.8958,-0.1426,0.000000,0.558369,-0.547631,0.550699,-0.573709,0.546097,-0.538427
4.6666,0.016752,-0.000333,-1.567728,1.566194,0.0000,0.0000,0.0000,-0.003217,-1.569262,1.566194,0.9043,0.8837,-0.1943,0.000000,0.559903,-0.549165,0.550699,-0.573709,0.544563,-0.538427
4.6841,0.017510,-0.000316,-1.567728,1.566194,0.0000,0.0000,0.0000,-0.003182,-1.570796,1.566194,0.9516,0.8189,-0.0297,0.000000,0.562971,-0.549165,0.550699,-0.573709,0.546097,-0.538427
4.7009,0.016742,-0.000299,-1.567728,1.566194,0.0000,0.0000,0.0000,-0.003174,-1.570796,1.566194,0.9871,0.8262,-0.0987,0.000000,0.564505,-0.549165,0.550699,-0.573709,0.544563,-0.539961
4.7177,0.016767,-0.000282,-1.567728,1.566194,0.0000,0.0000,0.0000,-0.003174,-1.570796,1.566194,0.9871,0.8262,-0.0987,0.000000,0.564505,-0.549165,0.550699,-0.573709,0.544563,-0.539961
4.7344,0.016742,-0.000266,-1.567728,1.566194,0.0000,0.0000,0.0000,-0.003138,-1.570796,1.566194,0.9341,0.7740,-0.1445,0.000000,0.566039,-0.549165,0.550699,-0.573709,0.544563,-0.543029
4.7511,0.016749,-0.000249,-1.567728,1.566194,0.0000,0.0000,0.0000,-0.003141,-1.570796,1.566194,0.9396,0.7795,-0.1397,0.000000,0.566039,-0.549165,0.550699,-0.573709,0.544563,-0.543029
4.7679,0.016744,-0.000232,-1.567728,1.566194,0.0000,0.0000,0.0000,-0.003068,-1.570796,1.566194,0.9491,0.6616,-0.0336,0.000000,0.570641,-0.549165,0.550699,-0.573709,0.546097,-0.546097
4.7847,0.016761,-0.000215,-1.567728,1.566194,0.0000,0.0000,0.0000,-0.003038,-1.570796,1.566194,0.8989,0.6226,-0.0977,0.000000,0.572175,-0.549165,0.550699,-0.573709,0.546097,-0.549165
4.8015,0.016874,-0.000198,-1.567728,1.566194,0.0000,0.0000,0.0000,-0.003017,-1.569262,1.566194,0.8660,0.6598,-0.1974,0.000000,0.572175,-0.549165,0.550699,-0.575243,0.546097,-0.550699
4.8182,0.016709,-0.000182,-1.567728,1.566194,0.0000,0.0000,0.0000,-0.003017,-1.569262,1.566194,0.8660,0.6598,-0.1974,0.000000,0.572175,-0.549165,0.550699,-0.575243,0.546097,-0.550699
4.8350,0.016744,-0.000165,-1.567728,1.566194,0.0000,0.0000,0.0000,-0.002997,-1.570796,1.566194,0.9216,0.7071,-0.2922,0.000000,0.573709,-0.549165,0.550699,-0.576777,0.544563,-0.552233
4.8517,0.016746,-0.000148,-1.567728,1.566194,0.0000,0.0000,0.0000,-0.003011,-1.569262,1.566194,0.8280,0.6484,-0.4427,0.000000,0.572175,-0.549165,0.549165,-0.576777,0.544563,-0.553767
4.8685,0.016741,-0.000132,-1.567728,1.566194,0.0000,0.0000,0.0000,-0.002947,-1.569262,1.566194,0.6992,0.6882,-0.4816,0.000000,0.572175,-0.549165,0.550699,-0.578311,0.546097,-0.556835
4.8852,0.016746,-0.000115,-1.567728,1.566194,0.0000,0.0000,0.0000,-0.002919,-1.569262,1.566194,0.6866,0.7679,-0.6376,0.000000,0.572175,-0.549165,0.550699,-0.581379,0.546097,-0.558369
4.9020,0.016743,-0.000098,-1.567728,1.566194,0.0000,0.0000,0.0000,-0.002911,-1.570796,1.566194,0.6995,0.8101,-0.6747,0.000000,0.572175,-0.549165,0.550699,-0.582913,0.546097,-0.558369
4.9187,0.016751,-0.000081,-1.567728,1.566194,0.0000,0.0000,0.0000,-0.002911,-1.570796,1.566194,0.6995,0.8101,-0.6747,0.000000,0.572175,-0.549165,0.550699,-0.582913,0.546097,-0.558369
4.9355,0.016744,-0.000065,-1.567728,1.566194,0.0000,0.0000,0.0000,-0.002848,-1.569262,1.566194,0.6987,0.7342,-0.8313,0.000000,0.572175,-0.552233,0.550699,-0.584447,0.547631,-0.559903
4.9522,0.016750,-0.000048,-1.567728,1.566194,0.0000,0.0000,0.0000,-0.002817,-1.569262,1.566194,0.6789,0.6371,-0.8696,0.000000,0.572175,-0.553767,0.549165,-0.585981,0.550699,-0.559903
4.9689,0.016748,-0.000031,-1.567728,1.566194,0.0000,0.0000,0.0000,-0.002744,-1.570796,1.566194,0.6784,0.6113,-0.8670,0.000000,0.572175,-0.556835,0.550699,-0.587515,0.553767,-0.559903
4.9857,0.016759,-0.000014,-1.567728,1.566194,0.0000,0.0000,0.0000,-0.002691,-1.570796,1.566194,0.6589,0.6113,-0.9222,0.000000,0.572175,-0.558369,0.550699,-0.590583,0.556835,-0.559903
5.0026,0.016857,0.000003,-1.567728,1.566194,0.0000,0.0000,0.0000,-0.002647,-1.570796,1.566194,0.6300,0.5583,-0.9178,0.000000,0.572175,-0.559903,0.550699,-0.592117,0.559903,-0.559903
5.0193,0.016748,0.000019,-1.567728,1.566194,0.0000,0.0000,0.0000,-0.002647,-1.570796,1.566194,0.6300,0.5583,-0.9178,0.000000,0.572175,-0.559903,0.550699,-0.592117,0.559903,-0.559903
5.0361,0.016749,0.000036,-1.567728,1.566194,0.0000,0.0000,0.0000,-0.002613,-1.569262,1.566194,0.5909,0.4605,-0.8657,0.000000,0.572175,-0.561437,0.550699,-0.592117,0.562971,-0.559903
5.0528,0.016747,0.000053,-1.567728,1.566194,0.0000,0.0000,0.0000,-0.002591,-1.570796,1.566194,0.5934,0.4013,-0.8715,0.000000,0.572175,-0.562971,0.550699,-0.592117,0.564505,-0.559903
5.0696,0.016747,0.000070,-1.567728,1.566194,0.0000,0.0000,0.0000,-0.002571,-1.570796,1.566194,0.5339,0.3375,-0.8717,0.000000,0.572175,-0.562971,0.549165,-0.593651,0.567573,-0.559903
5.0863,0.016750,0.000086,-1.567728,1.566194,0.0000,0.0000,0.0000,-0.002573,-1.569262,1.566194,0.5402,0.3442,-0.8717,0.000000,0.572175,-0.562971,0.549165,-0.593651,0.567573,-0.559903
5.1031,0.016745,0.000103,-1.567728,1.566194,0.0000,0.0000,0.0000,-0.002559,-1.570796,1.566194,0.5292,0.3959,-0.8185,0.000000,0.572175,-0.562971,0.550699,-0.593651,0.567573,-0.559903
5.1198,0.016747,0.000120,-1.567728,1.566194,0.0000,0.0000,0.0000,-0.002559,-1.570796,1.566194,0.5292,0.3959,-0.8185,0.000000,0.572175,-0.562971,0.550699,-0.593651,0.567573,-0.559903
5.1365,0.016749,0.000137,-1.567728,1.566194,0.0000,0.0000,0.0000,-0.002561,-1.570796,1.566194,0.5303,0.3905,-0.8241,0.000000,0.572175,-0.562971,0.550699,-0.593651,0.567573,-0.559903
5.1533,0.016743,0.000153,-1.567728,1.566194,0.0000,0.0000,0.0000,-0.002561,-1.570796,1.566194,0.5303,0.3905,-0.8241,0.000000,0.572175,-0.562971,0.550699,-0.593651,0.567573,-0.559903
5.1700,0.016746,0.000170,-1.567728,1.566194,0.0000,0.0000,0.0000,-0.002574,-1.570796,1.566194,0.5405,0.3387,-0.8767,0.000000,0.572175,-0.562971,0.549165,-0.593651,0.567573,-0.559903
5.1867,0.016706,0.000187,-1.567728,1.566194,0.0000,0.0000,0.0000,-0.002573,-1.570796,1.566194,0.5395,0.3441,-0.8712,0.000000,0.572175,-0.562971,0.549165,-0.593651,0.567573,-0.559903
5.2035,0.016776,0.000204,-1.567728,1.566194,0.0000,0.0000,0.0000,-0.002559,-1.569262,1.566194,0.5292,0.3959,-0.8186,0.000000,0.572175,-0.562971,0.550699,-0.593651,0.567573,-0.559903
5.2203,0.016748,0.000220,-1.567728,1.566194,0.0000,0.0000,0.0000,-0.002559,-1.569262,1.566194,0.5292,0.3959,-0.8186,0.000000,0.572175,-0.562971,0.550699,-0.593651,0.567573,-0.559903
5.2370,0.016748,0.000237,-1.567728,1.566194,0.0000,0.0000,0.0000,-0.002563,-1.570796,1.566194,0.5516,0.3883,-0.9310,0.000000,0.572175,-0.562971,0.549165,-0.595185,0.567573,-0.559903
5.2538,0.016750,0.000254,-1.567728,1.566194,0.0000,0.0000,0.0000,-0.002551,-1.569262,1.566194,0.5996,0.3733,-0.8657,0.000000,0.573709,-0.562971,0.549165,-0.595185,0.567573,-0.559903
5.2705,0.016778,0.000271,-1.567728,1.566194,0.0000,0.0000,0.0000,-0.002527,-1.569262,1.566194,0.6344,0.4115,-0.7657,0.000000,0.575243,-0.562971,0.550699,-0.595185,0.567573,-0.559903
5.2873,0.016743,0.000287,-1.567728,1.566194,0.0000,0.0000,0.0000,-0.002518,-1.570796,1.566194,0.6809,0.3919,-0.7224,0.000000,0.576777,-0.562971,0.550699,-0.595185,0.567573,-0.559903
5.3042,0.016904,0.000304,-1.567728,1.566194,0.0000,0.0000,0.0000,-0.002521,-1.569262,1.566194,0.7367,0.3259,-0.7265,0.000000,0.578311,-0.562971,0.549165,-0.595185,0.567573,-0.559903
5.3209,0.016750,0.000321,-1.567728,1.566194,0.0000,0.0000,0.0000,-0.002521,-1.569262,1.566194,0.7367,0.3259,-0.7265,0.000000,0.578311,-0.562971,0.549165,-0.595185,0.567573,-0.559903
5.3377,0.016748,0.000338,-1.567728,1.566194,0.0000,0.0000,0.0000,-0.002496,-1.570796,1.566194,0.7706,0.3696,-0.6191,0.000000,0.579845,-0.562971,0.550699,-0.595185,0.567573,-0.559903
5.3544,0.016741,0.000354,-1.567728,1.566194,0.0000,0.0000,0.0000,-0.002487,-1.570796,1.566194,0.8171,0.3495,-0.5766,0.000000,0.581379,-0.562971,0.550699,-0.595185,0.567573,-0.559903
5.3712,0.016736,0.000371,-1.567728,1.566194,0.0000,0.0000,0.0000,-0.002463,-1.569262,1.566194,0.8131,0.3183,-0.5807,0.000000,0.582913,-0.562971,0.550699,-0.595185,0.567573,-0.561437
5.3879,0.016744,0.000388,-1.567728,1.566194,0.0000,0.0000,0.0000,-0.002493,-1.569262,1.566194,0.8732,0.2870,-0.5801,0.000000,0.582913,-0.562971,0.549165,-0.595185,0.567573,-0.559903
5.4047,0.016789,0.000405,-1.567728,1.566194,0.0000,0.0000,0.0000,-0.002463,-1.570796,1.566194,0.8073,0.3248,-0.5803,0.000000,0.582913,-0.562971,0.550699,-0.595185,0.567573,-0.561437
5.4214,0.016743,0.000421,-1.567728,1.566194,0.0000,0.0000,0.0000,-0.002463,-1.570796,1.566194,0.8073,0.3248,-0.5803,0.000000,0.582913,-0.562971,0.550699,-0.595185,0.567573,-0.561437
5.4382,0.016747,0.000438,-1.567728,1.566194,0.0000,0.0000,0.0000,-0.002479,-1.569262,1.566194,0.8633,0.3386,-0.5269,0.000000,0.582913,-0.562971,0.550699,-0.595185,0.567573,-0.559903
