t,loop_dt,cmd_z,cmd_ant_l,cmd_ant_r,cmd_roll,cmd_pitch,cmd_yaw,pres_z,pres_ant_l,pres_ant_r,pres_roll,pres_pitch,pres_yaw,pres_j0,pres_j1,pres_j2,pres_j3,pres_j4,pres_j5,pres_j6
0.0000,0.000001,-0.005000,-1.576932,1.566194,0.0000,0.0000,0.0000,-0.003031,-1.576932,1.566194,0.7185,0.9571,0.4686,0.000000,0.566039,-0.547631,0.559903,-0.573709,0.552233,-0.541495
0.0168,0.016761,-0.004799,-1.576932,1.566194,0.0000,0.0000,0.0000,-0.002972,-1.576932,1.566194,0.6866,0.8823,0.4315,0.000000,0.566039,-0.550699,0.561437,-0.573709,0.553767,-0.543029
0.0338,0.016989,-0.004595,-1.576932,1.566194,0.0000,0.0000,0.0000,-0.002972,-1.576932,1.566194,0.6866,0.8823,0.4315,0.000000,0.566039,-0.550699,0.561437,-0.573709,0.553767,-0.543029
0.0505,0.016757,-0.004394,-1.576932,1.566194,0.0000,0.0000,0.0000,-0.002854,-1.576932,1.566194,0.7793,0.9414,0.4368,0.000000,0.569107,-0.553767,0.564505,-0.576777,0.555301,-0.544563
0.0673,0.016754,-0.004193,-1.576932,1.566194,0.0000,0.0000,0.0000,-0.002741,-1.576932,1.566194,0.8485,0.8308,0.3309,0.000000,0.572175,-0.558369,0.566039,-0.578311,0.556835,-0.547631
0.0840,0.016754,-0.003992,-1.576932,1.566194,0.0000,0.0000,0.0000,-0.002926,-1.576932,1.566194,0.7812,0.8077,0.3409,0.000000,0.567573,-0.555301,0.562971,-0.573709,0.553767,-0.544563
0.1008,0.016760,-0.003791,-1.576932,1.566194,0.0000,0.0000,0.0000,-0.003704,-1.576932,1.566194,0.7004,0.5893,0.3354,0.000000,0.550699,-0.539961,0.544563,-0.555301,0.539961,-0.529223
0.1175,0.016763,-0.003590,-1.576932,1.566194,0.0000,0.0000,0.0000,-0.004475,-1.576932,1.566194,0.5599,0.5600,0.3319,0.000000,0.530757,-0.523087,0.527689,-0.536893,0.524621,-0.512350
0.1343,0.016770,-0.003388,-1.576932,1.566194,0.0000,0.0000,0.0000,-0.004475,-1.576932,1.566194,0.5599,0.5600,0.3319,0.000000,0.530757,-0.523087,0.527689,-0.536893,0.524621,-0.512350
0.1511,0.016751,-0.003187,-1.576932,1.566194,0.0000,0.0000,0.0000,-0.004947,-1.576932,1.566194,0.2138,0.3542,0.3293,0.000000,0.515418,-0.512350,0.516952,-0.521553,0.516952,-0.504680
0.1678,0.016758,-0.002986,-1.576932,1.566194,0.0000,0.0000,0.0000,-0.005011,-1.576932,1.566194,0.0884,0.3058,0.3811,0.000000,0.512350,-0.509282,0.515418,-0.516952,0.515418,-0.504680
0.1846,0.016752,-0.002785,-1.576932,1.566194,0.0000,0.0000,0.0000,-0.004992,-1.576932,1.566194,0.0617,0.2760,0.4277,0.000000,0.512350,-0.509282,0.515418,-0.516952,0.516952,-0.504680
0.2013,0.016762,-0.002584,-1.576932,1.566194,0.0000,0.0000,0.0000,-0.005006,-1.576932,1.566194,0.1042,0.3139,0.3709,0.000000,0.512350,-0.509282,0.515418,-0.516952,0.515418,-0.504680
0.2182,0.016879,-0.002381,-1.576932,1.566194,0.0000,0.0000,0.0000,-0.005005,-1.576932,1.566194,0.0998,0.3099,0.3768,0.000000,0.512350,-0.509282,0.515418,-0.516952,0.515418,-0.504680
0.2350,0.016762,-0.002180,-1.576932,1.566194,0.0000,0.0000,0.0000,-0.005005,-1.576932,1.566194,0.0998,0.3099,0.3768,0.000000,0.512350,-0.509282,0.515418,-0.516952,0.515418,-0.504680
0.2517,0.016751,-0.001979,-1.576932,1.566194,0.0000,0.0000,0.0000,-0.004980,-1.576932,1.566194,0.1300,0.3271,0.3765,0.000000,0.512350,-0.510816,0.516952,-0.516952,0.515418,-0.504680
0.2685,0.016758,-0.001778,-1.576932,1.566194,0.0000,0.0000,0.0000,-0.004970,-1.576932,1.566194,0.1370,0.3773,0.3244,0.000000,0.512350,-0.510816,0.516952,-0.518486,0.515418,-0.504680
0.2852,0.016752,-0.001577,-1.576932,1.566194,0.0000,0.0000,0.0000,-0.004946,-1.576932,1.566194,0.0462,0.3199,0.3298,0.000000,0.512350,-0.510816,0.516952,-0.518486,0.516952,-0.506214
0.3020,0.016750,-0.001376,-1.576932,1.566194,0.0000,0.0000,0.0000,-0.004946,-1.576932,1.566194,0.0462,0.3199,0.3298,0.000000,0.513884,-0.512350,0.516952,-0.518486,0.516952,-0.506214
0.3189,0.016868,-0.001174,-1.576932,1.566194,0.0000,0.0000,0.0000,-0.004923,-1.576932,1.566194,0.1458,0.2741,0.3295,0.000000,0.513884,-0.512350,0.516952,-0.518486,0.516952,-0.506214
0.3356,0.016753,-0.000973,-1.576932,1.566194,0.0000,0.0000,0.0000,-0.004875,-1.576932,1.566194,0.1556,0.3487,0.2254,0.000000,0.515418,-0.512350,0.516952,-0.521553,0.516952,-0.507748
0.3524,0.016747,-0.000772,-1.576932,1.566194,0.0000,0.0000,0.0000,-0.004818,-1.576932,1.566194,0.2652,0.4632,0.2887,0.000000,0.518486,-0.512350,0.518486,-0.524621,0.516952,-0.507748
0.3691,0.016763,-0.000571,-1.576932,1.566194,0.0000,0.0000,0.0000,-0.004713,-1.576932,1.566194,0.4247,0.5749,0.3354,0.000000,0.524621,-0.512350,0.520019,-0.529223,0.516952,-0.509282
0.3859,0.016749,-0.000370,-1.576932,1.566194,0.0000,0.0000,0.0000,-0.004461,-1.576932,1.566194,0.4791,0.6500,0.2792,0.000000,0.530757,-0.516952,0.524621,-0.536893,0.521553,-0.513884
0.4026,0.016764,-0.000168,-1.576932,1.566194,0.0000,0.0000,0.0000,-0.004199,-1.576932,1.566194,0.4940,0.7461,0.3382,0.000000,0.536893,-0.521553,0.530757,-0.544563,0.527689,-0.518486
0.4194,0.016749,0.000033,-1.576932,1.566194,0.0000,0.0000,0.0000,-0.004199,-1.576932,1.566194,0.4940,0.7461,0.3382,0.000000,0.536893,-0.521553,0.530757,-0.544563,0.527689,-0.518486
0.4361,0.016757,0.000234,-1.576932,1.566194,0.0000,0.0000,0.0000,-0.003876,-1.576932,1.566194,0.4631,0.7185,0.3329,0.000000,0.544563,-0.527689,0.536893,-0.552233,0.535359,-0.526155
0.4529,0.016749,0.000435,-1.576932,1.566194,0.0000,0.0000,0.0000,-0.003573,-1.576932,1.566194,0.4871,0.7218,0.3872,0.000000,0.552233,-0.533825,0.543029,-0.559903,0.543029,-0.532291
0.4697,0.016771,0.000636,-1.576932,1.566194,0.0000,0.0000,0.0000,-0.003253,-1.576932,1.566194,0.4746,0.7704,0.2771,0.000000,0.558369,-0.541495,0.550699,-0.567573,0.549165,-0.539961
0.4864,0.016752,0.000837,-1.576932,1.566194,0.0000,0.0000,0.0000,-0.002963,-1.576932,1.566194,0.4859,0.7142,0.3959,0.000000,0.566039,-0.547631,0.556835,-0.573709,0.556835,-0.546097
0.5032,0.016774,0.001038,-1.576932,1.566194,0.0000,0.0000,0.0000,-0.002963,-1.576932,1.566194,0.4859,0.7142,0.3959,0.000000,0.572175,-0.553767,0.562971,-0.579845,0.562971,-0.550699
0.5199,0.016765,0.001239,-1.576932,1.566194,0.0000,0.0000,0.0000,-0.002707,-1.576932,1.566194,0.5345,0.7369,0.4380,0.000000,0.572175,-0.553767,0.562971,-0.579845,0.562971,-0.550699
0.5368,0.016857,0.001442,-1.576932,1.566194,0.0000,0.0000,0.0000,-0.002298,-1.576932,1.566194,0.5789,0.7506,0.4892,0.000000,0.581379,-0.562971,0.572175,-0.589049,0.572175,-0.558369
0.5536,0.016751,0.001643,-1.576932,1.566194,0.0000,0.0000,0.0000,-0.002168,-1.576932,1.566194,0.5353,0.7818,0.3772,0.000000,0.584447,-0.566039,0.575243,-0.593651,0.575243,-0.562971
0.5703,0.016759,0.001844,-1.576932,1.566194,0.0000,0.0000,0.0000,-0.001909,-1.576932,1.566194,0.6675,0.7624,0.4988,0.000000,0.592117,-0.572175,0.581379,-0.598253,0.579845,-0.567573
0.5871,0.016758,0.002045,-1.576932,1.566194,0.0000,0.0000,0.0000,-0.001909,-1.576932,1.566194,0.6675,0.7624,0.4988,0.000000,0.598253,-0.578311,0.585981,-0.604388,0.584447,-0.572175
0.6038,0.016755,0.002246,-1.576932,1.566194,0.0000,0.0000,0.0000,-0.001677,-1.576932,1.566194,0.7529,0.7637,0.4340,0.000000,0.598253,-0.578311,0.585981,-0.604388,0.584447,-0.572175
0.6206,0.016758,0.002447,-1.576932,1.566194,0.0000,0.0000,0.0000,-0.001465,-1.576932,1.566194,0.6721,0.7454,0.4960,0.000000,0.602854,-0.582913,0.592117,-0.607456,0.589049,-0.578311
0.6373,0.016753,0.002648,-1.576932,1.566194,0.0000,0.0000,0.0000,-0.001216,-1.576932,1.566194,0.7688,0.7974,0.4917,0.000000,0.608990,-0.589049,0.598253,-0.613592,0.593651,-0.582913
0.6541,0.016761,0.002849,-1.576932,1.566194,0.0000,0.0000,0.0000,-0.000970,-1.576932,1.566194,0.6976,0.7552,0.4931,0.000000,0.613592,-0.595185,0.604388,-0.618194,0.599786,-0.589049
0.6709,0.016761,0.003050,-1.576932,1.566194,0.0000,0.0000,0.0000,-0.000738,-1.576932,1.566194,0.8037,0.7587,0.4404,0.000000,0.619728,-0.601320,0.608990,-0.624330,0.604388,-0.593651
0.6876,0.016771,0.003252,-1.576932,1.566194,0.0000,0.0000,0.0000,-0.000738,-1.576932,1.566194,0.8037,0.7587,0.4404,0.000000,0.619728,-0.601320,0.608990,-0.624330,0.604388,-0.593651
0.7044,0.016762,0.003453,-1.576932,1.566194,0.0000,0.0000,0.0000,-0.000518,-1.576932,1.566194,0.8300,0.7928,0.5568,0.000000,0.625864,-0.605922,0.615126,-0.628932,0.608990,-0.598253
0.7211,0.016758,0.003654,-1.576932,1.566194,0.0000,0.0000,0.0000,-0.000233,-1.576932,1.566194,0.8547,0.7691,0.3829,0.000000,0.632000,-0.613592,0.621262,-0.635068,0.613592,-0.605922
0.7379,0.016754,0.003855,-1.576932,1.566194,0.0000,0.0000,0.0000,-0.000007,-1.576932,1.566194,0.8124,0.8373,0.4565,0.000000,0.636602,-0.618194,0.627398,-0.641204,0.619728,-0.610524
0.7547,0.016765,0.004056,-1.576932,1.566194,0.0000,0.0000,0.0000,0.000249,-1.576932,1.566194,0.8267,0.7780,0.3949,0.000000,0.642738,-0.624330,0.632000,-0.647340,0.625864,-0.616660
0.7714,0.016764,0.004257,-1.576932,1.566194,0.0000,0.0000,0.0000,0.000465,-1.576932,1.566194,0.8620,0.8184,0.5132,0.000000,0.648874,-0.628932,0.638136,-0.651942,0.630466,-0.621262
0.7882,0.016761,0.004458,-1.576932,1.566194,0.0000,0.0000,0.0000,0.000465,-1.576932,1.566194,0.8620,0.8184,0.5132,0.000000,0.648874,-0.628932,0.638136,-0.651942,0.630466,-0.621262
0.8049,0.016750,0.004659,-1.576932,1.566194,0.0000,0.0000,0.0000,0.000721,-1.576932,1.566194,0.8680,0.7622,0.4467,0.000000,0.655010,-0.635068,0.642738,-0.658078,0.636602,-0.627398
0.8217,0.016755,0.004860,-1.576932,1.566194,0.0000,0.0000,0.0000,0.000936,-1.576932,1.566194,0.8664,0.8666,0.4550,0.000000,0.659612,-0.639670,0.648874,-0.664214,0.641204,-0.632000
0.8385,0.016759,0.004939,-1.576932,1.566194,0.0000,0.0000,0.0000,0.001189,-1.576932,1.566194,0.9735,0.8061,0.5112,0.000000,0.667282,-0.645806,0.653476,-0.670350,0.647340,-0.636602
0.8552,0.016755,0.004737,-1.576932,1.566194,0.0000,0.0000,0.0000,0.001452,-1.576932,1.566194,0.9606,0.8106,0.5068,0.000000,0.673418,-0.651942,0.659612,-0.676486,0.653476,-0.642738
0.8720,0.016774,0.004536,-1.576932,1.566194,0.0000,0.0000,0.0000,0.001675,-1.576932,1.566194,1.0091,0.8934,0.5651,0.000000,0.679553,-0.656544,0.665748,-0.682621,0.658078,-0.647340
0.8887,0.016760,0.004335,-1.576932,1.566194,0.0000,0.0000,0.0000,0.001675,-1.576932,1.566194,1.0091,0.8934,0.5651,0.000000,0.679553,-0.656544,0.665748,-0.682621,0.658078,-0.647340
0.9055,0.016755,0.004134,-1.576932,1.566194,0.0000,0.0000,0.0000,0.001961,-1.576932,1.566194,1.1480,0.8995,0.5615,0.000000,0.687223,-0.664214,0.671884,-0.690291,0.664214,-0.651942
0.9223,0.016754,0.003933,-1.576932,1.566194,0.0000,0.0000,0.0000,0.002217,-1.576932,1.566194,1.1311,0.8966,0.5634,0.000000,0.693359,-0.670350,0.678020,-0.696427,0.670350,-0.658078
0.9390,0.016765,0.003732,-1.576932,1.566194,0.0000,0.0000,0.0000,0.002403,-1.576932,1.566194,1.2274,0.8981,0.6774,0.000000,0.699495,-0.674952,0.682621,-0.701029,0.674952,-0.661146
0.9558,0.016790,0.003530,-1.576932,1.566194,0.0000,0.0000,0.0000,0.002478,-1.576932,1.566194,1.2655,0.9114,0.5538,0.000000,0.701029,-0.678020,0.684155,-0.704097,0.676486,-0.662680
0.9726,0.016770,0.003329,-1.576932,1.566194,0.0000,0.0000,0.0000,0.002506,-1.576932,1.566194,1.3356,0.9106,0.6240,0.000000,0.702563,-0.679553,0.685689,-0.704097,0.676486,-0.662680
0.9893,0.016757,0.003128,-1.576932,1.566194,0.0000,0.0000,0.0000,0.002506,-1.576932,1.566194,1.3356,0.9106,0.6240,0.000000,0.702563,-0.679553,0.685689,-0.704097,0.676486,-0.662680
1.0061,0.016755,0.002927,-1.576932,1.566194,0.0000,0.0000,0.0000,0.002503,-1.576932,1.566194,1.3283,0.9107,0.6167,0.000000,0.702563,-0.679553,0.685689,-0.704097,0.676486,-0.662680
1.0228,0.016751,0.002726,-1.576932,1.566194,0.0000,0.0000,0.0000,0.002503,-1.576932,1.566194,1.3283,0.9107,0.6167,0.000000,0.702563,-0.679553,0.685689,-0.704097,0.676486,-0.662680
1.0397,0.016891,0.002523,-1.576932,1.566194,0.0000,0.0000,0.0000,0.002503,-1.576932,1.566194,1.3283,0.9107,0.6167,0.000000,0.702563,-0.679553,0.685689,-0.704097,0.676486,-0.662680
1.0566,0.016889,0.002321,-1.576932,1.566194,0.0000,0.0000,0.0000,0.002493,-1.576932,1.566194,1.2812,0.9244,0.5607,0.000000,0.701029,-0.679553,0.685689,-0.704097,0.676486,-0.662680
1.0734,0.016782,0.002119,-1.576932,1.566194,0.0000,0.0000,0.0000,0.002493,-1.576932,1.566194,1.2812,0.9244,0.5607,0.000000,0.701029,-0.679553,0.685689,-0.704097,0.676486,-0.662680
1.0902,0.016762,0.001918,-1.576932,1.566194,0.0000,0.0000,0.0000,0.002451,-1.576932,1.566194,1.1677,0.8532,0.5650,0.000000,0.697961,-0.679553,0.685689,-0.701029,0.676486,-0.662680
1.1069,0.016754,0.001717,-1.576932,1.566194,0.0000,0.0000,0.0000,0.002356,-1.576932,1.566194,0.8953,0.7353,0.5055,0.000000,0.690291,-0.679553,0.685689,-0.694893,0.676486,-0.662680
1.1237,0.016750,0.001516,-1.576932,1.566194,0.0000,0.0000,0.0000,0.002240,-1.576932,1.566194,0.6398,0.5251,0.4529,0.000000,0.682621,-0.679553,0.684155,-0.687223,0.676486,-0.662680
1.1404,0.016755,0.001315,-1.576932,1.566194,0.0000,0.0000,0.0000,0.002099,-1.576932,1.566194,0.2975,0.3742,0.4007,0.000000,0.673418,-0.678020,0.682621,-0.679553,0.676486,-0.662680
1.1572,0.016749,0.001114,-1.576932,1.566194,0.0000,0.0000,0.0000,0.001922,-1.576932,1.566194,0.1130,0.1087,0.1814,0.000000,0.667282,-0.674952,0.674952,-0.673418,0.674952,-0.662680
1.1740,0.016783,0.000913,-1.576932,1.566194,0.0000,0.0000,0.0000,0.001922,-1.576932,1.566194,0.1130,0.1087,0.1814,0.000000,0.662680,-0.670350,0.667282,-0.668816,0.671884,-0.661146
1.1907,0.016757,0.000711,-1.576932,1.566194,0.0000,0.0000,0.0000,0.001737,-1.576932,1.566194,0.0185,-0.0274,0.0367,0.000000,0.662680,-0.670350,0.667282,-0.668816,0.671884,-0.661146
1.2075,0.016757,0.000510,-1.576932,1.566194,0.0000,0.0000,0.0000,0.001337,-1.576932,1.566194,0.0596,0.0744,-0.1152,0.000000,0.655010,-0.659612,0.656544,-0.662680,0.661146,-0.653476
1.2242,0.016751,0.000309,-1.576932,1.566194,0.0000,0.0000,0.0000,0.001053,-1.576932,1.566194,0.0180,0.1674,-0.0439,0.000000,0.648874,-0.650408,0.650408,-0.656544,0.653476,-0.647340
1.2410,0.016751,0.000108,-1.576932,1.566194,0.0000,0.0000,0.0000,0.000901,-1.576932,1.566194,0.0439,0.1956,0.0040,0.000000,0.647340,-0.644272,0.645806,-0.653476,0.648874,-0.644272
1.2577,0.016757,-0.000093,-1.576932,1.566194,0.0000,0.0000,0.0000,0.000797,-1.576932,1.566194,0.0469,0.2088,0.1097,0.000000,0.644272,-0.642738,0.645806,-0.648874,0.645806,-0.641204
1.2745,0.016770,-0.000294,-1.576932,1.566194,0.0000,0.0000,0.0000,0.000797,-1.576932,1.566194,0.0469,0.2088,0.1097,0.000000,0.639670,-0.641204,0.642738,-0.644272,0.644272,-0.635068
1.2913,0.016759,-0.000495,-1.576932,1.566194,0.0000,0.0000,0.0000,0.000638,-1.576932,1.566194,0.0849,0.1364,0.2088,0.000000,0.639670,-0.641204,0.642738,-0.644272,0.644272,-0.635068
1.3080,0.016755,-0.000696,-1.576932,1.566194,0.0000,0.0000,0.0000,0.000242,-1.576932,1.566194,0.1088,0.1604,0.1977,0.000000,0.630466,-0.633534,0.635068,-0.635068,0.635068,-0.625864
1.3248,0.016762,-0.000897,-1.576932,1.566194,0.0000,0.0000,0.0000,-0.000168,-1.576932,1.566194,0.1279,0.2601,0.2525,0.000000,0.621262,-0.622796,0.625864,-0.627398,0.625864,-0.615126
1.3415,0.016759,-0.001098,-1.576932,1.566194,0.0000,0.0000,0.0000,-0.000322,-1.576932,1.566194,0.1470,0.1816,0.1370,0.000000,0.616660,-0.619728,0.619728,-0.624330,0.622796,-0.610524
1.3585,0.016975,-0.001302,-1.576932,1.566194,0.0000,0.0000,0.0000,-0.000379,-1.576932,1.566194,0.1170,0.2751,0.1488,0.000000,0.615126,-0.616660,0.618194,-0.624330,0.621262,-0.608990
1.3753,0.016759,-0.001503,-1.576932,1.566194,0.0000,0.0000,0.0000,-0.000379,-1.576932,1.566194,0.1170,0.2751,0.1488,0.000000,0.615126,-0.616660,0.618194,-0.624330,0.621262,-0.608990
1.3920,0.016755,-0.001704,-1.576932,1.566194,0.0000,0.0000,0.0000,-0.000507,-1.576932,1.566194,0.1865,0.1827,0.0931,0.000000,0.613592,-0.615126,0.615126,-0.619728,0.616660,-0.607456
1.4088,0.016757,-0.001905,-1.576932,1.566194,0.0000,0.0000,0.0000,-0.000898,-1.576932,1.566194,0.1691,0.2116,0.1529,0.000000,0.605922,-0.605922,0.607456,-0.610524,0.607456,-0.599786
1.4258,0.017012,-0.002109,-1.576932,1.566194,0.0000,0.0000,0.0000,-0.001325,-1.576932,1.566194,0.1711,0.1079,0.1459,0.000000,0.596719,-0.596719,0.596719,-0.599786,0.598253,-0.590583
1.4425,0.016712,-0.002310,-1.576932,1.566194,0.0000,0.0000,0.0000,-0.001750,-1.576932,1.566194,0.0615,0.1328,-0.0692,0.000000,0.582913,-0.589049,0.587515,-0.590583,0.589049,-0.581379
1.4593,0.016764,-0.002511,-1.576932,1.566194,0.0000,0.0000,0.0000,-0.002041,-1.576932,1.566194,0.0731,0.1312,0.1141,0.000000,0.576777,-0.581379,0.581379,-0.582913,0.582913,-0.573709
1.4760,0.016757,-0.002712,-1.576932,1.566194,0.0000,0.0000,0.0000,-0.002041,-1.576932,1.566194,0.0731,0.1312,0.1141,0.000000,0.576777,-0.581379,0.581379,-0.582913,0.582913,-0.573709
1.4928,0.016754,-0.002913,-1.576932,1.566194,0.0000,0.0000,0.0000,-0.002358,-1.576932,1.566194,-0.0061,0.2346,0.2016,0.000000,0.569107,-0.572175,0.575243,-0.576777,0.576777,-0.566039
1.5095,0.016754,-0.003114,-1.576932,1.566194,0.0000,0.0000,0.0000,-0.002325,-1.576932,1.566194,0.0020,0.2239,0.1925,0.000000,0.569107,-0.572175,0.575243,-0.576777,0.576777,-0.566039
1.5263,0.016784,-0.003316,-1.576932,1.566194,0.0000,0.0000,0.0000,-0.002664,-1.576932,1.566194,-0.0877,0.2441,0.3526,0.000000,0.562971,-0.562971,0.569107,-0.569107,0.570641,-0.559903
1.5431,0.016762,-0.003517,-1.576932,1.566194,0.0000,0.0000,0.0000,-0.002853,-1.576932,1.566194,0.0105,0.0884,0.3354,0.000000,0.559903,-0.559903,0.562971,-0.562971,0.566039,-0.555301
1.5598,0.016759,-0.003718,-1.576932,1.566194,0.0000,0.0000,0.0000,-0.003232,-1.576932,1.566194,0.0496,0.0882,0.2298,0.000000,0.552233,-0.552233,0.553767,-0.555301,0.556835,-0.547631
1.5766,0.016762,-0.003919,-1.576932,1.566194,0.0000,0.0000,0.0000,-0.003232,-1.576932,1.566194,0.0496,0.0882,0.2298,0.000000,0.552233,-0.552233,0.553767,-0.555301,0.556835,-0.547631
1.5934,0.016752,-0.004120,-1.576932,1.566194,0.0000,0.0000,0.0000,-0.003530,-1.576932,1.566194,-0.0045,0.1747,0.1870,0.000000,0.544563,-0.544563,0.547631,-0.549165,0.549165,-0.541495
1.6101,0.016763,-0.004321,-1.576932,1.566194,0.0000,0.0000,0.0000,-0.003638,-1.576932,1.566194,-0.0488,0.1129,0.1385,0.000000,0.539961,-0.543029,0.544563,-0.546097,0.547631,-0.538427
1.6269,0.016753,-0.004522,-1.576932,1.566194,0.0000,0.0000,0.0000,-0.003677,-1.576932,1.566194,-0.1338,0.2046,0.1435,0.000000,0.536893,-0.541495,0.544563,-0.546097,0.547631,-0.536893
1.6438,0.016904,-0.004725,-1.576932,1.566194,0.0000,0.0000,0.0000,-0.003948,-1.576932,1.566194,-0.0854,0.2305,0.2476,0.000000,0.532291,-0.535359,0.539961,-0.539961,0.541495,-0.530757
1.6605,0.016759,-0.004926,-1.576932,1.566194,0.0000,0.0000,0.0000,-0.003948,-1.576932,1.566194,-0.0854,0.2305,0.2476,0.000000,0.532291,-0.535359,0.539961,-0.539961,0.541495,-0.530757
1.6773,0.016752,-0.004873,-1.576932,1.566194,0.0000,0.0000,0.0000,-0.004385,-1.576932,1.566194,-0.1196,0.2459,0.3925,0.000000,0.523087,-0.524621,0.530757,-0.530757,0.533825,-0.520019
1.6940,0.016753,-0.004672,-1.576932,1.566194,0.0000,0.0000,0.0000,-0.004742,-1.576932,1.566194,-0.0668,0.2282,0.2717,0.000000,0.515418,-0.516952,0.521553,-0.523087,0.524621,-0.512350
1.7108,0.016754,-0.004471,-1.576932,1.566194,0.0000,0.0000,0.0000,-0.004893,-1.576932,1.566194,-0.0032,0.2478,0.2317,0.000000,0.512350,-0.513884,0.518486,-0.518486,0.518486,-0.509282
1.7275,0.016754,-0.004269,-1.576932,1.566194,0.0000,0.0000,0.0000,-0.004915,-1.576932,1.566194,-0.0496,0.1769,0.2878,0.000000,0.512350,-0.512350,0.516952,-0.516952,0.518486,-0.509282
1.7443,0.016761,-0.004068,-1.576932,1.566194,0.0000,0.0000,0.0000,-0.005102,-1.576932,1.566194,-0.0153,0.0974,0.1257,0.000000,0.507748,-0.510816,0.512350,-0.512350,0.513884,-0.506214
1.7611,0.016764,-0.003867,-1.576932,1.566194,0.0000,0.0000,0.0000,-0.005102,-1.576932,1.566194,-0.0153,0.0974,0.1257,0.000000,0.507748,-0.510816,0.512350,-0.512350,0.513884,-0.506214
1.7778,0.016758,-0.003666,-1.576932,1.566194,0.0000,0.0000,0.0000,-0.005083,-1.576932,1.566194,-0.0190,0.1056,0.1425,0.000000,0.507748,-0.510816,0.512350,-0.512350,0.513884,-0.506214
1.7946,0.016750,-0.003465,-1.576932,1.566194,0.0000,0.0000,0.0000,-0.005084,-1.576932,1.566194,-0.0187,0.1050,0.1413,0.000000,0.507748,-0.510816,0.512350,-0.512350,0.513884,-0.506214
1.8113,0.016769,-0.003264,-1.576932,1.566194,0.0000,0.0000,0.0000,-0.005084,-1.576932,1.566194,-0.0187,0.1050,0.1413,0.000000,0.507748,-0.510816,0.512350,-0.512350,0.513884,-0.506214
1.8281,0.016757,-0.003063,-1.576932,1.566194,0.0000,0.0000,0.0000,-0.005084,-1.576932,1.566194,-0.0187,0.1050,0.1413,0.000000,0.507748,-0.510816,0.512350,-0.512350,0.513884,-0.506214
1.8456,0.017491,-0.002853,-1.576932,1.566194,0.0000,0.0000,0.0000,-0.005084,-1.576932,1.566194,-0.0187,0.1050,0.1413,0.000000,0.507748,-0.510816,0.512350,-0.512350,0.513884,-0.506214
1.8624,0.016758,-0.002652,-1.576932,1.566194,0.0000,0.0000,0.0000,-0.005084,-1.576932,1.566194,-0.0187,0.1050,0.1413,0.000000,0.507748,-0.510816,0.512350,-0.512350,0.513884,-0.506214
1.8791,0.016757,-0.002451,-1.576932,1.566194,0.0000,0.0000,0.0000,-0.005072,-1.576932,1.566194,0.0316,0.0879,0.1928,0.000000,0.509282,-0.510816,0.512350,-0.512350,0.513884,-0.506214
1.8959,0.016814,-0.002249,-1.576932,1.566194,0.0000,0.0000,0.0000,-0.005048,-1.576932,1.566194,-0.0032,0.1069,0.1875,0.000000,0.509282,-0.510816,0.512350,-0.513884,0.515418,-0.506214
1.9127,0.016760,-0.002048,-1.576932,1.566194,0.0000,0.0000,0.0000,-0.005051,-1.576932,1.566194,0.0004,0.1049,0.1880,0.000000,0.509282,-0.510816,0.512350,-0.513884,0.515418,-0.506214
1.9294,0.016763,-0.001847,-1.576932,1.566194,0.0000,0.0000,0.0000,-0.005051,-1.576932,1.566194,0.0004,0.1049,0.1880,0.000000,0.509282,-0.510816,0.512350,-0.513884,0.515418,-0.506214
1.9466,0.017127,-0.001641,-1.576932,1.566194,0.0000,0.0000,0.0000,-0.005000,-1.576932,1.566194,0.0001,0.1392,0.1880,0.000000,0.509282,-0.512350,0.513884,-0.515418,0.516952,-0.506214
1.9633,0.016765,-0.001440,-1.576932,1.566194,0.0000,0.0000,0.0000,-0.005000,-1.576932,1.566194,0.0001,0.1392,0.1880,0.000000,0.509282,-0.512350,0.513884,-0.515418,0.516952,-0.506214
1.9801,0.016762,-0.001239,-1.576932,1.566194,0.0000,0.0000,0.0000,-0.004980,-1.576932,1.566194,0.0605,0.1707,0.1880,0.000000,0.510816,-0.512350,0.513884,-0.516952,0.516952,-0.506214
1.9969,0.016762,-0.001038,-1.576932,1.566194,0.0000,0.0000,0.0000,-0.004919,-1.576932,1.566194,0.1247,0.2204,0.1360,0.000000,0.513884,-0.512350,0.513884,-0.520019,0.516952,-0.507748
2.0136,0.016770,-0.000836,-1.576932,1.566194,0.0000,0.0000,0.0000,-0.004876,-1.576932,1.566194,0.2389,0.2855,0.1414,0.000000,0.516952,-0.512350,0.513884,-0.523087,0.516952,-0.507748
2.0304,0.016757,-0.000635,-1.576932,1.566194,0.0000,0.0000,0.0000,-0.004782,-1.576932,1.566194,0.3482,0.4187,0.1412,0.000000,0.521553,-0.512350,0.515418,-0.527689,0.516952,-0.509282
2.0471,0.016753,-0.000434,-1.576932,1.566194,0.0000,0.0000,0.0000,-0.004782,-1.576932,1.566194,0.3482,0.4187,0.1412,0.000000,0.527689,-0.513884,0.520019,-0.535359,0.521553,-0.513884
2.0639,0.016758,-0.000233,-1.576932,1.566194,0.0000,0.0000,0.0000,-0.004554,-1.576932,1.566194,0.3281,0.5620,0.1934,0.000000,0.527689,-0.513884,0.520019,-0.535359,0.521553,-0.513884
2.0807,0.016750,-0.000032,-1.576932,1.566194,0.0000,0.0000,0.0000,-0.004265,-1.576932,1.566194,0.3905,0.6869,0.3460,0.000000,0.535359,-0.518486,0.527689,-0.543029,0.527689,-0.518486
2.0974,0.016752,0.000169,-1.576932,1.566194,0.0000,0.0000,0.0000,-0.003981,-1.576932,1.566194,0.3340,0.6552,0.2784,0.000000,0.541495,-0.524621,0.533825,-0.549165,0.533825,-0.526155
2.1142,0.016754,0.000370,-1.576932,1.566194,0.0000,0.0000,0.0000,-0.003674,-1.576932,1.566194,0.4001,0.7286,0.4447,0.000000,0.549165,-0.530757,0.541495,-0.556835,0.541495,-0.530757
2.1309,0.016761,0.000571,-1.576932,1.566194,0.0000,0.0000,0.0000,-0.003431,-1.576932,1.566194,0.3641,0.7038,0.4282,0.000000,0.555301,-0.535359,0.546097,-0.562971,0.547631,-0.536893
2.1478,0.016880,0.000774,-1.576932,1.566194,0.0000,0.0000,0.0000,-0.003057,-1.576932,1.566194,0.3783,0.7920,0.5375,0.000000,0.562971,-0.543029,0.555301,-0.572175,0.556835,-0.543029
2.1646,0.016758,0.000975,-1.576932,1.566194,0.0000,0.0000,0.0000,-0.003057,-1.576932,1.566194,0.3783,0.7920,0.5375,0.000000,0.562971,-0.543029,0.555301,-0.572175,0.556835,-0.543029
2.1813,0.016750,0.001176,-1.576932,1.566194,0.0000,0.0000,0.0000,-0.002809,-1.576932,1.566194,0.5062,0.7979,0.4753,0.000000,0.569107,-0.550699,0.561437,-0.578311,0.561437,-0.547631
2.1981,0.016762,0.001377,-1.576932,1.566194,0.0000,0.0000,0.0000,-0.002548,-1.576932,1.566194,0.4819,0.7449,0.5369,0.000000,0.575243,-0.556835,0.567573,-0.582913,0.567573,-0.553767
2.2148,0.016751,0.001578,-1.576932,1.566194,0.0000,0.0000,0.0000,-0.002202,-1.576932,1.566194,0.4845,0.7490,0.5325,0.000000,0.582913,-0.564505,0.575243,-0.590583,0.575243,-0.561437
2.2316,0.016753,0.001779,-1.576932,1.566194,0.0000,0.0000,0.0000,-0.002028,-1.576932,1.566194,0.6126,0.7639,0.4813,0.000000,0.587515,-0.570641,0.579845,-0.595185,0.578311,-0.564505
2.2483,0.016755,0.001980,-1.576932,1.566194,0.0000,0.0000,0.0000,-0.002028,-1.576932,1.566194,0.6126,0.7639,0.4813,0.000000,0.595185,-0.576777,0.585981,-0.601320,0.584447,-0.569107
2.2651,0.016757,0.002181,-1.576932,1.566194,0.0000,0.0000,0.0000,-0.001750,-1.576932,1.566194,0.6980,0.7632,0.5964,0.000000,0.595185,-0.576777,0.585981,-0.601320,0.584447,-0.569107
2.2818,0.016749,0.002382,-1.576932,1.566194,0.0000,0.0000,0.0000,-0.001494,-1.576932,1.566194,0.7277,0.7959,0.5327,0.000000,0.601320,-0.582913,0.592117,-0.607456,0.589049,-0.575243
2.2986,0.016751,0.002583,-1.576932,1.566194,0.0000,0.0000,0.0000,-0.001225,-1.576932,1.566194,0.7239,0.7910,0.5410,0.000000,0.607456,-0.589049,0.598253,-0.613592,0.595185,-0.581379
2.3153,0.016747,0.002784,-1.576932,1.566194,0.0000,0.0000,0.0000,-0.001007,-1.576932,1.566194,0.7622,0.8260,0.6506,0.000000,0.613592,-0.593651,0.604388,-0.618194,0.599786,-0.585981
2.3324,0.017106,0.002989,-1.576932,1.566194,0.0000,0.0000,0.0000,-0.000796,-1.576932,1.566194,0.7966,0.7859,0.5865,0.000000,0.618194,-0.599786,0.608990,-0.622796,0.604388,-0.590583
2.3492,0.016763,0.003190,-1.576932,1.566194,0.0000,0.0000,0.0000,-0.000796,-1.576932,1.566194,0.7966,0.7859,0.5865,0.000000,0.618194,-0.599786,0.608990,-0.622796,0.604388,-0.590583
2.3660,0.016766,0.003392,-1.576932,1.566194,0.0000,0.0000,0.0000,-0.000560,-1.576932,1.566194,0.8309,0.7212,0.5407,0.000000,0.624330,-0.605922,0.613592,-0.627398,0.608990,-0.596719
2.3827,0.016756,0.003593,-1.576932,1.566194,0.0000,0.0000,0.0000,-0.000314,-1.576932,1.566194,0.8161,0.7755,0.4379,0.000000,0.628932,-0.612058,0.619728,-0.633534,0.613592,-0.602854
2.3995,0.016758,0.003794,-1.576932,1.566194,0.0000,0.0000,0.0000,-0.000072,-1.576932,1.566194,0.8271,0.8205,0.5595,0.000000,0.635068,-0.616660,0.625864,-0.639670,0.619728,-0.607456
2.4162,0.016754,0.003995,-1.576932,1.566194,0.0000,0.0000,0.0000,0.000183,-1.576932,1.566194,0.8635,0.8477,0.4941,0.000000,0.641204,-0.622796,0.632000,-0.645806,0.624330,-0.613592
2.4330,0.016808,0.004197,-1.576932,1.566194,0.0000,0.0000,0.0000,0.000412,-1.576932,1.566194,0.8969,0.7765,0.4476,0.000000,0.647340,-0.628932,0.636602,-0.650408,0.628932,-0.619728
2.4498,0.016758,0.004398,-1.576932,1.566194,0.0000,0.0000,0.0000,0.000412,-1.576932,1.566194,0.8969,0.7765,0.4476,0.000000,0.653476,-0.633534,0.641204,-0.656544,0.635068,-0.625864
2.4666,0.016768,0.004599,-1.576932,1.566194,0.0000,0.0000,0.0000,0.000654,-1.576932,1.566194,0.8646,0.7670,0.4532,0.000000,0.653476,-0.633534,0.641204,-0.656544,0.635068,-0.625864
2.4833,0.016750,0.004800,-1.576932,1.566194,0.0000,0.0000,0.0000,0.000907,-1.576932,1.566194,0.9155,0.7834,0.5094,0.000000,0.659612,-0.639670,0.647340,-0.662680,0.641204,-0.630466
2.5001,0.016759,0.004999,-1.576932,1.566194,0.0000,0.0000,0.0000,0.001121,-1.576932,1.566194,0.9091,0.8799,0.5050,0.000000,0.664214,-0.644272,0.653476,-0.668816,0.645806,-0.635068
2.5168,0.016750,0.004798,-1.576932,1.566194,0.0000,0.0000,0.0000,0.001327,-1.576932,1.566194,0.9570,0.8536,0.5626,0.000000,0.670350,-0.648874,0.658078,-0.673418,0.650408,-0.639670
2.5343,0.017426,0.004589,-1.576932,1.566194,0.0000,0.0000,0.0000,0.001592,-1.576932,1.566194,0.9728,0.8540,0.4465,0.000000,0.676486,-0.655010,0.662680,-0.681087,0.656544,-0.645806
2.5510,0.016762,0.004388,-1.576932,1.566194,0.0000,0.0000,0.0000,0.001840,-1.576932,1.566194,1.0449,0.9516,0.5170,0.000000,0.682621,-0.661146,0.670350,-0.687223,0.661146,-0.650408
2.5678,0.016762,0.004187,-1.576932,1.566194,0.0000,0.0000,0.0000,0.001840,-1.576932,1.566194,1.0449,0.9516,0.5170,0.000000,0.682621,-0.661146,0.670350,-0.687223,0.661146,-0.650408
2.5845,0.016750,0.003986,-1.576932,1.566194,0.0000,0.0000,0.0000,0.002148,-1.576932,1.566194,1.1311,0.8425,0.6236,0.000000,0.691825,-0.668816,0.676486,-0.693359,0.668816,-0.656544
2.6013,0.016753,0.003785,-1.576932,1.566194,0.0000,0.0000,0.0000,0.002328,-1.576932,1.566194,1.1800,0.9183,0.6139,0.000000,0.696427,-0.673418,0.681087,-0.699495,0.673418,-0.659612
2.6181,0.016780,0.003583,-1.576932,1.566194,0.0000,0.0000,0.0000,0.002439,-1.576932,1.566194,1.1849,0.8599,0.5592,0.000000,0.699495,-0.676486,0.682621,-0.702563,0.676486,-0.662680
2.6348,0.016779,0.003382,-1.576932,1.566194,0.0000,0.0000,0.0000,0.002476,-1.576932,1.566194,1.2473,0.9158,0.6788,0.000000,0.701029,-0.678020,0.685689,-0.702563,0.676486,-0.662680
2.6516,0.016756,0.003181,-1.576932,1.566194,0.0000,0.0000,0.0000,0.002485,-1.576932,1.566194,1.2783,0.8751,0.6102,0.000000,0.701029,-0.679553,0.685689,-0.702563,0.676486,-0.662680
2.6684,0.016785,0.002979,-1.576932,1.566194,0.0000,0.0000,0.0000,0.002485,-1.576932,1.566194,1.2783,0.8751,0.6102,0.000000,0.701029,-0.679553,0.685689,-0.702563,0.676486,-0.662680
2.6851,0.016749,0.002778,-1.576932,1.566194,0.0000,0.0000,0.0000,0.002484,-1.576932,1.566194,1.2750,0.8794,0.6174,0.000000,0.701029,-0.679553,0.685689,-0.702563,0.676486,-0.662680
2.7019,0.016752,0.002577,-1.576932,1.566194,0.0000,0.0000,0.0000,0.002484,-1.576932,1.566194,1.2750,0.8794,0.6174,0.000000,0.701029,-0.679553,0.685689,-0.702563,0.676486,-0.662680
2.7186,0.016747,0.002376,-1.576932,1.566194,0.0000,0.0000,0.0000,0.002484,-1.576932,1.566194,1.2750,0.8794,0.6174,0.000000,0.701029,-0.679553,0.685689,-0.702563,0.676486,-0.662680
2.7354,0.016761,0.002175,-1.576932,1.566194,0.0000,0.0000,0.0000,0.002461,-1.576932,1.566194,1.1901,0.9275,0.6160,0.000000,0.699495,-0.678020,0.685689,-0.702563,0.676486,-0.662680
2.7521,0.016758,0.001974,-1.576932,1.566194,0.0000,0.0000,0.0000,0.002461,-1.576932,1.566194,1.1901,0.9275,0.6160,0.000000,0.699495,-0.678020,0.685689,-0.702563,0.676486,-0.662680
2.7689,0.016760,0.001773,-1.576932,1.566194,0.0000,0.0000,0.0000,0.002432,-1.576932,1.566194,1.0814,0.8807,0.4459,0.000000,0.694893,-0.679553,0.685689,-0.701029,0.676486,-0.662680
2.7857,0.016748,0.001572,-1.576932,1.566194,0.0000,0.0000,0.0000,0.002312,-1.576932,1.566194,0.8081,0.6631,0.4044,0.000000,0.687223,-0.679553,0.684155,-0.693359,0.676486,-0.662680
2.8024,0.016752,0.001371,-1.576932,1.566194,0.0000,0.0000,0.0000,0.002162,-1.576932,1.566194,0.4296,0.3805,0.4058,0.000000,0.678020,-0.678020,0.681087,-0.684155,0.678020,-0.662680
2.8192,0.016797,0.001170,-1.576932,1.566194,0.0000,0.0000,0.0000,0.001963,-1.576932,1.566194,0.1584,0.0738,0.1808,0.000000,0.668816,-0.676486,0.674952,-0.674952,0.676486,-0.662680
2.8360,0.016765,0.000968,-1.576932,1.566194,0.0000,0.0000,0.0000,0.001963,-1.576932,1.566194,0.1584,0.0738,0.1808,0.000000,0.668816,-0.676486,0.674952,-0.674952,0.676486,-0.662680
2.8527,0.016752,0.000767,-1.576932,1.566194,0.0000,0.0000,0.0000,0.001816,-1.576932,1.566194,-0.0235,-0.0581,0.0927,0.000000,0.664214,-0.671884,0.668816,-0.670350,0.674952,-0.662680
2.8695,0.016759,0.000566,-1.576932,1.566194,0.0000,0.0000,0.0000,0.001593,-1.576932,1.566194,-0.0811,0.0617,-0.1212,0.000000,0.659612,-0.664214,0.662680,-0.667282,0.667282,-0.661146
2.8862,0.016759,0.000365,-1.576932,1.566194,0.0000,0.0000,0.0000,0.000943,-1.576932,1.566194,-0.0052,0.2400,0.0118,0.000000,0.648874,-0.645806,0.648874,-0.655010,0.650408,-0.647340
2.9030,0.016760,0.000164,-1.576932,1.566194,0.0000,0.0000,0.0000,0.000828,-1.576932,1.566194,0.0734,0.2044,0.1640,0.000000,0.645806,-0.642738,0.645806,-0.650408,0.647340,-0.641204
2.9198,0.016758,-0.000037,-1.576932,1.566194,0.0000,0.0000,0.0000,0.000501,-1.576932,1.566194,0.1414,0.1398,0.0377,0.000000,0.638136,-0.638136,0.638136,-0.642738,0.639670,-0.633534
2.9365,0.016758,-0.000238,-1.576932,1.566194,0.0000,0.0000,0.0000,0.000501,-1.576932,1.566194,0.1414,0.1398,0.0377,0.000000,0.638136,-0.638136,0.638136,-0.642738,0.639670,-0.633534
2.9533,0.016752,-0.000439,-1.576932,1.566194,0.0000,0.0000,0.0000,0.000207,-1.576932,1.566194,0.2110,0.1100,0.1054,0.000000,0.630466,-0.633534,0.632000,-0.635068,0.633534,-0.624330
2.9701,0.016790,-0.000641,-1.576932,1.566194,0.0000,0.0000,0.0000,-0.000055,-1.576932,1.566194,0.1557,0.1616,0.2076,0.000000,0.622796,-0.627398,0.627398,-0.628932,0.628932,-0.616660
2.9868,0.016759,-0.000842,-1.576932,1.566194,0.0000,0.0000,0.0000,-0.000211,-1.576932,1.566194,0.1123,0.2415,0.1420,0.000000,0.618194,-0.622796,0.624330,-0.625864,0.624330,-0.613592
3.0036,0.016757,-0.001043,-1.576932,1.566194,0.0000,0.0000,0.0000,-0.000354,-1.576932,1.566194,0.0714,0.2204,0.0938,0.000000,0.616660,-0.616660,0.618194,-0.624330,0.621262,-0.612058
3.0205,0.016887,-0.001246,-1.576932,1.566194,0.0000,0.0000,0.0000,-0.000719,-1.576932,1.566194,0.0967,0.1917,0.1528,0.000000,0.610524,-0.607456,0.608990,-0.616660,0.613592,-0.604388
3.0372,0.016764,-0.001447,-1.576932,1.566194,0.0000,0.0000,0.0000,-0.000719,-1.576932,1.566194,0.0967,0.1917,0.1528,0.000000,0.610524,-0.607456,0.608990,-0.616660,0.613592,-0.604388
3.0540,0.016754,-0.001648,-1.576932,1.566194,0.0000,0.0000,0.0000,-0.001061,-1.576932,1.566194,0.1219,0.2107,-0.0164,0.000000,0.601320,-0.601320,0.601320,-0.608990,0.604388,-0.596719
3.0707,0.016755,-0.001849,-1.576932,1.566194,0.0000,0.0000,0.0000,-0.001271,-1.576932,1.566194,-0.0006,0.1074,0.0013,0.000000,0.595185,-0.596719,0.596719,-0.601320,0.599786,-0.593651
3.0875,0.016759,-0.002050,-1.576932,1.566194,0.0000,0.0000,0.0000,-0.001336,-1.576932,1.566194,0.0298,-0.0184,0.0536,0.000000,0.593651,-0.596719,0.595185,-0.596719,0.598253,-0.592117
3.1042,0.016758,-0.002251,-1.576932,1.566194,0.0000,0.0000,0.0000,-0.001502,-1.576932,1.566194,0.0551,0.2476,0.0482,0.000000,0.587515,-0.593651,0.595185,-0.595185,0.593651,-0.585981
3.1210,0.016761,-0.002452,-1.576932,1.566194,0.0000,0.0000,0.0000,-0.001856,-1.576932,1.566194,0.1411,0.3741,0.0487,0.000000,0.579845,-0.585981,0.589049,-0.589049,0.584447,-0.576777
3.1378,0.016761,-0.002653,-1.576932,1.566194,0.0000,0.0000,0.0000,-0.001856,-1.576932,1.566194,0.1411,0.3741,0.0487,0.000000,0.579845,-0.585981,0.589049,-0.589049,0.584447,-0.576777
3.1545,0.016752,-0.002854,-1.576932,1.566194,0.0000,0.0000,0.0000,-0.002253,-1.576932,1.566194,0.1044,0.3098,0.2087,0.000000,0.570641,-0.576777,0.579845,-0.579845,0.578311,-0.566039
3.1713,0.016754,-0.003055,-1.576932,1.566194,0.0000,0.0000,0.0000,-0.002511,-1.576932,1.566194,0.0122,0.2504,0.4048,0.000000,0.566039,-0.567573,0.572175,-0.573709,0.575243,-0.559903
3.1880,0.016753,-0.003256,-1.576932,1.566194,0.0000,0.0000,0.0000,-0.002609,-1.576932,1.566194,-0.0277,0.1377,0.4909,0.000000,0.564505,-0.564505,0.569107,-0.569107,0.573709,-0.558369
3.2048,0.016756,-0.003457,-1.576932,1.566194,0.0000,0.0000,0.0000,-0.002709,-1.576932,1.566194,-0.0454,0.1852,0.4281,0.000000,0.562971,-0.561437,0.567573,-0.566039,0.569107,-0.558369
3.2216,0.016764,-0.003659,-1.576932,1.566194,0.0000,0.0000,0.0000,-0.003085,-1.576932,1.566194,0.0054,0.2340,0.4859,0.000000,0.556835,-0.552233,0.559903,-0.558369,0.559903,-0.550699
3.2383,0.016754,-0.003860,-1.576932,1.566194,0.0000,0.0000,0.0000,-0.003085,-1.576932,1.566194,0.0054,0.2340,0.4859,0.000000,0.556835,-0.552233,0.559903,-0.558369,0.559903,-0.550699
3.2551,0.016748,-0.004061,-1.576932,1.566194,0.0000,0.0000,0.0000,-0.003458,-1.576932,1.566194,-0.0000,0.2294,0.3192,0.000000,0.547631,-0.544563,0.550699,-0.550699,0.550699,-0.543029
3.2718,0.016752,-0.004262,-1.576932,1.566194,0.0000,0.0000,0.0000,-0.003695,-1.576932,1.566194,0.0404,0.0558,0.1247,0.000000,0.539961,-0.543029,0.543029,-0.544563,0.546097,-0.536893
3.2886,0.016748,-0.004463,-1.576932,1.566194,0.0000,0.0000,0.0000,-0.003796,-1.576932,1.566194,-0.0642,0.1408,0.0395,0.000000,0.533825,-0.541495,0.541495,-0.543029,0.544563,-0.533825
3.3053,0.016755,-0.004664,-1.576932,1.566194,0.0000,0.0000,0.0000,-0.003836,-1.576932,1.566194,-0.1028,0.1490,0.1537,0.000000,0.532291,-0.539961,0.541495,-0.541495,0.544563,-0.532291
3.3221,0.016770,-0.004865,-1.576932,1.566194,0.0000,0.0000,0.0000,-0.003836,-1.576932,1.566194,-0.1028,0.1490,0.1537,0.000000,0.524621,-0.530757,0.533825,-0.535359,0.538427,-0.526155
3.3388,0.016760,-0.004934,-1.576932,1.566194,0.0000,0.0000,0.0000,-0.004183,-1.576932,1.566194,-0.2181,0.1837,0.1413,0.000000,0.524621,-0.530757,0.533825,-0.535359,0.538427,-0.526155
3.3556,0.016763,-0.004733,-1.576932,1.566194,0.0000,0.0000,0.0000,-0.004599,-1.576932,1.566194,-0.1468,0.2857,0.1414,0.000000,0.516952,-0.520019,0.524621,-0.527689,0.527689,-0.516952
3.3724,0.016773,-0.004532,-1.576932,1.566194,0.0000,0.0000,0.0000,-0.004599,-1.576932,1.566194,-0.1468,0.2857,0.1414,0.000000,0.516952,-0.520019,0.524621,-0.527689,0.527689,-0.516952
3.3891,0.016761,-0.004330,-1.576932,1.566194,0.0000,0.0000,0.0000,-0.004858,-1.576932,1.567728,-0.0140,0.2074,0.3493,0.000000,0.513884,-0.513884,0.518486,-0.520019,0.521553,-0.509282
3.4059,0.016758,-0.004129,-1.576932,1.566194,0.0000,0.0000,0.0000,-0.004932,-1.576932,1.566194,0.0120,0.2167,0.4315,0.000000,0.513884,-0.510816,0.516952,-0.516952,0.518486,-0.507748
3.4226,0.016753,-0.003928,-1.576932,1.566194,0.0000,0.0000,0.0000,-0.004962,-1.576932,1.566194,0.0490,0.1466,0.3709,0.000000,0.513884,-0.510816,0.515418,-0.515418,0.516952,-0.507748
3.4394,0.016754,-0.003727,-1.576932,1.566194,0.0000,0.0000,0.0000,-0.005085,-1.576932,1.566194,0.0647,0.0146,0.2728,0.000000,0.510816,-0.510816,0.512350,-0.510816,0.513884,-0.506214
3.4562,0.016760,-0.003526,-1.576932,1.566194,0.0000,0.0000,0.0000,-0.005085,-1.576932,1.566194,0.0128,0.0452,0.2311,0.000000,0.509282,-0.510816,0.512350,-0.510816,0.513884,-0.506214
3.4729,0.016766,-0.003325,-1.576932,1.566194,0.0000,0.0000,0.0000,-0.005085,-1.576932,1.566194,0.0128,0.0452,0.2311,0.000000,0.509282,-0.510816,0.512350,-0.510816,0.513884,-0.506214
3.4897,0.016760,-0.003124,-1.576932,1.566194,0.0000,0.0000,0.0000,-0.005072,-1.576932,1.566194,0.0283,0.0941,0.1835,0.000000,0.509282,-0.510816,0.512350,-0.512350,0.513884,-0.506214
3.5064,0.016755,-0.002923,-1.576932,1.566194,0.0000,0.0000,0.0000,-0.005073,-1.576932,1.566194,0.0267,0.0890,0.1884,0.000000,0.509282,-0.510816,0.512350,-0.512350,0.513884,-0.506214
3.5232,0.016763,-0.002722,-1.576932,1.566194,0.0000,0.0000,0.0000,-0.005073,-1.576932,1.566194,0.0267,0.0890,0.1884,0.000000,0.509282,-0.510816,0.512350,-0.512350,0.513884,-0.506214
3.5400,0.016751,-0.002521,-1.576932,1.566194,0.0000,0.0000,0.0000,-0.005086,-1.576932,1.566194,0.0168,0.0375,0.2399,0.000000,0.509282,-0.510816,0.512350,-0.510816,0.513884,-0.506214
3.5567,0.016763,-0.002319,-1.576932,1.566194,0.0000,0.0000,0.0000,-0.005086,-1.576932,1.566194,0.0168,0.0375,0.2399,0.000000,0.510816,-0.510816,0.512350,-0.510816,0.515418,-0.506214
3.5735,0.016754,-0.002118,-1.576932,1.566194,0.0000,0.0000,0.0000,-0.005059,-1.576932,1.566194,0.0283,-0.0090,0.3385,0.000000,0.510816,-0.510816,0.512350,-0.510816,0.515418,-0.506214
3.5902,0.016753,-0.001917,-1.576932,1.566194,0.0000,0.0000,0.0000,-0.005050,-1.576932,1.566194,0.0372,0.0480,0.2763,0.000000,0.510816,-0.510816,0.512350,-0.512350,0.515418,-0.506214
3.6070,0.016756,-0.001716,-1.576932,1.566194,0.0000,0.0000,0.0000,-0.005038,-1.576932,1.566194,0.0865,0.0252,0.3347,0.000000,0.512350,-0.510816,0.512350,-0.512350,0.515418,-0.506214
3.6237,0.016757,-0.001515,-1.576932,1.566194,0.0000,0.0000,0.0000,-0.004989,-1.576932,1.566194,0.0815,0.0617,0.3288,0.000000,0.512350,-0.512350,0.513884,-0.513884,0.516952,-0.506214
3.6405,0.016753,-0.001314,-1.576932,1.566194,0.0000,0.0000,0.0000,-0.004969,-1.576932,1.566194,0.1022,0.1620,0.2253,0.000000,0.512350,-0.512350,0.513884,-0.516952,0.516952,-0.506214
3.6572,0.016750,-0.001113,-1.576932,1.566194,0.0000,0.0000,0.0000,-0.004946,-1.576932,1.566194,0.1604,0.1867,0.2361,0.000000,0.513884,-0.512350,0.513884,-0.518486,0.516952,-0.506214
3.6740,0.016759,-0.000912,-1.576932,1.566194,0.0000,0.0000,0.0000,-0.004946,-1.576932,1.566194,0.1604,0.1867,0.2361,0.000000,0.513884,-0.512350,0.513884,-0.518486,0.516952,-0.506214
3.6908,0.016755,-0.000711,-1.576932,1.566194,0.0000,0.0000,0.0000,-0.004898,-1.576932,1.566194,0.1746,0.2539,0.1309,0.000000,0.515418,-0.512350,0.513884,-0.521553,0.516952,-0.507748
3.7075,0.016756,-0.000510,-1.576932,1.566194,0.0000,0.0000,0.0000,-0.004753,-1.576932,1.566194,0.2442,0.4725,0.2461,0.000000,0.518486,-0.513884,0.518486,-0.527689,0.520019,-0.507748
3.7243,0.016756,-0.000309,-1.576932,1.566194,0.0000,0.0000,0.0000,-0.004581,-1.576932,1.566194,0.3180,0.5552,0.2867,0.000000,0.524621,-0.515418,0.521553,-0.533825,0.523087,-0.510816
3.7410,0.016758,-0.000108,-1.576932,1.566194,0.0000,0.0000,0.0000,-0.004322,-1.576932,1.566194,0.3103,0.6156,0.2834,0.000000,0.530757,-0.520019,0.527689,-0.539961,0.527689,-0.516952
3.7578,0.016764,0.000093,-1.576932,1.566194,0.0000,0.0000,0.0000,-0.004049,-1.576932,1.566194,0.2921,0.6788,0.3890,0.000000,0.536893,-0.524621,0.533825,-0.547631,0.535359,-0.521553
3.7745,0.016757,0.000295,-1.576932,1.566194,0.0000,0.0000,0.0000,-0.004049,-1.576932,1.566194,0.2921,0.6788,0.3890,0.000000,0.536893,-0.524621,0.533825,-0.547631,0.535359,-0.521553
3.7913,0.016752,0.000496,-1.576932,1.566194,0.0000,0.0000,0.0000,-0.003778,-1.576932,1.566194,0.3043,0.6905,0.4846,0.000000,0.544563,-0.529223,0.539961,-0.553767,0.541495,-0.527689
3.8081,0.016755,0.000697,-1.576932,1.566194,0.0000,0.0000,0.0000,-0.003143,-1.576932,1.566194,0.3535,0.7048,0.5311,0.000000,0.558369,-0.543029,0.553767,-0.567573,0.555301,-0.539961
3.8248,0.016764,0.000898,-1.576932,1.566194,0.0000,0.0000,0.0000,-0.003210,-1.576932,1.566194,0.3482,0.7033,0.5262,0.000000,0.558369,-0.543029,0.553767,-0.567573,0.555301,-0.539961
3.8416,0.016767,0.001099,-1.576932,1.566194,0.0000,0.0000,0.0000,-0.002916,-1.576932,1.566194,0.3989,0.7201,0.5816,0.000000,0.564505,-0.549165,0.559903,-0.573709,0.561437,-0.544563
3.8583,0.016760,0.001300,-1.576932,1.566194,0.0000,0.0000,0.0000,-0.002916,-1.576932,1.566194,0.3989,0.7201,0.5816,0.000000,0.572175,-0.555301,0.566039,-0.581379,0.566039,-0.550699
3.8751,0.016765,0.001501,-1.576932,1.566194,0.0000,0.0000,0.0000,-0.002636,-1.576932,1.566194,0.4934,0.7869,0.5249,0.000000,0.572175,-0.555301,0.566039,-0.581379,0.566039,-0.550699
3.8919,0.016750,0.001702,-1.576932,1.566194,0.0000,0.0000,0.0000,-0.002068,-1.576932,1.566194,0.6012,0.7091,0.5355,0.000000,0.585981,-0.569107,0.578311,-0.592117,0.576777,-0.562971
3.9086,0.016765,0.001903,-1.576932,1.566194,0.0000,0.0000,0.0000,-0.002128,-1.576932,1.566194,0.5897,0.7174,0.5344,0.000000,0.585981,-0.569107,0.578311,-0.592117,0.576777,-0.562971
3.9254,0.016756,0.002105,-1.576932,1.566194,0.0000,0.0000,0.0000,-0.001590,-1.576932,1.566194,0.7003,0.7675,0.5918,0.000000,0.598253,-0.579845,0.589049,-0.604388,0.587515,-0.572175
3.9422,0.016804,0.002306,-1.576932,1.566194,0.0000,0.0000,0.0000,-0.001388,-1.576932,1.566194,0.6770,0.7792,0.6418,0.000000,0.604388,-0.584447,0.595185,-0.608990,0.592117,-0.578311
3.9590,0.016770,0.002507,-1.576932,1.566194,0.0000,0.0000,0.0000,-0.001388,-1.576932,1.566194,0.6770,0.7792,0.6418,0.000000,0.610524,-0.592117,0.601320,-0.613592,0.596719,-0.584447
3.9757,0.016771,0.002709,-1.576932,1.566194,0.0000,0.0000,0.0000,-0.001124,-1.576932,1.566194,0.7462,0.7245,0.5851,0.000000,0.610524,-0.592117,0.601320,-0.613592,0.596719,-0.584447
3.9925,0.016757,0.002910,-1.576932,1.566194,0.0000,0.0000,0.0000,-0.000881,-1.576932,1.566194,0.7380,0.7980,0.5931,0.000000,0.616660,-0.596719,0.607456,-0.619728,0.601320,-0.590583
4.0092,0.016768,0.003111,-1.576932,1.566194,0.0000,0.0000,0.0000,-0.000625,-1.576932,1.566194,0.7874,0.8062,0.6486,0.000000,0.622796,-0.602854,0.613592,-0.625864,0.607456,-0.595185
4.0260,0.016793,0.003312,-1.576932,1.566194,0.0000,0.0000,0.0000,-0.000405,-1.576932,1.566194,0.7711,0.7517,0.5352,0.000000,0.627398,-0.608990,0.618194,-0.630466,0.612058,-0.601320
4.0428,0.016764,0.003514,-1.576932,1.566194,0.0000,0.0000,0.0000,-0.000172,-1.576932,1.566194,0.8708,0.7565,0.4943,0.000000,0.633534,-0.615126,0.622796,-0.636602,0.616660,-0.605922
4.0596,0.016763,0.003715,-1.576932,1.566194,0.0000,0.0000,0.0000,-0.000172,-1.576932,1.566194,0.8708,0.7565,0.4943,0.000000,0.633534,-0.615126,0.622796,-0.636602,0.616660,-0.605922
4.0763,0.016777,0.003916,-1.576932,1.566194,0.0000,0.0000,0.0000,0.000083,-1.576932,1.566194,0.8204,0.7895,0.5548,0.000000,0.639670,-0.619728,0.628932,-0.642738,0.622796,-0.612058
4.0931,0.016755,0.004117,-1.576932,1.566194,0.0000,0.0000,0.0000,0.000349,-1.576932,1.566194,0.8245,0.7843,0.5501,0.000000,0.645806,-0.625864,0.635068,-0.648874,0.628932,-0.618194
4.1099,0.016757,0.004318,-1.576932,1.566194,0.0000,0.0000,0.0000,0.000564,-1.576932,1.566194,0.7854,0.8164,0.4415,0.000000,0.650408,-0.630466,0.639670,-0.655010,0.633534,-0.624330
4.1266,0.016751,0.004519,-1.576932,1.566194,0.0000,0.0000,0.0000,0.000796,-1.576932,1.566194,0.8646,0.8121,0.5101,0.000000,0.656544,-0.636602,0.645806,-0.659612,0.638136,-0.628932
4.1436,0.016966,0.004723,-1.576932,1.566194,0.0000,0.0000,0.0000,0.001024,-1.576932,1.566194,0.8765,0.8127,0.5593,0.000000,0.662680,-0.641204,0.650408,-0.665748,0.644272,-0.633534
4.1603,0.016758,0.004924,-1.576932,1.566194,0.0000,0.0000,0.0000,0.001024,-1.576932,1.566194,0.8765,0.8127,0.5593,0.000000,0.662680,-0.641204,0.650408,-0.665748,0.644272,-0.633534
4.1771,0.016765,0.004875,-1.576932,1.566194,0.0000,0.0000,0.0000,0.001252,-1.576932,1.566194,0.9721,0.8114,0.5007,0.000000,0.668816,-0.647340,0.655010,-0.671884,0.648874,-0.638136
4.1939,0.016760,0.004674,-1.576932,1.566194,0.0000,0.0000,0.0000,0.001492,-1.576932,1.566194,0.9709,0.8615,0.6195,0.000000,0.674952,-0.651942,0.661146,-0.678020,0.655010,-0.642738
4.2107,0.016869,0.004471,-1.576932,1.566194,0.0000,0.0000,0.0000,0.001743,-1.576932,1.566194,1.0075,0.8875,0.5537,0.000000,0.681087,-0.658078,0.667282,-0.684155,0.659612,-0.648874
4.2275,0.016757,0.004270,-1.576932,1.566194,0.0000,0.0000,0.0000,0.001978,-1.576932,1.566194,1.0987,0.9163,0.6742,0.000000,0.687223,-0.664214,0.673418,-0.690291,0.665748,-0.651942
4.2446,0.017107,0.004065,-1.576932,1.566194,0.0000,0.0000,0.0000,0.002203,-1.576932,1.566194,1.1847,0.9118,0.6078,0.000000,0.693359,-0.670350,0.678020,-0.696427,0.670350,-0.656544
4.2614,0.016790,0.003863,-1.576932,1.566194,0.0000,0.0000,0.0000,0.002203,-1.576932,1.566194,1.1847,0.9118,0.6078,0.000000,0.693359,-0.670350,0.678020,-0.696427,0.670350,-0.656544
4.2781,0.016758,0.003662,-1.576932,1.566194,0.0000,0.0000,0.0000,0.002369,-1.576932,1.566194,1.2601,0.9605,0.6169,0.000000,0.697961,-0.674952,0.682621,-0.701029,0.673418,-0.659612
4.2950,0.016850,0.003460,-1.576932,1.566194,0.0000,0.0000,0.0000,0.002410,-1.576932,1.566194,1.2628,0.9055,0.5597,0.000000,0.699495,-0.676486,0.682621,-0.702563,0.674952,-0.661146
4.3119,0.016887,0.003257,-1.576932,1.566194,0.0000,0.0000,0.0000,0.002406,-1.576932,1.566194,1.2625,0.9112,0.5657,0.000000,0.699495,-0.676486,0.682621,-0.702563,0.674952,-0.661146
4.3289,0.017008,0.003053,-1.576932,1.566194,0.0000,0.0000,0.0000,0.002407,-1.576932,1.566194,1.2625,0.9104,0.5649,0.000000,0.699495,-0.676486,0.682621,-0.702563,0.674952,-0.661146
4.3456,0.016759,0.002852,-1.576932,1.566194,0.0000,0.0000,0.0000,0.002407,-1.576932,1.566194,1.2625,0.9104,0.5649,0.000000,0.699495,-0.676486,0.682621,-0.702563,0.674952,-0.661146
4.3624,0.016766,0.002651,-1.576932,1.566194,0.0000,0.0000,0.0000,0.002407,-1.576932,1.566194,1.2625,0.9104,0.5649,0.000000,0.699495,-0.676486,0.682621,-0.702563,0.674952,-0.661146
4.3792,0.016748,0.002450,-1.576932,1.566194,0.0000,0.0000,0.0000,0.002407,-1.576932,1.566194,1.2625,0.9104,0.5649,0.000000,0.699495,-0.676486,0.682621,-0.702563,0.674952,-0.661146
4.3959,0.016755,0.002249,-1.576932,1.566194,0.0000,0.0000,0.0000,0.002407,-1.576932,1.566194,1.2625,0.9104,0.5649,0.000000,0.699495,-0.676486,0.682621,-0.702563,0.674952,-0.661146
4.4126,0.016708,0.002049,-1.576932,1.566194,0.0000,0.0000,0.0000,0.002342,-1.576932,1.566194,1.0848,0.8059,0.5630,0.000000,0.694893,-0.676486,0.682621,-0.697961,0.674952,-0.661146
4.4296,0.016953,0.001845,-1.576932,1.566194,0.0000,0.0000,0.0000,0.002271,-1.576932,1.566194,0.8779,0.7263,0.5049,0.000000,0.688757,-0.676486,0.682621,-0.693359,0.674952,-0.661146
4.4476,0.018075,0.001628,-1.576932,1.566194,0.0000,0.0000,0.0000,0.002177,-1.576932,1.566194,0.6153,0.6102,0.4528,0.000000,0.681087,-0.676486,0.682621,-0.687223,0.674952,-0.661146
4.4644,0.016767,0.001427,-1.576932,1.566194,0.0000,0.0000,0.0000,0.002177,-1.576932,1.566194,0.6153,0.6102,0.4528,0.000000,0.681087,-0.676486,0.682621,-0.687223,0.674952,-0.661146
4.4812,0.016753,0.001226,-1.576932,1.566194,0.0000,0.0000,0.0000,0.002033,-1.576932,1.566194,0.3804,0.3018,0.2882,0.000000,0.673418,-0.676486,0.678020,-0.679553,0.674952,-0.661146
4.4979,0.016764,0.001025,-1.576932,1.566194,0.0000,0.0000,0.0000,0.001809,-1.576932,1.566194,0.1366,0.0675,0.1927,0.000000,0.665748,-0.671884,0.670350,-0.671884,0.673418,-0.659612
4.5149,0.016931,0.000822,-1.576932,1.566194,0.0000,0.0000,0.0000,0.001593,-1.576932,1.566194,-0.0595,-0.0539,-0.0201,0.000000,0.659612,-0.665748,0.662680,-0.665748,0.668816,-0.659612
4.5318,0.016893,0.000619,-1.576932,1.566194,0.0000,0.0000,0.0000,0.001437,-1.576932,1.566194,-0.0286,0.1830,-0.0540,0.000000,0.658078,-0.658078,0.659612,-0.664214,0.661146,-0.658078
4.5485,0.016771,0.000418,-1.576932,1.566194,0.0000,0.0000,0.0000,0.001139,-1.576932,1.566194,-0.0101,0.3952,-0.1616,0.000000,0.651942,-0.648874,0.653476,-0.661146,0.651942,-0.651942
4.5653,0.016764,0.000217,-1.576932,1.566194,0.0000,0.0000,0.0000,0.001139,-1.576932,1.566194,-0.0101,0.3952,-0.1616,0.000000,0.651942,-0.648874,0.653476,-0.661146,0.651942,-0.651942
4.5821,0.016783,0.000015,-1.576932,1.566194,0.0000,0.0000,0.0000,0.000783,-1.576932,1.566194,0.1066,0.2746,-0.1496,0.000000,0.645806,-0.641204,0.642738,-0.653476,0.644272,-0.642738
4.5988,0.016772,-0.000186,-1.576932,1.566194,0.0000,0.0000,0.0000,0.000518,-1.576932,1.566194,0.1104,0.1163,-0.0951,0.000000,0.638136,-0.638136,0.636602,-0.644272,0.639670,-0.635068
4.6156,0.016786,-0.000388,-1.576932,1.566194,0.0000,0.0000,0.0000,0.000363,-1.576932,1.566194,0.0502,-0.0071,0.0645,0.000000,0.632000,-0.636602,0.633534,-0.638136,0.639670,-0.628932
4.6324,0.016779,-0.000589,-1.576932,1.566194,0.0000,0.0000,0.0000,0.000363,-1.576932,1.566194,0.0502,-0.0071,0.0645,0.000000,0.628932,-0.633534,0.633534,-0.635068,0.636602,-0.625864
4.6492,0.016742,-0.000790,-1.576932,1.566194,0.0000,0.0000,0.0000,0.000258,-1.576932,1.566194,0.0358,0.1064,0.1578,0.000000,0.628932,-0.633534,0.633534,-0.635068,0.636602,-0.625864
4.6659,0.016755,-0.000991,-1.576932,1.566194,0.0000,0.0000,0.0000,0.000013,-1.576932,1.566194,0.0862,0.3498,0.2024,0.000000,0.624330,-0.625864,0.630466,-0.632000,0.628932,-0.619728
4.6827,0.016744,-0.001192,-1.576932,1.566194,0.0000,0.0000,0.0000,-0.000328,-1.576932,1.566194,0.1197,0.3926,0.3063,0.000000,0.616660,-0.618194,0.624330,-0.624330,0.621262,-0.610524
4.6997,0.017022,-0.001396,-1.576932,1.566194,0.0000,0.0000,0.0000,-0.000709,-1.576932,1.566194,0.0884,0.2728,0.2942,0.000000,0.608990,-0.608990,0.613592,-0.615126,0.613592,-0.602854
4.7164,0.016743,-0.001597,-1.576932,1.566194,0.0000,0.0000,0.0000,-0.000952,-1.576932,1.566194,0.1512,0.1174,0.1318,0.000000,0.604388,-0.604388,0.604388,-0.608990,0.607456,-0.598253
4.7332,0.016763,-0.001798,-1.576932,1.566194,0.0000,0.0000,0.0000,-0.001209,-1.576932,1.566194,0.0455,0.0311,-0.1222,0.000000,0.596719,-0.599786,0.596719,-0.602854,0.601320,-0.595185
4.7499,0.016743,-0.001999,-1.576932,1.566194,0.0000,0.0000,0.0000,-0.001209,-1.576932,1.566194,0.0455,0.0311,-0.1222,0.000000,0.596719,-0.599786,0.596719,-0.602854,0.601320,-0.595185
4.7667,0.016748,-0.002200,-1.576932,1.566194,0.0000,0.0000,0.0000,-0.001392,-1.576932,1.566194,0.0459,0.0913,-0.0417,0.000000,0.592117,-0.595185,0.593651,-0.598253,0.596719,-0.590583
4.7834,0.016749,-0.002401,-1.576932,1.566194,0.0000,0.0000,0.0000,-0.001558,-1.576932,1.566194,0.0246,0.2199,-0.1038,0.000000,0.585981,-0.592117,0.592117,-0.595185,0.592117,-0.585981
4.8006,0.017200,-0.002607,-1.576932,1.566194,0.0000,0.0000,0.0000,-0.001763,-1.576932,1.566194,0.0483,0.2074,0.1179,0.000000,0.582913,-0.585981,0.587515,-0.590583,0.589049,-0.579845
4.8174,0.016739,-0.002808,-1.576932,1.566194,0.0000,0.0000,0.0000,-0.002002,-1.576932,1.566194,0.0847,0.2768,0.0410,0.000000,0.576777,-0.581379,0.582913,-0.585981,0.582913,-0.573709
4.8341,0.016768,-0.003010,-1.576932,1.566194,0.0000,0.0000,0.0000,-0.002002,-1.576932,1.566194,0.0847,0.2768,0.0410,0.000000,0.567573,-0.570641,0.573709,-0.576777,0.575243,-0.562971
4.8509,0.016742,-0.003210,-1.576932,1.566194,0.0000,0.0000,0.0000,-0.002437,-1.576932,1.566194,0.0527,0.2878,0.2088,0.000000,0.567573,-0.570641,0.573709,-0.576777,0.575243,-0.562971
4.8676,0.016750,-0.003411,-1.576932,1.566194,0.0000,0.0000,0.0000,-0.002740,-1.576932,1.566194,-0.0431,0.2546,0.4039,0.000000,0.561437,-0.561437,0.567573,-0.567573,0.569107,-0.556835
4.8844,0.016740,-0.003612,-1.576932,1.566194,0.0000,0.0000,0.0000,-0.002821,-1.576932,1.566194,-0.0434,0.1037,0.4367,0.000000,0.559903,-0.559903,0.564505,-0.562971,0.567573,-0.555301
4.9011,0.016753,-0.003813,-1.576932,1.566194,0.0000,0.0000,0.0000,-0.002887,-1.576932,1.566194,-0.0545,0.1373,0.3265,0.000000,0.558369,-0.558369,0.562971,-0.561437,0.564505,-0.555301
4.9179,0.016743,-0.004014,-1.576932,1.566194,0.0000,0.0000,0.0000,-0.003179,-1.576932,1.566194,0.0457,0.1344,0.1249,0.000000,0.552233,-0.553767,0.555301,-0.556835,0.556835,-0.549165
4.9346,0.016769,-0.004215,-1.576932,1.566194,0.0000,0.0000,0.0000,-0.003179,-1.576932,1.566194,0.0457,0.1344,0.1249,0.000000,0.552233,-0.553767,0.555301,-0.556835,0.556835,-0.549165
4.9514,0.016739,-0.004416,-1.576932,1.566194,0.0000,0.0000,0.0000,-0.003611,-1.576932,1.566194,0.0456,0.0836,0.0923,0.000000,0.543029,-0.544563,0.544563,-0.547631,0.547631,-0.539961
4.9681,0.016750,-0.004617,-1.576932,1.566194,0.0000,0.0000,0.0000,-0.003967,-1.576932,1.566194,-0.0146,0.1912,0.0952,0.000000,0.532291,-0.536893,0.538427,-0.539961,0.539961,-0.530757
4.9849,0.016742,-0.004818,-1.576932,1.566194,0.0000,0.0000,0.0000,-0.004081,-1.576932,1.566194,-0.1479,0.2490,0.1998,0.000000,0.527689,-0.532291,0.536893,-0.536893,0.538427,-0.527689
5.0016,0.016749,-0.004981,-1.576932,1.566194,0.0000,0.0000,0.0000,-0.004132,-1.576932,1.566194,-0.0840,0.2263,0.2412,0.000000,0.527689,-0.530757,0.535359,-0.535359,0.536893,-0.526155
5.0183,0.016744,-0.004780,-1.576932,1.566194,0.0000,0.0000,0.0000,-0.004328,-1.576932,1.566194,-0.0909,0.1952,0.2364,0.000000,0.524621,-0.526155,0.530757,-0.530757,0.532291,-0.523087
5.0351,0.016764,-0.004579,-1.576932,1.566194,0.0000,0.0000,0.0000,-0.004328,-1.576932,1.566194,-0.0909,0.1952,0.2364,0.000000,0.524621,-0.526155,0.530757,-0.530757,0.532291,-0.523087
5.0519,0.016743,-0.004378,-1.576932,1.566194,0.0000,0.0000,0.0000,-0.004710,-1.576932,1.566194,-0.0402,0.1822,0.4445,0.000000,0.518486,-0.516952,0.523087,-0.521553,0.524621,-0.513884
5.0686,0.016747,-0.004177,-1.576932,1.566194,0.0000,0.0000,0.0000,-0.005086,-1.576932,1.566194,-0.0458,0.1839,0.2653,0.000000,0.509282,-0.509282,0.513884,-0.513884,0.515418,-0.506214
5.0853,0.016745,-0.003976,-1.576932,1.566194,0.0000,0.0000,0.0000,-0.005185,-1.576932,1.566194,-0.0054,0.1489,0.2315,0.000000,0.506214,-0.507748,0.510816,-0.510816,0.512350,-0.503146
5.1021,0.016758,-0.003775,-1.576932,1.566194,0.0000,0.0000,0.0000,-0.005213,-1.576932,1.566194,-0.0896,0.1526,0.1830,0.000000,0.504680,-0.506214,0.509282,-0.510816,0.512350,-0.503146
5.1188,0.016742,-0.003574,-1.576932,1.566194,0.0000,0.0000,0.0000,-0.005198,-1.576932,1.566194,-0.0409,0.1172,0.1363,0.000000,0.504680,-0.507748,0.509282,-0.510816,0.512350,-0.503146
5.1356,0.016759,-0.003373,-1.576932,1.566194,0.0000,0.0000,0.0000,-0.005198,-1.576932,1.566194,-0.0409,0.1172,0.1363,0.000000,0.504680,-0.507748,0.509282,-0.510816,0.512350,-0.503146
5.1524,0.016748,-0.003172,-1.576932,1.566194,0.0000,0.0000,0.0000,-0.005199,-1.576932,1.566194,-0.0460,0.1209,0.1412,0.000000,0.504680,-0.507748,0.509282,-0.510816,0.512350,-0.503146
5.1691,0.016748,-0.002971,-1.576932,1.566194,0.0000,0.0000,0.0000,-0.005212,-1.576932,1.566194,-0.0854,0.1555,0.1925,0.000000,0.504680,-0.506214,0.509282,-0.510816,0.512350,-0.503146
5.1858,0.016746,-0.002770,-1.576932,1.566194,0.0000,0.0000,0.0000,-0.005210,-1.576932,1.566194,-0.0813,0.1519,0.1871,0.000000,0.504680,-0.506214,0.509282,-0.510816,0.512350,-0.503146
5.2026,0.016752,-0.002569,-1.576932,1.566194,0.0000,0.0000,0.0000,-0.005210,-1.576932,1.566194,-0.0813,0.1519,0.1871,0.000000,0.504680,-0.506214,0.509282,-0.510816,0.512350,-0.503146
5.2193,0.016750,-0.002368,-1.576932,1.566194,0.0000,0.0000,0.0000,-0.005185,-1.576932,1.566194,-0.0519,0.1692,0.1878,0.000000,0.504680,-0.507748,0.510816,-0.510816,0.512350,-0.503146
5.2361,0.016763,-0.002167,-1.576932,1.566194,0.0000,0.0000,0.0000,-0.005185,-1.576932,1.566194,-0.0519,0.1692,0.1878,0.000000,0.504680,-0.507748,0.510816,-0.510816,0.512350,-0.503146
5.2529,0.016741,-0.001966,-1.576932,1.566194,0.0000,0.0000,0.0000,-0.005188,-1.576932,1.566194,-0.0550,0.1674,0.1877,0.000000,0.504680,-0.507748,0.510816,-0.510816,0.512350,-0.503146
5.2696,0.016746,-0.001765,-1.576932,1.566194,0.0000,0.0000,0.0000,-0.005188,-1.576932,1.566194,-0.0550,0.1674,0.1877,0.000000,0.504680,-0.507748,0.510816,-0.510816,0.512350,-0.503146
5.2863,0.016742,-0.001564,-1.576932,1.566194,0.0000,0.0000,0.0000,-0.005162,-1.576932,1.566194,0.0355,0.1156,0.1878,0.000000,0.506214,-0.509282,0.510816,-0.510816,0.512350,-0.503146
5.3031,0.016753,-0.001363,-1.576932,1.566194,0.0000,0.0000,0.0000,-0.005127,-1.576932,1.566194,0.0065,0.1903,0.1357,0.000000,0.506214,-0.509282,0.510816,-0.513884,0.513884,-0.503146
5.3199,0.016761,-0.001162,-1.576932,1.566194,0.0000,0.0000,0.0000,-0.005043,-1.576932,1.566194,-0.0304,0.3214,0.1931,0.000000,0.507748,-0.509282,0.513884,-0.516952,0.515418,-0.504680
5.3366,0.016756,-0.000961,-1.576932,1.566194,0.0000,0.0000,0.0000,-0.005043,-1.576932,1.566194,-0.0304,0.3214,0.1931,0.000000,0.507748,-0.509282,0.513884,-0.516952,0.515418,-0.504680
5.3534,0.016750,-0.000760,-1.576932,1.566194,0.0000,0.0000,0.0000,-0.004850,-1.576932,1.566194,0.0339,0.4465,0.1872,0.000000,0.512350,-0.512350,0.518486,-0.523087,0.518486,-0.507748
5.3701,0.016750,-0.000559,-1.576932,1.566194,0.0000,0.0000,0.0000,-0.004593,-1.576932,1.566194,0.0982,0.4165,0.2928,0.000000,0.520019,-0.516952,0.523087,-0.529223,0.524621,-0.512350
5.3869,0.016745,-0.000358,-1.576932,1.566194,0.0000,0.0000,0.0000,-0.004331,-1.576932,1.566194,0.0620,0.6107,0.4392,0.000000,0.526155,-0.520019,0.530757,-0.536893,0.530757,-0.516952
5.4036,0.016750,-0.000157,-1.576932,1.566194,0.0000,0.0000,0.0000,-0.004071,-1.576932,1.566194,0.1767,0.5387,0.4779,0.000000,0.533825,-0.526155,0.535359,-0.543029,0.536893,-0.521553
5.4205,0.016869,0.000046,-1.576932,1.566194,0.0000,0.0000,0.0000,-0.003747,-1.576932,1.566194,0.1752,0.5981,0.5809,0.000000,0.541495,-0.532291,0.543029,-0.550699,0.544563,-0.527689
5.4372,0.016758,0.000247,-1.576932,1.566194,0.0000,0.0000,0.0000,-0.003747,-1.576932,1.566194,0.1752,0.5981,0.5809,0.000000,0.541495,-0.532291,0.543029,-0.550699,0.544563,-0.527689
5.4540,0.016751,0.000448,-1.576932,1.566194,0.0000,0.0000,0.0000,-0.003444,-1.576932,1.566194,0.2858,0.6103,0.6253,0.000000,0.550699,-0.538427,0.549165,-0.558369,0.550699,-0.533825
5.4707,0.016747,0.000649,-1.576932,1.566194,0.0000,0.0000,0.0000,-0.003164,-1.576932,1.566194,0.2847,0.6596,0.5694,0.000000,0.556835,-0.544563,0.555301,-0.566039,0.556835,-0.539961
