t,loop_dt,cmd_z,cmd_ant_l,cmd_ant_r,cmd_roll,cmd_pitch,cmd_yaw,pres_z,pres_ant_l,pres_ant_r,pres_roll,pres_pitch,pres_yaw,pres_j0,pres_j1,pres_j2,pres_j3,pres_j4,pres_j5,pres_j6
0.0000,0.000001,-0.005000,-1.570796,1.566194,0.0000,0.0000,0.0000,-0.000309,-1.573864,1.566194,0.1305,0.3366,0.2470,0.000000,0.613592,-0.619728,0.621262,-0.627398,0.625864,-0.605922
0.0172,0.017225,-0.004974,-1.570796,1.566194,0.0000,0.0000,0.0000,-0.000309,-1.573864,1.566194,0.1305,0.3366,0.2470,0.000000,0.613592,-0.619728,0.621262,-0.627398,0.625864,-0.605922
0.0340,0.016751,-0.004949,-1.570796,1.566194,0.0000,0.0000,0.0000,-0.000309,-1.573864,1.566194,0.1305,0.3366,0.2470,0.000000,0.613592,-0.619728,0.621262,-0.627398,0.625864,-0.605922
0.0507,0.016744,-0.004924,-1.570796,1.566194,0.0000,0.0000,0.0000,-0.000309,-1.573864,1.566194,0.1305,0.3366,0.2470,0.000000,0.613592,-0.619728,0.621262,-0.627398,0.625864,-0.605922
0.0675,0.016745,-0.004899,-1.570796,1.566194,0.0000,0.0000,0.0000,-0.000309,-1.573864,1.566194,0.1305,0.3366,0.2470,0.000000,0.613592,-0.619728,0.621262,-0.627398,0.625864,-0.605922
0.0842,0.016741,-0.004874,-1.570796,1.566194,0.0000,0.0000,0.0000,-0.000970,-1.573864,1.566194,0.0905,0.2727,0.1363,0.000000,0.599786,-0.605922,0.605922,-0.613592,0.612058,-0.593651
0.1009,0.016730,-0.004849,-1.570796,1.566194,0.0000,0.0000,0.0000,-0.002331,-1.573864,1.566194,0.0450,0.2683,0.2524,0.000000,0.570641,-0.575243,0.576777,-0.582913,0.582913,-0.564505
0.1177,0.016751,-0.004823,-1.570796,1.566194,0.0000,0.0000,0.0000,-0.003710,-1.572330,1.566194,0.1371,0.3247,0.2367,0.000000,0.539961,-0.544563,0.546097,-0.552233,0.550699,-0.532291
0.1344,0.016746,-0.004798,-1.570796,1.566194,0.0000,0.0000,0.0000,-0.004836,-1.573864,1.566194,0.0881,0.3240,0.2871,0.000000,0.515418,-0.516952,0.520019,-0.526155,0.524621,-0.507748
0.1512,0.016750,-0.004773,-1.570796,1.566194,0.0000,0.0000,0.0000,-0.004836,-1.573864,1.566194,0.0881,0.3240,0.2871,0.000000,0.515418,-0.516952,0.520019,-0.526155,0.524621,-0.507748
0.1679,0.016740,-0.004748,-1.570796,1.566194,0.0000,0.0000,0.0000,-0.005527,-1.573864,1.566194,-0.0282,0.2909,0.2798,0.000000,0.498544,-0.500078,0.504680,-0.507748,0.507748,-0.493942
0.1847,0.016744,-0.004723,-1.570796,1.566194,0.0000,0.0000,0.0000,-0.005759,-1.573864,1.566194,-0.0770,0.2252,0.2798,0.000000,0.492408,-0.493942,0.498544,-0.500078,0.501612,-0.489340
0.2014,0.016745,-0.004698,-1.570796,1.566194,0.0000,0.0000,0.0000,-0.005760,-1.573864,1.566194,-0.1221,0.2149,0.3830,0.000000,0.492408,-0.492408,0.498544,-0.498544,0.501612,-0.489340
0.2182,0.016746,-0.004673,-1.570796,1.566194,0.0000,0.0000,0.0000,-0.005772,-1.573864,1.566194,-0.0776,0.2508,0.3206,0.000000,0.492408,-0.492408,0.498544,-0.498544,0.500078,-0.489340
0.2349,0.016783,-0.004648,-1.570796,1.566194,0.0000,0.0000,0.0000,-0.005759,-1.573864,1.566194,-0.1220,0.2122,0.3787,0.000000,0.492408,-0.492408,0.498544,-0.498544,0.501612,-0.489340
0.2517,0.016749,-0.004622,-1.570796,1.566194,0.0000,0.0000,0.0000,-0.005759,-1.573864,1.566194,-0.1220,0.2122,0.3787,0.000000,0.492408,-0.492408,0.498544,-0.498544,0.501612,-0.489340
0.2684,0.016739,-0.004597,-1.570796,1.566194,0.0000,0.0000,0.0000,-0.005772,-1.573864,1.566194,-0.0776,0.2510,0.3210,0.000000,0.492408,-0.492408,0.498544,-0.498544,0.500078,-0.489340
0.2852,0.016744,-0.004572,-1.570796,1.566194,0.0000,0.0000,0.0000,-0.005759,-1.573864,1.566194,-0.1220,0.2122,0.3787,0.000000,0.492408,-0.492408,0.498544,-0.498544,0.501612,-0.489340
0.3019,0.016742,-0.004547,-1.570796,1.566194,0.0000,0.0000,0.0000,-0.005760,-1.573864,1.566194,-0.1174,0.2162,0.3727,0.000000,0.492408,-0.492408,0.498544,-0.498544,0.501612,-0.489340
0.3187,0.016739,-0.004522,-1.570796,1.566194,0.0000,0.0000,0.0000,-0.005772,-1.573864,1.566194,-0.0781,0.2506,0.3216,0.000000,0.492408,-0.492408,0.498544,-0.498544,0.500078,-0.489340
0.3354,0.016749,-0.004497,-1.570796,1.566194,0.0000,0.0000,0.0000,-0.005771,-1.573864,1.566194,-0.0822,0.2470,0.3269,0.000000,0.492408,-0.492408,0.498544,-0.498544,0.500078,-0.489340
0.3521,0.016741,-0.004472,-1.570796,1.566194,0.0000,0.0000,0.0000,-0.005771,-1.573864,1.566194,-0.0822,0.2470,0.3269,0.000000,0.492408,-0.492408,0.498544,-0.498544,0.500078,-0.489340
0.3689,0.016738,-0.004447,-1.570796,1.566194,0.0000,0.0000,0.0000,-0.005759,-1.573864,1.566194,-0.1215,0.2126,0.3781,0.000000,0.492408,-0.492408,0.498544,-0.498544,0.501612,-0.489340
0.3856,0.016746,-0.004422,-1.570796,1.566194,0.0000,0.0000,0.0000,-0.005760,-1.573864,1.566194,-0.1174,0.2162,0.3727,0.000000,0.492408,-0.492408,0.498544,-0.498544,0.501612,-0.489340
0.4024,0.016789,-0.004396,-1.570796,1.566194,0.0000,0.0000,0.0000,-0.005760,-1.573864,1.566194,-0.1174,0.2162,0.3727,0.000000,0.492408,-0.492408,0.498544,-0.498544,0.501612,-0.489340
0.4192,0.016744,-0.004371,-1.570796,1.566194,0.0000,0.0000,0.0000,-0.005760,-1.573864,1.566194,-0.1174,0.2162,0.3727,0.000000,0.492408,-0.492408,0.498544,-0.498544,0.501612,-0.489340
0.4359,0.016751,-0.004346,-1.570796,1.566194,0.0000,0.0000,0.0000,-0.005760,-1.573864,1.566194,-0.0681,0.3029,0.2699,0.000000,0.492408,-0.492408,0.498544,-0.500078,0.500078,-0.489340
0.4527,0.016749,-0.004321,-1.570796,1.566194,0.0000,0.0000,0.0000,-0.005760,-1.573864,1.566194,-0.0681,0.3029,0.2699,0.000000,0.492408,-0.492408,0.498544,-0.500078,0.500078,-0.489340
0.4694,0.016747,-0.004296,-1.570796,1.566194,0.0000,0.0000,0.0000,-0.005760,-1.573864,1.566194,-0.1231,0.2068,0.3840,0.000000,0.492408,-0.492408,0.498544,-0.498544,0.501612,-0.489340
0.4862,0.016747,-0.004271,-1.570796,1.566194,0.0000,0.0000,0.0000,-0.005772,-1.573864,1.566194,-0.0775,0.2516,0.3204,0.000000,0.492408,-0.492408,0.498544,-0.498544,0.500078,-0.489340
0.5029,0.016746,-0.004246,-1.570796,1.566194,0.0000,0.0000,0.0000,-0.005759,-1.573864,1.566194,-0.1220,0.2121,0.3787,0.000000,0.492408,-0.492408,0.498544,-0.498544,0.501612,-0.489340
0.5196,0.016745,-0.004221,-1.570796,1.566194,0.0000,0.0000,0.0000,-0.005760,-1.573864,1.566194,-0.1174,0.2162,0.3726,0.000000,0.492408,-0.492408,0.498544,-0.498544,0.501612,-0.489340
0.5364,0.016752,-0.004195,-1.570796,1.566194,0.0000,0.0000,0.0000,-0.005772,-1.573864,1.566194,-0.0781,0.2506,0.3216,0.000000,0.492408,-0.492408,0.498544,-0.498544,0.500078,-0.489340
0.5532,0.016762,-0.004170,-1.570796,1.566194,0.0000,0.0000,0.0000,-0.005772,-1.573864,1.566194,-0.0781,0.2506,0.3216,0.000000,0.492408,-0.492408,0.498544,-0.498544,0.500078,-0.489340
0.5699,0.016742,-0.004145,-1.570796,1.566194,0.0000,0.0000,0.0000,-0.005746,-1.573864,1.566194,-0.0717,0.1952,0.4302,0.000000,0.493942,-0.492408,0.498544,-0.498544,0.501612,-0.489340
0.5867,0.016753,-0.004120,-1.570796,1.566194,0.0000,0.0000,0.0000,-0.005736,-1.573864,1.566194,-0.0624,0.2533,0.3672,0.000000,0.493942,-0.492408,0.498544,-0.500078,0.501612,-0.489340
0.6034,0.016749,-0.004095,-1.570796,1.566194,0.0000,0.0000,0.0000,-0.005750,-1.573864,1.566194,-0.1136,0.2642,0.3221,0.000000,0.492408,-0.492408,0.498544,-0.500078,0.501612,-0.489340
0.6201,0.016746,-0.004070,-1.570796,1.566194,0.0000,0.0000,0.0000,-0.005761,-1.573864,1.566194,-0.1183,0.2108,0.3785,0.000000,0.492408,-0.492408,0.498544,-0.498544,0.501612,-0.489340
0.6369,0.016744,-0.004045,-1.570796,1.566194,0.0000,0.0000,0.0000,-0.005747,-1.573864,1.566194,-0.0675,0.1994,0.4243,0.000000,0.493942,-0.492408,0.498544,-0.498544,0.501612,-0.489340
0.6536,0.016737,-0.004020,-1.570796,1.566194,0.0000,0.0000,0.0000,-0.005747,-1.573864,1.566194,-0.0675,0.1994,0.4243,0.000000,0.493942,-0.492408,0.498544,-0.498544,0.501612,-0.489340
0.6704,0.016741,-0.003994,-1.570796,1.566194,0.0000,0.0000,0.0000,-0.005749,-1.573864,1.566194,-0.0728,0.2006,0.4195,0.000000,0.493942,-0.492408,0.498544,-0.498544,0.501612,-0.489340
0.6871,0.016753,-0.003969,-1.570796,1.566194,0.0000,0.0000,0.0000,-0.005736,-1.573864,1.566194,-0.0623,0.2527,0.3683,0.000000,0.493942,-0.492408,0.498544,-0.500078,0.501612,-0.489340
0.7039,0.016745,-0.003944,-1.570796,1.566194,0.0000,0.0000,0.0000,-0.005737,-1.573864,1.566194,-0.0633,0.2473,0.3737,0.000000,0.493942,-0.492408,0.498544,-0.500078,0.501612,-0.489340
0.7206,0.016749,-0.003919,-1.570796,1.566194,0.0000,0.0000,0.0000,-0.005737,-1.573864,1.566194,-0.0633,0.2473,0.3737,0.000000,0.493942,-0.492408,0.498544,-0.500078,0.501612,-0.489340
0.7374,0.016749,-0.003894,-1.570796,1.566194,0.0000,0.0000,0.0000,-0.005737,-1.573864,1.566194,-0.0633,0.2473,0.3737,0.000000,0.493942,-0.492408,0.498544,-0.500078,0.501612,-0.489340
0.7541,0.016745,-0.003869,-1.570796,1.566194,0.0000,0.0000,0.0000,-0.005737,-1.573864,1.566194,-0.0633,0.2473,0.3737,0.000000,0.493942,-0.492408,0.498544,-0.500078,0.501612,-0.489340
0.7709,0.016743,-0.003844,-1.570796,1.566194,0.0000,0.0000,0.0000,-0.005750,-1.573864,1.566194,-0.0733,0.1956,0.4248,0.000000,0.493942,-0.492408,0.498544,-0.498544,0.501612,-0.489340
0.7876,0.016748,-0.003819,-1.570796,1.566194,0.0000,0.0000,0.0000,-0.005748,-1.573864,1.566194,-0.1125,0.2702,0.3161,0.000000,0.492408,-0.492408,0.498544,-0.500078,0.501612,-0.489340
0.8044,0.016749,-0.003793,-1.570796,1.566194,0.0000,0.0000,0.0000,-0.005736,-1.573864,1.566194,-0.0581,0.2455,0.3791,0.000000,0.493942,-0.492408,0.498544,-0.500078,0.501612,-0.489340
0.8211,0.016722,-0.003768,-1.570796,1.566194,0.0000,0.0000,0.0000,-0.005737,-1.573864,1.566194,-0.0638,0.2481,0.3725,0.000000,0.493942,-0.492408,0.498544,-0.500078,0.501612,-0.489340
0.8378,0.016748,-0.003743,-1.570796,1.566194,0.0000,0.0000,0.0000,-0.005737,-1.573864,1.566194,-0.0638,0.2481,0.3725,0.000000,0.493942,-0.492408,0.498544,-0.500078,0.501612,-0.489340
0.8546,0.016757,-0.003718,-1.570796,1.566194,0.0000,0.0000,0.0000,-0.005737,-1.573864,1.566194,-0.0638,0.2481,0.3725,0.000000,0.493942,-0.492408,0.498544,-0.500078,0.501612,-0.489340
0.8713,0.016744,-0.003693,-1.570796,1.566194,0.0000,0.0000,0.0000,-0.005737,-1.573864,1.566194,-0.0638,0.2481,0.3725,0.000000,0.493942,-0.492408,0.498544,-0.500078,0.501612,-0.489340
0.8881,0.016741,-0.003668,-1.570796,1.566194,0.0000,0.0000,0.0000,-0.005737,-1.573864,1.566194,-0.0638,0.2481,0.3725,0.000000,0.493942,-0.492408,0.498544,-0.500078,0.501612,-0.489340
0.9048,0.016745,-0.003643,-1.570796,1.566194,0.0000,0.0000,0.0000,-0.005737,-1.573864,1.566194,-0.0638,0.2481,0.3725,0.000000,0.493942,-0.492408,0.498544,-0.500078,0.501612,-0.489340
0.9217,0.016868,-0.003617,-1.570796,1.566194,0.0000,0.0000,0.0000,-0.005737,-1.573864,1.566194,-0.0638,0.2481,0.3725,0.000000,0.493942,-0.492408,0.498544,-0.500078,0.501612,-0.489340
0.9385,0.016799,-0.003592,-1.570796,1.566194,0.0000,0.0000,0.0000,-0.005737,-1.573864,1.566194,-0.0638,0.2481,0.3725,0.000000,0.493942,-0.492408,0.498544,-0.500078,0.501612,-0.489340
0.9552,0.016742,-0.003567,-1.570796,1.566194,0.0000,0.0000,0.0000,-0.005737,-1.573864,1.566194,-0.0638,0.2481,0.3725,0.000000,0.493942,-0.492408,0.498544,-0.500078,0.501612,-0.489340
0.9721,0.016876,-0.003542,-1.570796,1.566194,0.0000,0.0000,0.0000,-0.005737,-1.573864,1.566194,-0.0638,0.2481,0.3725,0.000000,0.493942,-0.492408,0.498544,-0.500078,0.501612,-0.489340
0.9888,0.016744,-0.003517,-1.570796,1.566194,0.0000,0.0000,0.0000,-0.005737,-1.573864,1.566194,-0.0638,0.2481,0.3725,0.000000,0.493942,-0.492408,0.498544,-0.500078,0.501612,-0.489340
1.0056,0.016759,-0.003492,-1.570796,1.566194,0.0000,0.0000,0.0000,-0.005737,-1.573864,1.566194,-0.0638,0.2481,0.3725,0.000000,0.493942,-0.492408,0.498544,-0.500078,0.501612,-0.489340
1.0223,0.016744,-0.003466,-1.570796,1.566194,0.0000,0.0000,0.0000,-0.005737,-1.573864,1.566194,-0.0638,0.2481,0.3725,0.000000,0.493942,-0.492408,0.498544,-0.500078,0.501612,-0.489340
1.0391,0.016801,-0.003441,-1.570796,1.566194,0.0000,0.0000,0.0000,-0.005737,-1.573864,1.566194,-0.0638,0.2481,0.3725,0.000000,0.493942,-0.492408,0.498544,-0.500078,0.501612,-0.489340
1.0559,0.016777,-0.003416,-1.570796,1.566194,0.0000,0.0000,0.0000,-0.005737,-1.573864,1.566194,-0.0638,0.2481,0.3725,0.000000,0.493942,-0.492408,0.498544,-0.500078,0.501612,-0.489340
1.0727,0.016744,-0.003391,-1.570796,1.566194,0.0000,0.0000,0.0000,-0.005737,-1.573864,1.566194,-0.0638,0.2481,0.3725,0.000000,0.493942,-0.492408,0.498544,-0.500078,0.501612,-0.489340
1.0896,0.016919,-0.003366,-1.570796,1.566194,0.0000,0.0000,0.0000,-0.005737,-1.573864,1.566194,-0.0638,0.2481,0.3725,0.000000,0.493942,-0.492408,0.498544,-0.500078,0.501612,-0.489340
1.1063,0.016749,-0.003341,-1.570796,1.566194,0.0000,0.0000,0.0000,-0.005737,-1.573864,1.566194,-0.0638,0.2481,0.3725,0.000000,0.493942,-0.492408,0.498544,-0.500078,0.501612,-0.489340
1.1234,0.017062,-0.003315,-1.570796,1.566194,0.0000,0.0000,0.0000,-0.005737,-1.573864,1.566194,-0.0638,0.2481,0.3725,0.000000,0.493942,-0.492408,0.498544,-0.500078,0.501612,-0.489340
1.1401,0.016746,-0.003290,-1.570796,1.566194,0.0000,0.0000,0.0000,-0.005737,-1.573864,1.566194,-0.0638,0.2481,0.3725,0.000000,0.493942,-0.492408,0.498544,-0.500078,0.501612,-0.489340
1.1569,0.016754,-0.003265,-1.570796,1.566194,0.0000,0.0000,0.0000,-0.005737,-1.573864,1.566194,-0.0638,0.2481,0.3725,0.000000,0.493942,-0.492408,0.498544,-0.500078,0.501612,-0.489340
1.1737,0.016761,-0.003240,-1.570796,1.566194,0.0000,0.0000,0.0000,-0.005737,-1.573864,1.566194,-0.0638,0.2481,0.3725,0.000000,0.493942,-0.492408,0.498544,-0.500078,0.501612,-0.489340
1.1904,0.016780,-0.003214,-1.570796,1.566194,0.0000,0.0000,0.0000,-0.005737,-1.573864,1.566194,-0.0638,0.2481,0.3725,0.000000,0.493942,-0.492408,0.498544,-0.500078,0.501612,-0.489340
1.2072,0.016763,-0.003189,-1.570796,1.566194,0.0000,0.0000,0.0000,-0.005737,-1.573864,1.566194,-0.0638,0.2481,0.3725,0.000000,0.493942,-0.492408,0.498544,-0.500078,0.501612,-0.489340
1.2258,0.018586,-0.003161,-1.570796,1.566194,0.0000,0.0000,0.0000,-0.005724,-1.573864,1.566194,-0.0532,0.3000,0.3215,0.000000,0.493942,-0.492408,0.498544,-0.501612,0.501612,-0.489340
1.2425,0.016764,-0.003136,-1.570796,1.566194,0.0000,0.0000,0.0000,-0.005724,-1.573864,1.566194,-0.0532,0.3000,0.3215,0.000000,0.493942,-0.492408,0.498544,-0.501612,0.501612,-0.489340
1.2593,0.016776,-0.003111,-1.570796,1.566194,0.0000,0.0000,0.0000,-0.005713,-1.573864,1.566194,-0.0442,0.3467,0.2751,0.000000,0.493942,-0.492408,0.498544,-0.503146,0.501612,-0.489340
1.2761,0.016750,-0.003086,-1.570796,1.566194,0.0000,0.0000,0.0000,-0.005702,-1.573864,1.566194,-0.0350,0.3939,0.2281,0.000000,0.493942,-0.492408,0.498544,-0.504680,0.501612,-0.489340
1.2928,0.016763,-0.003061,-1.570796,1.566194,0.0000,0.0000,0.0000,-0.005703,-1.573864,1.566194,-0.0360,0.3890,0.2330,0.000000,0.493942,-0.492408,0.498544,-0.504680,0.501612,-0.489340
1.3096,0.016764,-0.003036,-1.570796,1.566194,0.0000,0.0000,0.0000,-0.005703,-1.573864,1.566194,-0.0360,0.3890,0.2330,0.000000,0.493942,-0.492408,0.498544,-0.504680,0.501612,-0.489340
1.3265,0.016920,-0.003010,-1.570796,1.566194,0.0000,0.0000,0.0000,-0.005691,-1.573864,1.566194,-0.0258,0.4416,0.1807,0.000000,0.493942,-0.492408,0.498544,-0.506214,0.501612,-0.489340
1.3433,0.016764,-0.002985,-1.570796,1.566194,0.0000,0.0000,0.0000,-0.005691,-1.573864,1.566194,-0.0258,0.4416,0.1807,0.000000,0.493942,-0.492408,0.498544,-0.506214,0.501612,-0.489340
1.3600,0.016762,-0.002960,-1.570796,1.566194,0.0000,0.0000,0.0000,-0.005679,-1.573864,1.566194,-0.0167,0.4881,0.1343,0.000000,0.493942,-0.492408,0.498544,-0.507748,0.501612,-0.489340
1.3768,0.016756,-0.002935,-1.570796,1.566194,0.0000,0.0000,0.0000,-0.005681,-1.573864,1.566194,-0.0176,0.4832,0.1392,0.000000,0.493942,-0.492408,0.498544,-0.507748,0.501612,-0.489340
1.3937,0.016948,-0.002909,-1.570796,1.566194,0.0000,0.0000,0.0000,-0.005681,-1.573864,1.566194,-0.0176,0.4832,0.1392,0.000000,0.493942,-0.492408,0.498544,-0.507748,0.501612,-0.489340
1.4105,0.016766,-0.002884,-1.570796,1.566194,0.0000,0.0000,0.0000,-0.005668,-1.573864,1.566194,0.0328,0.4669,0.1904,0.000000,0.495476,-0.492408,0.498544,-0.507748,0.501612,-0.489340
1.4273,0.016769,-0.002859,-1.570796,1.566194,0.0000,0.0000,0.0000,-0.005682,-1.573864,1.566194,-0.0228,0.4854,0.1333,0.000000,0.493942,-0.492408,0.498544,-0.507748,0.501612,-0.489340
1.4440,0.016762,-0.002834,-1.570796,1.566194,0.0000,0.0000,0.0000,-0.005682,-1.573864,1.566194,-0.0228,0.4854,0.1333,0.000000,0.493942,-0.492408,0.498544,-0.507748,0.501612,-0.489340
1.4608,0.016764,-0.002809,-1.570796,1.566194,0.0000,0.0000,0.0000,-0.005680,-1.573864,1.566194,-0.0170,0.4835,0.1393,0.000000,0.493942,-0.492408,0.498544,-0.507748,0.501612,-0.489340
1.4776,0.016758,-0.002784,-1.570796,1.566194,0.0000,0.0000,0.0000,-0.005668,-1.573864,1.566194,0.0327,0.4669,0.1904,0.000000,0.495476,-0.492408,0.498544,-0.507748,0.501612,-0.489340
1.4943,0.016760,-0.002759,-1.570796,1.566194,0.0000,0.0000,0.0000,-0.005657,-1.573864,1.566194,0.0676,0.4334,0.1337,0.000000,0.495476,-0.493942,0.498544,-0.507748,0.501612,-0.489340
1.5111,0.016754,-0.002733,-1.570796,1.566194,0.0000,0.0000,0.0000,-0.005658,-1.573864,1.566194,0.0639,0.4369,0.1396,0.000000,0.495476,-0.493942,0.498544,-0.507748,0.501612,-0.489340
1.5279,0.016771,-0.002708,-1.570796,1.566194,0.0000,0.0000,0.0000,-0.005658,-1.573864,1.566194,0.0639,0.4369,0.1396,0.000000,0.495476,-0.493942,0.498544,-0.507748,0.501612,-0.489340
1.5446,0.016760,-0.002683,-1.570796,1.566194,0.0000,0.0000,0.0000,-0.005620,-1.573864,1.566194,0.1246,0.5051,-0.0161,0.000000,0.495476,-0.495476,0.498544,-0.510816,0.501612,-0.489340
1.5614,0.016753,-0.002658,-1.570796,1.566194,0.0000,0.0000,0.0000,-0.005612,-1.573864,1.566194,0.1284,0.5497,-0.0518,0.000000,0.495476,-0.495476,0.498544,-0.512350,0.501612,-0.489340
1.5781,0.016756,-0.002633,-1.570796,1.566194,0.0000,0.0000,0.0000,-0.005588,-1.573864,1.566194,0.1282,0.6491,-0.0483,0.000000,0.495476,-0.495476,0.500078,-0.513884,0.501612,-0.489340
1.5949,0.016763,-0.002608,-1.570796,1.566194,0.0000,0.0000,0.0000,-0.005566,-1.573864,1.566194,0.1186,0.6554,-0.1528,0.000000,0.495476,-0.495476,0.498544,-0.516952,0.503146,-0.489340
1.6118,0.016867,-0.002582,-1.570796,1.566194,0.0000,0.0000,0.0000,-0.005519,-1.573864,1.566194,0.2712,0.8113,-0.1418,0.000000,0.498544,-0.495476,0.500078,-0.520019,0.501612,-0.489340
1.6285,0.016776,-0.002557,-1.570796,1.566194,0.0000,0.0000,0.0000,-0.005519,-1.573864,1.566194,0.2712,0.8113,-0.1418,0.000000,0.498544,-0.495476,0.500078,-0.520019,0.501612,-0.489340
1.6453,0.016760,-0.002532,-1.570796,1.566194,0.0000,0.0000,0.0000,-0.005486,-1.573864,1.566194,0.1656,0.8112,-0.2987,0.000000,0.498544,-0.495476,0.500078,-0.521553,0.501612,-0.492408
1.6620,0.016756,-0.002507,-1.570796,1.566194,0.0000,0.0000,0.0000,-0.005454,-1.573864,1.566194,0.2481,0.8975,-0.3346,0.000000,0.500078,-0.495476,0.500078,-0.524621,0.501612,-0.492408
1.6788,0.016774,-0.002482,-1.570796,1.566194,0.0000,0.0000,0.0000,-0.005408,-1.573864,1.566194,0.3010,0.8888,-0.3307,0.000000,0.503146,-0.495476,0.500078,-0.526155,0.501612,-0.493942
1.6956,0.016762,-0.002457,-1.570796,1.566194,0.0000,0.0000,0.0000,-0.005351,-1.573864,1.566194,0.3073,0.8723,-0.3830,0.000000,0.506214,-0.495476,0.500078,-0.527689,0.501612,-0.497010
1.7124,0.016775,-0.002431,-1.570796,1.566194,0.0000,0.0000,0.0000,-0.005331,-1.573864,1.566194,0.2464,0.9088,-0.3778,0.000000,0.506214,-0.495476,0.501612,-0.527689,0.501612,-0.498544
1.7291,0.016754,-0.002406,-1.570796,1.566194,0.0000,0.0000,0.0000,-0.005331,-1.573864,1.566194,0.2464,0.9088,-0.3778,0.000000,0.506214,-0.495476,0.501612,-0.527689,0.501612,-0.498544
1.7459,0.016762,-0.002381,-1.570796,1.566194,0.0000,0.0000,0.0000,-0.005244,-1.573864,1.566194,0.1526,0.9750,-0.3277,0.000000,0.507748,-0.495476,0.504680,-0.529223,0.503146,-0.501612
1.7626,0.016755,-0.002356,-1.570796,1.566194,0.0000,0.0000,0.0000,-0.005215,-1.573864,1.566194,0.1523,0.9861,-0.2810,0.000000,0.509282,-0.495476,0.506214,-0.529223,0.503146,-0.503146
1.7794,0.016758,-0.002331,-1.570796,1.566194,0.0000,0.0000,0.0000,-0.005156,-1.573864,1.566194,0.1816,1.0385,-0.1296,0.000000,0.512350,-0.495476,0.509282,-0.529223,0.503146,-0.504680
1.7961,0.016757,-0.002306,-1.570796,1.566194,0.0000,0.0000,0.0000,-0.005124,-1.573864,1.566194,0.1680,1.0508,-0.0933,0.000000,0.513884,-0.495476,0.510816,-0.529223,0.503146,-0.506214
1.8129,0.016776,-0.002281,-1.570796,1.566194,0.0000,0.0000,0.0000,-0.005124,-1.573864,1.566194,0.1680,1.0508,-0.0933,0.000000,0.513884,-0.495476,0.510816,-0.529223,0.503146,-0.506214
1.8297,0.016774,-0.002255,-1.570796,1.566194,0.0000,0.0000,0.0000,-0.005102,-1.573864,1.566194,0.1386,1.1706,-0.0968,0.000000,0.513884,-0.495476,0.513884,-0.529223,0.501612,-0.507748
1.8465,0.016759,-0.002230,-1.570796,1.566194,0.0000,0.0000,0.0000,-0.005091,-1.573864,1.566194,0.1398,1.1935,0.0592,0.000000,0.513884,-0.495476,0.515418,-0.529223,0.503146,-0.506214
1.8632,0.016779,-0.002205,-1.570796,1.566194,0.0000,0.0000,0.0000,-0.005043,-1.573864,1.566194,0.1881,1.1754,0.2515,0.000000,0.516952,-0.495476,0.516952,-0.529223,0.504680,-0.506214
1.8800,0.016762,-0.002180,-1.570796,1.566194,0.0000,0.0000,0.0000,-0.004999,-1.573864,1.566194,0.2312,1.1617,0.4402,0.000000,0.520019,-0.495476,0.518486,-0.529223,0.506214,-0.506214
1.8969,0.016896,-0.002155,-1.570796,1.566194,0.0000,0.0000,0.0000,-0.004941,-1.573864,1.566194,0.1569,1.2501,0.4710,0.000000,0.520019,-0.495476,0.520019,-0.532291,0.509282,-0.506214
1.9137,0.016795,-0.002129,-1.570796,1.566194,0.0000,0.0000,0.0000,-0.004941,-1.573864,1.566194,0.1569,1.2501,0.4710,0.000000,0.520019,-0.495476,0.520019,-0.532291,0.509282,-0.506214
1.9304,0.016762,-0.002104,-1.570796,1.566194,0.0000,0.0000,0.0000,-0.004884,-1.573864,1.566194,0.1338,1.2597,0.6233,0.000000,0.521553,-0.495476,0.521553,-0.533825,0.512350,-0.506214
1.9472,0.016756,-0.002079,-1.570796,1.566194,0.0000,0.0000,0.0000,-0.004852,-1.573864,1.566194,0.0449,1.2421,0.7627,0.000000,0.521553,-0.495476,0.523087,-0.533825,0.515418,-0.506214
1.9640,0.016763,-0.002054,-1.570796,1.566194,0.0000,0.0000,0.0000,-0.004803,-1.573864,1.566194,0.0039,1.1917,0.8526,0.000000,0.521553,-0.497010,0.524621,-0.533825,0.518486,-0.506214
1.9807,0.016770,-0.002029,-1.570796,1.566194,0.0000,0.0000,0.0000,-0.004758,-1.573864,1.566194,-0.0202,1.1451,0.8431,0.000000,0.521553,-0.498544,0.524621,-0.535359,0.521553,-0.506214
1.9975,0.016779,-0.002004,-1.570796,1.566194,0.0000,0.0000,0.0000,-0.004725,-1.573864,1.566194,-0.0578,1.2193,0.8957,0.000000,0.521553,-0.498544,0.526155,-0.536893,0.523087,-0.506214
2.0143,0.016766,-0.001979,-1.570796,1.566194,0.0000,0.0000,0.0000,-0.004725,-1.573864,1.566194,-0.0578,1.2193,0.8957,0.000000,0.521553,-0.498544,0.526155,-0.536893,0.523087,-0.506214
2.0310,0.016753,-0.001953,-1.570796,1.566194,0.0000,0.0000,0.0000,-0.004728,-1.573864,1.566194,-0.0539,1.2115,0.8902,0.000000,0.521553,-0.498544,0.526155,-0.536893,0.523087,-0.506214
2.0478,0.016761,-0.001928,-1.570796,1.566194,0.0000,0.0000,0.0000,-0.004704,-1.573864,1.566194,-0.1349,1.3171,0.9935,0.000000,0.521553,-0.497010,0.527689,-0.538427,0.524621,-0.506214
2.0646,0.016767,-0.001903,-1.570796,1.566194,0.0000,0.0000,0.0000,-0.004694,-1.573864,1.566194,-0.0355,1.3568,0.8271,0.000000,0.521553,-0.498544,0.527689,-0.539961,0.523087,-0.506214
2.0813,0.016746,-0.001878,-1.570796,1.566194,0.0000,0.0000,0.0000,-0.004695,-1.573864,1.566194,-0.0458,1.3526,0.8445,0.000000,0.521553,-0.498544,0.527689,-0.539961,0.523087,-0.506214
2.0981,0.016760,-0.001853,-1.570796,1.566194,0.0000,0.0000,0.0000,-0.004658,-1.573864,1.566194,-0.0241,1.3547,0.8947,0.000000,0.523087,-0.498544,0.527689,-0.541495,0.524621,-0.506214
2.1148,0.016751,-0.001828,-1.570796,1.566194,0.0000,0.0000,0.0000,-0.004658,-1.573864,1.566194,-0.0241,1.3547,0.8947,0.000000,0.523087,-0.498544,0.527689,-0.541495,0.524621,-0.506214
2.1316,0.016748,-0.001803,-1.570796,1.566194,0.0000,0.0000,0.0000,-0.004663,-1.573864,1.566194,0.0633,1.3725,0.8905,0.000000,0.524621,-0.498544,0.527689,-0.541495,0.523087,-0.506214
2.1483,0.016740,-0.001778,-1.570796,1.566194,0.0000,0.0000,0.0000,-0.004676,-1.573864,1.566194,0.0135,1.4062,0.9421,0.000000,0.524621,-0.497010,0.527689,-0.541495,0.523087,-0.506214
2.1652,0.016849,-0.001752,-1.570796,1.566194,0.0000,0.0000,0.0000,-0.004636,-1.573864,1.566194,0.0200,1.4008,0.7805,0.000000,0.524621,-0.498544,0.527689,-0.543029,0.523087,-0.507748
2.1819,0.016746,-0.001727,-1.570796,1.566194,0.0000,0.0000,0.0000,-0.004617,-1.573864,1.566194,0.0799,1.4371,0.7976,0.000000,0.526155,-0.498544,0.527689,-0.544563,0.523087,-0.507748
2.1987,0.016799,-0.001702,-1.570796,1.566194,0.0000,0.0000,0.0000,-0.004608,-1.573864,1.566194,0.1335,1.4016,0.9531,0.000000,0.527689,-0.498544,0.527689,-0.544563,0.524621,-0.506214
2.2154,0.016746,-0.001677,-1.570796,1.566194,0.0000,0.0000,0.0000,-0.004608,-1.573864,1.566194,0.1335,1.4016,0.9531,0.000000,0.527689,-0.498544,0.527689,-0.544563,0.524621,-0.506214
2.2322,0.016786,-0.001652,-1.570796,1.566194,0.0000,0.0000,0.0000,-0.004610,-1.573864,1.566194,0.1786,1.4911,0.8325,0.000000,0.527689,-0.498544,0.527689,-0.546097,0.523087,-0.506214
2.2490,0.016744,-0.001627,-1.570796,1.566194,0.0000,0.0000,0.0000,-0.004598,-1.573864,1.566194,0.1848,1.5334,0.7924,0.000000,0.527689,-0.498544,0.527689,-0.547631,0.523087,-0.506214
2.2657,0.016711,-0.001601,-1.570796,1.566194,0.0000,0.0000,0.0000,-0.004586,-1.573864,1.566194,0.1441,1.4951,0.8483,0.000000,0.527689,-0.498544,0.527689,-0.547631,0.524621,-0.506214
2.2824,0.016746,-0.001576,-1.570796,1.566194,0.0000,0.0000,0.0000,-0.004600,-1.572330,1.566194,0.1884,1.5330,0.7908,0.000000,0.527689,-0.498544,0.527689,-0.547631,0.523087,-0.506214
2.2992,0.016767,-0.001551,-1.570796,1.566194,0.0000,0.0000,0.0000,-0.004586,-1.573864,1.566194,0.1437,1.4951,0.8485,0.000000,0.527689,-0.498544,0.527689,-0.547631,0.524621,-0.506214
2.3159,0.016743,-0.001526,-1.570796,1.566194,0.0000,0.0000,0.0000,-0.004586,-1.573864,1.566194,0.1437,1.4951,0.8485,0.000000,0.527689,-0.498544,0.527689,-0.547631,0.524621,-0.506214
2.3327,0.016747,-0.001501,-1.570796,1.566194,0.0000,0.0000,0.0000,-0.004600,-1.573864,1.566194,0.1884,1.5330,0.7907,0.000000,0.527689,-0.498544,0.527689,-0.547631,0.523087,-0.506214
2.3494,0.016743,-0.001476,-1.570796,1.566194,0.0000,0.0000,0.0000,-0.004585,-1.573864,1.566194,0.2244,1.4934,0.7455,0.000000,0.527689,-0.500078,0.527689,-0.547631,0.523087,-0.506214
2.3662,0.016743,-0.001451,-1.570796,1.566194,0.0000,0.0000,0.0000,-0.004560,-1.573864,1.566194,0.2112,1.4436,0.6464,0.000000,0.527689,-0.501612,0.527689,-0.547631,0.523087,-0.507748
2.3829,0.016749,-0.001426,-1.570796,1.566194,0.0000,0.0000,0.0000,-0.004484,-1.573864,1.566194,0.1938,1.2717,0.4493,0.000000,0.527689,-0.506214,0.527689,-0.547631,0.524621,-0.510816
2.3997,0.016787,-0.001400,-1.570796,1.566194,0.0000,0.0000,0.0000,-0.004484,-1.573864,1.566194,0.1938,1.2717,0.4493,0.000000,0.527689,-0.509282,0.529223,-0.547631,0.523087,-0.515418
2.4165,0.016745,-0.001375,-1.570796,1.566194,0.0000,0.0000,0.0000,-0.004426,-1.573864,1.566194,0.1556,1.2509,0.2096,0.000000,0.527689,-0.509282,0.529223,-0.547631,0.523087,-0.515418
2.4332,0.016752,-0.001350,-1.570796,1.566194,0.0000,0.0000,0.0000,-0.004393,-1.573864,1.566194,0.1902,1.1648,0.0788,0.000000,0.527689,-0.512350,0.529223,-0.547631,0.523087,-0.516952
2.4500,0.016746,-0.001325,-1.570796,1.566194,0.0000,0.0000,0.0000,-0.004332,-1.573864,1.566194,0.1680,0.9630,-0.2732,0.000000,0.527689,-0.516952,0.527689,-0.547631,0.523087,-0.521553
2.4667,0.016746,-0.001300,-1.570796,1.566194,0.0000,0.0000,0.0000,-0.004225,-1.573864,1.566194,0.2610,0.8272,-0.3929,0.000000,0.530757,-0.521553,0.527689,-0.549165,0.524621,-0.524621
2.4834,0.016746,-0.001275,-1.570796,1.566194,0.0000,0.0000,0.0000,-0.004137,-1.573864,1.566194,0.3731,0.7359,-0.6941,0.000000,0.533825,-0.526155,0.527689,-0.550699,0.523087,-0.529223
2.5002,0.016753,-0.001250,-1.570796,1.566194,0.0000,0.0000,0.0000,-0.004137,-1.573864,1.566194,0.3731,0.7359,-0.6941,0.000000,0.533825,-0.526155,0.527689,-0.550699,0.523087,-0.529223
2.5169,0.016743,-0.001225,-1.570796,1.566194,0.0000,0.0000,0.0000,-0.004060,-1.573864,1.566194,0.5135,0.7264,-0.8198,0.000000,0.536893,-0.529223,0.527689,-0.553767,0.523087,-0.530757
2.5337,0.016743,-0.001199,-1.570796,1.566194,0.0000,0.0000,0.0000,-0.004007,-1.573864,1.566194,0.5008,0.6917,-0.9647,0.000000,0.538427,-0.530757,0.527689,-0.555301,0.523087,-0.533825
2.5504,0.016743,-0.001174,-1.570796,1.566194,0.0000,0.0000,0.0000,-0.003939,-1.573864,1.566194,0.6432,0.6251,-1.0544,0.000000,0.541495,-0.533825,0.527689,-0.556835,0.523087,-0.535359
2.5672,0.016745,-0.001149,-1.570796,1.566194,0.0000,0.0000,0.0000,-0.003897,-1.573864,1.566194,0.6798,0.6137,-1.1504,0.000000,0.543029,-0.535359,0.527689,-0.558369,0.523087,-0.536893
2.5840,0.016804,-0.001124,-1.570796,1.566194,0.0000,0.0000,0.0000,-0.003877,-1.573864,1.566194,0.6381,0.6483,-1.2462,0.000000,0.543029,-0.535359,0.527689,-0.559903,0.523087,-0.538427
2.6007,0.016750,-0.001099,-1.570796,1.566194,0.0000,0.0000,0.0000,-0.003877,-1.573864,1.566194,0.6381,0.6483,-1.2462,0.000000,0.543029,-0.535359,0.527689,-0.559903,0.523087,-0.538427
2.6175,0.016743,-0.001074,-1.570796,1.566194,0.0000,0.0000,0.0000,-0.003868,-1.573864,1.566194,0.6538,0.6953,-1.2891,0.000000,0.543029,-0.535359,0.527689,-0.561437,0.523087,-0.538427
2.6342,0.016739,-0.001049,-1.570796,1.566194,0.0000,0.0000,0.0000,-0.003833,-1.573864,1.566194,0.6728,0.6899,-1.2326,0.000000,0.544563,-0.535359,0.527689,-0.562971,0.524621,-0.538427
2.6509,0.016742,-0.001024,-1.570796,1.566194,0.0000,0.0000,0.0000,-0.003785,-1.573864,1.566194,0.7085,0.6570,-1.1335,0.000000,0.546097,-0.536893,0.529223,-0.562971,0.526155,-0.538427
2.6677,0.016743,-0.000998,-1.570796,1.566194,0.0000,0.0000,0.0000,-0.003764,-1.573864,1.566194,0.6726,0.5041,-1.1452,0.000000,0.546097,-0.538427,0.527689,-0.562971,0.529223,-0.538427
2.6846,0.016863,-0.000973,-1.570796,1.566194,0.0000,0.0000,0.0000,-0.003728,-1.573864,1.566194,0.6450,0.4351,-0.9868,0.000000,0.547631,-0.538427,0.527689,-0.562971,0.532291,-0.538427
2.7013,0.016745,-0.000948,-1.570796,1.566194,0.0000,0.0000,0.0000,-0.003728,-1.573864,1.566194,0.6450,0.4351,-0.9868,0.000000,0.547631,-0.538427,0.527689,-0.562971,0.532291,-0.538427
2.7180,0.016747,-0.000923,-1.570796,1.566194,0.0000,0.0000,0.0000,-0.003681,-1.573864,1.566194,0.6063,0.4102,-0.7933,0.000000,0.549165,-0.538427,0.529223,-0.562971,0.535359,-0.538427
2.7348,0.016748,-0.000898,-1.570796,1.566194,0.0000,0.0000,0.0000,-0.003686,-1.573864,1.566194,0.6104,0.4128,-0.8135,0.000000,0.549165,-0.538427,0.529223,-0.562971,0.535359,-0.538427
2.7515,0.016752,-0.000873,-1.570796,1.566194,0.0000,0.0000,0.0000,-0.003624,-1.573864,1.566194,0.5194,0.2581,-0.6545,0.000000,0.550699,-0.538427,0.527689,-0.564505,0.541495,-0.538427
2.7683,0.016744,-0.000848,-1.570796,1.566194,0.0000,0.0000,0.0000,-0.003594,-1.573864,1.566194,0.4592,0.2570,-0.6192,0.000000,0.550699,-0.538427,0.527689,-0.566039,0.544563,-0.538427
2.7850,0.016758,-0.000822,-1.570796,1.566194,0.0000,0.0000,0.0000,-0.003594,-1.573864,1.566194,0.4592,0.2570,-0.6192,0.000000,0.550699,-0.538427,0.529223,-0.566039,0.547631,-0.538427
2.8018,0.016744,-0.000797,-1.570796,1.566194,0.0000,0.0000,0.0000,-0.003559,-1.573864,1.566194,0.3746,0.2417,-0.4650,0.000000,0.550699,-0.538427,0.529223,-0.566039,0.547631,-0.538427
2.8185,0.016753,-0.000772,-1.570796,1.566194,0.0000,0.0000,0.0000,-0.003564,-1.573864,1.566194,0.3536,0.1569,-0.4809,0.000000,0.550699,-0.538427,0.527689,-0.566039,0.549165,-0.538427
2.8353,0.016751,-0.000747,-1.570796,1.566194,0.0000,0.0000,0.0000,-0.003528,-1.573864,1.566194,0.3370,0.2333,-0.5330,0.000000,0.550699,-0.538427,0.527689,-0.569107,0.550699,-0.538427
2.8521,0.016760,-0.000722,-1.570796,1.566194,0.0000,0.0000,0.0000,-0.003482,-1.573864,1.566194,0.3380,0.2589,-0.5282,0.000000,0.550699,-0.539961,0.529223,-0.570641,0.552233,-0.538427
2.8688,0.016745,-0.000697,-1.570796,1.566194,0.0000,0.0000,0.0000,-0.003463,-1.573864,1.566194,0.3876,0.2711,-0.6347,0.000000,0.550699,-0.541495,0.529223,-0.572175,0.552233,-0.538427
2.8856,0.016841,-0.000672,-1.570796,1.566194,0.0000,0.0000,0.0000,-0.003426,-1.573864,1.566194,0.3727,0.4256,-0.5717,0.000000,0.550699,-0.541495,0.532291,-0.573709,0.552233,-0.538427
2.9024,0.016746,-0.000646,-1.570796,1.566194,0.0000,0.0000,0.0000,-0.003426,-1.573864,1.566194,0.3727,0.4256,-0.5717,0.000000,0.550699,-0.541495,0.532291,-0.573709,0.552233,-0.538427
2.9191,0.016755,-0.000621,-1.570796,1.566194,0.0000,0.0000,0.0000,-0.003402,-1.573864,1.566194,0.3538,0.5143,-0.4729,0.000000,0.550699,-0.541495,0.535359,-0.573709,0.552233,-0.538427
2.9359,0.016742,-0.000596,-1.570796,1.566194,0.0000,0.0000,0.0000,-0.003341,-1.573864,1.566194,0.4240,0.5891,-0.5364,0.000000,0.550699,-0.544563,0.538427,-0.575243,0.552233,-0.538427
2.9526,0.016753,-0.000571,-1.570796,1.566194,0.0000,0.0000,0.0000,-0.003247,-1.573864,1.566194,0.4962,0.6873,-0.3182,0.000000,0.553767,-0.546097,0.543029,-0.576777,0.553767,-0.538427
2.9694,0.016743,-0.000546,-1.570796,1.566194,0.0000,0.0000,0.0000,-0.003193,-1.573864,1.566194,0.6868,0.7123,-0.2866,0.000000,0.556835,-0.549165,0.546097,-0.576777,0.552233,-0.538427
2.9861,0.016760,-0.000521,-1.570796,1.566194,0.0000,0.0000,0.0000,-0.003193,-1.573864,1.566194,0.6868,0.7123,-0.2866,0.000000,0.558369,-0.550699,0.550699,-0.578311,0.552233,-0.538427
3.0029,0.016742,-0.000496,-1.570796,1.566194,0.0000,0.0000,0.0000,-0.003123,-1.573864,1.566194,0.7359,0.8653,-0.1832,0.000000,0.558369,-0.550699,0.550699,-0.578311,0.552233,-0.538427
3.0196,0.016760,-0.000471,-1.570796,1.566194,0.0000,0.0000,0.0000,-0.003116,-1.573864,1.566194,0.7596,0.8346,-0.0341,0.000000,0.559903,-0.550699,0.552233,-0.576777,0.552233,-0.538427
3.0364,0.016743,-0.000445,-1.570796,1.566194,0.0000,0.0000,0.0000,-0.003041,-1.573864,1.566194,0.8258,0.8566,0.0579,0.000000,0.562971,-0.552233,0.555301,-0.576777,0.552233,-0.539961
3.0532,0.016766,-0.000420,-1.570796,1.566194,0.0000,0.0000,0.0000,-0.002989,-1.573864,1.566194,0.9682,0.8737,0.2083,0.000000,0.566039,-0.553767,0.556835,-0.578311,0.553767,-0.538427
3.0699,0.016741,-0.000395,-1.570796,1.566194,0.0000,0.0000,0.0000,-0.002992,-1.573864,1.566194,1.0113,0.8713,0.1937,0.000000,0.566039,-0.555301,0.558369,-0.576777,0.552233,-0.538427
3.0867,0.016852,-0.000370,-1.570796,1.566194,0.0000,0.0000,0.0000,-0.002968,-1.573864,1.566194,1.0674,0.9069,0.1957,0.000000,0.567573,-0.555301,0.558369,-0.578311,0.552233,-0.538427
3.1035,0.016738,-0.000345,-1.570796,1.566194,0.0000,0.0000,0.0000,-0.002968,-1.573864,1.566194,1.0674,0.9069,0.1957,0.000000,0.567573,-0.555301,0.558369,-0.578311,0.552233,-0.538427
3.1202,0.016760,-0.000320,-1.570796,1.566194,0.0000,0.0000,0.0000,-0.002984,-1.573864,1.566194,1.0721,0.8514,0.1420,0.000000,0.567573,-0.555301,0.556835,-0.578311,0.552233,-0.538427
3.1370,0.016740,-0.000295,-1.570796,1.566194,0.0000,0.0000,0.0000,-0.002971,-1.573864,1.566194,1.1215,0.8415,0.2012,0.000000,0.569107,-0.555301,0.556835,-0.578311,0.552233,-0.538427
3.1539,0.016945,-0.000269,-1.570796,1.566194,0.0000,0.0000,0.0000,-0.002947,-1.573864,1.566194,1.0267,0.7907,0.1943,0.000000,0.569107,-0.555301,0.556835,-0.578311,0.553767,-0.539961
3.1707,0.016743,-0.000244,-1.570796,1.566194,0.0000,0.0000,0.0000,-0.002925,-1.573864,1.566194,0.9976,0.8291,0.0886,0.000000,0.569107,-0.555301,0.556835,-0.579845,0.553767,-0.541495
3.1874,0.016753,-0.000219,-1.570796,1.566194,0.0000,0.0000,0.0000,-0.002902,-1.573864,1.566194,0.9911,0.9439,-0.0057,0.000000,0.569107,-0.555301,0.558369,-0.581379,0.552233,-0.543029
3.2042,0.016746,-0.000194,-1.570796,1.566194,0.0000,0.0000,0.0000,-0.002902,-1.573864,1.566194,0.9911,0.9439,-0.0057,0.000000,0.569107,-0.555301,0.558369,-0.581379,0.552233,-0.543029
3.2209,0.016756,-0.000169,-1.570796,1.566194,0.0000,0.0000,0.0000,-0.002929,-1.573864,1.566194,0.9526,0.8959,-0.1030,0.000000,0.567573,-0.555301,0.556835,-0.581379,0.552233,-0.543029
3.2377,0.016744,-0.000143,-1.570796,1.566194,0.0000,0.0000,0.0000,-0.002913,-1.573864,1.566194,0.9070,0.8832,-0.1462,0.000000,0.567573,-0.555301,0.556835,-0.581379,0.552233,-0.544563
3.2544,0.016755,-0.000118,-1.570796,1.566194,0.0000,0.0000,0.0000,-0.002877,-1.573864,1.566194,0.8720,0.8170,-0.0889,0.000000,0.569107,-0.555301,0.556835,-0.581379,0.553767,-0.546097
3.2712,0.016738,-0.000093,-1.570796,1.566194,0.0000,0.0000,0.0000,-0.002832,-1.573864,1.566194,0.7569,0.7889,-0.0964,0.000000,0.569107,-0.555301,0.556835,-0.582913,0.556835,-0.547631
3.2879,0.016762,-0.000068,-1.570796,1.566194,0.0000,0.0000,0.0000,-0.002787,-1.573864,1.566194,0.7307,0.7915,-0.2021,0.000000,0.570641,-0.555301,0.556835,-0.584447,0.556835,-0.550699
3.3047,0.016746,-0.000043,-1.570796,1.566194,0.0000,0.0000,0.0000,-0.002787,-1.573864,1.566194,0.7307,0.7915,-0.2021,0.000000,0.570641,-0.555301,0.556835,-0.584447,0.556835,-0.550699
3.3214,0.016749,-0.000018,-1.570796,1.566194,0.0000,0.0000,0.0000,-0.002742,-1.573864,1.566194,0.6537,0.6898,-0.0854,0.000000,0.572175,-0.555301,0.556835,-0.584447,0.559903,-0.552233
3.3382,0.016745,0.000007,-1.570796,1.566194,0.0000,0.0000,0.0000,-0.002710,-1.573864,1.566194,0.5833,0.6996,-0.1517,0.000000,0.572175,-0.555301,0.556835,-0.585981,0.561437,-0.553767
3.3549,0.016765,0.000032,-1.570796,1.566194,0.0000,0.0000,0.0000,-0.002652,-1.573864,1.566194,0.5127,0.6642,-0.1987,0.000000,0.573709,-0.555301,0.556835,-0.587515,0.562971,-0.556835
3.3717,0.016743,0.000058,-1.570796,1.566194,0.0000,0.0000,0.0000,-0.002597,-1.573864,1.566194,0.4035,0.7000,-0.3552,0.000000,0.573709,-0.555301,0.556835,-0.590583,0.564505,-0.559903
3.3884,0.016743,0.000083,-1.570796,1.566194,0.0000,0.0000,0.0000,-0.002554,-1.573864,1.566194,0.3867,0.6796,-0.3394,0.000000,0.575243,-0.555301,0.556835,-0.592117,0.566039,-0.561437
3.4052,0.016824,0.000108,-1.570796,1.566194,0.0000,0.0000,0.0000,-0.002554,-1.573864,1.566194,0.3867,0.6796,-0.3394,0.000000,0.575243,-0.555301,0.556835,-0.592117,0.566039,-0.561437
3.4220,0.016748,0.000133,-1.570796,1.566194,0.0000,0.0000,0.0000,-0.002535,-1.573864,1.566194,0.3982,0.6322,-0.2342,0.000000,0.576777,-0.555301,0.556835,-0.592117,0.567573,-0.561437
3.4389,0.016880,0.000158,-1.570796,1.566194,0.0000,0.0000,0.0000,-0.002537,-1.573864,1.566194,0.3970,0.6371,-0.2452,0.000000,0.576777,-0.555301,0.556835,-0.592117,0.567573,-0.561437
3.4556,0.016747,0.000183,-1.570796,1.566194,0.0000,0.0000,0.0000,-0.002501,-1.573864,1.566194,0.4476,0.5875,-0.1899,0.000000,0.579845,-0.555301,0.556835,-0.592117,0.567573,-0.562971
3.4724,0.016749,0.000209,-1.570796,1.566194,0.0000,0.0000,0.0000,-0.002505,-1.573864,1.566194,0.4423,0.5927,-0.1956,0.000000,0.579845,-0.555301,0.556835,-0.592117,0.567573,-0.562971
3.4891,0.016760,0.000234,-1.570796,1.566194,0.0000,0.0000,0.0000,-0.002505,-1.573864,1.566194,0.4423,0.5927,-0.1956,0.000000,0.579845,-0.555301,0.556835,-0.592117,0.567573,-0.562971
3.5059,0.016755,0.000259,-1.570796,1.566194,0.0000,0.0000,0.0000,-0.002491,-1.573864,1.566194,0.3937,0.5744,-0.2486,0.000000,0.579845,-0.555301,0.556835,-0.592117,0.567573,-0.564505
3.5227,0.016769,0.000284,-1.570796,1.566194,0.0000,0.0000,0.0000,-0.002493,-1.573864,1.566194,0.3987,0.5764,-0.2431,0.000000,0.579845,-0.555301,0.556835,-0.592117,0.567573,-0.564505
3.5394,0.016745,0.000309,-1.570796,1.566194,0.0000,0.0000,0.0000,-0.002470,-1.573864,1.566194,0.4977,0.5448,-0.1359,0.000000,0.582913,-0.555301,0.556835,-0.592117,0.567573,-0.564505
3.5564,0.016963,0.000335,-1.570796,1.566194,0.0000,0.0000,0.0000,-0.002461,-1.573864,1.566194,0.4987,0.5987,-0.2008,0.000000,0.582913,-0.555301,0.556835,-0.593651,0.567573,-0.564505
3.5731,0.016743,0.000360,-1.570796,1.566194,0.0000,0.0000,0.0000,-0.002462,-1.573864,1.566194,0.4986,0.5931,-0.1940,0.000000,0.582913,-0.555301,0.556835,-0.593651,0.567573,-0.564505
3.5899,0.016755,0.000385,-1.570796,1.566194,0.0000,0.0000,0.0000,-0.002462,-1.573864,1.566194,0.4986,0.5931,-0.1940,0.000000,0.582913,-0.555301,0.556835,-0.593651,0.567573,-0.564505
3.6066,0.016746,0.000410,-1.570796,1.566194,0.0000,0.0000,0.0000,-0.002462,-1.573864,1.566194,0.4986,0.5931,-0.1940,0.000000,0.582913,-0.555301,0.556835,-0.593651,0.567573,-0.564505
3.6233,0.016745,0.000435,-1.570796,1.566194,0.0000,0.0000,0.0000,-0.002462,-1.573864,1.566194,0.4986,0.5931,-0.1940,0.000000,0.582913,-0.555301,0.556835,-0.593651,0.567573,-0.564505
3.6401,0.016742,0.000460,-1.570796,1.566194,0.0000,0.0000,0.0000,-0.002451,-1.573864,1.566194,0.5099,0.6442,-0.2485,0.000000,0.582913,-0.555301,0.556835,-0.595185,0.567573,-0.564505
3.6568,0.016742,0.000485,-1.570796,1.566194,0.0000,0.0000,0.0000,-0.002452,-1.573864,1.566194,0.5087,0.6388,-0.2428,0.000000,0.582913,-0.555301,0.556835,-0.595185,0.567573,-0.564505
3.6736,0.016758,0.000510,-1.570796,1.566194,0.0000,0.0000,0.0000,-0.002452,-1.573864,1.566194,0.5087,0.6388,-0.2428,0.000000,0.582913,-0.555301,0.556835,-0.595185,0.567573,-0.564505
3.6903,0.016756,0.000536,-1.570796,1.566194,0.0000,0.0000,0.0000,-0.002452,-1.573864,1.566194,0.5087,0.6388,-0.2428,0.000000,0.582913,-0.555301,0.556835,-0.595185,0.567573,-0.564505
3.7071,0.016744,0.000561,-1.570796,1.566194,0.0000,0.0000,0.0000,-0.002452,-1.573864,1.566194,0.5087,0.6388,-0.2428,0.000000,0.582913,-0.555301,0.556835,-0.595185,0.567573,-0.564505
3.7238,0.016738,0.000586,-1.570796,1.566194,0.0000,0.0000,0.0000,-0.002452,-1.573864,1.566194,0.5087,0.6388,-0.2428,0.000000,0.582913,-0.555301,0.556835,-0.595185,0.567573,-0.564505
3.7408,0.016929,0.000611,-1.570796,1.566194,0.0000,0.0000,0.0000,-0.002452,-1.573864,1.566194,0.5087,0.6388,-0.2428,0.000000,0.582913,-0.555301,0.556835,-0.595185,0.567573,-0.564505
3.7575,0.016749,0.000636,-1.570796,1.566194,0.0000,0.0000,0.0000,-0.002452,-1.573864,1.566194,0.5087,0.6388,-0.2428,0.000000,0.582913,-0.555301,0.556835,-0.595185,0.567573,-0.564505
3.7744,0.016846,0.000662,-1.570796,1.566194,0.0000,0.0000,0.0000,-0.002427,-1.573864,1.566194,0.5476,0.6758,-0.1361,0.000000,0.584447,-0.555301,0.558369,-0.595185,0.567573,-0.564505
3.7911,0.016750,0.000687,-1.570796,1.566194,0.0000,0.0000,0.0000,-0.002427,-1.573864,1.566194,0.5476,0.6758,-0.1361,0.000000,0.584447,-0.555301,0.558369,-0.595185,0.567573,-0.564505
3.8078,0.016738,0.000712,-1.570796,1.566194,0.0000,0.0000,0.0000,-0.002368,-1.573864,1.566194,0.5716,0.8626,0.0133,0.000000,0.585981,-0.555301,0.562971,-0.596719,0.567573,-0.564505
3.8246,0.016748,0.000737,-1.570796,1.566194,0.0000,0.0000,0.0000,-0.002287,-1.573864,1.566194,0.6475,1.0484,0.0519,0.000000,0.587515,-0.556835,0.567573,-0.599786,0.567573,-0.564505
3.8413,0.016745,0.000762,-1.570796,1.566194,0.0000,0.0000,0.0000,-0.002218,-1.573864,1.566194,0.6967,1.1635,0.0490,0.000000,0.587515,-0.559903,0.572175,-0.601320,0.567573,-0.564505
3.8581,0.016751,0.000787,-1.570796,1.566194,0.0000,0.0000,0.0000,-0.002139,-1.573864,1.566194,0.8588,1.2032,0.1055,0.000000,0.590583,-0.562971,0.575243,-0.602854,0.567573,-0.564505
3.8748,0.016752,0.000812,-1.570796,1.566194,0.0000,0.0000,0.0000,-0.002046,-1.573864,1.566194,0.9751,1.3032,0.3179,0.000000,0.593651,-0.566039,0.581379,-0.602854,0.567573,-0.564505
3.8916,0.016767,0.000837,-1.570796,1.566194,0.0000,0.0000,0.0000,-0.002046,-1.573864,1.566194,0.9751,1.3032,0.3179,0.000000,0.593651,-0.566039,0.581379,-0.602854,0.567573,-0.564505
3.9083,0.016744,0.000863,-1.570796,1.566194,0.0000,0.0000,0.0000,-0.001942,-1.573864,1.566194,1.0401,1.2568,0.3501,0.000000,0.595185,-0.570641,0.584447,-0.604388,0.570641,-0.564505
3.9251,0.016750,0.000888,-1.570796,1.566194,0.0000,0.0000,0.0000,-0.001839,-1.573864,1.566194,1.1009,1.2417,0.2944,0.000000,0.596719,-0.575243,0.587515,-0.605922,0.572175,-0.566039
3.9418,0.016744,0.000913,-1.570796,1.566194,0.0000,0.0000,0.0000,-0.001722,-1.573864,1.566194,1.0618,1.2561,0.3002,0.000000,0.596719,-0.579845,0.592117,-0.607456,0.575243,-0.567573
3.9586,0.016750,0.000938,-1.570796,1.566194,0.0000,0.0000,0.0000,-0.001648,-1.573864,1.566194,1.0641,1.1540,0.4611,0.000000,0.599786,-0.581379,0.593651,-0.607456,0.578311,-0.569107
3.9758,0.017162,0.000964,-1.570796,1.566194,0.0000,0.0000,0.0000,-0.001556,-1.573864,1.566194,1.0247,1.0263,0.3354,0.000000,0.601320,-0.584447,0.593651,-0.608990,0.581379,-0.572175
3.9925,0.016752,0.000989,-1.570796,1.566194,0.0000,0.0000,0.0000,-0.001556,-1.573864,1.566194,1.0247,1.0263,0.3354,0.000000,0.601320,-0.584447,0.593651,-0.608990,0.581379,-0.572175
4.0093,0.016751,0.001014,-1.570796,1.566194,0.0000,0.0000,0.0000,-0.001516,-1.573864,1.566194,0.9900,1.0035,0.2398,0.000000,0.601320,-0.585981,0.593651,-0.610524,0.582913,-0.573709
4.0260,0.016757,0.001039,-1.570796,1.566194,0.0000,0.0000,0.0000,-0.001460,-1.573864,1.566194,0.9762,1.0400,0.1954,0.000000,0.602854,-0.585981,0.593651,-0.613592,0.584447,-0.575243
4.0428,0.016753,0.001064,-1.570796,1.566194,0.0000,0.0000,0.0000,-0.001442,-1.573864,1.566194,0.9874,0.9870,0.3078,0.000000,0.604388,-0.585981,0.593651,-0.613592,0.585981,-0.575243
4.0595,0.016755,0.001089,-1.570796,1.566194,0.0000,0.0000,0.0000,-0.001444,-1.573864,1.566194,0.8978,1.0103,0.2957,0.000000,0.604388,-0.584447,0.593651,-0.613592,0.585981,-0.576777
4.0765,0.016990,0.001115,-1.570796,1.566194,0.0000,0.0000,0.0000,-0.001406,-1.573864,1.566194,0.8574,0.9211,0.2423,0.000000,0.604388,-0.585981,0.593651,-0.613592,0.587515,-0.578311
4.0933,0.016759,0.001140,-1.570796,1.566194,0.0000,0.0000,0.0000,-0.001406,-1.573864,1.566194,0.8574,0.9211,0.2423,0.000000,0.604388,-0.585981,0.593651,-0.613592,0.587515,-0.578311
4.1100,0.016750,0.001165,-1.570796,1.566194,0.0000,0.0000,0.0000,-0.001410,-1.573864,1.566194,0.8616,0.9304,0.2479,0.000000,0.604388,-0.585981,0.593651,-0.613592,0.587515,-0.578311
4.1268,0.016752,0.001190,-1.570796,1.566194,0.0000,0.0000,0.0000,-0.001384,-1.573864,1.566194,0.7723,0.8781,0.2464,0.000000,0.604388,-0.585981,0.593651,-0.613592,0.589049,-0.579845
4.1435,0.016750,0.001215,-1.570796,1.566194,0.0000,0.0000,0.0000,-0.001386,-1.573864,1.566194,0.7816,0.8835,0.2466,0.000000,0.604388,-0.585981,0.593651,-0.613592,0.589049,-0.579845
4.1603,0.016752,0.001240,-1.570796,1.566194,0.0000,0.0000,0.0000,-0.001348,-1.573864,1.566194,0.7309,0.7964,0.1920,0.000000,0.604388,-0.587515,0.593651,-0.613592,0.590583,-0.581379
4.1770,0.016750,0.001266,-1.570796,1.566194,0.0000,0.0000,0.0000,-0.001339,-1.573864,1.566194,0.6869,0.7881,0.1435,0.000000,0.604388,-0.587515,0.593651,-0.613592,0.590583,-0.582913
4.1938,0.016760,0.001291,-1.570796,1.566194,0.0000,0.0000,0.0000,-0.001339,-1.573864,1.566194,0.6869,0.7881,0.1435,0.000000,0.604388,-0.587515,0.593651,-0.613592,0.590583,-0.582913
4.2105,0.016749,0.001316,-1.570796,1.566194,0.0000,0.0000,0.0000,-0.001327,-1.573864,1.566194,0.7305,0.7537,0.0947,0.000000,0.604388,-0.589049,0.593651,-0.613592,0.590583,-0.582913
4.2273,0.016750,0.001341,-1.570796,1.566194,0.0000,0.0000,0.0000,-0.001328,-1.573864,1.566194,0.7259,0.7573,0.0998,0.000000,0.604388,-0.589049,0.593651,-0.613592,0.590583,-0.582913
4.2440,0.016747,0.001366,-1.570796,1.566194,0.0000,0.0000,0.0000,-0.001328,-1.573864,1.566194,0.7259,0.7573,0.0998,0.000000,0.604388,-0.589049,0.593651,-0.613592,0.590583,-0.582913
4.2608,0.016751,0.001391,-1.570796,1.566194,0.0000,0.0000,0.0000,-0.001328,-1.573864,1.566194,0.7259,0.7573,0.0998,0.000000,0.604388,-0.589049,0.593651,-0.613592,0.590583,-0.582913
4.2775,0.016749,0.001416,-1.570796,1.566194,0.0000,0.0000,0.0000,-0.001328,-1.573864,1.566194,0.7259,0.7573,0.0998,0.000000,0.604388,-0.589049,0.593651,-0.613592,0.590583,-0.582913
4.2943,0.016748,0.001441,-1.570796,1.566194,0.0000,0.0000,0.0000,-0.001328,-1.573864,1.566194,0.7259,0.7573,0.0998,0.000000,0.604388,-0.589049,0.593651,-0.613592,0.590583,-0.582913
4.3110,0.016752,0.001467,-1.570796,1.566194,0.0000,0.0000,0.0000,-0.001317,-1.573864,1.566194,0.7374,0.8074,0.0452,0.000000,0.604388,-0.589049,0.593651,-0.615126,0.590583,-0.582913
4.3278,0.016753,0.001492,-1.570796,1.566194,0.0000,0.0000,0.0000,-0.001318,-1.573864,1.566194,0.7363,0.8021,0.0509,0.000000,0.604388,-0.589049,0.593651,-0.615126,0.590583,-0.582913
4.3445,0.016746,0.001517,-1.570796,1.566194,0.0000,0.0000,0.0000,-0.001307,-1.573864,1.566194,0.7474,0.8530,-0.0039,0.000000,0.604388,-0.589049,0.593651,-0.616660,0.590583,-0.582913
4.3613,0.016756,0.001542,-1.570796,1.566194,0.0000,0.0000,0.0000,-0.001308,-1.573864,1.566194,0.7463,0.8477,0.0018,0.000000,0.604388,-0.589049,0.593651,-0.616660,0.590583,-0.582913
4.3781,0.016790,0.001567,-1.570796,1.566194,0.0000,0.0000,0.0000,-0.001308,-1.573864,1.566194,0.7463,0.8477,0.0018,0.000000,0.604388,-0.589049,0.593651,-0.616660,0.590583,-0.582913
4.3948,0.016753,0.001592,-1.570796,1.566194,0.0000,0.0000,0.0000,-0.001308,-1.573864,1.566194,0.7463,0.8477,0.0018,0.000000,0.604388,-0.589049,0.593651,-0.616660,0.590583,-0.582913
4.4116,0.016751,0.001617,-1.570796,1.566194,0.0000,0.0000,0.0000,-0.001308,-1.573864,1.566194,0.7463,0.8477,0.0018,0.000000,0.604388,-0.589049,0.593651,-0.616660,0.590583,-0.582913
4.4283,0.016751,0.001642,-1.570796,1.566194,0.0000,0.0000,0.0000,-0.001295,-1.573864,1.566194,0.7853,0.8130,-0.0527,0.000000,0.604388,-0.590583,0.593651,-0.616660,0.590583,-0.582913
4.4452,0.016837,0.001668,-1.570796,1.566194,0.0000,0.0000,0.0000,-0.001283,-1.573864,1.566194,0.8200,0.7814,-0.1009,0.000000,0.604388,-0.592117,0.593651,-0.616660,0.590583,-0.582913
4.4619,0.016754,0.001693,-1.570796,1.566194,0.0000,0.0000,0.0000,-0.001273,-1.573864,1.566194,0.8659,0.7692,-0.0414,0.000000,0.605922,-0.592117,0.593651,-0.616660,0.590583,-0.582913
4.4787,0.016763,0.001718,-1.570796,1.566194,0.0000,0.0000,0.0000,-0.001240,-1.573864,1.566194,0.9711,0.7900,0.0074,0.000000,0.608990,-0.592117,0.593651,-0.618194,0.590583,-0.582913
4.4954,0.016749,0.001743,-1.570796,1.566194,0.0000,0.0000,0.0000,-0.001240,-1.573864,1.566194,0.9711,0.7900,0.0074,0.000000,0.608990,-0.592117,0.593651,-0.618194,0.590583,-0.582913
4.5122,0.016753,0.001768,-1.570796,1.566194,0.0000,0.0000,0.0000,-0.001206,-1.573864,1.566194,0.9111,0.7376,-0.0516,0.000000,0.610524,-0.592117,0.593651,-0.618194,0.590583,-0.585981
4.5289,0.016746,0.001793,-1.570796,1.566194,0.0000,0.0000,0.0000,-0.001175,-1.573864,1.566194,0.9289,0.7606,-0.0992,0.000000,0.612058,-0.592117,0.593651,-0.619728,0.590583,-0.587515
4.5457,0.016756,0.001819,-1.570796,1.566194,0.0000,0.0000,0.0000,-0.001119,-1.573864,1.566194,0.9391,0.7427,-0.1477,0.000000,0.615126,-0.592117,0.593651,-0.621262,0.590583,-0.590583
4.5624,0.016744,0.001844,-1.570796,1.566194,0.0000,0.0000,0.0000,-0.001064,-1.573864,1.566194,0.8989,0.6453,-0.0885,0.000000,0.618194,-0.592117,0.593651,-0.621262,0.592117,-0.593651
4.5792,0.016756,0.001869,-1.570796,1.566194,0.0000,0.0000,0.0000,-0.001064,-1.573864,1.566194,0.8989,0.6453,-0.0885,0.000000,0.618194,-0.592117,0.593651,-0.621262,0.592117,-0.593651
4.5959,0.016744,0.001894,-1.570796,1.566194,0.0000,0.0000,0.0000,-0.000984,-1.573864,1.566194,0.8254,0.5529,-0.1500,0.000000,0.619728,-0.593651,0.593651,-0.622796,0.595185,-0.596719
4.6127,0.016750,0.001919,-1.570796,1.566194,0.0000,0.0000,0.0000,-0.000918,-1.573864,1.566194,0.6187,0.4931,-0.2541,0.000000,0.619728,-0.593651,0.593651,-0.624330,0.598253,-0.601320
4.6294,0.016750,0.001944,-1.570796,1.566194,0.0000,0.0000,0.0000,-0.000866,-1.573864,1.566194,0.6242,0.5333,-0.2981,0.000000,0.621262,-0.593651,0.593651,-0.627398,0.599786,-0.602854
4.6462,0.016752,0.001969,-1.570796,1.566194,0.0000,0.0000,0.0000,-0.000751,-1.573864,1.566194,0.5674,0.4278,-0.2945,0.000000,0.624330,-0.595185,0.593651,-0.630466,0.604388,-0.605922
4.6629,0.016752,0.001994,-1.570796,1.566194,0.0000,0.0000,0.0000,-0.000690,-1.573864,1.566194,0.6321,0.3359,-0.2950,0.000000,0.625864,-0.598253,0.593651,-0.632000,0.607456,-0.605922
4.6802,0.017309,0.002020,-1.570796,1.566194,0.0000,0.0000,0.0000,-0.000690,-1.573864,1.566194,0.6321,0.3359,-0.2950,0.000000,0.625864,-0.599786,0.593651,-0.635068,0.608990,-0.607456
4.6970,0.016744,0.002045,-1.570796,1.566194,0.0000,0.0000,0.0000,-0.000636,-1.573864,1.566194,0.5985,0.3590,-0.4590,0.000000,0.625864,-0.599786,0.593651,-0.635068,0.608990,-0.607456
4.7137,0.016744,0.002071,-1.570796,1.566194,0.0000,0.0000,0.0000,-0.000567,-1.573864,1.566194,0.5623,0.2512,-0.5515,0.000000,0.625864,-0.602854,0.593651,-0.636602,0.612058,-0.608990
4.7305,0.016747,0.002096,-1.570796,1.566194,0.0000,0.0000,0.0000,-0.000549,-1.573864,1.566194,0.5646,0.1936,-0.5420,0.000000,0.625864,-0.604388,0.593651,-0.636602,0.613592,-0.608990
4.7472,0.016754,0.002121,-1.570796,1.566194,0.0000,0.0000,0.0000,-0.000538,-1.573864,1.566194,0.6026,0.1642,-0.5974,0.000000,0.625864,-0.605922,0.593651,-0.636602,0.613592,-0.608990
4.7641,0.016850,0.002146,-1.570796,1.566194,0.0000,0.0000,0.0000,-0.000526,-1.573864,1.566194,0.5879,0.2188,-0.5374,0.000000,0.625864,-0.605922,0.595185,-0.636602,0.613592,-0.608990
4.7808,0.016755,0.002171,-1.570796,1.566194,0.0000,0.0000,0.0000,-0.000526,-1.573864,1.566194,0.5879,0.2188,-0.5374,0.000000,0.625864,-0.607456,0.598253,-0.638136,0.612058,-0.608990
4.7976,0.016751,0.002196,-1.570796,1.566194,0.0000,0.0000,0.0000,-0.000489,-1.573864,1.566194,0.6568,0.3640,-0.5983,0.000000,0.625864,-0.607456,0.598253,-0.638136,0.612058,-0.608990
4.8143,0.016740,0.002221,-1.570796,1.566194,0.0000,0.0000,0.0000,-0.000443,-1.573864,1.566194,0.5998,0.4680,-0.4838,0.000000,0.625864,-0.607456,0.601320,-0.639670,0.613592,-0.608990
4.8311,0.016745,0.002247,-1.570796,1.566194,0.0000,0.0000,0.0000,-0.000356,-1.573864,1.566194,0.5412,0.6613,-0.3322,0.000000,0.625864,-0.608990,0.608990,-0.639670,0.613592,-0.610524
4.8478,0.016743,0.002272,-1.570796,1.566194,0.0000,0.0000,0.0000,-0.000314,-1.573864,1.566194,0.5529,0.7590,-0.2385,0.000000,0.625864,-0.610524,0.613592,-0.639670,0.613592,-0.610524
4.8646,0.016813,0.002297,-1.570796,1.566194,0.0000,0.0000,0.0000,-0.000314,-1.573864,1.566194,0.5529,0.7590,-0.2385,0.000000,0.625864,-0.610524,0.613592,-0.639670,0.613592,-0.610524
4.8814,0.016746,0.002322,-1.570796,1.566194,0.0000,0.0000,0.0000,-0.000292,-1.573864,1.566194,0.5298,0.8506,-0.1389,0.000000,0.625864,-0.610524,0.616660,-0.639670,0.613592,-0.610524
4.8981,0.016741,0.002347,-1.570796,1.566194,0.0000,0.0000,0.0000,-0.000269,-1.573864,1.566194,0.5597,0.8569,-0.1489,0.000000,0.625864,-0.612058,0.618194,-0.639670,0.613592,-0.610524
4.9149,0.016740,0.002372,-1.570796,1.566194,0.0000,0.0000,0.0000,-0.000208,-1.573864,1.566194,0.4852,0.8721,-0.0934,0.000000,0.625864,-0.613592,0.621262,-0.639670,0.615126,-0.612058
4.9316,0.016745,0.002397,-1.570796,1.566194,0.0000,0.0000,0.0000,-0.000177,-1.573864,1.566194,0.4815,0.8523,-0.0446,0.000000,0.625864,-0.615126,0.622796,-0.639670,0.616660,-0.612058
4.9484,0.016754,0.002423,-1.570796,1.566194,0.0000,0.0000,0.0000,-0.000193,-1.573864,1.566194,0.5308,0.8711,0.0052,0.000000,0.625864,-0.615126,0.622796,-0.639670,0.616660,-0.610524
4.9651,0.016741,0.002448,-1.570796,1.566194,0.0000,0.0000,0.0000,-0.000193,-1.573864,1.566194,0.5308,0.8711,0.0052,0.000000,0.625864,-0.615126,0.622796,-0.639670,0.616660,-0.610524
4.9818,0.016750,0.002473,-1.570796,1.566194,0.0000,0.0000,0.0000,-0.000191,-1.573864,1.566194,0.5257,0.8692,0.0000,0.000000,0.625864,-0.615126,0.622796,-0.639670,0.616660,-0.610524
4.9986,0.016748,0.002498,-1.570796,1.566194,0.0000,0.0000,0.0000,-0.000179,-1.573864,1.566194,0.4772,0.8526,-0.0543,0.000000,0.625864,-0.615126,0.622796,-0.639670,0.616660,-0.612058
5.0153,0.016746,0.002523,-1.570796,1.566194,0.0000,0.0000,0.0000,-0.000180,-1.573864,1.566194,0.4823,0.8543,-0.0487,0.000000,0.625864,-0.615126,0.622796,-0.639670,0.616660,-0.612058
5.0321,0.016743,0.002548,-1.570796,1.566194,0.0000,0.0000,0.0000,-0.000157,-1.573864,1.566194,0.5420,0.8887,-0.0490,0.000000,0.627398,-0.615126,0.622796,-0.641204,0.616660,-0.612058
5.0488,0.016748,0.002573,-1.570796,1.566194,0.0000,0.0000,0.0000,-0.000114,-1.573864,1.566194,0.6565,0.9542,-0.0483,0.000000,0.630466,-0.615126,0.622796,-0.644272,0.616660,-0.612058
5.0656,0.016740,0.002598,-1.570796,1.566194,0.0000,0.0000,0.0000,-0.000114,-1.573864,1.566194,0.6565,0.9542,-0.0483,0.000000,0.630466,-0.615126,0.622796,-0.644272,0.616660,-0.612058
5.0823,0.016745,0.002623,-1.570796,1.566194,0.0000,0.0000,0.0000,-0.000071,-1.573864,1.566194,0.6265,0.9145,0.0602,0.000000,0.632000,-0.615126,0.622796,-0.645806,0.619728,-0.612058
5.0991,0.016741,0.002649,-1.570796,1.566194,0.0000,0.0000,0.0000,-0.000053,-1.573864,1.566194,0.6900,0.9534,0.0492,0.000000,0.633534,-0.615126,0.622796,-0.647340,0.619728,-0.612058
5.1158,0.016746,0.002674,-1.570796,1.566194,0.0000,0.0000,0.0000,-0.000007,-1.573864,1.566194,0.7430,0.9153,0.0504,0.000000,0.635068,-0.616660,0.622796,-0.648874,0.621262,-0.612058
5.1326,0.016745,0.002699,-1.570796,1.566194,0.0000,0.0000,0.0000,0.000010,-1.573864,1.566194,0.7979,0.9541,0.0506,0.000000,0.636602,-0.616660,0.622796,-0.650408,0.621262,-0.612058
5.1495,0.016989,0.002724,-1.570796,1.566194,0.0000,0.0000,0.0000,0.000010,-1.573864,1.566194,0.7979,0.9541,0.0506,0.000000,0.638136,-0.616660,0.622796,-0.650408,0.622796,-0.612058
5.1663,0.016716,0.002749,-1.570796,1.566194,0.0000,0.0000,0.0000,0.000032,-1.573864,1.566194,0.8020,0.9016,0.1601,0.000000,0.638136,-0.616660,0.622796,-0.650408,0.622796,-0.612058
5.1830,0.016753,0.002775,-1.570796,1.566194,0.0000,0.0000,0.0000,0.000077,-1.573864,1.566194,0.8613,0.8733,0.1487,0.000000,0.639670,-0.618194,0.622796,-0.651942,0.624330,-0.612058
5.1998,0.016743,0.002800,-1.570796,1.566194,0.0000,0.0000,0.0000,0.000096,-1.573864,1.566194,0.8650,0.8281,0.2595,0.000000,0.641204,-0.618194,0.622796,-0.651942,0.625864,-0.612058
5.2167,0.016909,0.002825,-1.570796,1.566194,0.0000,0.0000,0.0000,0.000117,-1.573864,1.566194,0.8369,0.8492,0.2473,0.000000,0.641204,-0.618194,0.622796,-0.653476,0.627398,-0.612058
5.2334,0.016742,0.002850,-1.570796,1.566194,0.0000,0.0000,0.0000,0.000102,-1.573864,1.566194,0.8014,0.8824,0.3031,0.000000,0.641204,-0.616660,0.622796,-0.653476,0.627398,-0.612058
5.2502,0.016751,0.002875,-1.570796,1.566194,0.0000,0.0000,0.0000,0.000102,-1.573864,1.566194,0.8014,0.8824,0.3031,0.000000,0.642738,-0.616660,0.622796,-0.655010,0.627398,-0.612058
5.2669,0.016747,0.002900,-1.570796,1.566194,0.0000,0.0000,0.0000,0.000125,-1.573864,1.566194,0.8653,0.9141,0.2977,0.000000,0.642738,-0.616660,0.622796,-0.655010,0.627398,-0.612058
5.2836,0.016748,0.002925,-1.570796,1.566194,0.0000,0.0000,0.0000,0.000159,-1.573864,1.566194,0.9071,0.8276,0.3534,0.000000,0.644272,-0.618194,0.622796,-0.655010,0.628932,-0.612058
5.3004,0.016747,0.002951,-1.570796,1.566194,0.0000,0.0000,0.0000,0.000178,-1.573864,1.566194,0.8750,0.8530,0.3469,0.000000,0.644272,-0.618194,0.622796,-0.656544,0.630466,-0.612058
5.3171,0.016745,0.002976,-1.570796,1.566194,0.0000,0.0000,0.0000,0.000186,-1.573864,1.566194,0.8500,0.8384,0.5120,0.000000,0.645806,-0.616660,0.622796,-0.656544,0.632000,-0.612058
5.3339,0.016756,0.003001,-1.570796,1.566194,0.0000,0.0000,0.0000,0.000208,-1.573864,1.566194,0.8249,0.8565,0.4941,0.000000,0.645806,-0.616660,0.622796,-0.658078,0.633534,-0.612058
5.3508,0.016924,0.003026,-1.570796,1.566194,0.0000,0.0000,0.0000,0.000217,-1.573864,1.566194,0.8765,0.8404,0.5515,0.000000,0.647340,-0.616660,0.622796,-0.658078,0.633534,-0.612058
5.3676,0.016746,0.003051,-1.570796,1.566194,0.0000,0.0000,0.0000,0.000217,-1.573864,1.566194,0.8765,0.8404,0.5515,0.000000,0.647340,-0.616660,0.622796,-0.658078,0.633534,-0.612058
5.3843,0.016757,0.003076,-1.570796,1.566194,0.0000,0.0000,0.0000,0.000241,-1.573864,1.566194,0.8708,0.7733,0.5454,0.000000,0.647340,-0.618194,0.622796,-0.658078,0.635068,-0.612058
5.4011,0.016747,0.003102,-1.570796,1.566194,0.0000,0.0000,0.0000,0.000273,-1.573864,1.566194,0.8826,0.7980,0.4915,0.000000,0.648874,-0.618194,0.622796,-0.659612,0.635068,-0.613592
5.4178,0.016759,0.003127,-1.570796,1.566194,0.0000,0.0000,0.0000,0.000270,-1.573864,1.566194,0.7942,0.8133,0.4967,0.000000,0.648874,-0.616660,0.622796,-0.659612,0.635068,-0.615126
5.4346,0.016751,0.003152,-1.570796,1.566194,0.0000,0.0000,0.0000,0.000270,-1.573864,1.566194,0.7942,0.8133,0.4967,0.000000,0.650408,-0.618194,0.622796,-0.659612,0.635068,-0.618194
5.4513,0.016766,0.003177,-1.570796,1.566194,0.0000,0.0000,0.0000,0.000320,-1.573864,1.566194,0.7933,0.7263,0.3871,0.000000,0.650408,-0.618194,0.622796,-0.659612,0.635068,-0.618194
