t,loop_dt,cmd_z,cmd_ant_l,cmd_ant_r,cmd_roll,cmd_pitch,cmd_yaw,pres_z,pres_ant_l,pres_ant_r,pres_roll,pres_pitch,pres_yaw,pres_j0,pres_j1,pres_j2,pres_j3,pres_j4,pres_j5,pres_j6
0.0000,0.000001,-0.005000,-1.573864,1.566194,0.0000,0.0000,0.0000,-0.002908,-1.573864,1.566194,0.6838,1.1209,0.0464,0.000000,0.566039,-0.550699,0.561437,-0.581379,0.552233,-0.546097
0.0168,0.016775,-0.004966,-1.573864,1.566194,0.0000,0.0000,0.0000,-0.002908,-1.573864,1.566194,0.6838,1.1209,0.0464,0.000000,0.566039,-0.550699,0.561437,-0.581379,0.552233,-0.546097
0.0335,0.016759,-0.004933,-1.573864,1.566194,0.0000,0.0000,0.0000,-0.002852,-1.573864,1.566194,0.7252,1.1531,-0.0022,0.000000,0.567573,-0.552233,0.562971,-0.582913,0.552233,-0.547631
0.0503,0.016756,-0.004899,-1.573864,1.566194,0.0000,0.0000,0.0000,-0.002721,-1.573864,1.566194,0.8111,1.0961,-0.1561,0.000000,0.570641,-0.556835,0.564505,-0.585981,0.553767,-0.550699
0.0671,0.016763,-0.004866,-1.573864,1.566194,0.0000,0.0000,0.0000,-0.002734,-1.573864,1.566194,0.8021,1.1020,-0.1400,0.000000,0.570641,-0.556835,0.564505,-0.585981,0.553767,-0.550699
0.0838,0.016758,-0.004832,-1.573864,1.566194,0.0000,0.0000,0.0000,-0.003527,-1.573864,1.566194,0.6828,0.8997,-0.1413,0.000000,0.553767,-0.541495,0.547631,-0.566039,0.538427,-0.536893
0.1006,0.016763,-0.004799,-1.573864,1.566194,0.0000,0.0000,0.0000,-0.004307,-1.573864,1.566194,0.5342,0.8192,-0.0888,0.000000,0.533825,-0.524621,0.530757,-0.546097,0.523087,-0.520019
0.1173,0.016757,-0.004765,-1.573864,1.566194,0.0000,0.0000,0.0000,-0.004307,-1.573864,1.566194,0.5342,0.8192,-0.0888,0.000000,0.533825,-0.524621,0.530757,-0.546097,0.523087,-0.520019
0.1341,0.016756,-0.004732,-1.573864,1.566194,0.0000,0.0000,0.0000,-0.005092,-1.573864,1.566194,0.3978,0.5714,0.0611,0.000000,0.515418,-0.507748,0.512350,-0.524621,0.509282,-0.503146
0.1508,0.016755,-0.004698,-1.573864,1.566194,0.0000,0.0000,0.0000,-0.005500,-1.573864,1.566194,0.1297,0.3186,0.0966,0.000000,0.501612,-0.500078,0.503146,-0.509282,0.503146,-0.495476
0.1676,0.016767,-0.004665,-1.573864,1.566194,0.0000,0.0000,0.0000,-0.005584,-1.573864,1.566194,-0.0937,0.1880,0.2995,0.000000,0.497010,-0.497010,0.501612,-0.503146,0.504680,-0.493942
0.1844,0.016759,-0.004631,-1.573864,1.566194,0.0000,0.0000,0.0000,-0.005575,-1.573864,1.566194,-0.1307,0.1318,0.2785,0.000000,0.497010,-0.497010,0.501612,-0.501612,0.504680,-0.495476
0.2011,0.016765,-0.004598,-1.573864,1.566194,0.0000,0.0000,0.0000,-0.005577,-1.573864,1.566194,-0.0664,0.2072,0.2805,0.000000,0.497010,-0.497010,0.501612,-0.503146,0.504680,-0.493942
0.2179,0.016758,-0.004564,-1.573864,1.566194,0.0000,0.0000,0.0000,-0.005577,-1.573864,1.566194,-0.0664,0.2072,0.2805,0.000000,0.497010,-0.497010,0.501612,-0.503146,0.504680,-0.493942
0.2346,0.016753,-0.004531,-1.573864,1.566194,0.0000,0.0000,0.0000,-0.005577,-1.573864,1.566194,-0.0731,0.1993,0.2803,0.000000,0.497010,-0.497010,0.501612,-0.503146,0.504680,-0.493942
0.2514,0.016755,-0.004497,-1.573864,1.566194,0.0000,0.0000,0.0000,-0.005577,-1.573864,1.566194,-0.0722,0.2004,0.2804,0.000000,0.497010,-0.497010,0.501612,-0.503146,0.504680,-0.493942
0.2682,0.016762,-0.004464,-1.573864,1.566194,0.0000,0.0000,0.0000,-0.005577,-1.573864,1.566194,-0.0722,0.2004,0.2804,0.000000,0.497010,-0.497010,0.501612,-0.503146,0.504680,-0.493942
0.2849,0.016756,-0.004430,-1.573864,1.566194,0.0000,0.0000,0.0000,-0.005577,-1.573864,1.566194,-0.0722,0.2004,0.2804,0.000000,0.497010,-0.497010,0.501612,-0.503146,0.504680,-0.493942
0.3017,0.016773,-0.004397,-1.573864,1.566194,0.0000,0.0000,0.0000,-0.005577,-1.573864,1.566194,-0.0722,0.2004,0.2804,0.000000,0.497010,-0.497010,0.501612,-0.503146,0.504680,-0.493942
0.3185,0.016761,-0.004363,-1.573864,1.566194,0.0000,0.0000,0.0000,-0.005577,-1.573864,1.566194,-0.0722,0.2004,0.2804,0.000000,0.497010,-0.497010,0.501612,-0.503146,0.504680,-0.493942
0.3352,0.016758,-0.004330,-1.573864,1.566194,0.0000,0.0000,0.0000,-0.005577,-1.573864,1.566194,-0.0722,0.2004,0.2804,0.000000,0.497010,-0.497010,0.501612,-0.503146,0.504680,-0.493942
0.3520,0.016756,-0.004296,-1.573864,1.566194,0.0000,0.0000,0.0000,-0.005577,-1.573864,1.566194,-0.0722,0.2004,0.2804,0.000000,0.497010,-0.497010,0.501612,-0.503146,0.504680,-0.493942
0.3687,0.016758,-0.004263,-1.573864,1.566194,0.0000,0.0000,0.0000,-0.005577,-1.573864,1.566194,-0.0722,0.2004,0.2804,0.000000,0.497010,-0.497010,0.501612,-0.503146,0.504680,-0.493942
0.3854,0.016718,-0.004229,-1.573864,1.566194,0.0000,0.0000,0.0000,-0.005564,-1.573864,1.566194,-0.0325,0.1650,0.2288,0.000000,0.497010,-0.498544,0.501612,-0.503146,0.504680,-0.493942
0.4022,0.016760,-0.004196,-1.573864,1.566194,0.0000,0.0000,0.0000,-0.005564,-1.573864,1.566194,-0.0325,0.1650,0.2288,0.000000,0.497010,-0.497010,0.501612,-0.503146,0.504680,-0.493942
0.4190,0.016757,-0.004162,-1.573864,1.566194,0.0000,0.0000,0.0000,-0.005578,-1.573864,1.566194,-0.0766,0.2037,0.2857,0.000000,0.497010,-0.497010,0.501612,-0.503146,0.504680,-0.493942
0.4357,0.016754,-0.004129,-1.573864,1.566194,0.0000,0.0000,0.0000,-0.005576,-1.573864,1.566194,-0.0721,0.1997,0.2798,0.000000,0.497010,-0.497010,0.501612,-0.503146,0.504680,-0.493942
0.4526,0.016915,-0.004095,-1.573864,1.566194,0.0000,0.0000,0.0000,-0.005576,-1.573864,1.566194,-0.0721,0.1997,0.2798,0.000000,0.497010,-0.497010,0.501612,-0.503146,0.504680,-0.493942
0.4694,0.016761,-0.004061,-1.573864,1.566194,0.0000,0.0000,0.0000,-0.005576,-1.573864,1.566194,-0.0721,0.1997,0.2798,0.000000,0.497010,-0.497010,0.501612,-0.503146,0.504680,-0.493942
0.4863,0.016908,-0.004027,-1.573864,1.566194,0.0000,0.0000,0.0000,-0.005576,-1.573864,1.566194,-0.0721,0.1997,0.2798,0.000000,0.497010,-0.497010,0.501612,-0.503146,0.504680,-0.493942
0.5031,0.016818,-0.003994,-1.573864,1.566194,0.0000,0.0000,0.0000,-0.005576,-1.573864,1.566194,-0.0721,0.1997,0.2798,0.000000,0.497010,-0.497010,0.501612,-0.503146,0.504680,-0.493942
0.5199,0.016750,-0.003960,-1.573864,1.566194,0.0000,0.0000,0.0000,-0.005576,-1.573864,1.566194,-0.0721,0.1997,0.2798,0.000000,0.497010,-0.497010,0.501612,-0.503146,0.504680,-0.493942
0.5366,0.016750,-0.003927,-1.573864,1.566194,0.0000,0.0000,0.0000,-0.005576,-1.573864,1.566194,-0.0721,0.1997,0.2798,0.000000,0.497010,-0.497010,0.501612,-0.503146,0.504680,-0.493942
0.5534,0.016755,-0.003893,-1.573864,1.566194,0.0000,0.0000,0.0000,-0.005576,-1.573864,1.566194,-0.0721,0.1997,0.2798,0.000000,0.497010,-0.497010,0.501612,-0.503146,0.504680,-0.493942
0.5701,0.016751,-0.003860,-1.573864,1.566194,0.0000,0.0000,0.0000,-0.005576,-1.573864,1.566194,-0.0721,0.1997,0.2798,0.000000,0.497010,-0.497010,0.501612,-0.503146,0.504680,-0.493942
0.5869,0.016757,-0.003826,-1.573864,1.566194,0.0000,0.0000,0.0000,-0.005576,-1.573864,1.566194,-0.0721,0.1997,0.2798,0.000000,0.497010,-0.497010,0.501612,-0.503146,0.504680,-0.493942
0.6037,0.016835,-0.003793,-1.573864,1.566194,0.0000,0.0000,0.0000,-0.005576,-1.573864,1.566194,-0.0721,0.1997,0.2798,0.000000,0.497010,-0.497010,0.501612,-0.503146,0.504680,-0.493942
0.6205,0.016753,-0.003759,-1.573864,1.566194,0.0000,0.0000,0.0000,-0.005576,-1.573864,1.566194,-0.0721,0.1997,0.2798,0.000000,0.497010,-0.497010,0.501612,-0.503146,0.504680,-0.493942
0.6373,0.016818,-0.003725,-1.573864,1.566194,0.0000,0.0000,0.0000,-0.005576,-1.573864,1.566194,-0.0721,0.1997,0.2798,0.000000,0.497010,-0.497010,0.501612,-0.503146,0.504680,-0.493942
0.6541,0.016770,-0.003692,-1.573864,1.566194,0.0000,0.0000,0.0000,-0.005576,-1.573864,1.566194,-0.0721,0.1997,0.2798,0.000000,0.497010,-0.497010,0.501612,-0.503146,0.504680,-0.493942
0.6709,0.016884,-0.003658,-1.573864,1.566194,0.0000,0.0000,0.0000,-0.005564,-1.573864,1.566194,-0.1229,0.1827,0.2288,0.000000,0.497010,-0.497010,0.501612,-0.503146,0.504680,-0.495476
0.6880,0.017016,-0.003624,-1.573864,1.566194,0.0000,0.0000,0.0000,-0.005578,-1.573864,1.566194,-0.0672,0.2019,0.2857,0.000000,0.497010,-0.497010,0.501612,-0.503146,0.504680,-0.493942
0.7047,0.016768,-0.003591,-1.573864,1.566194,0.0000,0.0000,0.0000,-0.005578,-1.573864,1.566194,-0.0672,0.2019,0.2857,0.000000,0.497010,-0.497010,0.501612,-0.503146,0.504680,-0.493942
0.7215,0.016779,-0.003557,-1.573864,1.566194,0.0000,0.0000,0.0000,-0.005576,-1.573864,1.566194,-0.0730,0.1999,0.2798,0.000000,0.497010,-0.497010,0.501612,-0.503146,0.504680,-0.493942
0.7383,0.016749,-0.003523,-1.573864,1.566194,0.0000,0.0000,0.0000,-0.005564,-1.573864,1.566194,-0.1228,0.1827,0.2288,0.000000,0.497010,-0.497010,0.501612,-0.503146,0.504680,-0.495476
0.7552,0.016935,-0.003490,-1.573864,1.566194,0.0000,0.0000,0.0000,-0.005578,-1.573864,1.566194,-0.0673,0.2019,0.2857,0.000000,0.497010,-0.497010,0.501612,-0.503146,0.504680,-0.493942
0.7720,0.016763,-0.003456,-1.573864,1.566194,0.0000,0.0000,0.0000,-0.005564,-1.573864,1.566194,-0.1234,0.1825,0.2282,0.000000,0.497010,-0.497010,0.501612,-0.503146,0.504680,-0.495476
0.7892,0.017285,-0.003422,-1.573864,1.566194,0.0000,0.0000,0.0000,-0.005565,-1.573864,1.566194,-0.1176,0.1845,0.2342,0.000000,0.497010,-0.497010,0.501612,-0.503146,0.504680,-0.495476
0.8060,0.016770,-0.003388,-1.573864,1.566194,0.0000,0.0000,0.0000,-0.005565,-1.573864,1.566194,-0.1176,0.1845,0.2342,0.000000,0.497010,-0.497010,0.501612,-0.503146,0.504680,-0.495476
0.8228,0.016768,-0.003354,-1.573864,1.566194,0.0000,0.0000,0.0000,-0.005565,-1.573864,1.566194,-0.1176,0.1845,0.2342,0.000000,0.497010,-0.497010,0.501612,-0.503146,0.504680,-0.495476
0.8395,0.016762,-0.003321,-1.573864,1.566194,0.0000,0.0000,0.0000,-0.005565,-1.573864,1.566194,-0.1176,0.1845,0.2342,0.000000,0.497010,-0.497010,0.501612,-0.503146,0.504680,-0.495476
0.8563,0.016760,-0.003287,-1.573864,1.566194,0.0000,0.0000,0.0000,-0.005552,-1.573864,1.566194,-0.0781,0.1493,0.1820,0.000000,0.497010,-0.498544,0.501612,-0.503146,0.504680,-0.495476
0.8731,0.016778,-0.003254,-1.573864,1.566194,0.0000,0.0000,0.0000,-0.005554,-1.573864,1.566194,-0.0823,0.1530,0.1874,0.000000,0.497010,-0.498544,0.501612,-0.503146,0.504680,-0.495476
0.8898,0.016771,-0.003220,-1.573864,1.566194,0.0000,0.0000,0.0000,-0.005566,-1.573864,1.566194,-0.1218,0.1876,0.2384,0.000000,0.497010,-0.497010,0.501612,-0.503146,0.504680,-0.495476
0.9066,0.016758,-0.003187,-1.573864,1.566194,0.0000,0.0000,0.0000,-0.005566,-1.573864,1.566194,-0.1218,0.1876,0.2384,0.000000,0.497010,-0.497010,0.501612,-0.503146,0.504680,-0.495476
0.9234,0.016758,-0.003153,-1.573864,1.566194,0.0000,0.0000,0.0000,-0.005565,-1.573864,1.566194,-0.1177,0.1840,0.2331,0.000000,0.497010,-0.497010,0.501612,-0.503146,0.504680,-0.495476
0.9401,0.016765,-0.003120,-1.573864,1.566194,0.0000,0.0000,0.0000,-0.005565,-1.573864,1.566194,-0.1177,0.1840,0.2331,0.000000,0.497010,-0.497010,0.501612,-0.503146,0.504680,-0.495476
0.9569,0.016761,-0.003086,-1.573864,1.566194,0.0000,0.0000,0.0000,-0.005552,-1.573864,1.566194,-0.0679,0.1674,0.2854,0.000000,0.498544,-0.497010,0.501612,-0.503146,0.504680,-0.495476
0.9737,0.016765,-0.003053,-1.573864,1.566194,0.0000,0.0000,0.0000,-0.005554,-1.573864,1.566194,-0.0731,0.1691,0.2799,0.000000,0.498544,-0.497010,0.501612,-0.503146,0.504680,-0.495476
0.9914,0.017792,-0.003017,-1.573864,1.566194,0.0000,0.0000,0.0000,-0.005541,-1.573864,1.566194,-0.0325,0.1339,0.2289,0.000000,0.498544,-0.498544,0.501612,-0.503146,0.504680,-0.495476
1.0082,0.016764,-0.002984,-1.573864,1.566194,0.0000,0.0000,0.0000,-0.005541,-1.573864,1.566194,-0.0325,0.1339,0.2289,0.000000,0.498544,-0.498544,0.501612,-0.503146,0.504680,-0.495476
1.0250,0.016764,-0.002950,-1.573864,1.566194,0.0000,0.0000,0.0000,-0.005542,-1.573864,1.566194,-0.0870,0.2246,0.3375,0.000000,0.498544,-0.497010,0.503146,-0.503146,0.504680,-0.495476
1.0417,0.016766,-0.002917,-1.573864,1.566194,0.0000,0.0000,0.0000,-0.005529,-1.573864,1.566194,-0.0412,0.1801,0.2746,0.000000,0.498544,-0.498544,0.503146,-0.503146,0.504680,-0.495476
1.0585,0.016761,-0.002883,-1.573864,1.566194,0.0000,0.0000,0.0000,-0.005543,-1.573864,1.566194,-0.0861,0.2198,0.3327,0.000000,0.498544,-0.497010,0.503146,-0.503146,0.504680,-0.495476
1.0753,0.016759,-0.002849,-1.573864,1.566194,0.0000,0.0000,0.0000,-0.005529,-1.573864,1.566194,-0.0413,0.1806,0.2751,0.000000,0.498544,-0.498544,0.503146,-0.503146,0.504680,-0.495476
1.0920,0.016767,-0.002816,-1.573864,1.566194,0.0000,0.0000,0.0000,-0.005529,-1.573864,1.566194,-0.0413,0.1806,0.2751,0.000000,0.498544,-0.498544,0.503146,-0.503146,0.504680,-0.495476
1.1088,0.016763,-0.002782,-1.573864,1.566194,0.0000,0.0000,0.0000,-0.005518,-1.573864,1.566194,-0.0359,0.2368,0.2294,0.000000,0.498544,-0.498544,0.503146,-0.504680,0.504680,-0.495476
1.1255,0.016753,-0.002749,-1.573864,1.566194,0.0000,0.0000,0.0000,-0.005519,-1.573864,1.566194,-0.0365,0.2310,0.2341,0.000000,0.498544,-0.498544,0.503146,-0.504680,0.504680,-0.495476
1.1423,0.016764,-0.002715,-1.573864,1.566194,0.0000,0.0000,0.0000,-0.005494,-1.573864,1.566194,-0.0162,0.3358,0.1299,0.000000,0.498544,-0.498544,0.503146,-0.507748,0.504680,-0.495476
1.1591,0.016749,-0.002682,-1.573864,1.566194,0.0000,0.0000,0.0000,-0.005484,-1.573864,1.566194,-0.0081,0.3768,0.0889,0.000000,0.498544,-0.498544,0.503146,-0.509282,0.504680,-0.495476
1.1764,0.017320,-0.002647,-1.573864,1.566194,0.0000,0.0000,0.0000,-0.005460,-1.573864,1.566194,0.0114,0.4764,-0.0107,0.000000,0.498544,-0.498544,0.503146,-0.512350,0.504680,-0.495476
1.1931,0.016760,-0.002614,-1.573864,1.566194,0.0000,0.0000,0.0000,-0.005460,-1.573864,1.566194,0.0114,0.4764,-0.0107,0.000000,0.498544,-0.498544,0.503146,-0.512350,0.504680,-0.495476
1.2099,0.016765,-0.002580,-1.573864,1.566194,0.0000,0.0000,0.0000,-0.005451,-1.573864,1.566194,0.0196,0.5178,-0.0522,0.000000,0.498544,-0.498544,0.503146,-0.513884,0.504680,-0.495476
1.2267,0.016753,-0.002547,-1.573864,1.566194,0.0000,0.0000,0.0000,-0.005440,-1.573864,1.566194,-0.0006,0.6523,-0.1006,0.000000,0.498544,-0.497010,0.503146,-0.516952,0.504680,-0.495476
1.2434,0.016776,-0.002513,-1.573864,1.566194,0.0000,0.0000,0.0000,-0.005391,-1.573864,1.566194,0.0219,0.6718,-0.1995,0.000000,0.498544,-0.498544,0.503146,-0.520019,0.506214,-0.495476
1.2602,0.016749,-0.002480,-1.573864,1.566194,0.0000,0.0000,0.0000,-0.005372,-1.573864,1.566194,0.0401,0.7729,-0.2935,0.000000,0.498544,-0.498544,0.503146,-0.523087,0.506214,-0.495476
1.2769,0.016759,-0.002446,-1.573864,1.566194,0.0000,0.0000,0.0000,-0.005337,-1.573864,1.566194,-0.0417,0.7618,-0.3363,0.000000,0.498544,-0.498544,0.503146,-0.524621,0.507748,-0.497010
1.2937,0.016751,-0.002413,-1.573864,1.566194,0.0000,0.0000,0.0000,-0.005337,-1.573864,1.566194,-0.0417,0.7618,-0.3363,0.000000,0.498544,-0.498544,0.503146,-0.524621,0.507748,-0.497010
1.3105,0.016767,-0.002379,-1.573864,1.566194,0.0000,0.0000,0.0000,-0.005316,-1.573864,1.566194,-0.0631,0.7800,-0.3324,0.000000,0.498544,-0.498544,0.503146,-0.526155,0.509282,-0.497010
1.3272,0.016753,-0.002346,-1.573864,1.566194,0.0000,0.0000,0.0000,-0.005280,-1.573864,1.566194,-0.1010,0.8475,-0.2818,0.000000,0.498544,-0.498544,0.504680,-0.527689,0.510816,-0.497010
1.3440,0.016769,-0.002312,-1.573864,1.566194,0.0000,0.0000,0.0000,-0.005234,-1.573864,1.566194,-0.1773,0.8754,-0.1843,0.000000,0.498544,-0.498544,0.506214,-0.529223,0.513884,-0.497010
1.3607,0.016753,-0.002279,-1.573864,1.566194,0.0000,0.0000,0.0000,-0.005214,-1.573864,1.566194,-0.1992,0.8895,-0.1951,0.000000,0.498544,-0.498544,0.506214,-0.530757,0.515418,-0.497010
1.3775,0.016773,-0.002245,-1.573864,1.566194,0.0000,0.0000,0.0000,-0.005214,-1.573864,1.566194,-0.1992,0.8895,-0.1951,0.000000,0.498544,-0.498544,0.506214,-0.532291,0.516952,-0.497010
1.3943,0.016753,-0.002211,-1.573864,1.566194,0.0000,0.0000,0.0000,-0.005192,-1.573864,1.566194,-0.2268,0.9051,-0.1946,0.000000,0.498544,-0.498544,0.506214,-0.532291,0.516952,-0.497010
1.4110,0.016772,-0.002178,-1.573864,1.566194,0.0000,0.0000,0.0000,-0.005158,-1.573864,1.566194,-0.1125,0.9218,-0.1430,0.000000,0.501612,-0.498544,0.506214,-0.533825,0.516952,-0.497010
1.4278,0.016751,-0.002144,-1.573864,1.566194,0.0000,0.0000,0.0000,-0.005161,-1.573864,1.566194,-0.1245,0.9201,-0.1484,0.000000,0.501612,-0.498544,0.506214,-0.533825,0.516952,-0.497010
1.4450,0.017212,-0.002110,-1.573864,1.566194,0.0000,0.0000,0.0000,-0.005086,-1.573864,1.566194,-0.0614,0.8867,-0.1478,0.000000,0.506214,-0.498544,0.506214,-0.535359,0.516952,-0.500078
1.4617,0.016749,-0.002077,-1.573864,1.566194,0.0000,0.0000,0.0000,-0.005019,-1.573864,1.566194,-0.0569,0.7711,-0.0433,0.000000,0.510816,-0.498544,0.506214,-0.535359,0.518486,-0.503146
1.4785,0.016772,-0.002043,-1.573864,1.566194,0.0000,0.0000,0.0000,-0.005026,-1.573864,1.566194,-0.0573,0.7832,-0.0542,0.000000,0.510816,-0.498544,0.506214,-0.535359,0.518486,-0.503146
1.4953,0.016753,-0.002009,-1.573864,1.566194,0.0000,0.0000,0.0000,-0.005026,-1.573864,1.566194,-0.0573,0.7832,-0.0542,0.000000,0.510816,-0.498544,0.506214,-0.535359,0.518486,-0.503146
1.5120,0.016751,-0.001976,-1.573864,1.566194,0.0000,0.0000,0.0000,-0.004889,-1.573864,1.566194,-0.0348,0.6459,-0.0004,0.000000,0.518486,-0.498544,0.506214,-0.536893,0.520019,-0.509282
1.5288,0.016754,-0.001942,-1.573864,1.566194,0.0000,0.0000,0.0000,-0.004854,-1.573864,1.566194,-0.0270,0.5758,0.0987,0.000000,0.521553,-0.498544,0.506214,-0.536893,0.521553,-0.510816
1.5455,0.016766,-0.001909,-1.573864,1.566194,0.0000,0.0000,0.0000,-0.004796,-1.573864,1.566194,-0.0673,0.4807,0.1410,0.000000,0.524621,-0.498544,0.506214,-0.536893,0.523087,-0.513884
1.5623,0.016753,-0.001875,-1.573864,1.566194,0.0000,0.0000,0.0000,-0.004739,-1.573864,1.566194,-0.0223,0.3865,0.0857,0.000000,0.527689,-0.500078,0.506214,-0.536893,0.523087,-0.516952
1.5791,0.016771,-0.001842,-1.573864,1.566194,0.0000,0.0000,0.0000,-0.004739,-1.573864,1.566194,-0.0223,0.3865,0.0857,0.000000,0.529223,-0.501612,0.506214,-0.536893,0.524621,-0.516952
1.5958,0.016748,-0.001808,-1.573864,1.566194,0.0000,0.0000,0.0000,-0.004708,-1.573864,1.566194,0.0228,0.3106,0.1446,0.000000,0.529223,-0.501612,0.506214,-0.536893,0.524621,-0.516952
1.6126,0.016757,-0.001775,-1.573864,1.566194,0.0000,0.0000,0.0000,-0.004659,-1.573864,1.566194,-0.0012,0.2113,-0.0695,0.000000,0.529223,-0.504680,0.506214,-0.536893,0.524621,-0.520019
1.6293,0.016748,-0.001741,-1.573864,1.566194,0.0000,0.0000,0.0000,-0.004614,-1.573864,1.566194,0.0917,0.1357,-0.0461,0.000000,0.532291,-0.506214,0.506214,-0.536893,0.524621,-0.521553
1.6461,0.016767,-0.001708,-1.573864,1.566194,0.0000,0.0000,0.0000,-0.004619,-1.573864,1.566194,0.0820,0.1436,-0.0485,0.000000,0.532291,-0.506214,0.506214,-0.536893,0.524621,-0.521553
1.6628,0.016762,-0.001674,-1.573864,1.566194,0.0000,0.0000,0.0000,-0.004570,-1.573864,1.566194,0.1948,0.1938,-0.1527,0.000000,0.533825,-0.507748,0.506214,-0.539961,0.524621,-0.521553
1.6796,0.016773,-0.001641,-1.573864,1.566194,0.0000,0.0000,0.0000,-0.004570,-1.573864,1.566194,0.1948,0.1938,-0.1527,0.000000,0.533825,-0.509282,0.506214,-0.539961,0.524621,-0.521553
1.6964,0.016749,-0.001607,-1.573864,1.566194,0.0000,0.0000,0.0000,-0.004562,-1.573864,1.566194,0.2229,0.1529,-0.1938,0.000000,0.533825,-0.509282,0.506214,-0.539961,0.524621,-0.521553
1.7131,0.016750,-0.001574,-1.573864,1.566194,0.0000,0.0000,0.0000,-0.004514,-1.573864,1.566194,0.2712,0.1386,-0.2938,0.000000,0.535359,-0.510816,0.506214,-0.541495,0.524621,-0.523087
1.7299,0.016751,-0.001540,-1.573864,1.566194,0.0000,0.0000,0.0000,-0.004482,-1.573864,1.566194,0.2763,0.1217,-0.3358,0.000000,0.535359,-0.512350,0.506214,-0.543029,0.526155,-0.523087
1.7466,0.016750,-0.001507,-1.573864,1.566194,0.0000,0.0000,0.0000,-0.004448,-1.573864,1.566194,0.2768,0.1210,-0.4885,0.000000,0.535359,-0.513884,0.506214,-0.544563,0.526155,-0.524621
1.7634,0.016755,-0.001473,-1.573864,1.566194,0.0000,0.0000,0.0000,-0.004389,-1.573864,1.566194,0.2870,0.2062,-0.5259,0.000000,0.535359,-0.515418,0.507748,-0.547631,0.527689,-0.524621
1.7801,0.016756,-0.001440,-1.573864,1.566194,0.0000,0.0000,0.0000,-0.004389,-1.573864,1.566194,0.2870,0.2062,-0.5259,0.000000,0.535359,-0.515418,0.507748,-0.547631,0.527689,-0.524621
1.7969,0.016750,-0.001406,-1.573864,1.566194,0.0000,0.0000,0.0000,-0.004331,-1.573864,1.566194,0.2748,0.2841,-0.4706,0.000000,0.535359,-0.516952,0.510816,-0.549165,0.529223,-0.524621
1.8136,0.016750,-0.001373,-1.573864,1.566194,0.0000,0.0000,0.0000,-0.004247,-1.573864,1.566194,0.2641,0.2929,-0.4247,0.000000,0.535359,-0.520019,0.513884,-0.550699,0.532291,-0.524621
1.8304,0.016753,-0.001339,-1.573864,1.566194,0.0000,0.0000,0.0000,-0.004167,-1.573864,1.566194,0.1749,0.4837,-0.2740,0.000000,0.535359,-0.520019,0.518486,-0.553767,0.535359,-0.524621
1.8471,0.016754,-0.001306,-1.573864,1.566194,0.0000,0.0000,0.0000,-0.004087,-1.573864,1.566194,0.1737,0.6534,-0.2386,0.000000,0.535359,-0.521553,0.523087,-0.556835,0.536893,-0.524621
1.8641,0.016986,-0.001272,-1.573864,1.566194,0.0000,0.0000,0.0000,-0.003979,-1.573864,1.566194,0.2213,0.7550,-0.1898,0.000000,0.535359,-0.526155,0.529223,-0.558369,0.538427,-0.524621
1.8809,0.016757,-0.001238,-1.573864,1.566194,0.0000,0.0000,0.0000,-0.003979,-1.573864,1.566194,0.2213,0.7550,-0.1898,0.000000,0.535359,-0.526155,0.529223,-0.558369,0.538427,-0.524621
1.8976,0.016756,-0.001205,-1.573864,1.566194,0.0000,0.0000,0.0000,-0.003938,-1.573864,1.566194,0.1951,0.7790,-0.0897,0.000000,0.535359,-0.527689,0.532291,-0.558369,0.539961,-0.524621
1.9144,0.016755,-0.001171,-1.573864,1.566194,0.0000,0.0000,0.0000,-0.003880,-1.573864,1.566194,0.1078,0.8633,0.0567,0.000000,0.535359,-0.527689,0.535359,-0.559903,0.543029,-0.524621
1.9311,0.016757,-0.001138,-1.573864,1.566194,0.0000,0.0000,0.0000,-0.003835,-1.573864,1.566194,0.0669,0.9754,0.1460,0.000000,0.535359,-0.527689,0.538427,-0.561437,0.544563,-0.524621
1.9479,0.016754,-0.001104,-1.573864,1.566194,0.0000,0.0000,0.0000,-0.003802,-1.573864,1.566194,0.0608,1.1187,0.1888,0.000000,0.535359,-0.527689,0.541495,-0.562971,0.544563,-0.524621
1.9647,0.016762,-0.001071,-1.573864,1.566194,0.0000,0.0000,0.0000,-0.003793,-1.573864,1.566194,0.0613,1.1389,0.3422,0.000000,0.535359,-0.527689,0.543029,-0.562971,0.546097,-0.523087
1.9814,0.016727,-0.001037,-1.573864,1.566194,0.0000,0.0000,0.0000,-0.003793,-1.573864,1.566194,0.0613,1.1389,0.3422,0.000000,0.535359,-0.527689,0.543029,-0.562971,0.546097,-0.523087
1.9981,0.016756,-0.001004,-1.573864,1.566194,0.0000,0.0000,0.0000,-0.003781,-1.573864,1.566194,0.0112,1.1191,0.2734,0.000000,0.535359,-0.527689,0.543029,-0.562971,0.546097,-0.524621
2.0149,0.016753,-0.000970,-1.573864,1.566194,0.0000,0.0000,0.0000,-0.003782,-1.573864,1.566194,0.0165,1.1212,0.2806,0.000000,0.535359,-0.527689,0.543029,-0.562971,0.546097,-0.524621
2.0317,0.016761,-0.000937,-1.573864,1.566194,0.0000,0.0000,0.0000,-0.003782,-1.573864,1.566194,0.0165,1.1212,0.2806,0.000000,0.535359,-0.527689,0.543029,-0.562971,0.546097,-0.524621
2.0484,0.016757,-0.000903,-1.573864,1.566194,0.0000,0.0000,0.0000,-0.003782,-1.573864,1.566194,0.0165,1.1212,0.2806,0.000000,0.535359,-0.527689,0.543029,-0.562971,0.546097,-0.524621
2.0652,0.016759,-0.000870,-1.573864,1.566194,0.0000,0.0000,0.0000,-0.003782,-1.573864,1.566194,0.0165,1.1212,0.2806,0.000000,0.538427,-0.529223,0.543029,-0.562971,0.546097,-0.524621
2.0819,0.016750,-0.000836,-1.573864,1.566194,0.0000,0.0000,0.0000,-0.003745,-1.573864,1.566194,0.1559,1.0533,0.3340,0.000000,0.538427,-0.529223,0.543029,-0.562971,0.546097,-0.524621
2.0987,0.016767,-0.000803,-1.573864,1.566194,0.0000,0.0000,0.0000,-0.003712,-1.573864,1.566194,0.2813,0.9929,0.3825,0.000000,0.541495,-0.530757,0.543029,-0.562971,0.546097,-0.524621
2.1156,0.016907,-0.000769,-1.573864,1.566194,0.0000,0.0000,0.0000,-0.003679,-1.573864,1.566194,0.2787,1.0168,0.3247,0.000000,0.543029,-0.530757,0.543029,-0.564505,0.546097,-0.526155
2.1324,0.016755,-0.000735,-1.573864,1.566194,0.0000,0.0000,0.0000,-0.003608,-1.573864,1.566194,0.3296,0.9625,0.2260,0.000000,0.546097,-0.532291,0.543029,-0.566039,0.546097,-0.529223
2.1492,0.016876,-0.000702,-1.573864,1.566194,0.0000,0.0000,0.0000,-0.003528,-1.573864,1.566194,0.4541,0.8136,0.1855,0.000000,0.550699,-0.535359,0.543029,-0.566039,0.546097,-0.532291
2.1660,0.016760,-0.000668,-1.573864,1.566194,0.0000,0.0000,0.0000,-0.003528,-1.573864,1.566194,0.4541,0.8136,0.1855,0.000000,0.550699,-0.535359,0.543029,-0.566039,0.546097,-0.532291
2.1827,0.016759,-0.000635,-1.573864,1.566194,0.0000,0.0000,0.0000,-0.003461,-1.573864,1.566194,0.5207,0.6907,0.0854,0.000000,0.553767,-0.538427,0.543029,-0.566039,0.546097,-0.535359
2.1995,0.016752,-0.000601,-1.573864,1.566194,0.0000,0.0000,0.0000,-0.003407,-1.573864,1.566194,0.5250,0.6872,0.0434,0.000000,0.556835,-0.538427,0.543029,-0.567573,0.546097,-0.538427
2.2163,0.016767,-0.000567,-1.573864,1.566194,0.0000,0.0000,0.0000,-0.003337,-1.573864,1.566194,0.5654,0.6163,-0.1634,0.000000,0.558369,-0.541495,0.543029,-0.569107,0.546097,-0.541495
2.2330,0.016760,-0.000534,-1.573864,1.566194,0.0000,0.0000,0.0000,-0.003282,-1.573864,1.566194,0.6014,0.5209,-0.1940,0.000000,0.561437,-0.543029,0.543029,-0.569107,0.546097,-0.544563
2.2498,0.016780,-0.000500,-1.573864,1.566194,0.0000,0.0000,0.0000,-0.003214,-1.573864,1.566194,0.7380,0.4613,-0.2960,0.000000,0.564505,-0.546097,0.543029,-0.570641,0.546097,-0.546097
2.2666,0.016756,-0.000467,-1.573864,1.566194,0.0000,0.0000,0.0000,-0.003214,-1.573864,1.566194,0.7380,0.4613,-0.2960,0.000000,0.564505,-0.546097,0.543029,-0.570641,0.546097,-0.546097
2.2833,0.016754,-0.000433,-1.573864,1.566194,0.0000,0.0000,0.0000,-0.003196,-1.573864,1.566194,0.7136,0.4144,-0.3914,0.000000,0.564505,-0.547631,0.543029,-0.570641,0.546097,-0.547631
2.3002,0.016850,-0.000400,-1.573864,1.566194,0.0000,0.0000,0.0000,-0.003160,-1.573864,1.566194,0.7560,0.3504,-0.4342,0.000000,0.566039,-0.549165,0.543029,-0.570641,0.546097,-0.549165
2.3169,0.016759,-0.000366,-1.573864,1.566194,0.0000,0.0000,0.0000,-0.003163,-1.573864,1.566194,0.6523,0.3556,-0.5363,0.000000,0.564505,-0.549165,0.543029,-0.570641,0.546097,-0.550699
2.3337,0.016755,-0.000333,-1.573864,1.566194,0.0000,0.0000,0.0000,-0.003139,-1.573864,1.566194,0.7242,0.3897,-0.5254,0.000000,0.566039,-0.549165,0.543029,-0.572175,0.546097,-0.550699
2.3504,0.016766,-0.000299,-1.573864,1.566194,0.0000,0.0000,0.0000,-0.003139,-1.573864,1.566194,0.7242,0.3897,-0.5254,0.000000,0.566039,-0.549165,0.543029,-0.572175,0.546097,-0.550699
2.3672,0.016761,-0.000266,-1.573864,1.566194,0.0000,0.0000,0.0000,-0.003131,-1.573864,1.566194,0.7279,0.4369,-0.5797,0.000000,0.566039,-0.549165,0.543029,-0.573709,0.546097,-0.550699
2.3840,0.016773,-0.000232,-1.573864,1.566194,0.0000,0.0000,0.0000,-0.003143,-1.573864,1.566194,0.6775,0.4481,-0.6275,0.000000,0.564505,-0.549165,0.543029,-0.573709,0.546097,-0.550699
2.4007,0.016760,-0.000199,-1.573864,1.566194,0.0000,0.0000,0.0000,-0.003119,-1.573864,1.566194,0.7440,0.4815,-0.6223,0.000000,0.566039,-0.549165,0.543029,-0.575243,0.546097,-0.550699
2.4175,0.016765,-0.000165,-1.573864,1.566194,0.0000,0.0000,0.0000,-0.003109,-1.573864,1.566194,0.6577,0.5107,-0.6770,0.000000,0.564505,-0.549165,0.543029,-0.576777,0.547631,-0.550699
2.4343,0.016758,-0.000131,-1.573864,1.566194,0.0000,0.0000,0.0000,-0.003035,-1.573864,1.566194,0.7252,0.4033,-0.6721,0.000000,0.566039,-0.552233,0.543029,-0.578311,0.550699,-0.550699
2.4510,0.016759,-0.000098,-1.573864,1.566194,0.0000,0.0000,0.0000,-0.003035,-1.573864,1.566194,0.7252,0.4033,-0.6721,0.000000,0.566039,-0.552233,0.543029,-0.578311,0.550699,-0.550699
2.4678,0.016759,-0.000064,-1.573864,1.566194,0.0000,0.0000,0.0000,-0.003005,-1.573864,1.566194,0.6373,0.3776,-0.7271,0.000000,0.564505,-0.553767,0.543029,-0.579845,0.553767,-0.550699
2.4845,0.016737,-0.000031,-1.573864,1.566194,0.0000,0.0000,0.0000,-0.002948,-1.573864,1.566194,0.6659,0.3113,-0.6690,0.000000,0.566039,-0.555301,0.543029,-0.581379,0.556835,-0.550699
2.5013,0.016766,0.000003,-1.573864,1.566194,0.0000,0.0000,0.0000,-0.002882,-1.573864,1.566194,0.6143,0.3017,-0.5700,0.000000,0.567573,-0.555301,0.543029,-0.584447,0.561437,-0.550699
2.5180,0.016756,0.000036,-1.573864,1.566194,0.0000,0.0000,0.0000,-0.002801,-1.573864,1.566194,0.6187,0.3389,-0.4215,0.000000,0.569107,-0.556835,0.546097,-0.585981,0.564505,-0.550699
2.5348,0.016760,0.000070,-1.573864,1.566194,0.0000,0.0000,0.0000,-0.002801,-1.573864,1.566194,0.6187,0.3389,-0.4215,0.000000,0.570641,-0.556835,0.550699,-0.589049,0.566039,-0.550699
2.5516,0.016757,0.000103,-1.573864,1.566194,0.0000,0.0000,0.0000,-0.002722,-1.573864,1.566194,0.6191,0.5434,-0.2782,0.000000,0.570641,-0.556835,0.550699,-0.589049,0.566039,-0.550699
2.5683,0.016750,0.000137,-1.573864,1.566194,0.0000,0.0000,0.0000,-0.002657,-1.573864,1.566194,0.6299,0.6779,-0.1873,0.000000,0.572175,-0.556835,0.553767,-0.592117,0.567573,-0.550699
2.5851,0.016758,0.000170,-1.573864,1.566194,0.0000,0.0000,0.0000,-0.002600,-1.573864,1.566194,0.6075,0.7707,0.0698,0.000000,0.573709,-0.556835,0.558369,-0.592117,0.569107,-0.550699
2.6021,0.017012,0.000204,-1.573864,1.566194,0.0000,0.0000,0.0000,-0.002529,-1.573864,1.566194,0.5487,0.8333,0.3631,0.000000,0.575243,-0.556835,0.562971,-0.592117,0.572175,-0.550699
2.6188,0.016758,0.000238,-1.573864,1.566194,0.0000,0.0000,0.0000,-0.002474,-1.573864,1.566194,0.6332,0.7576,0.3867,0.000000,0.576777,-0.559903,0.564505,-0.592117,0.573709,-0.550699
2.6356,0.016765,0.000271,-1.573864,1.566194,0.0000,0.0000,0.0000,-0.002474,-1.573864,1.566194,0.6332,0.7576,0.3867,0.000000,0.576777,-0.559903,0.564505,-0.592117,0.573709,-0.550699
2.6524,0.016758,0.000305,-1.573864,1.566194,0.0000,0.0000,0.0000,-0.002392,-1.573864,1.566194,0.6532,0.8862,0.5452,0.000000,0.578311,-0.561437,0.569107,-0.593651,0.575243,-0.550699
2.6691,0.016784,0.000338,-1.573864,1.566194,0.0000,0.0000,0.0000,-0.002350,-1.573864,1.566194,0.7191,0.9246,0.6369,0.000000,0.579845,-0.562971,0.572175,-0.593651,0.575243,-0.550699
2.6859,0.016764,0.000372,-1.573864,1.566194,0.0000,0.0000,0.0000,-0.002318,-1.573864,1.566194,0.8510,0.8544,0.6821,0.000000,0.582913,-0.564505,0.572175,-0.593651,0.575243,-0.550699
2.7027,0.016752,0.000405,-1.573864,1.566194,0.0000,0.0000,0.0000,-0.002309,-1.573864,1.566194,0.8766,0.8261,0.6241,0.000000,0.582913,-0.566039,0.572175,-0.593651,0.575243,-0.550699
2.7201,0.017398,0.000440,-1.573864,1.566194,0.0000,0.0000,0.0000,-0.002309,-1.573864,1.566194,0.8766,0.8261,0.6241,0.000000,0.584447,-0.566039,0.572175,-0.595185,0.575243,-0.550699
2.7378,0.017750,0.000476,-1.573864,1.566194,0.0000,0.0000,0.0000,-0.002287,-1.573864,1.566194,0.9342,0.8648,0.6305,0.000000,0.584447,-0.566039,0.572175,-0.595185,0.575243,-0.550699
2.7546,0.016757,0.000509,-1.573864,1.566194,0.0000,0.0000,0.0000,-0.002278,-1.573864,1.566194,0.9779,0.8457,0.6839,0.000000,0.585981,-0.566039,0.572175,-0.595185,0.575243,-0.550699
2.7713,0.016748,0.000543,-1.573864,1.566194,0.0000,0.0000,0.0000,-0.002240,-1.573864,1.566194,0.9233,0.7964,0.6254,0.000000,0.587515,-0.566039,0.572175,-0.595185,0.575243,-0.553767
2.7881,0.016754,0.000576,-1.573864,1.566194,0.0000,0.0000,0.0000,-0.002218,-1.573864,1.566194,0.8295,0.7655,0.5244,0.000000,0.587515,-0.566039,0.572175,-0.595185,0.575243,-0.556835
2.8048,0.016754,0.000610,-1.573864,1.566194,0.0000,0.0000,0.0000,-0.002194,-1.573864,1.566194,0.7399,0.7329,0.4278,0.000000,0.587515,-0.566039,0.572175,-0.595185,0.575243,-0.559903
2.8216,0.016755,0.000643,-1.573864,1.566194,0.0000,0.0000,0.0000,-0.002183,-1.573864,1.566194,0.6997,0.7185,0.3843,0.000000,0.587515,-0.566039,0.572175,-0.595185,0.575243,-0.561437
2.8383,0.016757,0.000677,-1.573864,1.566194,0.0000,0.0000,0.0000,-0.002183,-1.573864,1.566194,0.6997,0.7185,0.3843,0.000000,0.587515,-0.566039,0.572175,-0.595185,0.575243,-0.564505
2.8551,0.016754,0.000710,-1.573864,1.566194,0.0000,0.0000,0.0000,-0.002158,-1.573864,1.566194,0.6048,0.6844,0.2815,0.000000,0.587515,-0.566039,0.572175,-0.595185,0.575243,-0.564505
2.8718,0.016754,0.000744,-1.573864,1.566194,0.0000,0.0000,0.0000,-0.002112,-1.573864,1.566194,0.5379,0.7542,0.0772,0.000000,0.587515,-0.566039,0.572175,-0.598253,0.575243,-0.567573
2.8886,0.016761,0.000777,-1.573864,1.566194,0.0000,0.0000,0.0000,-0.002080,-1.573864,1.566194,0.5460,0.7445,-0.0624,0.000000,0.587515,-0.567573,0.572175,-0.599786,0.575243,-0.569107
2.9054,0.016760,0.000811,-1.573864,1.566194,0.0000,0.0000,0.0000,-0.002045,-1.573864,1.566194,0.4357,0.7620,-0.1019,0.000000,0.587515,-0.567573,0.573709,-0.599786,0.575243,-0.572175
2.9223,0.016916,0.000845,-1.573864,1.566194,0.0000,0.0000,0.0000,-0.001987,-1.573864,1.566194,0.4487,0.8602,-0.2591,0.000000,0.587515,-0.569107,0.575243,-0.602854,0.575243,-0.573709
2.9390,0.016763,0.000878,-1.573864,1.566194,0.0000,0.0000,0.0000,-0.001987,-1.573864,1.566194,0.4487,0.8602,-0.2591,0.000000,0.587515,-0.570641,0.576777,-0.604388,0.575243,-0.576777
2.9558,0.016754,0.000912,-1.573864,1.566194,0.0000,0.0000,0.0000,-0.001930,-1.573864,1.566194,0.3886,0.8820,-0.4043,0.000000,0.587515,-0.570641,0.576777,-0.604388,0.575243,-0.576777
2.9725,0.016751,0.000945,-1.573864,1.566194,0.0000,0.0000,0.0000,-0.001862,-1.573864,1.566194,0.2975,1.0494,-0.4981,0.000000,0.587515,-0.570641,0.579845,-0.607456,0.575243,-0.579845
2.9893,0.016753,0.000979,-1.573864,1.566194,0.0000,0.0000,0.0000,-0.001857,-1.573864,1.566194,0.2961,1.0835,-0.4345,0.000000,0.587515,-0.570641,0.581379,-0.607456,0.575243,-0.579845
3.0063,0.017000,0.001013,-1.573864,1.566194,0.0000,0.0000,0.0000,-0.001807,-1.573864,1.566194,0.2868,1.1296,-0.5489,0.000000,0.587515,-0.572175,0.582913,-0.608990,0.575243,-0.581379
3.0231,0.016762,0.001046,-1.573864,1.566194,0.0000,0.0000,0.0000,-0.001751,-1.573864,1.566194,0.2484,1.2944,-0.4847,0.000000,0.587515,-0.572175,0.585981,-0.612058,0.576777,-0.581379
3.0400,0.016920,0.001080,-1.573864,1.566194,0.0000,0.0000,0.0000,-0.001751,-1.573864,1.566194,0.2484,1.2944,-0.4847,0.000000,0.587515,-0.572175,0.585981,-0.612058,0.576777,-0.581379
3.0567,0.016755,0.001113,-1.573864,1.566194,0.0000,0.0000,0.0000,-0.001681,-1.573864,1.566194,0.1627,1.2586,-0.4930,0.000000,0.587515,-0.573709,0.587515,-0.613592,0.579845,-0.582913
3.0735,0.016788,0.001147,-1.573864,1.566194,0.0000,0.0000,0.0000,-0.001614,-1.573864,1.566194,0.2692,1.0920,-0.3834,0.000000,0.590583,-0.576777,0.587515,-0.613592,0.582913,-0.582913
3.0905,0.016933,0.001181,-1.573864,1.566194,0.0000,0.0000,0.0000,-0.001509,-1.573864,1.566194,0.3452,1.0924,-0.2325,0.000000,0.593651,-0.579845,0.590583,-0.615126,0.585981,-0.582913
3.1072,0.016771,0.001214,-1.573864,1.566194,0.0000,0.0000,0.0000,-0.001433,-1.573864,1.566194,0.3857,1.0399,-0.1942,0.000000,0.595185,-0.582913,0.592117,-0.616660,0.589049,-0.582913
3.1240,0.016767,0.001248,-1.573864,1.566194,0.0000,0.0000,0.0000,-0.001433,-1.573864,1.566194,0.3857,1.0399,-0.1942,0.000000,0.595185,-0.582913,0.592117,-0.616660,0.589049,-0.582913
3.1408,0.016767,0.001282,-1.573864,1.566194,0.0000,0.0000,0.0000,-0.001367,-1.573864,1.566194,0.4296,0.9621,0.0182,0.000000,0.598253,-0.584447,0.593651,-0.616660,0.592117,-0.582913
3.1575,0.016755,0.001315,-1.573864,1.566194,0.0000,0.0000,0.0000,-0.001324,-1.573864,1.566194,0.4634,0.9367,0.1046,0.000000,0.599786,-0.585981,0.595185,-0.616660,0.593651,-0.582913
3.1743,0.016755,0.001349,-1.573864,1.566194,0.0000,0.0000,0.0000,-0.001230,-1.573864,1.566194,0.6253,0.8905,0.3139,0.000000,0.604388,-0.589049,0.598253,-0.616660,0.595185,-0.582913
3.1910,0.016752,0.001382,-1.573864,1.566194,0.0000,0.0000,0.0000,-0.001190,-1.573864,1.566194,0.6367,1.0127,0.2928,0.000000,0.604388,-0.590583,0.601320,-0.618194,0.595185,-0.582913
3.2078,0.016755,0.001416,-1.573864,1.566194,0.0000,0.0000,0.0000,-0.001190,-1.573864,1.566194,0.6367,1.0127,0.2928,0.000000,0.607456,-0.592117,0.601320,-0.618194,0.596719,-0.582913
3.2246,0.016796,0.001449,-1.573864,1.566194,0.0000,0.0000,0.0000,-0.001146,-1.573864,1.566194,0.7340,0.9000,0.4039,0.000000,0.607456,-0.592117,0.601320,-0.618194,0.596719,-0.582913
3.2413,0.016767,0.001483,-1.573864,1.566194,0.0000,0.0000,0.0000,-0.001138,-1.573864,1.566194,0.7514,0.8968,0.5557,0.000000,0.608990,-0.592117,0.602854,-0.616660,0.596719,-0.582913
3.2581,0.016754,0.001516,-1.573864,1.566194,0.0000,0.0000,0.0000,-0.001140,-1.573864,1.566194,0.8097,0.8311,0.5400,0.000000,0.610524,-0.592117,0.601320,-0.616660,0.596719,-0.582913
3.2749,0.016806,0.001550,-1.573864,1.566194,0.0000,0.0000,0.0000,-0.001128,-1.573864,1.566194,0.8145,0.8885,0.4875,0.000000,0.610524,-0.592117,0.601320,-0.618194,0.596719,-0.582913
3.2917,0.016756,0.001583,-1.573864,1.566194,0.0000,0.0000,0.0000,-0.001105,-1.573864,1.566194,0.8139,0.8498,0.4934,0.000000,0.612058,-0.592117,0.601320,-0.618194,0.596719,-0.584447
3.3091,0.017396,0.001618,-1.573864,1.566194,0.0000,0.0000,0.0000,-0.001094,-1.573864,1.566194,0.7646,0.8363,0.4385,0.000000,0.612058,-0.592117,0.601320,-0.618194,0.596719,-0.585981
3.3258,0.016760,0.001652,-1.573864,1.566194,0.0000,0.0000,0.0000,-0.001094,-1.573864,1.566194,0.7646,0.8363,0.4385,0.000000,0.612058,-0.592117,0.601320,-0.618194,0.596719,-0.585981
3.3426,0.016757,0.001685,-1.573864,1.566194,0.0000,0.0000,0.0000,-0.001094,-1.573864,1.566194,0.6712,0.8355,0.3352,0.000000,0.610524,-0.592117,0.601320,-0.618194,0.596719,-0.587515
3.3593,0.016751,0.001719,-1.573864,1.566194,0.0000,0.0000,0.0000,-0.001083,-1.573864,1.566194,0.7301,0.8203,0.4007,0.000000,0.612058,-0.592117,0.601320,-0.618194,0.596719,-0.587515
3.3763,0.016952,0.001753,-1.573864,1.566194,0.0000,0.0000,0.0000,-0.001058,-1.573864,1.566194,0.6254,0.7871,0.2852,0.000000,0.612058,-0.592117,0.601320,-0.618194,0.596719,-0.590583
3.3930,0.016756,0.001786,-1.573864,1.566194,0.0000,0.0000,0.0000,-0.001037,-1.573864,1.566194,0.5983,0.8238,0.1885,0.000000,0.612058,-0.592117,0.601320,-0.619728,0.596719,-0.592117
3.4098,0.016768,0.001820,-1.573864,1.566194,0.0000,0.0000,0.0000,-0.001015,-1.573864,1.566194,0.5632,0.8531,0.0898,0.000000,0.612058,-0.592117,0.601320,-0.621262,0.596719,-0.593651
3.4265,0.016747,0.001853,-1.573864,1.566194,0.0000,0.0000,0.0000,-0.001015,-1.573864,1.566194,0.5632,0.8531,0.0898,0.000000,0.612058,-0.592117,0.601320,-0.621262,0.596719,-0.593651
3.4443,0.017707,0.001889,-1.573864,1.566194,0.0000,0.0000,0.0000,-0.000993,-1.573864,1.566194,0.5291,0.8831,-0.0087,0.000000,0.612058,-0.592117,0.601320,-0.622796,0.596719,-0.595185
3.4610,0.016750,0.001922,-1.573864,1.566194,0.0000,0.0000,0.0000,-0.000959,-1.573864,1.566194,0.4461,0.8958,-0.1620,0.000000,0.612058,-0.592117,0.601320,-0.624330,0.596719,-0.598253
3.4778,0.016757,0.001956,-1.573864,1.566194,0.0000,0.0000,0.0000,-0.000891,-1.573864,1.566194,0.3896,0.9112,-0.2558,0.000000,0.613592,-0.592117,0.601320,-0.627398,0.598253,-0.601320
3.4945,0.016754,0.001989,-1.573864,1.566194,0.0000,0.0000,0.0000,-0.000840,-1.573864,1.566194,0.3704,0.9598,-0.4097,0.000000,0.615126,-0.592117,0.601320,-0.630466,0.598253,-0.604388
3.5113,0.016772,0.002023,-1.573864,1.566194,0.0000,0.0000,0.0000,-0.000823,-1.573864,1.566194,0.4334,0.9890,-0.3934,0.000000,0.616660,-0.592117,0.601320,-0.632000,0.598253,-0.604388
3.5280,0.016751,0.002056,-1.573864,1.566194,0.0000,0.0000,0.0000,-0.000823,-1.573864,1.566194,0.4334,0.9890,-0.3934,0.000000,0.616660,-0.592117,0.601320,-0.632000,0.598253,-0.604388
3.5448,0.016752,0.002090,-1.573864,1.566194,0.0000,0.0000,0.0000,-0.000764,-1.573864,1.566194,0.4382,0.9343,-0.4497,0.000000,0.618194,-0.593651,0.601320,-0.633534,0.599786,-0.605922
3.5615,0.016749,0.002123,-1.573864,1.566194,0.0000,0.0000,0.0000,-0.000760,-1.573864,1.566194,0.3706,0.9913,-0.3911,0.000000,0.618194,-0.592117,0.601320,-0.635068,0.601320,-0.605922
3.5783,0.016763,0.002157,-1.573864,1.566194,0.0000,0.0000,0.0000,-0.000674,-1.573864,1.566194,0.3094,0.8666,-0.3440,0.000000,0.619728,-0.593651,0.601320,-0.636602,0.605922,-0.607456
3.5953,0.017003,0.002191,-1.573864,1.566194,0.0000,0.0000,0.0000,-0.000632,-1.573864,1.566194,0.2266,0.7601,-0.3496,0.000000,0.619728,-0.595185,0.601320,-0.636602,0.608990,-0.608990
3.6121,0.016764,0.002224,-1.573864,1.566194,0.0000,0.0000,0.0000,-0.000632,-1.573864,1.566194,0.2266,0.7601,-0.3496,0.000000,0.622796,-0.596719,0.601320,-0.636602,0.612058,-0.608990
3.6288,0.016748,0.002258,-1.573864,1.566194,0.0000,0.0000,0.0000,-0.000575,-1.573864,1.566194,0.2934,0.6382,-0.1848,0.000000,0.622796,-0.596719,0.601320,-0.636602,0.612058,-0.608990
3.6456,0.016763,0.002291,-1.573864,1.566194,0.0000,0.0000,0.0000,-0.000517,-1.573864,1.566194,0.3236,0.4780,-0.2558,0.000000,0.622796,-0.601320,0.601320,-0.636602,0.615126,-0.608990
3.6628,0.017194,0.002326,-1.573864,1.566194,0.0000,0.0000,0.0000,-0.000437,-1.573864,1.566194,0.4065,0.3778,-0.0840,0.000000,0.625864,-0.604388,0.602854,-0.636602,0.618194,-0.608990
3.6795,0.016757,0.002359,-1.573864,1.566194,0.0000,0.0000,0.0000,-0.000346,-1.573864,1.566194,0.4256,0.4040,-0.1019,0.000000,0.627398,-0.607456,0.605922,-0.638136,0.619728,-0.610524
3.6963,0.016754,0.002393,-1.573864,1.566194,0.0000,0.0000,0.0000,-0.000270,-1.573864,1.566194,0.5012,0.4706,-0.0449,0.000000,0.630466,-0.608990,0.608990,-0.639670,0.619728,-0.612058
3.7130,0.016764,0.002426,-1.573864,1.566194,0.0000,0.0000,0.0000,-0.000270,-1.573864,1.566194,0.5012,0.4706,-0.0449,0.000000,0.633534,-0.612058,0.612058,-0.641204,0.619728,-0.612058
3.7298,0.016750,0.002460,-1.573864,1.566194,0.0000,0.0000,0.0000,-0.000193,-1.573864,1.566194,0.6579,0.5149,0.0049,0.000000,0.633534,-0.612058,0.612058,-0.641204,0.619728,-0.612058
3.7466,0.016752,0.002493,-1.573864,1.566194,0.0000,0.0000,0.0000,-0.000114,-1.573864,1.566194,0.7460,0.6275,0.0553,0.000000,0.635068,-0.615126,0.616660,-0.642738,0.619728,-0.612058
3.7633,0.016752,0.002527,-1.573864,1.566194,0.0000,0.0000,0.0000,-0.000085,-1.573864,1.566194,0.7261,0.7672,0.1049,0.000000,0.635068,-0.615126,0.619728,-0.644272,0.619728,-0.612058
3.7801,0.016759,0.002560,-1.573864,1.566194,0.0000,0.0000,0.0000,-0.000038,-1.573864,1.566194,0.7937,0.8038,0.2104,0.000000,0.636602,-0.616660,0.622796,-0.644272,0.619728,-0.612058
3.7968,0.016770,0.002594,-1.573864,1.566194,0.0000,0.0000,0.0000,-0.000018,-1.573864,1.566194,0.8141,0.8155,0.1998,0.000000,0.636602,-0.618194,0.624330,-0.644272,0.619728,-0.612058
3.8136,0.016771,0.002627,-1.573864,1.566194,0.0000,0.0000,0.0000,-0.000020,-1.573864,1.566194,0.8120,0.8143,0.2009,0.000000,0.636602,-0.618194,0.624330,-0.644272,0.619728,-0.612058
3.8304,0.016760,0.002661,-1.573864,1.566194,0.0000,0.0000,0.0000,-0.000020,-1.573864,1.566194,0.8120,0.8143,0.2009,0.000000,0.636602,-0.618194,0.624330,-0.644272,0.619728,-0.612058
3.8471,0.016758,0.002694,-1.573864,1.566194,0.0000,0.0000,0.0000,-0.000007,-1.573864,1.566194,0.8507,0.7794,0.1462,0.000000,0.636602,-0.619728,0.624330,-0.644272,0.619728,-0.612058
3.8641,0.016997,0.002728,-1.573864,1.566194,0.0000,0.0000,0.0000,0.000027,-1.573864,1.566194,0.9453,0.7828,0.0977,0.000000,0.638136,-0.621262,0.624330,-0.645806,0.619728,-0.612058
3.8809,0.016760,0.002762,-1.573864,1.566194,0.0000,0.0000,0.0000,0.000033,-1.573864,1.566194,1.0066,0.7666,0.0482,0.000000,0.639670,-0.621262,0.622796,-0.647340,0.619728,-0.612058
3.8976,0.016764,0.002795,-1.573864,1.566194,0.0000,0.0000,0.0000,0.000056,-1.573864,1.566194,1.0005,0.8688,0.0536,0.000000,0.639670,-0.621262,0.624330,-0.648874,0.619728,-0.612058
3.9144,0.016769,0.002829,-1.573864,1.566194,0.0000,0.0000,0.0000,0.000089,-1.573864,1.566194,1.0223,0.8594,0.1077,0.000000,0.641204,-0.621262,0.624330,-0.650408,0.621262,-0.612058
3.9312,0.016752,0.002862,-1.573864,1.566194,0.0000,0.0000,0.0000,0.000089,-1.573864,1.566194,1.0223,0.8594,0.1077,0.000000,0.641204,-0.621262,0.624330,-0.650408,0.621262,-0.612058
3.9479,0.016748,0.002896,-1.573864,1.566194,0.0000,0.0000,0.0000,0.000096,-1.573864,1.566194,1.0313,0.9101,0.0471,0.000000,0.641204,-0.621262,0.624330,-0.651942,0.621262,-0.612058
3.9648,0.016868,0.002930,-1.573864,1.566194,0.0000,0.0000,0.0000,0.000095,-1.573864,1.566194,1.0304,0.9048,0.0534,0.000000,0.641204,-0.621262,0.624330,-0.651942,0.621262,-0.612058
3.9815,0.016757,0.002963,-1.573864,1.566194,0.0000,0.0000,0.0000,0.000119,-1.573864,1.566194,1.0026,0.9215,0.0519,0.000000,0.641204,-0.621262,0.624330,-0.653476,0.622796,-0.612058
3.9983,0.016761,0.002997,-1.573864,1.566194,0.0000,0.0000,0.0000,0.000119,-1.573864,1.566194,1.0026,0.9215,0.0519,0.000000,0.641204,-0.621262,0.624330,-0.655010,0.625864,-0.615126
4.0150,0.016742,0.003030,-1.573864,1.566194,0.0000,0.0000,0.0000,0.000178,-1.573864,1.566194,0.8409,0.8677,-0.0046,0.000000,0.641204,-0.621262,0.624330,-0.655010,0.625864,-0.615126
4.0318,0.016755,0.003064,-1.573864,1.566194,0.0000,0.0000,0.0000,0.000208,-1.573864,1.566194,0.7813,0.8722,-0.0545,0.000000,0.641204,-0.621262,0.624330,-0.656544,0.627398,-0.616660
4.0485,0.016746,0.003097,-1.573864,1.566194,0.0000,0.0000,0.0000,0.000324,-1.573864,1.566194,0.7318,0.7712,-0.0504,0.000000,0.644272,-0.622796,0.624330,-0.659612,0.632000,-0.619728
4.0653,0.016741,0.003131,-1.573864,1.566194,0.0000,0.0000,0.0000,0.000394,-1.573864,1.566194,0.6712,0.7007,0.0038,0.000000,0.647340,-0.622796,0.624330,-0.661146,0.635068,-0.622796
4.0820,0.016750,0.003164,-1.573864,1.566194,0.0000,0.0000,0.0000,0.000483,-1.573864,1.566194,0.6894,0.6536,-0.2222,0.000000,0.648874,-0.625864,0.624330,-0.664214,0.636602,-0.625864
4.0988,0.016744,0.003198,-1.573864,1.566194,0.0000,0.0000,0.0000,0.000544,-1.573864,1.566194,0.6704,0.5950,-0.0887,0.000000,0.651942,-0.625864,0.624330,-0.665748,0.639670,-0.627398
4.1155,0.016751,0.003231,-1.573864,1.566194,0.0000,0.0000,0.0000,0.000544,-1.573864,1.566194,0.6704,0.5950,-0.0887,0.000000,0.651942,-0.625864,0.624330,-0.665748,0.639670,-0.627398
4.1323,0.016811,0.003265,-1.573864,1.566194,0.0000,0.0000,0.0000,0.000620,-1.573864,1.566194,0.7704,0.5002,-0.1571,0.000000,0.655010,-0.628932,0.624330,-0.667282,0.641204,-0.628932
4.1491,0.016755,0.003298,-1.573864,1.566194,0.0000,0.0000,0.0000,0.000636,-1.573864,1.566194,0.7606,0.4783,-0.1495,0.000000,0.656544,-0.628932,0.624330,-0.667282,0.641204,-0.630466
4.1659,0.016771,0.003332,-1.573864,1.566194,0.0000,0.0000,0.0000,0.000685,-1.573864,1.566194,0.7400,0.6823,-0.0404,0.000000,0.656544,-0.628932,0.628932,-0.668816,0.641204,-0.630466
4.1827,0.016832,0.003365,-1.573864,1.566194,0.0000,0.0000,0.0000,0.000693,-1.573864,1.566194,0.7310,0.7116,0.0034,0.000000,0.656544,-0.628932,0.630466,-0.668816,0.641204,-0.630466
4.1996,0.016876,0.003399,-1.573864,1.566194,0.0000,0.0000,0.0000,0.000740,-1.573864,1.566194,0.7701,0.8447,0.1096,0.000000,0.658078,-0.628932,0.633534,-0.670350,0.641204,-0.630466
4.2163,0.016750,0.003433,-1.573864,1.566194,0.0000,0.0000,0.0000,0.000740,-1.573864,1.566194,0.7701,0.8447,0.1096,0.000000,0.658078,-0.628932,0.633534,-0.670350,0.641204,-0.630466
4.2331,0.016753,0.003466,-1.573864,1.566194,0.0000,0.0000,0.0000,0.000807,-1.573864,1.566194,0.8415,1.0028,0.3208,0.000000,0.661146,-0.628932,0.638136,-0.671884,0.641204,-0.630466
4.2498,0.016750,0.003500,-1.573864,1.566194,0.0000,0.0000,0.0000,0.000847,-1.573864,1.566194,0.8715,1.1220,0.4101,0.000000,0.662680,-0.628932,0.641204,-0.673418,0.641204,-0.630466
4.2666,0.016740,0.003533,-1.573864,1.566194,0.0000,0.0000,0.0000,0.000869,-1.573864,1.566194,0.8455,1.2099,0.5117,0.000000,0.662680,-0.628932,0.644272,-0.673418,0.641204,-0.630466
4.2833,0.016754,0.003567,-1.573864,1.566194,0.0000,0.0000,0.0000,0.000879,-1.573864,1.566194,0.8368,1.2508,0.5567,0.000000,0.662680,-0.628932,0.645806,-0.673418,0.641204,-0.630466
4.3002,0.016899,0.003600,-1.573864,1.566194,0.0000,0.0000,0.0000,0.000904,-1.573864,1.566194,0.8648,1.2614,0.5528,0.000000,0.662680,-0.630466,0.647340,-0.673418,0.641204,-0.630466
4.3170,0.016748,0.003634,-1.573864,1.566194,0.0000,0.0000,0.0000,0.000904,-1.573864,1.566194,0.8648,1.2614,0.5528,0.000000,0.662680,-0.630466,0.647340,-0.673418,0.641204,-0.630466
4.3337,0.016753,0.003667,-1.573864,1.566194,0.0000,0.0000,0.0000,0.000940,-1.573864,1.566194,0.8776,1.3251,0.6097,0.000000,0.662680,-0.632000,0.650408,-0.673418,0.641204,-0.630466
4.3505,0.016745,0.003701,-1.573864,1.566194,0.0000,0.0000,0.0000,0.000960,-1.573864,1.566194,0.9632,1.2689,0.6051,0.000000,0.664214,-0.633534,0.650408,-0.673418,0.641204,-0.630466
4.3672,0.016750,0.003734,-1.573864,1.566194,0.0000,0.0000,0.0000,0.000997,-1.573864,1.566194,0.9829,1.3182,0.4399,0.000000,0.662680,-0.636602,0.651942,-0.674952,0.641204,-0.630466
4.3840,0.016749,0.003768,-1.573864,1.566194,0.0000,0.0000,0.0000,0.001030,-1.573864,1.566194,1.0194,1.3773,0.4025,0.000000,0.662680,-0.638136,0.653476,-0.676486,0.641204,-0.630466
4.4007,0.016751,0.003801,-1.573864,1.566194,0.0000,0.0000,0.0000,0.001039,-1.573864,1.566194,1.0539,1.3360,0.3515,0.000000,0.662680,-0.639670,0.653476,-0.676486,0.641204,-0.630466
4.4175,0.016755,0.003835,-1.573864,1.566194,0.0000,0.0000,0.0000,0.001039,-1.573864,1.566194,1.0539,1.3360,0.3515,0.000000,0.662680,-0.639670,0.653476,-0.676486,0.641204,-0.630466
4.4342,0.016754,0.003868,-1.573864,1.566194,0.0000,0.0000,0.0000,0.001075,-1.573864,1.566194,1.1381,1.3195,0.1912,0.000000,0.662680,-0.642738,0.653476,-0.678020,0.641204,-0.630466
4.4510,0.016741,0.003902,-1.573864,1.566194,0.0000,0.0000,0.0000,0.001106,-1.573864,1.566194,1.2275,1.3208,0.1534,0.000000,0.664214,-0.644272,0.653476,-0.679553,0.641204,-0.630466
4.4677,0.016742,0.003935,-1.573864,1.566194,0.0000,0.0000,0.0000,0.001126,-1.573864,1.566194,1.2676,1.3346,0.0467,0.000000,0.664214,-0.645806,0.653476,-0.681087,0.641204,-0.630466
4.4844,0.016743,0.003969,-1.573864,1.566194,0.0000,0.0000,0.0000,0.001149,-1.573864,1.566194,1.3020,1.3264,-0.1643,0.000000,0.662680,-0.648874,0.653476,-0.682621,0.641204,-0.630466
4.5012,0.016762,0.004002,-1.573864,1.566194,0.0000,0.0000,0.0000,0.001149,-1.573864,1.566194,1.3020,1.3264,-0.1643,0.000000,0.662680,-0.648874,0.653476,-0.682621,0.641204,-0.630466
4.5180,0.016743,0.004036,-1.573864,1.566194,0.0000,0.0000,0.0000,0.001170,-1.573864,1.566194,1.3474,1.3410,-0.2531,0.000000,0.662680,-0.650408,0.653476,-0.684155,0.641204,-0.630466
4.5347,0.016752,0.004069,-1.573864,1.566194,0.0000,0.0000,0.0000,0.001189,-1.573864,1.566194,1.4030,1.3738,-0.2432,0.000000,0.664214,-0.650408,0.653476,-0.685689,0.641204,-0.630466
4.5515,0.016749,0.004103,-1.573864,1.566194,0.0000,0.0000,0.0000,0.001197,-1.573864,1.566194,1.4087,1.4192,-0.2998,0.000000,0.664214,-0.650408,0.653476,-0.687223,0.641204,-0.630466
4.5683,0.016873,0.004137,-1.573864,1.566194,0.0000,0.0000,0.0000,0.001218,-1.573864,1.566194,1.4686,1.4488,-0.2933,0.000000,0.665748,-0.650408,0.653476,-0.688757,0.641204,-0.630466
4.5851,0.016741,0.004170,-1.573864,1.566194,0.0000,0.0000,0.0000,0.001250,-1.573864,1.566194,1.5489,1.4674,-0.1255,0.000000,0.668816,-0.650408,0.655010,-0.688757,0.641204,-0.630466
4.6018,0.016755,0.004204,-1.573864,1.566194,0.0000,0.0000,0.0000,0.001250,-1.573864,1.566194,1.5489,1.4674,-0.1255,0.000000,0.670350,-0.650408,0.656544,-0.690291,0.642738,-0.630466
4.6186,0.016741,0.004237,-1.573864,1.566194,0.0000,0.0000,0.0000,0.001294,-1.573864,1.566194,1.5506,1.5171,-0.0320,0.000000,0.670350,-0.650408,0.656544,-0.690291,0.642738,-0.630466
4.6353,0.016716,0.004271,-1.573864,1.566194,0.0000,0.0000,0.0000,0.001371,-1.573864,1.566194,1.6077,1.4812,0.1247,0.000000,0.673418,-0.651942,0.658078,-0.691825,0.645806,-0.630466
4.6520,0.016741,0.004304,-1.573864,1.566194,0.0000,0.0000,0.0000,0.001444,-1.573864,1.566194,1.6980,1.5591,0.3888,0.000000,0.678020,-0.651942,0.661146,-0.693359,0.647340,-0.630466
4.6688,0.016753,0.004338,-1.573864,1.566194,0.0000,0.0000,0.0000,0.001515,-1.573864,1.566194,1.7072,1.6281,0.7519,0.000000,0.682621,-0.650408,0.664214,-0.694893,0.650408,-0.630466
4.6855,0.016743,0.004371,-1.573864,1.566194,0.0000,0.0000,0.0000,0.001588,-1.573864,1.566194,1.7141,1.6767,0.9933,0.000000,0.685689,-0.650408,0.667282,-0.696427,0.653476,-0.630466
4.7023,0.016755,0.004405,-1.573864,1.566194,0.0000,0.0000,0.0000,0.001588,-1.573864,1.566194,1.7141,1.6767,0.9933,0.000000,0.685689,-0.650408,0.667282,-0.696427,0.653476,-0.630466
4.7190,0.016743,0.004438,-1.573864,1.566194,0.0000,0.0000,0.0000,0.001665,-1.573864,1.566194,1.6236,1.5930,1.1351,0.000000,0.688757,-0.650408,0.668816,-0.696427,0.656544,-0.633534
4.7358,0.016745,0.004472,-1.573864,1.566194,0.0000,0.0000,0.0000,0.001714,-1.573864,1.566194,1.6036,1.4918,1.2872,0.000000,0.691825,-0.650408,0.668816,-0.696427,0.659612,-0.635068
4.7525,0.016740,0.004505,-1.573864,1.566194,0.0000,0.0000,0.0000,0.001792,-1.573864,1.566194,1.4529,1.4042,1.3248,0.000000,0.693359,-0.650408,0.668816,-0.697961,0.664214,-0.638136
4.7692,0.016740,0.004538,-1.573864,1.566194,0.0000,0.0000,0.0000,0.001842,-1.573864,1.566194,1.3928,1.3806,1.2648,0.000000,0.694893,-0.650408,0.668816,-0.699495,0.665748,-0.641204
4.7861,0.016831,0.004572,-1.573864,1.566194,0.0000,0.0000,0.0000,0.001909,-1.573864,1.566194,1.3979,1.2527,1.2724,0.000000,0.697961,-0.651942,0.668816,-0.699495,0.667282,-0.644272
4.8028,0.016754,0.004606,-1.573864,1.566194,0.0000,0.0000,0.0000,0.001909,-1.573864,1.566194,1.3979,1.2527,1.2724,0.000000,0.697961,-0.651942,0.668816,-0.699495,0.667282,-0.644272
4.8196,0.016742,0.004639,-1.573864,1.566194,0.0000,0.0000,0.0000,0.001985,-1.573864,1.566194,1.2352,1.1828,1.2146,0.000000,0.699495,-0.651942,0.668816,-0.701029,0.670350,-0.648874
4.8363,0.016748,0.004673,-1.573864,1.566194,0.0000,0.0000,0.0000,0.002062,-1.573864,1.566194,1.2533,1.0867,1.0536,0.000000,0.701029,-0.655010,0.668816,-0.702563,0.671884,-0.651942
4.8531,0.016749,0.004706,-1.573864,1.566194,0.0000,0.0000,0.0000,0.002094,-1.573864,1.566194,1.2791,1.0080,0.9032,0.000000,0.701029,-0.658078,0.668816,-0.702563,0.671884,-0.653476
4.8698,0.016752,0.004740,-1.573864,1.566194,0.0000,0.0000,0.0000,0.002127,-1.573864,1.566194,1.2777,1.0120,0.7512,0.000000,0.701029,-0.659612,0.668816,-0.704097,0.671884,-0.655010
4.8866,0.016749,0.004773,-1.573864,1.566194,0.0000,0.0000,0.0000,0.002160,-1.573864,1.566194,1.3155,0.9452,0.7121,0.000000,0.702563,-0.661146,0.668816,-0.704097,0.671884,-0.656544
4.9033,0.016749,0.004807,-1.573864,1.566194,0.0000,0.0000,0.0000,0.002160,-1.573864,1.566194,1.3155,0.9452,0.7121,0.000000,0.702563,-0.661146,0.668816,-0.704097,0.671884,-0.656544
4.9201,0.016740,0.004840,-1.573864,1.566194,0.0000,0.0000,0.0000,0.002195,-1.573864,1.566194,1.4246,0.8463,0.5487,0.000000,0.702563,-0.665748,0.668816,-0.704097,0.671884,-0.656544
4.9368,0.016755,0.004874,-1.573864,1.566194,0.0000,0.0000,0.0000,0.002228,-1.573864,1.566194,1.5361,0.7728,0.5107,0.000000,0.704097,-0.668816,0.668816,-0.704097,0.671884,-0.656544
4.9536,0.016748,0.004907,-1.573864,1.566194,0.0000,0.0000,0.0000,0.002270,-1.573864,1.566194,1.6589,0.7453,0.4033,0.000000,0.705631,-0.671884,0.668816,-0.705631,0.671884,-0.656544
4.9703,0.016763,0.004941,-1.573864,1.566194,0.0000,0.0000,0.0000,0.002289,-1.573864,1.566194,1.6949,0.7614,0.3024,0.000000,0.705631,-0.673418,0.668816,-0.707165,0.671884,-0.656544
4.9871,0.016740,0.004974,-1.573864,1.566194,0.0000,0.0000,0.0000,0.002326,-1.573864,1.566194,1.7543,0.7390,0.2570,0.000000,0.705631,-0.676486,0.670350,-0.707165,0.671884,-0.656544
5.0038,0.016766,0.004992,-1.573864,1.566194,0.0000,0.0000,0.0000,0.002326,-1.573864,1.566194,1.7543,0.7390,0.2570,0.000000,0.705631,-0.676486,0.670350,-0.707165,0.671884,-0.656544
5.0206,0.016741,0.004959,-1.573864,1.566194,0.0000,0.0000,0.0000,0.002394,-1.573864,1.566194,1.8597,0.8056,0.2632,0.000000,0.707165,-0.679553,0.673418,-0.708699,0.671884,-0.656544
5.0373,0.016750,0.004925,-1.573864,1.566194,0.0000,0.0000,0.0000,0.002435,-1.573864,1.566194,1.8478,0.8289,0.2620,0.000000,0.707165,-0.681087,0.674952,-0.710233,0.673418,-0.656544
5.0541,0.016742,0.004892,-1.573864,1.566194,0.0000,0.0000,0.0000,0.002528,-1.573864,1.566194,1.9111,0.9074,0.3756,0.000000,0.708699,-0.684155,0.679553,-0.711767,0.674952,-0.656544
5.0708,0.016756,0.004858,-1.573864,1.566194,0.0000,0.0000,0.0000,0.002594,-1.573864,1.566194,1.8699,0.8778,0.3634,0.000000,0.708699,-0.687223,0.682621,-0.711767,0.676486,-0.658078
5.0877,0.016903,0.004825,-1.573864,1.566194,0.0000,0.0000,0.0000,0.002639,-1.573864,1.566194,1.8408,0.9276,0.3658,0.000000,0.708699,-0.688757,0.685689,-0.711767,0.676486,-0.659612
5.1045,0.016752,0.004791,-1.573864,1.566194,0.0000,0.0000,0.0000,0.002639,-1.573864,1.566194,1.8408,0.9276,0.3658,0.000000,0.708699,-0.688757,0.685689,-0.711767,0.676486,-0.659612
5.1212,0.016741,0.004758,-1.573864,1.566194,0.0000,0.0000,0.0000,0.002670,-1.573864,1.566194,1.7960,1.0030,0.3102,0.000000,0.708699,-0.688757,0.687223,-0.713301,0.676486,-0.661146
5.1380,0.016747,0.004724,-1.573864,1.566194,0.0000,0.0000,0.0000,0.002727,-1.573864,1.566194,1.7517,1.0078,0.2592,0.000000,0.708699,-0.690291,0.688757,-0.714835,0.678020,-0.662680
5.1547,0.016754,0.004691,-1.573864,1.566194,0.0000,0.0000,0.0000,0.002734,-1.573864,1.566194,1.7932,0.9725,0.2079,0.000000,0.708699,-0.691825,0.688757,-0.714835,0.678020,-0.662680
5.1715,0.016763,0.004657,-1.573864,1.566194,0.0000,0.0000,0.0000,0.002733,-1.573864,1.566194,1.7889,0.9761,0.2133,0.000000,0.708699,-0.691825,0.688757,-0.714835,0.678020,-0.662680
5.1882,0.016757,0.004624,-1.573864,1.566194,0.0000,0.0000,0.0000,0.002733,-1.573864,1.566194,1.7889,0.9761,0.2133,0.000000,0.708699,-0.691825,0.690291,-0.714835,0.678020,-0.662680
5.2050,0.016752,0.004590,-1.573864,1.566194,0.0000,0.0000,0.0000,0.002746,-1.573864,1.566194,1.7784,1.0251,0.2697,0.000000,0.708699,-0.691825,0.690291,-0.714835,0.678020,-0.662680
5.2217,0.016744,0.004557,-1.573864,1.566194,0.0000,0.0000,0.0000,0.002732,-1.573864,1.566194,1.7905,0.9707,0.2068,0.000000,0.708699,-0.691825,0.688757,-0.714835,0.678020,-0.662680
5.2385,0.016744,0.004523,-1.573864,1.566194,0.0000,0.0000,0.0000,0.002746,-1.573864,1.566194,1.8260,0.9415,0.1568,0.000000,0.708699,-0.693359,0.688757,-0.714835,0.678020,-0.662680
5.2552,0.016743,0.004490,-1.573864,1.566194,0.0000,0.0000,0.0000,0.002744,-1.573864,1.566194,1.8223,0.9445,0.1620,0.000000,0.708699,-0.693359,0.688757,-0.714835,0.678020,-0.662680
5.2719,0.016727,0.004456,-1.573864,1.566194,0.0000,0.0000,0.0000,0.002744,-1.573864,1.566194,1.8223,0.9445,0.1620,0.000000,0.708699,-0.693359,0.688757,-0.714835,0.678020,-0.662680
5.2887,0.016748,0.004423,-1.573864,1.566194,0.0000,0.0000,0.0000,0.002744,-1.573864,1.566194,1.8223,0.9445,0.1620,0.000000,0.708699,-0.693359,0.688757,-0.714835,0.678020,-0.662680
5.3054,0.016754,0.004389,-1.573864,1.566194,0.0000,0.0000,0.0000,0.002744,-1.573864,1.566194,1.8223,0.9445,0.1620,0.000000,0.708699,-0.693359,0.688757,-0.714835,0.678020,-0.662680
5.3222,0.016745,0.004356,-1.573864,1.566194,0.0000,0.0000,0.0000,0.002744,-1.573864,1.566194,1.8223,0.9445,0.1620,0.000000,0.708699,-0.693359,0.688757,-0.714835,0.678020,-0.662680
5.3389,0.016750,0.004322,-1.573864,1.566194,0.0000,0.0000,0.0000,0.002744,-1.573864,1.566194,1.8223,0.9445,0.1620,0.000000,0.708699,-0.693359,0.688757,-0.714835,0.678020,-0.662680
5.3557,0.016753,0.004289,-1.573864,1.566194,0.0000,0.0000,0.0000,0.002744,-1.573864,1.566194,1.8223,0.9445,0.1620,0.000000,0.708699,-0.693359,0.688757,-0.714835,0.678020,-0.662680
5.3728,0.017075,0.004254,-1.573864,1.566194,0.0000,0.0000,0.0000,0.002744,-1.573864,1.566194,1.8223,0.9445,0.1620,0.000000,0.708699,-0.693359,0.688757,-0.714835,0.678020,-0.662680
5.3895,0.016742,0.004221,-1.573864,1.566194,0.0000,0.0000,0.0000,0.002744,-1.573864,1.566194,1.8223,0.9445,0.1620,0.000000,0.708699,-0.693359,0.688757,-0.714835,0.678020,-0.662680
5.4063,0.016750,0.004187,-1.573864,1.566194,0.0000,0.0000,0.0000,0.002744,-1.573864,1.566194,1.8223,0.9445,0.1620,0.000000,0.708699,-0.693359,0.688757,-0.714835,0.678020,-0.662680
5.4230,0.016742,0.004154,-1.573864,1.566194,0.0000,0.0000,0.0000,0.002744,-1.573864,1.566194,1.8223,0.9445,0.1620,0.000000,0.708699,-0.693359,0.688757,-0.714835,0.678020,-0.662680
5.4397,0.016742,0.004121,-1.573864,1.566194,0.0000,0.0000,0.0000,0.002744,-1.573864,1.566194,1.8223,0.9445,0.1620,0.000000,0.708699,-0.693359,0.688757,-0.714835,0.678020,-0.662680
5.4565,0.016753,0.004087,-1.573864,1.566194,0.0000,0.0000,0.0000,0.002744,-1.573864,1.566194,1.8223,0.9445,0.1620,0.000000,0.708699,-0.693359,0.688757,-0.714835,0.678020,-0.662680
5.4735,0.016959,0.004053,-1.573864,1.566194,0.0000,0.0000,0.0000,0.002744,-1.573864,1.566194,1.8223,0.9445,0.1620,0.000000,0.708699,-0.693359,0.688757,-0.714835,0.678020,-0.662680
