t,loop_dt,cmd_z,cmd_ant_l,cmd_ant_r,cmd_roll,cmd_pitch,cmd_yaw,pres_z,pres_ant_l,pres_ant_r,pres_roll,pres_pitch,pres_yaw,pres_j0,pres_j1,pres_j2,pres_j3,pres_j4,pres_j5,pres_j6
0.0000,0.000001,-0.005000,-1.576932,1.566194,0.0000,0.0000,0.0000,-0.003124,-1.576932,1.566194,0.6228,0.5868,0.2312,0.000000,0.562971,-0.547631,0.550699,-0.570641,0.553767,-0.541495
0.0167,0.016746,-0.004665,-1.576932,1.566194,0.0000,0.0000,0.0000,-0.003015,-1.576932,1.566194,0.6711,0.5594,0.1355,0.000000,0.566039,-0.550699,0.552233,-0.573709,0.555301,-0.544563
0.0337,0.016997,-0.004325,-1.576932,1.566194,0.0000,0.0000,0.0000,-0.002950,-1.576932,1.566194,0.6446,0.5628,0.2521,0.000000,0.567573,-0.552233,0.555301,-0.573709,0.556835,-0.546097
0.0505,0.016750,-0.003990,-1.576932,1.566194,0.0000,0.0000,0.0000,-0.002770,-1.576932,1.566194,0.6868,0.6294,0.1874,0.000000,0.570641,-0.556835,0.559903,-0.578311,0.559903,-0.549165
0.0673,0.016766,-0.003655,-1.576932,1.566194,0.0000,0.0000,0.0000,-0.003099,-1.576932,1.566194,0.7220,0.4852,0.1404,0.000000,0.564505,-0.552233,0.552233,-0.570641,0.553767,-0.543029
0.0840,0.016742,-0.003320,-1.576932,1.566194,0.0000,0.0000,0.0000,-0.003099,-1.576932,1.566194,0.7220,0.4852,0.1404,0.000000,0.564505,-0.552233,0.552233,-0.570641,0.553767,-0.543029
0.1007,0.016740,-0.002985,-1.576932,1.566194,0.0000,0.0000,0.0000,-0.003788,-1.576932,1.566194,0.5695,0.5176,0.1436,0.000000,0.547631,-0.536893,0.538427,-0.555301,0.539961,-0.529223
0.1175,0.016745,-0.002650,-1.576932,1.566194,0.0000,0.0000,0.0000,-0.004531,-1.576932,1.566194,0.4349,0.4645,0.2979,0.000000,0.529223,-0.520019,0.523087,-0.536893,0.526155,-0.512350
0.1342,0.016760,-0.002315,-1.576932,1.566194,0.0000,0.0000,0.0000,-0.004867,-1.576932,1.566194,0.2571,0.3824,0.3329,0.000000,0.518486,-0.512350,0.516952,-0.524621,0.518486,-0.506214
0.1510,0.016758,-0.001980,-1.576932,1.566194,0.0000,0.0000,0.0000,-0.004881,-1.576932,1.566194,0.1546,0.3201,0.3291,0.000000,0.515418,-0.512350,0.516952,-0.521553,0.518486,-0.506214
0.1678,0.016745,-0.001645,-1.576932,1.566194,0.0000,0.0000,0.0000,-0.004868,-1.576932,1.566194,0.2154,0.3100,0.3817,0.000000,0.516952,-0.512350,0.516952,-0.521553,0.518486,-0.506214
0.1845,0.016738,-0.001310,-1.576932,1.566194,0.0000,0.0000,0.0000,-0.004868,-1.576932,1.566194,0.2154,0.3100,0.3817,0.000000,0.516952,-0.512350,0.516952,-0.521553,0.518486,-0.506214
0.2012,0.016748,-0.000975,-1.576932,1.566194,0.0000,0.0000,0.0000,-0.004844,-1.576932,1.566194,0.2090,0.4149,0.3763,0.000000,0.516952,-0.512350,0.518486,-0.523087,0.518486,-0.506214
0.2183,0.017045,-0.000634,-1.576932,1.566194,0.0000,0.0000,0.0000,-0.004822,-1.576932,1.566194,0.2406,0.3529,0.3768,0.000000,0.518486,-0.512350,0.516952,-0.524621,0.520019,-0.506214
0.2350,0.016744,-0.000299,-1.576932,1.566194,0.0000,0.0000,0.0000,-0.004787,-1.576932,1.566194,0.2474,0.3771,0.3247,0.000000,0.520019,-0.512350,0.516952,-0.526155,0.520019,-0.507748
0.2518,0.016745,0.000035,-1.576932,1.566194,0.0000,0.0000,0.0000,-0.004728,-1.576932,1.566194,0.2673,0.4792,0.3823,0.000000,0.521553,-0.512350,0.518486,-0.529223,0.521553,-0.507748
0.2686,0.016842,0.000372,-1.576932,1.566194,0.0000,0.0000,0.0000,-0.004728,-1.576932,1.566194,0.2673,0.4792,0.3823,0.000000,0.524621,-0.513884,0.520019,-0.532291,0.524621,-0.509282
0.2854,0.016748,0.000707,-1.576932,1.566194,0.0000,0.0000,0.0000,-0.004622,-1.576932,1.566194,0.2859,0.4695,0.4288,0.000000,0.524621,-0.513884,0.520019,-0.532291,0.524621,-0.509282
0.3021,0.016740,0.001042,-1.576932,1.566194,0.0000,0.0000,0.0000,-0.004269,-1.576932,1.566194,0.3341,0.5233,0.4783,0.000000,0.533825,-0.520019,0.527689,-0.539961,0.530757,-0.516952
0.3188,0.016743,0.001377,-1.576932,1.566194,0.0000,0.0000,0.0000,-0.003892,-1.576932,1.566194,0.2894,0.5860,0.5274,0.000000,0.541495,-0.527689,0.536893,-0.549165,0.539961,-0.524621
0.3356,0.016774,0.001712,-1.576932,1.566194,0.0000,0.0000,0.0000,-0.003481,-1.576932,1.566194,0.3945,0.5799,0.6308,0.000000,0.552233,-0.536893,0.546097,-0.558369,0.549165,-0.532291
0.3524,0.016745,0.002047,-1.576932,1.566194,0.0000,0.0000,0.0000,-0.003049,-1.576932,1.566194,0.3440,0.6130,0.5166,0.000000,0.561437,-0.546097,0.555301,-0.569107,0.558369,-0.543029
0.3691,0.016781,0.002383,-1.576932,1.566194,0.0000,0.0000,0.0000,-0.002622,-1.576932,1.566194,0.4492,0.7128,0.6382,0.000000,0.572175,-0.555301,0.566039,-0.579845,0.567573,-0.550699
0.3859,0.016738,0.002718,-1.576932,1.566194,0.0000,0.0000,0.0000,-0.002622,-1.576932,1.566194,0.4492,0.7128,0.6382,0.000000,0.572175,-0.555301,0.566039,-0.579845,0.567573,-0.550699
0.4026,0.016755,0.003053,-1.576932,1.566194,0.0000,0.0000,0.0000,-0.002118,-1.576932,1.566194,0.4277,0.6471,0.5219,0.000000,0.582913,-0.567573,0.576777,-0.590583,0.578311,-0.562971
0.4194,0.016746,0.003388,-1.576932,1.566194,0.0000,0.0000,0.0000,-0.001578,-1.576932,1.566194,0.6179,0.6723,0.6466,0.000000,0.598253,-0.579845,0.589049,-0.602854,0.589049,-0.573709
0.4361,0.016764,0.003723,-1.576932,1.566194,0.0000,0.0000,0.0000,-0.001241,-1.576932,1.566194,0.6467,0.7202,0.5285,0.000000,0.607456,-0.587515,0.596719,-0.612058,0.595185,-0.582913
0.4529,0.016750,0.004058,-1.576932,1.566194,0.0000,0.0000,0.0000,-0.000784,-1.576932,1.566194,0.7313,0.7641,0.5443,0.000000,0.618194,-0.598253,0.607456,-0.622796,0.604388,-0.592117
0.4696,0.016718,0.004392,-1.576932,1.566194,0.0000,0.0000,0.0000,-0.000784,-1.576932,1.566194,0.7313,0.7641,0.5443,0.000000,0.625864,-0.605922,0.615126,-0.630466,0.612058,-0.601320
0.4864,0.016746,0.004727,-1.576932,1.566194,0.0000,0.0000,0.0000,-0.000451,-1.576932,1.566194,0.6721,0.7403,0.4900,0.000000,0.625864,-0.605922,0.615126,-0.630466,0.612058,-0.601320
0.5031,0.016752,0.004938,-1.576932,1.566194,0.0000,0.0000,0.0000,-0.000009,-1.576932,1.566194,0.7540,0.7410,0.5538,0.000000,0.636602,-0.616660,0.625864,-0.639670,0.621262,-0.610524
0.5199,0.016744,0.004603,-1.576932,1.566194,0.0000,0.0000,0.0000,0.000371,-1.576932,1.566194,0.7825,0.7723,0.4951,0.000000,0.645806,-0.625864,0.635068,-0.648874,0.628932,-0.619728
0.5366,0.016760,0.004268,-1.576932,1.566194,0.0000,0.0000,0.0000,0.000818,-1.576932,1.566194,0.7674,0.8146,0.3933,0.000000,0.655010,-0.636602,0.645806,-0.659612,0.638136,-0.630466
0.5534,0.016747,0.003933,-1.576932,1.566194,0.0000,0.0000,0.0000,0.001180,-1.576932,1.566194,0.9141,0.7931,0.4067,0.000000,0.665748,-0.645806,0.653476,-0.668816,0.645806,-0.638136
0.5701,0.016757,0.003598,-1.576932,1.566194,0.0000,0.0000,0.0000,0.001597,-1.576932,1.566194,0.9558,0.8276,0.4077,0.000000,0.676486,-0.655010,0.662680,-0.679553,0.655010,-0.647340
0.5869,0.016741,0.003263,-1.576932,1.566194,0.0000,0.0000,0.0000,0.001597,-1.576932,1.566194,0.9558,0.8276,0.4077,0.000000,0.676486,-0.655010,0.662680,-0.679553,0.655010,-0.647340
0.6036,0.016750,0.002928,-1.576932,1.566194,0.0000,0.0000,0.0000,0.001913,-1.576932,1.566194,0.9492,0.8214,0.4090,0.000000,0.684155,-0.662680,0.670350,-0.687223,0.662680,-0.655010
0.6204,0.016747,0.002593,-1.576932,1.566194,0.0000,0.0000,0.0000,0.002155,-1.576932,1.566194,1.0722,0.8354,0.3550,0.000000,0.690291,-0.670350,0.676486,-0.693359,0.667282,-0.659612
0.6371,0.016762,0.002258,-1.576932,1.566194,0.0000,0.0000,0.0000,0.002223,-1.576932,1.566194,1.1182,0.8681,0.3616,0.000000,0.693359,-0.671884,0.678020,-0.696427,0.668816,-0.661146
0.6539,0.016770,0.001922,-1.576932,1.566194,0.0000,0.0000,0.0000,0.002215,-1.576932,1.566194,1.1235,0.8482,0.4722,0.000000,0.693359,-0.671884,0.678020,-0.696427,0.670350,-0.659612
0.6707,0.016779,0.001587,-1.576932,1.566194,0.0000,0.0000,0.0000,0.002215,-1.576932,1.566194,1.1235,0.8482,0.4722,0.000000,0.693359,-0.671884,0.678020,-0.696427,0.670350,-0.659612
0.6874,0.016756,0.001251,-1.576932,1.566194,0.0000,0.0000,0.0000,0.002193,-1.576932,1.566194,1.1130,0.8976,0.3489,0.000000,0.691825,-0.671884,0.678020,-0.696427,0.668816,-0.659612
0.7042,0.016770,0.000916,-1.576932,1.566194,0.0000,0.0000,0.0000,0.002152,-1.576932,1.566194,0.9953,0.8231,0.3604,0.000000,0.688757,-0.671884,0.678020,-0.693359,0.668816,-0.659612
0.7210,0.016760,0.000581,-1.576932,1.566194,0.0000,0.0000,0.0000,0.002044,-1.576932,1.566194,0.7334,0.6573,0.2445,0.000000,0.681087,-0.671884,0.676486,-0.687223,0.668816,-0.659612
0.7377,0.016749,0.000246,-1.576932,1.566194,0.0000,0.0000,0.0000,0.001928,-1.576932,1.566194,0.4754,0.4530,0.1987,0.000000,0.673418,-0.671884,0.674952,-0.679553,0.668816,-0.659612
0.7548,0.017105,-0.000096,-1.576932,1.566194,0.0000,0.0000,0.0000,0.001642,-1.576932,1.566194,0.0404,0.1082,0.0348,0.000000,0.662680,-0.665748,0.665748,-0.668816,0.667282,-0.659612
0.7716,0.016753,-0.000431,-1.576932,1.566194,0.0000,0.0000,0.0000,0.001642,-1.576932,1.566194,0.0404,0.1082,0.0348,0.000000,0.662680,-0.665748,0.665748,-0.668816,0.667282,-0.659612
0.7883,0.016745,-0.000766,-1.576932,1.566194,0.0000,0.0000,0.0000,0.001191,-1.576932,1.566194,-0.1305,0.0764,-0.0591,0.000000,0.648874,-0.656544,0.656544,-0.656544,0.658078,-0.651942
0.8051,0.016748,-0.001101,-1.576932,1.566194,0.0000,0.0000,0.0000,0.000646,-1.576932,1.566194,-0.2381,-0.0349,0.0064,0.000000,0.636602,-0.642738,0.642738,-0.642738,0.647340,-0.641204
0.8218,0.016745,-0.001436,-1.576932,1.566194,0.0000,0.0000,0.0000,0.000144,-1.576932,1.566194,-0.2075,0.1144,-0.1107,0.000000,0.625864,-0.628932,0.630466,-0.633534,0.633534,-0.630466
0.8386,0.016753,-0.001771,-1.576932,1.566194,0.0000,0.0000,0.0000,-0.000267,-1.576932,1.566194,-0.1410,0.0837,0.0111,0.000000,0.618194,-0.618194,0.619728,-0.624330,0.624330,-0.619728
0.8554,0.016891,-0.002109,-1.576932,1.566194,0.0000,0.0000,0.0000,-0.000666,-1.576932,1.566194,0.0972,0.1727,0.1072,0.000000,0.612058,-0.608990,0.610524,-0.616660,0.613592,-0.607456
0.8722,0.016757,-0.002444,-1.576932,1.566194,0.0000,0.0000,0.0000,-0.000666,-1.576932,1.566194,0.0972,0.1727,0.1072,0.000000,0.612058,-0.608990,0.610524,-0.616660,0.613592,-0.607456
0.8889,0.016739,-0.002779,-1.576932,1.566194,0.0000,0.0000,0.0000,-0.001620,-1.576932,1.566194,0.3085,0.2332,0.2579,0.000000,0.593651,-0.589049,0.590583,-0.596719,0.592117,-0.582913
0.9057,0.016746,-0.003114,-1.576932,1.566194,0.0000,0.0000,0.0000,-0.001523,-1.576932,1.566194,0.2874,0.2274,0.2425,0.000000,0.593651,-0.589049,0.590583,-0.596719,0.592117,-0.582913
0.9224,0.016745,-0.003449,-1.576932,1.566194,0.0000,0.0000,0.0000,-0.002361,-1.576932,1.566194,0.0516,0.2579,0.4023,0.000000,0.570641,-0.573709,0.578311,-0.576777,0.578311,-0.564505
0.9392,0.016743,-0.003784,-1.576932,1.566194,0.0000,0.0000,0.0000,-0.002586,-1.576932,1.566194,-0.1239,0.2216,0.3314,0.000000,0.562971,-0.566039,0.572175,-0.569107,0.572175,-0.561437
0.9561,0.016877,-0.004121,-1.576932,1.566194,0.0000,0.0000,0.0000,-0.003073,-1.576932,1.566194,-0.1451,0.1918,0.3901,0.000000,0.552233,-0.555301,0.561437,-0.558369,0.562971,-0.550699
0.9728,0.016750,-0.004456,-1.576932,1.566194,0.0000,0.0000,0.0000,-0.003073,-1.576932,1.566194,-0.1451,0.1918,0.3901,0.000000,0.552233,-0.555301,0.561437,-0.558369,0.562971,-0.550699
0.9895,0.016745,-0.004791,-1.576932,1.566194,0.0000,0.0000,0.0000,-0.003572,-1.576932,1.566194,-0.1727,0.1794,0.3817,0.000000,0.541495,-0.543029,0.549165,-0.547631,0.552233,-0.539961
1.0063,0.016748,-0.004874,-1.576932,1.566194,0.0000,0.0000,0.0000,-0.003521,-1.576932,1.566194,-0.1699,0.1807,0.3826,0.000000,0.541495,-0.543029,0.549165,-0.547631,0.552233,-0.539961
1.0230,0.016748,-0.004539,-1.576932,1.566194,0.0000,0.0000,0.0000,-0.004340,-1.576932,1.566194,-0.0221,0.1654,0.2221,0.000000,0.526155,-0.527689,0.530757,-0.532291,0.533825,-0.523087
1.0398,0.016795,-0.004203,-1.576932,1.566194,0.0000,0.0000,0.0000,-0.004520,-1.576932,1.566194,0.0426,0.1672,0.2901,0.000000,0.521553,-0.523087,0.526155,-0.526155,0.527689,-0.516952
1.0566,0.016754,-0.003868,-1.576932,1.566194,0.0000,0.0000,0.0000,-0.004979,-1.576932,1.566194,0.0253,0.2192,0.1777,0.000000,0.510816,-0.513884,0.516952,-0.516952,0.516952,-0.507748
1.0734,0.016759,-0.003533,-1.576932,1.566194,0.0000,0.0000,0.0000,-0.004979,-1.576932,1.566194,0.0253,0.2192,0.1777,0.000000,0.510816,-0.513884,0.516952,-0.516952,0.516952,-0.507748
1.0901,0.016743,-0.003198,-1.576932,1.566194,0.0000,0.0000,0.0000,-0.005297,-1.576932,1.566194,-0.0232,0.1972,0.1367,0.000000,0.503146,-0.506214,0.509282,-0.509282,0.509282,-0.501612
1.1068,0.016744,-0.002863,-1.576932,1.566194,0.0000,0.0000,0.0000,-0.005277,-1.576932,1.566194,0.0321,0.2167,0.1928,0.000000,0.503146,-0.506214,0.509282,-0.509282,0.509282,-0.500078
1.1236,0.016777,-0.002528,-1.576932,1.566194,0.0000,0.0000,0.0000,-0.005279,-1.576932,1.566194,0.0264,0.2147,0.1869,0.000000,0.503146,-0.506214,0.509282,-0.509282,0.509282,-0.500078
1.1404,0.016792,-0.002192,-1.576932,1.566194,0.0000,0.0000,0.0000,-0.005266,-1.576932,1.566194,0.0370,0.2670,0.1356,0.000000,0.503146,-0.506214,0.509282,-0.510816,0.509282,-0.500078
1.1572,0.016751,-0.001857,-1.576932,1.566194,0.0000,0.0000,0.0000,-0.005242,-1.576932,1.566194,0.0760,0.2965,0.2448,0.000000,0.504680,-0.506214,0.510816,-0.510816,0.509282,-0.500078
1.1739,0.016753,-0.001522,-1.576932,1.566194,0.0000,0.0000,0.0000,-0.005242,-1.576932,1.566194,0.0760,0.2965,0.2448,0.000000,0.504680,-0.506214,0.510816,-0.510816,0.509282,-0.500078
1.1907,0.016743,-0.001187,-1.576932,1.566194,0.0000,0.0000,0.0000,-0.005220,-1.576932,1.566194,0.0824,0.2417,0.3372,0.000000,0.506214,-0.506214,0.510816,-0.510816,0.510816,-0.500078
1.2074,0.016760,-0.000852,-1.576932,1.566194,0.0000,0.0000,0.0000,-0.005210,-1.576932,1.566194,0.0421,0.2126,0.3795,0.000000,0.506214,-0.506214,0.510816,-0.510816,0.512350,-0.500078
1.2242,0.016833,-0.000515,-1.576932,1.566194,0.0000,0.0000,0.0000,-0.005186,-1.576932,1.566194,0.0167,0.2330,0.3751,0.000000,0.506214,-0.506214,0.510816,-0.512350,0.513884,-0.500078
1.2410,0.016750,-0.000180,-1.576932,1.566194,0.0000,0.0000,0.0000,-0.005025,-1.576932,1.566194,0.0397,0.3012,0.4280,0.000000,0.510816,-0.507748,0.513884,-0.516952,0.516952,-0.503146
1.2578,0.016755,0.000155,-1.576932,1.566194,0.0000,0.0000,0.0000,-0.004752,-1.576932,1.566194,0.0580,0.3983,0.4756,0.000000,0.516952,-0.512350,0.520019,-0.524621,0.523087,-0.507748
1.2745,0.016755,0.000490,-1.576932,1.566194,0.0000,0.0000,0.0000,-0.004752,-1.576932,1.566194,0.0580,0.3983,0.4756,0.000000,0.516952,-0.512350,0.520019,-0.524621,0.523087,-0.507748
1.2912,0.016714,0.000824,-1.576932,1.566194,0.0000,0.0000,0.0000,-0.004353,-1.576932,1.566194,0.0668,0.4399,0.5773,0.000000,0.526155,-0.520019,0.529223,-0.533825,0.532291,-0.515418
1.3080,0.016760,0.001160,-1.576932,1.566194,0.0000,0.0000,0.0000,-0.003805,-1.576932,1.566194,0.1766,0.5571,0.6228,0.000000,0.539961,-0.530757,0.541495,-0.547631,0.543029,-0.526155
1.3247,0.016753,0.001495,-1.576932,1.566194,0.0000,0.0000,0.0000,-0.003487,-1.576932,1.566194,0.1859,0.5436,0.5145,0.000000,0.547631,-0.538427,0.547631,-0.556835,0.550699,-0.533825
1.3415,0.016757,0.001830,-1.576932,1.566194,0.0000,0.0000,0.0000,-0.003033,-1.576932,1.566194,0.2351,0.6306,0.5818,0.000000,0.558369,-0.547631,0.558369,-0.567573,0.559903,-0.543029
1.3583,0.016787,0.002166,-1.576932,1.566194,0.0000,0.0000,0.0000,-0.003033,-1.576932,1.566194,0.2351,0.6306,0.5818,0.000000,0.570641,-0.558369,0.567573,-0.579845,0.569107,-0.552233
1.3750,0.016755,0.002501,-1.576932,1.566194,0.0000,0.0000,0.0000,-0.002571,-1.576932,1.566194,0.3904,0.6554,0.5248,0.000000,0.570641,-0.558369,0.567573,-0.579845,0.569107,-0.552233
1.3918,0.016752,0.002836,-1.576932,1.566194,0.0000,0.0000,0.0000,-0.002111,-1.576932,1.566194,0.4233,0.7045,0.5877,0.000000,0.582913,-0.567573,0.578311,-0.590583,0.578311,-0.562971
1.4085,0.016753,0.003171,-1.576932,1.566194,0.0000,0.0000,0.0000,-0.001627,-1.576932,1.566194,0.4691,0.6815,0.6386,0.000000,0.595185,-0.578311,0.589049,-0.601320,0.589049,-0.573709
1.4253,0.016759,0.003506,-1.576932,1.566194,0.0000,0.0000,0.0000,-0.001209,-1.576932,1.566194,0.6024,0.7163,0.5289,0.000000,0.605922,-0.589049,0.598253,-0.612058,0.596719,-0.582913
1.4422,0.016895,0.003844,-1.576932,1.566194,0.0000,0.0000,0.0000,-0.000761,-1.576932,1.566194,0.5874,0.7793,0.5435,0.000000,0.616660,-0.598253,0.608990,-0.622796,0.605922,-0.593651
1.4589,0.016751,0.004179,-1.576932,1.566194,0.0000,0.0000,0.0000,-0.000761,-1.576932,1.566194,0.5874,0.7793,0.5435,0.000000,0.627398,-0.608990,0.618194,-0.632000,0.613592,-0.604388
1.4757,0.016752,0.004514,-1.576932,1.566194,0.0000,0.0000,0.0000,-0.000341,-1.576932,1.566194,0.6659,0.7366,0.4363,0.000000,0.627398,-0.608990,0.618194,-0.632000,0.613592,-0.604388
1.4924,0.016747,0.004849,-1.576932,1.566194,0.0000,0.0000,0.0000,0.000077,-1.576932,1.566194,0.7164,0.7740,0.4500,0.000000,0.638136,-0.618194,0.627398,-0.642738,0.622796,-0.613592
1.5092,0.016752,0.004816,-1.576932,1.566194,0.0000,0.0000,0.0000,0.000411,-1.576932,1.566194,0.7485,0.7330,0.3954,0.000000,0.645806,-0.627398,0.635068,-0.650408,0.630466,-0.621262
1.5260,0.016758,0.004481,-1.576932,1.566194,0.0000,0.0000,0.0000,0.000874,-1.576932,1.566194,0.7819,0.7682,0.3485,0.000000,0.656544,-0.638136,0.645806,-0.661146,0.639670,-0.632000
1.5427,0.016763,0.004146,-1.576932,1.566194,0.0000,0.0000,0.0000,0.001211,-1.576932,1.566194,0.7869,0.7140,0.4656,0.000000,0.665748,-0.645806,0.653476,-0.668816,0.648874,-0.639670
1.5595,0.016752,0.003811,-1.576932,1.566194,0.0000,0.0000,0.0000,0.001211,-1.576932,1.566194,0.7869,0.7140,0.4656,0.000000,0.665748,-0.645806,0.653476,-0.668816,0.648874,-0.639670
1.5762,0.016759,0.003475,-1.576932,1.566194,0.0000,0.0000,0.0000,0.001632,-1.576932,1.566194,0.9204,0.7508,0.3451,0.000000,0.676486,-0.656544,0.662680,-0.679553,0.656544,-0.648874
1.5930,0.016751,0.003140,-1.576932,1.566194,0.0000,0.0000,0.0000,0.001981,-1.576932,1.566194,0.9525,0.8290,0.4159,0.000000,0.685689,-0.664214,0.671884,-0.688757,0.664214,-0.656544
1.6097,0.016748,0.002805,-1.576932,1.566194,0.0000,0.0000,0.0000,0.002194,-1.576932,1.566194,1.0819,0.8854,0.4666,0.000000,0.691825,-0.670350,0.678020,-0.694893,0.668816,-0.659612
1.6265,0.016744,0.002471,-1.576932,1.566194,0.0000,0.0000,0.0000,0.002268,-1.576932,1.566194,1.0673,0.8110,0.4609,0.000000,0.693359,-0.673418,0.679553,-0.696427,0.671884,-0.661146
1.6432,0.016750,0.002136,-1.576932,1.566194,0.0000,0.0000,0.0000,0.002260,-1.576932,1.566194,1.0689,0.8188,0.4615,0.000000,0.693359,-0.673418,0.679553,-0.696427,0.671884,-0.661146
1.6600,0.016785,0.001800,-1.576932,1.566194,0.0000,0.0000,0.0000,0.002260,-1.576932,1.566194,1.0689,0.8188,0.4615,0.000000,0.693359,-0.673418,0.679553,-0.696427,0.671884,-0.661146
1.6768,0.016746,0.001465,-1.576932,1.566194,0.0000,0.0000,0.0000,0.002261,-1.576932,1.566194,1.0687,0.8177,0.4614,0.000000,0.693359,-0.673418,0.679553,-0.696427,0.671884,-0.661146
1.6935,0.016751,0.001130,-1.576932,1.566194,0.0000,0.0000,0.0000,0.002205,-1.576932,1.566194,0.9126,0.7832,0.5162,0.000000,0.690291,-0.671884,0.679553,-0.693359,0.671884,-0.661146
1.7103,0.016801,0.000794,-1.576932,1.566194,0.0000,0.0000,0.0000,0.002098,-1.576932,1.566194,0.6552,0.6128,0.3957,0.000000,0.682621,-0.671884,0.678020,-0.687223,0.671884,-0.661146
1.7271,0.016747,0.000459,-1.576932,1.566194,0.0000,0.0000,0.0000,0.001946,-1.576932,1.566194,0.4083,0.2603,0.2941,0.000000,0.674952,-0.671884,0.673418,-0.678020,0.671884,-0.661146
1.7438,0.016762,0.000124,-1.576932,1.566194,0.0000,0.0000,0.0000,0.001946,-1.576932,1.566194,0.4083,0.2603,0.2941,0.000000,0.662680,-0.665748,0.664214,-0.665748,0.665748,-0.656544
1.7606,0.016750,-0.000211,-1.576932,1.566194,0.0000,0.0000,0.0000,0.001568,-1.576932,1.566194,0.1714,0.0449,0.1361,0.000000,0.662680,-0.665748,0.664214,-0.665748,0.665748,-0.656544
1.7773,0.016752,-0.000546,-1.576932,1.566194,0.0000,0.0000,0.0000,0.000982,-1.576932,1.566194,0.0880,0.0177,-0.0697,0.000000,0.647340,-0.653476,0.650408,-0.651942,0.651942,-0.645806
1.7941,0.016749,-0.000881,-1.576932,1.566194,0.0000,0.0000,0.0000,0.000522,-1.576932,1.566194,0.0479,0.0369,-0.1033,0.000000,0.635068,-0.642738,0.639670,-0.641204,0.641204,-0.635068
1.8108,0.016749,-0.001216,-1.576932,1.566194,0.0000,0.0000,0.0000,0.000072,-1.576932,1.566194,0.0351,0.0381,-0.1541,0.000000,0.625864,-0.630466,0.627398,-0.632000,0.630466,-0.625864
1.8275,0.016704,-0.001550,-1.576932,1.566194,0.0000,0.0000,0.0000,-0.000297,-1.576932,1.566194,0.0304,0.2247,0.0699,0.000000,0.618194,-0.618194,0.619728,-0.625864,0.622796,-0.615126
1.8447,0.017197,-0.001894,-1.576932,1.566194,0.0000,0.0000,0.0000,-0.000688,-1.576932,1.566194,0.1115,0.2095,0.1009,0.000000,0.612058,-0.607456,0.608990,-0.618194,0.613592,-0.605922
1.8615,0.016749,-0.002229,-1.576932,1.566194,0.0000,0.0000,0.0000,-0.000688,-1.576932,1.566194,0.1115,0.2095,0.1009,0.000000,0.612058,-0.607456,0.608990,-0.618194,0.613592,-0.605922
1.8782,0.016744,-0.002564,-1.576932,1.566194,0.0000,0.0000,0.0000,-0.001175,-1.576932,1.566194,0.0923,0.2953,0.1512,0.000000,0.599786,-0.596719,0.599786,-0.607456,0.602854,-0.593651
1.8950,0.016746,-0.002899,-1.576932,1.566194,0.0000,0.0000,0.0000,-0.001618,-1.576932,1.566194,0.1224,0.2673,0.1453,0.000000,0.587515,-0.589049,0.590583,-0.596719,0.593651,-0.581379
1.9117,0.016755,-0.003234,-1.576932,1.566194,0.0000,0.0000,0.0000,-0.001882,-1.576932,1.566194,0.0982,0.2012,0.0918,0.000000,0.579845,-0.584447,0.584447,-0.589049,0.587515,-0.575243
1.9285,0.016753,-0.003569,-1.576932,1.566194,0.0000,0.0000,0.0000,-0.002139,-1.576932,1.566194,0.0099,0.1920,0.2582,0.000000,0.573709,-0.578311,0.581379,-0.579845,0.581379,-0.570641
1.9453,0.016805,-0.003905,-1.576932,1.566194,0.0000,0.0000,0.0000,-0.002546,-1.576932,1.566194,-0.0023,0.2629,0.1866,0.000000,0.564505,-0.569107,0.573709,-0.570641,0.570641,-0.562971
1.9621,0.016847,-0.004242,-1.576932,1.566194,0.0000,0.0000,0.0000,-0.002546,-1.576932,1.566194,-0.0023,0.2629,0.1866,0.000000,0.564505,-0.569107,0.573709,-0.570641,0.570641,-0.562971
1.9789,0.016741,-0.004577,-1.576932,1.566194,0.0000,0.0000,0.0000,-0.003064,-1.576932,1.566194,-0.0115,0.2749,0.2460,0.000000,0.553767,-0.556835,0.562971,-0.558369,0.558369,-0.552233
1.9956,0.016745,-0.004912,-1.576932,1.566194,0.0000,0.0000,0.0000,-0.003573,-1.576932,1.566194,0.0103,0.2750,0.2911,0.000000,0.543029,-0.544563,0.550699,-0.547631,0.547631,-0.539961
2.0123,0.016749,-0.004753,-1.576932,1.566194,0.0000,0.0000,0.0000,-0.003984,-1.576932,1.566194,-0.0499,0.2068,0.4425,0.000000,0.533825,-0.533825,0.539961,-0.538427,0.541495,-0.529223
2.0291,0.016745,-0.004418,-1.576932,1.566194,0.0000,0.0000,0.0000,-0.004230,-1.576932,1.566194,-0.1231,0.1108,0.3732,0.000000,0.527689,-0.527689,0.532291,-0.532291,0.536893,-0.524621
2.0460,0.016871,-0.004081,-1.576932,1.566194,0.0000,0.0000,0.0000,-0.004619,-1.576932,1.566194,-0.1062,0.1392,0.3264,0.000000,0.520019,-0.518486,0.523087,-0.524621,0.527689,-0.516952
2.0627,0.016749,-0.003746,-1.576932,1.566194,0.0000,0.0000,0.0000,-0.004619,-1.576932,1.566194,-0.1062,0.1392,0.3264,0.000000,0.520019,-0.518486,0.523087,-0.524621,0.527689,-0.516952
2.0795,0.016746,-0.003411,-1.576932,1.566194,0.0000,0.0000,0.0000,-0.005057,-1.576932,1.566194,-0.1082,0.1708,0.3295,0.000000,0.509282,-0.509282,0.513884,-0.515418,0.518486,-0.506214
2.0962,0.016756,-0.003076,-1.576932,1.566194,0.0000,0.0000,0.0000,-0.005340,-1.576932,1.566194,-0.1487,0.3067,0.2240,0.000000,0.501612,-0.501612,0.507748,-0.510816,0.510816,-0.500078
2.1130,0.016753,-0.002741,-1.576932,1.566194,0.0000,0.0000,0.0000,-0.005311,-1.576932,1.566194,-0.1339,0.2753,0.3386,0.000000,0.501612,-0.501612,0.507748,-0.510816,0.512350,-0.498544
2.1297,0.016766,-0.002405,-1.576932,1.566194,0.0000,0.0000,0.0000,-0.005301,-1.576932,1.566194,-0.0658,0.3301,0.2750,0.000000,0.501612,-0.503146,0.509282,-0.510816,0.510816,-0.498544
2.1465,0.016748,-0.002070,-1.576932,1.566194,0.0000,0.0000,0.0000,-0.005290,-1.576932,1.566194,-0.1126,0.2896,0.3335,0.000000,0.501612,-0.503146,0.509282,-0.510816,0.512350,-0.498544
2.1632,0.016752,-0.001735,-1.576932,1.566194,0.0000,0.0000,0.0000,-0.005290,-1.576932,1.566194,-0.1126,0.2896,0.3335,0.000000,0.501612,-0.503146,0.509282,-0.510816,0.512350,-0.498544
2.1800,0.016742,-0.001401,-1.576932,1.566194,0.0000,0.0000,0.0000,-0.005278,-1.576932,1.566194,-0.1581,0.2765,0.2757,0.000000,0.501612,-0.503146,0.509282,-0.510816,0.512350,-0.500078
2.1967,0.016756,-0.001065,-1.576932,1.566194,0.0000,0.0000,0.0000,-0.005292,-1.576932,1.566194,-0.1934,0.3129,0.3333,0.000000,0.501612,-0.501612,0.509282,-0.510816,0.512350,-0.500078
2.2137,0.016991,-0.000726,-1.576932,1.566194,0.0000,0.0000,0.0000,-0.005240,-1.576932,1.566194,-0.1392,0.2924,0.5350,0.000000,0.504680,-0.501612,0.510816,-0.510816,0.513884,-0.500078
2.2305,0.016749,-0.000391,-1.576932,1.566194,0.0000,0.0000,0.0000,-0.005183,-1.576932,1.566194,0.0157,0.3304,0.4623,0.000000,0.507748,-0.503146,0.510816,-0.513884,0.513884,-0.500078
2.2473,0.016857,-0.000053,-1.576932,1.566194,0.0000,0.0000,0.0000,-0.005013,-1.576932,1.566194,0.0707,0.3445,0.5746,0.000000,0.512350,-0.506214,0.513884,-0.518486,0.518486,-0.501612
2.2641,0.016755,0.000282,-1.576932,1.566194,0.0000,0.0000,0.0000,-0.005013,-1.576932,1.566194,0.0707,0.3445,0.5746,0.000000,0.512350,-0.506214,0.513884,-0.518486,0.518486,-0.501612
2.2808,0.016745,0.000617,-1.576932,1.566194,0.0000,0.0000,0.0000,-0.004730,-1.576932,1.566194,0.2264,0.4136,0.6689,0.000000,0.520019,-0.512350,0.520019,-0.526155,0.524621,-0.504680
2.2976,0.016758,0.000952,-1.576932,1.566194,0.0000,0.0000,0.0000,-0.004320,-1.576932,1.566194,0.3204,0.5288,0.7145,0.000000,0.530757,-0.520019,0.529223,-0.536893,0.532291,-0.512350
2.3144,0.016806,0.001288,-1.576932,1.566194,0.0000,0.0000,0.0000,-0.003912,-1.576932,1.566194,0.3710,0.4476,0.7133,0.000000,0.541495,-0.529223,0.536893,-0.546097,0.541495,-0.521553
2.3311,0.016757,0.001623,-1.576932,1.566194,0.0000,0.0000,0.0000,-0.003478,-1.576932,1.566194,0.3656,0.5585,0.7170,0.000000,0.550699,-0.538427,0.547631,-0.556835,0.550699,-0.530757
2.3480,0.016853,0.001960,-1.576932,1.566194,0.0000,0.0000,0.0000,-0.003036,-1.576932,1.566194,0.4160,0.6325,0.7736,0.000000,0.561437,-0.547631,0.558369,-0.567573,0.559903,-0.539961
2.3648,0.016774,0.002296,-1.576932,1.566194,0.0000,0.0000,0.0000,-0.003036,-1.576932,1.566194,0.4160,0.6325,0.7736,0.000000,0.561437,-0.547631,0.558369,-0.567573,0.559903,-0.539961
2.3815,0.016742,0.002630,-1.576932,1.566194,0.0000,0.0000,0.0000,-0.002547,-1.576932,1.566194,0.5100,0.6927,0.7191,0.000000,0.573709,-0.558369,0.569107,-0.579845,0.569107,-0.550699
2.3983,0.016748,0.002965,-1.576932,1.566194,0.0000,0.0000,0.0000,-0.002089,-1.576932,1.566194,0.5388,0.7183,0.6755,0.000000,0.584447,-0.569107,0.579845,-0.590583,0.578311,-0.561437
2.4150,0.016749,0.003300,-1.576932,1.566194,0.0000,0.0000,0.0000,-0.001643,-1.576932,1.566194,0.6844,0.6984,0.6843,0.000000,0.596719,-0.579845,0.589049,-0.601320,0.587515,-0.570641
2.4318,0.016754,0.003635,-1.576932,1.566194,0.0000,0.0000,0.0000,-0.001209,-1.576932,1.566194,0.6785,0.7166,0.6328,0.000000,0.607456,-0.589049,0.598253,-0.612058,0.596719,-0.581379
2.4485,0.016780,0.003971,-1.576932,1.566194,0.0000,0.0000,0.0000,-0.001209,-1.576932,1.566194,0.6785,0.7166,0.6328,0.000000,0.616660,-0.598253,0.608990,-0.621262,0.604388,-0.590583
2.4653,0.016753,0.004306,-1.576932,1.566194,0.0000,0.0000,0.0000,-0.000810,-1.576932,1.566194,0.7063,0.7973,0.6420,0.000000,0.616660,-0.598253,0.608990,-0.621262,0.604388,-0.590583
2.4820,0.016743,0.004641,-1.576932,1.566194,0.0000,0.0000,0.0000,-0.000399,-1.576932,1.566194,0.7128,0.7033,0.5894,0.000000,0.627398,-0.607456,0.616660,-0.630466,0.613592,-0.601320
2.4988,0.016756,0.004976,-1.576932,1.566194,0.0000,0.0000,0.0000,-0.000014,-1.576932,1.566194,0.7497,0.7449,0.5433,0.000000,0.636602,-0.616660,0.625864,-0.639670,0.621262,-0.610524
2.5156,0.016770,0.004689,-1.576932,1.566194,0.0000,0.0000,0.0000,0.000395,-1.576932,1.566194,0.7931,0.7233,0.6062,0.000000,0.647340,-0.625864,0.635068,-0.648874,0.630466,-0.619728
2.5323,0.016748,0.004354,-1.576932,1.566194,0.0000,0.0000,0.0000,0.000801,-1.576932,1.566194,0.8749,0.7719,0.4372,0.000000,0.656544,-0.636602,0.644272,-0.659612,0.638136,-0.628932
2.5491,0.016752,0.004019,-1.576932,1.566194,0.0000,0.0000,0.0000,0.001194,-1.576932,1.566194,0.8642,0.7641,0.4569,0.000000,0.665748,-0.645806,0.653476,-0.668816,0.647340,-0.638136
2.5658,0.016757,0.003683,-1.576932,1.566194,0.0000,0.0000,0.0000,0.001194,-1.576932,1.566194,0.8642,0.7641,0.4569,0.000000,0.665748,-0.645806,0.653476,-0.668816,0.647340,-0.638136
2.5826,0.016746,0.003348,-1.576932,1.566194,0.0000,0.0000,0.0000,0.001608,-1.576932,1.566194,0.9228,0.7972,0.4574,0.000000,0.676486,-0.655010,0.662680,-0.679553,0.656544,-0.647340
2.5993,0.016753,0.003013,-1.576932,1.566194,0.0000,0.0000,0.0000,0.001924,-1.576932,1.566194,0.9145,0.7913,0.4590,0.000000,0.684155,-0.662680,0.670350,-0.687223,0.664214,-0.655010
2.6161,0.016749,0.002678,-1.576932,1.566194,0.0000,0.0000,0.0000,0.002177,-1.576932,1.566194,1.0858,0.7910,0.4616,0.000000,0.691825,-0.670350,0.676486,-0.693359,0.668816,-0.659612
2.6328,0.016751,0.002343,-1.576932,1.566194,0.0000,0.0000,0.0000,0.002270,-1.576932,1.566194,1.0669,0.8209,0.4615,0.000000,0.693359,-0.673418,0.679553,-0.696427,0.671884,-0.661146
2.6496,0.016788,0.002008,-1.576932,1.566194,0.0000,0.0000,0.0000,0.002247,-1.576932,1.566194,1.0314,0.8525,0.5174,0.000000,0.693359,-0.671884,0.679553,-0.696427,0.671884,-0.661146
2.6664,0.016752,0.001673,-1.576932,1.566194,0.0000,0.0000,0.0000,0.002247,-1.576932,1.566194,1.0314,0.8525,0.5174,0.000000,0.693359,-0.671884,0.679553,-0.696427,0.671884,-0.661146
2.6831,0.016745,0.001338,-1.576932,1.566194,0.0000,0.0000,0.0000,0.002250,-1.576932,1.566194,1.0351,0.8492,0.5116,0.000000,0.693359,-0.671884,0.679553,-0.696427,0.671884,-0.661146
2.6998,0.016707,0.001004,-1.576932,1.566194,0.0000,0.0000,0.0000,0.002193,-1.576932,1.566194,0.9273,0.7305,0.4545,0.000000,0.690291,-0.671884,0.678020,-0.693359,0.671884,-0.661146
2.7166,0.016746,0.000669,-1.576932,1.566194,0.0000,0.0000,0.0000,0.002122,-1.576932,1.566194,0.7127,0.6530,0.4025,0.000000,0.684155,-0.671884,0.678020,-0.688757,0.671884,-0.661146
2.7333,0.016751,0.000334,-1.576932,1.566194,0.0000,0.0000,0.0000,0.001980,-1.576932,1.566194,0.3915,0.4042,0.3497,0.000000,0.674952,-0.671884,0.676486,-0.679553,0.671884,-0.661146
2.7501,0.016752,-0.000001,-1.576932,1.566194,0.0000,0.0000,0.0000,0.001708,-1.576932,1.566194,0.1622,0.0105,0.0190,0.000000,0.664214,-0.670350,0.667282,-0.668816,0.668816,-0.659612
2.7668,0.016750,-0.000336,-1.576932,1.566194,0.0000,0.0000,0.0000,0.001708,-1.576932,1.566194,0.1622,0.0105,0.0190,0.000000,0.664214,-0.670350,0.667282,-0.668816,0.668816,-0.659612
2.7836,0.016743,-0.000671,-1.576932,1.566194,0.0000,0.0000,0.0000,0.001207,-1.576932,1.566194,0.0567,-0.0662,-0.0579,0.000000,0.650408,-0.661146,0.656544,-0.655010,0.658078,-0.650408
2.8004,0.016804,-0.001007,-1.576932,1.566194,0.0000,0.0000,0.0000,0.000571,-1.576932,1.566194,0.0784,-0.0391,-0.1046,0.000000,0.636602,-0.645806,0.641204,-0.641204,0.642738,-0.636602
2.8171,0.016742,-0.001342,-1.576932,1.566194,0.0000,0.0000,0.0000,0.000139,-1.576932,1.566194,0.0209,0.0273,-0.2638,0.000000,0.625864,-0.633534,0.628932,-0.633534,0.632000,-0.627398
2.8339,0.016745,-0.001677,-1.576932,1.566194,0.0000,0.0000,0.0000,-0.000279,-1.576932,1.566194,0.0488,0.0900,-0.0278,0.000000,0.618194,-0.621262,0.619728,-0.624330,0.622796,-0.616660
2.8506,0.016750,-0.002012,-1.576932,1.566194,0.0000,0.0000,0.0000,-0.000604,-1.576932,1.566194,0.1763,0.2733,0.0568,0.000000,0.613592,-0.610524,0.612058,-0.619728,0.613592,-0.607456
2.8674,0.016753,-0.002347,-1.576932,1.566194,0.0000,0.0000,0.0000,-0.000604,-1.576932,1.566194,0.1763,0.2733,0.0568,0.000000,0.613592,-0.610524,0.612058,-0.619728,0.613592,-0.607456
2.8841,0.016746,-0.002682,-1.576932,1.566194,0.0000,0.0000,0.0000,-0.001123,-1.576932,1.566194,0.1843,0.2562,0.1018,0.000000,0.602854,-0.598253,0.599786,-0.608990,0.602854,-0.595185
2.9009,0.016763,-0.003017,-1.576932,1.566194,0.0000,0.0000,0.0000,-0.001587,-1.576932,1.566194,0.1730,0.2416,0.3122,0.000000,0.592117,-0.587515,0.590583,-0.596719,0.593651,-0.582913
2.9176,0.016739,-0.003352,-1.576932,1.566194,0.0000,0.0000,0.0000,-0.001959,-1.576932,1.566194,0.1039,0.2227,0.1819,0.000000,0.579845,-0.581379,0.582913,-0.587515,0.585981,-0.573709
2.9344,0.016751,-0.003687,-1.576932,1.566194,0.0000,0.0000,0.0000,-0.002255,-1.576932,1.566194,0.0586,0.2064,0.1414,0.000000,0.570641,-0.576777,0.578311,-0.578311,0.578311,-0.567573
2.9511,0.016752,-0.004022,-1.576932,1.566194,0.0000,0.0000,0.0000,-0.002255,-1.576932,1.566194,0.0586,0.2064,0.1414,0.000000,0.570641,-0.576777,0.578311,-0.578311,0.578311,-0.567573
2.9679,0.016753,-0.004357,-1.576932,1.566194,0.0000,0.0000,0.0000,-0.002759,-1.576932,1.566194,-0.0068,0.2257,0.1982,0.000000,0.558369,-0.566039,0.569107,-0.566039,0.567573,-0.556835
2.9846,0.016741,-0.004692,-1.576932,1.566194,0.0000,0.0000,0.0000,-0.003267,-1.576932,1.566194,0.0098,0.2433,0.1382,0.000000,0.547631,-0.553767,0.556835,-0.555301,0.555301,-0.546097
3.0013,0.016744,-0.004973,-1.576932,1.566194,0.0000,0.0000,0.0000,-0.003602,-1.576932,1.566194,0.0289,0.2090,0.1964,0.000000,0.541495,-0.544563,0.547631,-0.547631,0.547631,-0.538427
3.0181,0.016740,-0.004638,-1.576932,1.566194,0.0000,0.0000,0.0000,-0.003843,-1.576932,1.566194,-0.0414,0.1618,0.4003,0.000000,0.536893,-0.536893,0.541495,-0.541495,0.544563,-0.532291
3.0351,0.016966,-0.004299,-1.576932,1.566194,0.0000,0.0000,0.0000,-0.004107,-1.576932,1.566194,-0.1142,0.2368,0.3253,0.000000,0.530757,-0.529223,0.535359,-0.536893,0.538427,-0.527689
3.0518,0.016739,-0.003964,-1.576932,1.566194,0.0000,0.0000,0.0000,-0.004107,-1.576932,1.566194,-0.1142,0.2368,0.3253,0.000000,0.530757,-0.529223,0.535359,-0.536893,0.538427,-0.527689
3.0686,0.016756,-0.003629,-1.576932,1.566194,0.0000,0.0000,0.0000,-0.004607,-1.576932,1.566194,-0.1865,0.2302,0.4355,0.000000,0.520019,-0.516952,0.524621,-0.526155,0.529223,-0.516952
3.0853,0.016740,-0.003294,-1.576932,1.566194,0.0000,0.0000,0.0000,-0.005084,-1.576932,1.566194,-0.2198,0.1626,0.3180,0.000000,0.509282,-0.506214,0.512350,-0.515418,0.518486,-0.507748
3.1020,0.016752,-0.002959,-1.576932,1.566194,0.0000,0.0000,0.0000,-0.005488,-1.576932,1.566194,-0.0674,0.1516,0.3287,0.000000,0.500078,-0.500078,0.504680,-0.504680,0.507748,-0.497010
3.1188,0.016746,-0.002624,-1.576932,1.566194,0.0000,0.0000,0.0000,-0.005447,-1.576932,1.566194,-0.0830,0.1528,0.3276,0.000000,0.500078,-0.500078,0.504680,-0.504680,0.507748,-0.497010
3.1355,0.016756,-0.002289,-1.576932,1.566194,0.0000,0.0000,0.0000,-0.005447,-1.576932,1.566194,-0.0830,0.1528,0.3276,0.000000,0.501612,-0.500078,0.506214,-0.506214,0.507748,-0.497010
3.1523,0.016743,-0.001954,-1.576932,1.566194,0.0000,0.0000,0.0000,-0.005413,-1.576932,1.566194,-0.0312,0.2398,0.3795,0.000000,0.501612,-0.500078,0.506214,-0.506214,0.507748,-0.497010
3.1690,0.016756,-0.001619,-1.576932,1.566194,0.0000,0.0000,0.0000,-0.005392,-1.576932,1.566194,-0.0663,0.2481,0.3740,0.000000,0.501612,-0.500078,0.506214,-0.507748,0.509282,-0.497010
3.1858,0.016740,-0.001284,-1.576932,1.566194,0.0000,0.0000,0.0000,-0.005394,-1.576932,1.566194,-0.0626,0.2473,0.3746,0.000000,0.501612,-0.500078,0.506214,-0.507748,0.509282,-0.497010
3.2026,0.016786,-0.000949,-1.576932,1.566194,0.0000,0.0000,0.0000,-0.005369,-1.576932,1.566194,-0.0525,0.1958,0.4783,0.000000,0.503146,-0.500078,0.506214,-0.507748,0.510816,-0.497010
3.2193,0.016740,-0.000614,-1.576932,1.566194,0.0000,0.0000,0.0000,-0.005245,-1.576932,1.566194,-0.0035,0.1839,0.3644,0.000000,0.506214,-0.503146,0.507748,-0.510816,0.512350,-0.500078
3.2361,0.016757,-0.000279,-1.576932,1.566194,0.0000,0.0000,0.0000,-0.004993,-1.576932,1.566194,0.1524,0.1164,0.3254,0.000000,0.513884,-0.509282,0.510816,-0.516952,0.516952,-0.504680
3.2528,0.016739,0.000056,-1.576932,1.566194,0.0000,0.0000,0.0000,-0.004993,-1.576932,1.566194,0.1524,0.1164,0.3254,0.000000,0.513884,-0.509282,0.510816,-0.516952,0.516952,-0.504680
3.2696,0.016753,0.000391,-1.576932,1.566194,0.0000,0.0000,0.0000,-0.004642,-1.576932,1.566194,0.1464,0.2800,0.4350,0.000000,0.521553,-0.515418,0.520019,-0.526155,0.524621,-0.510816
3.2863,0.016738,0.000726,-1.576932,1.566194,0.0000,0.0000,0.0000,-0.004239,-1.576932,1.566194,0.3080,0.2978,0.3731,0.000000,0.532291,-0.524621,0.527689,-0.536893,0.532291,-0.518486
3.3030,0.016755,0.001061,-1.576932,1.566194,0.0000,0.0000,0.0000,-0.003830,-1.576932,1.566194,0.2614,0.3822,0.3812,0.000000,0.541495,-0.532291,0.536893,-0.547631,0.541495,-0.527689
3.3198,0.016739,0.001396,-1.576932,1.566194,0.0000,0.0000,0.0000,-0.003397,-1.576932,1.566194,0.3270,0.4078,0.3824,0.000000,0.552233,-0.541495,0.546097,-0.558369,0.550699,-0.536893
3.3366,0.016766,0.001731,-1.576932,1.566194,0.0000,0.0000,0.0000,-0.002943,-1.576932,1.566194,0.4097,0.4558,0.3845,0.000000,0.562971,-0.552233,0.556835,-0.569107,0.559903,-0.546097
3.3533,0.016739,0.002066,-1.576932,1.566194,0.0000,0.0000,0.0000,-0.002943,-1.576932,1.566194,0.4097,0.4558,0.3845,0.000000,0.562971,-0.552233,0.556835,-0.569107,0.559903,-0.546097
3.3700,0.016753,0.002401,-1.576932,1.566194,0.0000,0.0000,0.0000,-0.002468,-1.576932,1.566194,0.4612,0.5181,0.3863,0.000000,0.573709,-0.562971,0.567573,-0.581379,0.570641,-0.555301
3.3868,0.016722,0.002735,-1.576932,1.566194,0.0000,0.0000,0.0000,-0.002009,-1.576932,1.566194,0.5052,0.5636,0.4424,0.000000,0.585981,-0.572175,0.578311,-0.592117,0.579845,-0.566039
3.4035,0.016762,0.003071,-1.576932,1.566194,0.0000,0.0000,0.0000,-0.001687,-1.576932,1.566194,0.5994,0.5594,0.5463,0.000000,0.595185,-0.579845,0.585981,-0.599786,0.587515,-0.572175
3.4203,0.016739,0.003405,-1.576932,1.566194,0.0000,0.0000,0.0000,-0.001301,-1.576932,1.566194,0.5887,0.6277,0.5380,0.000000,0.604388,-0.587515,0.595185,-0.608990,0.595185,-0.581379
3.4370,0.016772,0.003741,-1.576932,1.566194,0.0000,0.0000,0.0000,-0.001301,-1.576932,1.566194,0.5887,0.6277,0.5380,0.000000,0.615126,-0.596719,0.605922,-0.619728,0.604388,-0.590583
3.4538,0.016738,0.004076,-1.576932,1.566194,0.0000,0.0000,0.0000,-0.000862,-1.576932,1.566194,0.6384,0.7049,0.5963,0.000000,0.615126,-0.596719,0.605922,-0.619728,0.604388,-0.590583
3.4705,0.016755,0.004411,-1.576932,1.566194,0.0000,0.0000,0.0000,-0.000442,-1.576932,1.566194,0.6821,0.7099,0.4839,0.000000,0.624330,-0.607456,0.615126,-0.630466,0.613592,-0.599786
3.4873,0.016746,0.004746,-1.576932,1.566194,0.0000,0.0000,0.0000,-0.000009,-1.576932,1.566194,0.6652,0.7254,0.5534,0.000000,0.635068,-0.616660,0.625864,-0.639670,0.622796,-0.610524
3.5040,0.016759,0.004919,-1.576932,1.566194,0.0000,0.0000,0.0000,0.000360,-1.576932,1.566194,0.7535,0.7722,0.5491,0.000000,0.644272,-0.625864,0.635068,-0.648874,0.630466,-0.618194
3.5208,0.016741,0.004584,-1.576932,1.566194,0.0000,0.0000,0.0000,0.000819,-1.576932,1.566194,0.7808,0.7979,0.4977,0.000000,0.655010,-0.636602,0.645806,-0.659612,0.639670,-0.628932
3.5376,0.016769,0.004249,-1.576932,1.566194,0.0000,0.0000,0.0000,0.000819,-1.576932,1.566194,0.7808,0.7979,0.4977,0.000000,0.655010,-0.636602,0.645806,-0.659612,0.639670,-0.628932
3.5543,0.016743,0.003914,-1.576932,1.566194,0.0000,0.0000,0.0000,0.001192,-1.576932,1.566194,0.8845,0.7447,0.5610,0.000000,0.665748,-0.645806,0.653476,-0.668816,0.648874,-0.636602
3.5711,0.016757,0.003579,-1.576932,1.566194,0.0000,0.0000,0.0000,0.001646,-1.576932,1.566194,0.9091,0.7807,0.5020,0.000000,0.676486,-0.656544,0.664214,-0.679553,0.658078,-0.647340
3.5878,0.016749,0.003244,-1.576932,1.566194,0.0000,0.0000,0.0000,0.001967,-1.576932,1.566194,1.0021,0.8427,0.4554,0.000000,0.685689,-0.664214,0.671884,-0.688757,0.664214,-0.655010
3.6046,0.016756,0.002909,-1.576932,1.566194,0.0000,0.0000,0.0000,0.002208,-1.576932,1.566194,1.0387,0.8507,0.5177,0.000000,0.691825,-0.670350,0.678020,-0.694893,0.670350,-0.659612
3.6217,0.017095,0.002567,-1.576932,1.566194,0.0000,0.0000,0.0000,0.002241,-1.576932,1.566194,1.0826,0.8661,0.5677,0.000000,0.693359,-0.671884,0.679553,-0.696427,0.671884,-0.659612
3.6384,0.016773,0.002232,-1.576932,1.566194,0.0000,0.0000,0.0000,0.002241,-1.576932,1.566194,1.0826,0.8661,0.5677,0.000000,0.693359,-0.671884,0.679553,-0.696427,0.671884,-0.659612
3.6552,0.016751,0.001897,-1.576932,1.566194,0.0000,0.0000,0.0000,0.002238,-1.576932,1.566194,1.0780,0.8645,0.5625,0.000000,0.693359,-0.671884,0.679553,-0.696427,0.671884,-0.659612
3.6719,0.016754,0.001561,-1.576932,1.566194,0.0000,0.0000,0.0000,0.002238,-1.576932,1.566194,1.0780,0.8645,0.5625,0.000000,0.693359,-0.671884,0.679553,-0.696427,0.671884,-0.659612
3.6887,0.016745,0.001227,-1.576932,1.566194,0.0000,0.0000,0.0000,0.002193,-1.576932,1.566194,0.9824,0.7945,0.4494,0.000000,0.690291,-0.671884,0.678020,-0.694893,0.671884,-0.659612
3.7054,0.016753,0.000891,-1.576932,1.566194,0.0000,0.0000,0.0000,0.002109,-1.576932,1.566194,0.7554,0.6628,0.4591,0.000000,0.684155,-0.671884,0.678020,-0.688757,0.671884,-0.659612
3.7222,0.016776,0.000556,-1.576932,1.566194,0.0000,0.0000,0.0000,0.002015,-1.576932,1.566194,0.5163,0.5522,0.2883,0.000000,0.676486,-0.671884,0.676486,-0.684155,0.671884,-0.659612
3.7390,0.016769,0.000221,-1.576932,1.566194,0.0000,0.0000,0.0000,0.002015,-1.576932,1.566194,0.5163,0.5522,0.2883,0.000000,0.676486,-0.671884,0.676486,-0.684155,0.671884,-0.659612
3.7557,0.016751,-0.000114,-1.576932,1.566194,0.0000,0.0000,0.0000,0.001656,-1.576932,1.566194,0.2784,0.2819,0.1370,0.000000,0.665748,-0.665748,0.667282,-0.671884,0.665748,-0.656544
3.7726,0.016836,-0.000451,-1.576932,1.566194,0.0000,0.0000,0.0000,0.001201,-1.576932,1.566194,0.0986,0.1924,-0.0145,0.000000,0.651942,-0.656544,0.656544,-0.659612,0.656544,-0.648874
3.7893,0.016747,-0.000786,-1.576932,1.566194,0.0000,0.0000,0.0000,0.000524,-1.576932,1.566194,0.1172,0.2037,0.0011,0.000000,0.636602,-0.641204,0.641204,-0.644272,0.641204,-0.633534
3.8061,0.016752,-0.001121,-1.576932,1.566194,0.0000,0.0000,0.0000,0.000144,-1.576932,1.566194,0.0390,0.1720,-0.0554,0.000000,0.627398,-0.630466,0.630466,-0.635068,0.632000,-0.625864
3.8228,0.016753,-0.001456,-1.576932,1.566194,0.0000,0.0000,0.0000,-0.000414,-1.576932,1.566194,0.0682,0.1446,0.0052,0.000000,0.616660,-0.616660,0.616660,-0.622796,0.619728,-0.613592
3.8396,0.016766,-0.001792,-1.576932,1.566194,0.0000,0.0000,0.0000,-0.000414,-1.576932,1.566194,0.0682,0.1446,0.0052,0.000000,0.616660,-0.616660,0.616660,-0.622796,0.619728,-0.613592
3.8563,0.016749,-0.002127,-1.576932,1.566194,0.0000,0.0000,0.0000,-0.000908,-1.576932,1.566194,0.0264,0.2152,0.0531,0.000000,0.604388,-0.604388,0.605922,-0.612058,0.608990,-0.601320
3.8731,0.016755,-0.002462,-1.576932,1.566194,0.0000,0.0000,0.0000,-0.001226,-1.576932,1.566194,0.1292,0.2093,0.1562,0.000000,0.598253,-0.596719,0.598253,-0.604388,0.601320,-0.592117
3.8898,0.016746,-0.002797,-1.576932,1.566194,0.0000,0.0000,0.0000,-0.001440,-1.576932,1.566194,0.1263,0.1573,0.2533,0.000000,0.592117,-0.593651,0.595185,-0.596719,0.596719,-0.585981
3.9066,0.016756,-0.003132,-1.576932,1.566194,0.0000,0.0000,0.0000,-0.001764,-1.576932,1.566194,0.1160,0.2467,0.1348,0.000000,0.582913,-0.587515,0.589049,-0.590583,0.589049,-0.578311
3.9233,0.016747,-0.003467,-1.576932,1.566194,0.0000,0.0000,0.0000,-0.002176,-1.576932,1.566194,0.1172,0.2387,0.1463,0.000000,0.573709,-0.578311,0.579845,-0.581379,0.579845,-0.569107
3.9401,0.016759,-0.003802,-1.576932,1.566194,0.0000,0.0000,0.0000,-0.002176,-1.576932,1.566194,0.1172,0.2387,0.1463,0.000000,0.573709,-0.578311,0.579845,-0.581379,0.579845,-0.569107
3.9568,0.016752,-0.004137,-1.576932,1.566194,0.0000,0.0000,0.0000,-0.002754,-1.576932,1.567728,0.2062,0.2923,0.1442,0.000000,0.561437,-0.566039,0.567573,-0.569107,0.566039,-0.555301
3.9736,0.016748,-0.004472,-1.576932,1.566194,0.0000,0.0000,0.0000,-0.003205,-1.576932,1.566194,0.0691,0.2716,0.1966,0.000000,0.550699,-0.553767,0.556835,-0.558369,0.556835,-0.546097
3.9903,0.016744,-0.004807,-1.576932,1.566194,0.0000,0.0000,0.0000,-0.003596,-1.576932,1.566194,-0.0855,0.1895,0.1375,0.000000,0.541495,-0.543029,0.546097,-0.549165,0.549165,-0.539961
4.0071,0.016753,-0.004858,-1.576932,1.566194,0.0000,0.0000,0.0000,-0.003831,-1.576932,1.566194,-0.1691,0.1288,0.3540,0.000000,0.535359,-0.536893,0.541495,-0.541495,0.546097,-0.533825
4.0242,0.017088,-0.004517,-1.576932,1.566194,0.0000,0.0000,0.0000,-0.004259,-1.576932,1.566194,-0.3001,0.0668,0.4351,0.000000,0.526155,-0.526155,0.532291,-0.530757,0.538427,-0.526155
4.0409,0.016753,-0.004181,-1.576932,1.566194,0.0000,0.0000,0.0000,-0.004259,-1.576932,1.566194,-0.3001,0.0668,0.4351,0.000000,0.526155,-0.526155,0.532291,-0.530757,0.538427,-0.526155
4.0577,0.016750,-0.003846,-1.576932,1.566194,0.0000,0.0000,0.0000,-0.004730,-1.576932,1.566194,-0.2376,0.0568,0.4764,0.000000,0.516952,-0.515418,0.521553,-0.520019,0.527689,-0.515418
4.0744,0.016753,-0.003511,-1.576932,1.566194,0.0000,0.0000,0.0000,-0.005121,-1.576932,1.566194,-0.1552,0.1101,0.3139,0.000000,0.507748,-0.507748,0.512350,-0.512350,0.516952,-0.506214
4.0912,0.016747,-0.003176,-1.576932,1.566194,0.0000,0.0000,0.0000,-0.005321,-1.576932,1.566194,-0.0236,0.2782,0.3814,0.000000,0.503146,-0.503146,0.509282,-0.509282,0.510816,-0.498544
4.1079,0.016751,-0.002841,-1.576932,1.566194,0.0000,0.0000,0.0000,-0.005300,-1.576932,1.566194,-0.0473,0.2426,0.2708,0.000000,0.501612,-0.504680,0.509282,-0.509282,0.510816,-0.498544
4.1247,0.016758,-0.002506,-1.576932,1.566194,0.0000,0.0000,0.0000,-0.005290,-1.576932,1.566194,0.0054,0.2294,0.3342,0.000000,0.503146,-0.504680,0.509282,-0.509282,0.510816,-0.498544
4.1414,0.016751,-0.002171,-1.576932,1.566194,0.0000,0.0000,0.0000,-0.005290,-1.576932,1.566194,0.0054,0.2294,0.3342,0.000000,0.503146,-0.504680,0.509282,-0.509282,0.510816,-0.498544
4.1582,0.016748,-0.001836,-1.576932,1.566194,0.0000,0.0000,0.0000,-0.005291,-1.576932,1.566194,-0.0001,0.2308,0.3276,0.000000,0.503146,-0.504680,0.509282,-0.509282,0.510816,-0.498544
4.1749,0.016748,-0.001501,-1.576932,1.566194,0.0000,0.0000,0.0000,-0.005266,-1.576932,1.566194,0.0607,0.2660,0.3283,0.000000,0.504680,-0.504680,0.509282,-0.510816,0.510816,-0.498544
4.1917,0.016767,-0.001166,-1.576932,1.566194,0.0000,0.0000,0.0000,-0.005230,-1.576932,1.566194,0.0145,0.1933,0.3802,0.000000,0.506214,-0.504680,0.509282,-0.510816,0.512350,-0.500078
4.2084,0.016749,-0.000831,-1.576932,1.566194,0.0000,0.0000,0.0000,-0.005222,-1.576932,1.566194,-0.0203,0.1661,0.4268,0.000000,0.506214,-0.504680,0.509282,-0.510816,0.513884,-0.500078
4.2252,0.016790,-0.000495,-1.576932,1.566194,0.0000,0.0000,0.0000,-0.005148,-1.576932,1.566194,-0.0460,0.2204,0.4221,0.000000,0.506214,-0.506214,0.510816,-0.513884,0.516952,-0.500078
4.2420,0.016755,-0.000160,-1.576932,1.566194,0.0000,0.0000,0.0000,-0.005148,-1.576932,1.566194,-0.0460,0.2204,0.4221,0.000000,0.506214,-0.506214,0.510816,-0.513884,0.516952,-0.500078
4.2587,0.016737,0.000175,-1.576932,1.566194,0.0000,0.0000,0.0000,-0.004992,-1.576932,1.566194,0.0778,0.2861,0.5791,0.000000,0.512350,-0.507748,0.513884,-0.518486,0.520019,-0.501612
4.2755,0.016746,0.000510,-1.576932,1.566194,0.0000,0.0000,0.0000,-0.004682,-1.576932,1.566194,0.1355,0.4714,0.6685,0.000000,0.520019,-0.512350,0.521553,-0.527689,0.526155,-0.506214
4.2924,0.016901,0.000848,-1.576932,1.566194,0.0000,0.0000,0.0000,-0.004337,-1.576932,1.566194,0.1903,0.5206,0.6616,0.000000,0.527689,-0.520019,0.529223,-0.536893,0.533825,-0.512350
4.3091,0.016750,0.001183,-1.576932,1.566194,0.0000,0.0000,0.0000,-0.003947,-1.576932,1.566194,0.2848,0.5855,0.7707,0.000000,0.538427,-0.527689,0.538427,-0.546097,0.541495,-0.520019
4.3259,0.016775,0.001518,-1.576932,1.566194,0.0000,0.0000,0.0000,-0.003475,-1.576932,1.566194,0.2957,0.6820,0.8159,0.000000,0.549165,-0.536893,0.549165,-0.558369,0.552233,-0.529223
4.3426,0.016743,0.001853,-1.576932,1.566194,0.0000,0.0000,0.0000,-0.003475,-1.576932,1.566194,0.2957,0.6820,0.8159,0.000000,0.549165,-0.536893,0.549165,-0.558369,0.552233,-0.529223
4.3594,0.016752,0.002188,-1.576932,1.566194,0.0000,0.0000,0.0000,-0.003000,-1.576932,1.566194,0.3840,0.6881,0.8162,0.000000,0.561437,-0.547631,0.559903,-0.569107,0.561437,-0.539961
4.3761,0.016742,0.002523,-1.576932,1.566194,0.0000,0.0000,0.0000,-0.002502,-1.576932,1.566194,0.4348,0.7211,0.8210,0.000000,0.573709,-0.558369,0.570641,-0.581379,0.572175,-0.550699
4.3929,0.016792,0.002859,-1.576932,1.566194,0.0000,0.0000,0.0000,-0.002132,-1.576932,1.566194,0.4791,0.6986,0.7171,0.000000,0.582913,-0.567573,0.578311,-0.590583,0.579845,-0.559903
4.4097,0.016743,0.003193,-1.576932,1.566194,0.0000,0.0000,0.0000,-0.001701,-1.576932,1.566194,0.5732,0.6681,0.8400,0.000000,0.595185,-0.576777,0.587515,-0.599786,0.589049,-0.569107
4.4264,0.016749,0.003528,-1.576932,1.566194,0.0000,0.0000,0.0000,-0.001277,-1.576932,1.566194,0.6509,0.7901,0.8320,0.000000,0.605922,-0.585981,0.598253,-0.610524,0.596719,-0.578311
4.4432,0.016741,0.003863,-1.576932,1.566194,0.0000,0.0000,0.0000,-0.001277,-1.576932,1.566194,0.6509,0.7901,0.8320,0.000000,0.605922,-0.585981,0.598253,-0.610524,0.596719,-0.578311
4.4599,0.016743,0.004198,-1.576932,1.566194,0.0000,0.0000,0.0000,-0.000842,-1.576932,1.566194,0.7305,0.7915,0.6749,0.000000,0.616660,-0.596719,0.607456,-0.621262,0.604388,-0.589049
4.4766,0.016738,0.004533,-1.576932,1.566194,0.0000,0.0000,0.0000,-0.000396,-1.576932,1.566194,0.7486,0.7718,0.6955,0.000000,0.627398,-0.607456,0.618194,-0.630466,0.613592,-0.599786
4.4934,0.016741,0.004868,-1.576932,1.566194,0.0000,0.0000,0.0000,-0.000002,-1.576932,1.566194,0.7071,0.7038,0.5865,0.000000,0.636602,-0.616660,0.625864,-0.639670,0.622796,-0.610524
4.5102,0.016809,0.004796,-1.576932,1.566194,0.0000,0.0000,0.0000,0.000394,-1.576932,1.566194,0.7976,0.7277,0.6016,0.000000,0.647340,-0.625864,0.635068,-0.648874,0.630466,-0.619728
4.5270,0.016757,0.004461,-1.576932,1.566194,0.0000,0.0000,0.0000,0.000394,-1.576932,1.566194,0.7976,0.7277,0.6016,0.000000,0.647340,-0.625864,0.635068,-0.648874,0.630466,-0.619728
4.5437,0.016742,0.004126,-1.576932,1.566194,0.0000,0.0000,0.0000,0.000826,-1.576932,1.566194,0.8248,0.7879,0.5480,0.000000,0.656544,-0.636602,0.645806,-0.659612,0.639670,-0.628932
4.5604,0.016742,0.003791,-1.576932,1.566194,0.0000,0.0000,0.0000,0.001238,-1.576932,1.566194,0.8797,0.8139,0.5566,0.000000,0.667282,-0.645806,0.655010,-0.670350,0.648874,-0.638136
4.5772,0.016740,0.003456,-1.576932,1.566194,0.0000,0.0000,0.0000,0.001629,-1.576932,1.566194,0.9479,0.8068,0.4474,0.000000,0.676486,-0.656544,0.664214,-0.679553,0.656544,-0.647340
4.5939,0.016749,0.003122,-1.576932,1.566194,0.0000,0.0000,0.0000,0.001981,-1.576932,1.566194,0.9598,0.8065,0.5164,0.000000,0.685689,-0.664214,0.671884,-0.688757,0.665748,-0.655010
4.6107,0.016745,0.002787,-1.576932,1.566194,0.0000,0.0000,0.0000,0.002181,-1.576932,1.566194,1.0924,0.8384,0.3996,0.000000,0.691825,-0.670350,0.676486,-0.694893,0.668816,-0.659612
4.6274,0.016751,0.002452,-1.576932,1.566194,0.0000,0.0000,0.0000,0.002181,-1.576932,1.566194,1.0924,0.8384,0.3996,0.000000,0.691825,-0.670350,0.676486,-0.694893,0.668816,-0.659612
4.6442,0.016741,0.002117,-1.576932,1.566194,0.0000,0.0000,0.0000,0.002219,-1.576932,1.566194,1.1262,0.8513,0.4683,0.000000,0.693359,-0.671884,0.678020,-0.696427,0.670350,-0.659612
4.6609,0.016709,0.001783,-1.576932,1.566194,0.0000,0.0000,0.0000,0.002215,-1.576932,1.566194,1.1227,0.8500,0.4611,0.000000,0.693359,-0.671884,0.678020,-0.696427,0.670350,-0.659612
4.6776,0.016745,0.001448,-1.576932,1.566194,0.0000,0.0000,0.0000,0.002216,-1.576932,1.566194,1.1232,0.8501,0.4621,0.000000,0.693359,-0.671884,0.678020,-0.696427,0.670350,-0.659612
4.6944,0.016749,0.001113,-1.576932,1.566194,0.0000,0.0000,0.0000,0.002183,-1.576932,1.566194,1.0523,0.7663,0.5170,0.000000,0.691825,-0.671884,0.678020,-0.693359,0.670350,-0.659612
4.7112,0.016870,0.000775,-1.576932,1.566194,0.0000,0.0000,0.0000,0.002097,-1.576932,1.566194,0.8451,0.6353,0.3967,0.000000,0.685689,-0.671884,0.676486,-0.688757,0.670350,-0.659612
4.7280,0.016747,0.000440,-1.576932,1.566194,0.0000,0.0000,0.0000,0.002097,-1.576932,1.566194,0.8451,0.6353,0.3967,0.000000,0.685689,-0.671884,0.676486,-0.688757,0.670350,-0.659612
4.7447,0.016743,0.000105,-1.576932,1.566194,0.0000,0.0000,0.0000,0.001883,-1.576932,1.566194,0.5399,0.3456,0.1267,0.000000,0.676486,-0.668816,0.668816,-0.681087,0.668816,-0.659612
4.7615,0.016745,-0.000229,-1.576932,1.566194,0.0000,0.0000,0.0000,0.001501,-1.576932,1.566194,0.2330,0.0922,-0.0691,0.000000,0.664214,-0.661146,0.658078,-0.668816,0.662680,-0.656544
4.7782,0.016742,-0.000564,-1.576932,1.566194,0.0000,0.0000,0.0000,0.001073,-1.576932,1.566194,-0.0859,0.0525,-0.2147,0.000000,0.650408,-0.650408,0.648874,-0.656544,0.653476,-0.651942
4.7950,0.016749,-0.000899,-1.576932,1.566194,0.0000,0.0000,0.0000,0.000610,-1.576932,1.566194,-0.1240,0.1415,-0.3090,0.000000,0.638136,-0.639670,0.639670,-0.645806,0.641204,-0.642738
4.8119,0.016930,-0.001238,-1.576932,1.566194,0.0000,0.0000,0.0000,0.000197,-1.576932,1.566194,-0.1805,0.0990,-0.2978,0.000000,0.627398,-0.630466,0.630466,-0.635068,0.632000,-0.633534
4.8286,0.016744,-0.001573,-1.576932,1.566194,0.0000,0.0000,0.0000,0.000197,-1.576932,1.566194,-0.1805,0.0990,-0.2978,0.000000,0.627398,-0.630466,0.630466,-0.635068,0.632000,-0.633534
4.8454,0.016747,-0.001908,-1.576932,1.566194,0.0000,0.0000,0.0000,-0.000321,-1.576932,1.566194,-0.1927,0.1379,-0.1883,0.000000,0.616660,-0.616660,0.618194,-0.624330,0.621262,-0.621262
4.8621,0.016751,-0.002243,-1.576932,1.566194,0.0000,0.0000,0.0000,-0.000831,-1.576932,1.566194,-0.0664,0.1507,-0.0897,0.000000,0.605922,-0.605922,0.607456,-0.612058,0.608990,-0.607456
4.8789,0.016750,-0.002578,-1.576932,1.566194,0.0000,0.0000,0.0000,-0.001209,-1.576932,1.566194,0.0471,0.2314,0.1712,0.000000,0.596719,-0.598253,0.601320,-0.602854,0.601320,-0.593651
4.8961,0.017258,-0.002923,-1.576932,1.566194,0.0000,0.0000,0.0000,-0.001479,-1.576932,1.566194,0.2443,0.1372,0.3053,0.000000,0.592117,-0.593651,0.593651,-0.596719,0.596719,-0.582913
4.9129,0.016744,-0.003258,-1.576932,1.566194,0.0000,0.0000,0.0000,-0.001810,-1.576932,1.566194,0.2633,0.2477,0.2365,0.000000,0.582913,-0.587515,0.587515,-0.590583,0.589049,-0.573709
4.9296,0.016749,-0.003593,-1.576932,1.566194,0.0000,0.0000,0.0000,-0.001810,-1.576932,1.566194,0.2633,0.2477,0.2365,0.000000,0.582913,-0.587515,0.587515,-0.590583,0.589049,-0.573709
4.9464,0.016748,-0.003928,-1.576932,1.566194,0.0000,0.0000,0.0000,-0.002271,-1.576932,1.566194,0.3014,0.2728,0.3495,0.000000,0.573709,-0.576777,0.578311,-0.579845,0.578311,-0.562971
4.9631,0.016745,-0.004263,-1.576932,1.566194,0.0000,0.0000,0.0000,-0.002819,-1.576932,1.566194,0.2090,0.2899,0.3358,0.000000,0.561437,-0.562971,0.566039,-0.567573,0.566039,-0.552233
4.9799,0.016740,-0.004597,-1.576932,1.566194,0.0000,0.0000,0.0000,-0.003223,-1.576932,1.566194,-0.0206,0.1868,0.1768,0.000000,0.550699,-0.552233,0.555301,-0.556835,0.556835,-0.547631
4.9966,0.016745,-0.004932,-1.576932,1.566194,0.0000,0.0000,0.0000,-0.003569,-1.576932,1.566194,-0.1861,0.1464,0.2454,0.000000,0.541495,-0.543029,0.547631,-0.547631,0.550699,-0.541495
5.0134,0.016745,-0.004733,-1.576932,1.566194,0.0000,0.0000,0.0000,-0.003846,-1.576932,1.566194,-0.2694,0.1171,0.2901,0.000000,0.535359,-0.535359,0.541495,-0.539961,0.544563,-0.536893
5.0301,0.016754,-0.004398,-1.576932,1.566194,0.0000,0.0000,0.0000,-0.003846,-1.576932,1.566194,-0.2694,0.1171,0.2901,0.000000,0.535359,-0.535359,0.541495,-0.539961,0.544563,-0.536893
5.0469,0.016748,-0.004063,-1.576932,1.566194,0.0000,0.0000,0.0000,-0.004332,-1.576932,1.566194,-0.3408,0.0172,0.2319,0.000000,0.524621,-0.524621,0.529223,-0.529223,0.535359,-0.527689
5.0636,0.016762,-0.003728,-1.576932,1.566194,0.0000,0.0000,0.0000,-0.004797,-1.576932,1.566194,-0.2950,0.1661,0.1840,0.000000,0.513884,-0.513884,0.520019,-0.520019,0.523087,-0.516952
5.0804,0.016748,-0.003393,-1.576932,1.566194,0.0000,0.0000,0.0000,-0.005190,-1.576932,1.566194,-0.1100,0.1677,0.1362,0.000000,0.504680,-0.507748,0.510816,-0.512350,0.513884,-0.504680
5.0975,0.017140,-0.003050,-1.576932,1.566194,0.0000,0.0000,0.0000,-0.005326,-1.576932,1.566194,0.0013,0.2889,0.2445,0.000000,0.501612,-0.504680,0.509282,-0.509282,0.509282,-0.498544
5.1143,0.016744,-0.002715,-1.576932,1.566194,0.0000,0.0000,0.0000,-0.005325,-1.576932,1.566194,0.0402,0.2937,0.2850,0.000000,0.501612,-0.504680,0.509282,-0.509282,0.509282,-0.497010
5.1310,0.016758,-0.002380,-1.576932,1.566194,0.0000,0.0000,0.0000,-0.005325,-1.576932,1.566194,0.0402,0.2937,0.2850,0.000000,0.501612,-0.504680,0.509282,-0.509282,0.509282,-0.497010
5.1478,0.016750,-0.002045,-1.576932,1.566194,0.0000,0.0000,0.0000,-0.005313,-1.576932,1.566194,0.0761,0.2582,0.2290,0.000000,0.501612,-0.506214,0.509282,-0.509282,0.509282,-0.497010
5.1645,0.016750,-0.001710,-1.576932,1.566194,0.0000,0.0000,0.0000,-0.005326,-1.576932,1.566194,0.0324,0.2969,0.2866,0.000000,0.501612,-0.504680,0.509282,-0.509282,0.509282,-0.497010
5.1812,0.016738,-0.001375,-1.576932,1.566194,0.0000,0.0000,0.0000,-0.005299,-1.576932,1.566194,-0.0035,0.3277,0.1769,0.000000,0.501612,-0.504680,0.509282,-0.510816,0.509282,-0.498544
5.1980,0.016760,-0.001040,-1.576932,1.566194,0.0000,0.0000,0.0000,-0.005277,-1.576932,1.566194,0.0404,0.3594,0.2922,0.000000,0.503146,-0.504680,0.510816,-0.510816,0.509282,-0.498544
5.2148,0.016787,-0.000704,-1.576932,1.566194,0.0000,0.0000,0.0000,-0.005229,-1.576932,1.566194,0.1259,0.2699,0.2805,0.000000,0.506214,-0.506214,0.510816,-0.510816,0.509282,-0.500078
5.2315,0.016746,-0.000369,-1.576932,1.566194,0.0000,0.0000,0.0000,-0.005229,-1.576932,1.566194,0.1259,0.2699,0.2805,0.000000,0.506214,-0.506214,0.510816,-0.510816,0.509282,-0.500078
5.2483,0.016745,-0.000034,-1.576932,1.566194,0.0000,0.0000,0.0000,-0.005146,-1.576932,1.566194,0.1077,0.2628,0.3336,0.000000,0.509282,-0.506214,0.510816,-0.513884,0.512350,-0.501612
5.2650,0.016759,0.000301,-1.576932,1.566194,0.0000,0.0000,0.0000,-0.004928,-1.576932,1.566194,0.1702,0.3328,0.3288,0.000000,0.513884,-0.510816,0.515418,-0.520019,0.516952,-0.504680
5.2818,0.016743,0.000636,-1.576932,1.566194,0.0000,0.0000,0.0000,-0.004636,-1.576932,1.566194,0.2745,0.3778,0.3826,0.000000,0.521553,-0.516952,0.521553,-0.527689,0.523087,-0.509282
5.2985,0.016758,0.000971,-1.576932,1.566194,0.0000,0.0000,0.0000,-0.004315,-1.576932,1.566194,0.2441,0.3747,0.4831,0.000000,0.530757,-0.521553,0.527689,-0.535359,0.530757,-0.516952
5.3154,0.016851,0.001308,-1.576932,1.566194,0.0000,0.0000,0.0000,-0.003910,-1.576932,1.566194,0.3077,0.4109,0.6327,0.000000,0.541495,-0.529223,0.536893,-0.544563,0.539961,-0.524621
5.3321,0.016737,0.001643,-1.576932,1.566194,0.0000,0.0000,0.0000,-0.003910,-1.576932,1.566194,0.3077,0.4109,0.6327,0.000000,0.541495,-0.529223,0.536893,-0.544563,0.539961,-0.524621
5.3489,0.016744,0.001978,-1.576932,1.566194,0.0000,0.0000,0.0000,-0.003477,-1.576932,1.566194,0.4515,0.4242,0.6203,0.000000,0.552233,-0.539961,0.546097,-0.555301,0.549165,-0.532291
5.3656,0.016752,0.002313,-1.576932,1.566194,0.0000,0.0000,0.0000,-0.002898,-1.576932,1.566194,0.4066,0.6116,0.6254,0.000000,0.564505,-0.550699,0.559903,-0.570641,0.561437,-0.544563
5.3824,0.016745,0.002647,-1.576932,1.566194,0.0000,0.0000,0.0000,-0.002574,-1.576932,1.566194,0.4610,0.5745,0.6811,0.000000,0.573709,-0.558369,0.567573,-0.578311,0.569107,-0.552233
5.3991,0.016756,0.002983,-1.576932,1.566194,0.0000,0.0000,0.0000,-0.001628,-1.576932,1.566194,0.6537,0.6471,0.7372,0.000000,0.596719,-0.578311,0.587515,-0.599786,0.587515,-0.570641
5.4159,0.016752,0.003318,-1.576932,1.566194,0.0000,0.0000,0.0000,-0.001247,-1.576932,1.566194,0.6425,0.6556,0.6809,0.000000,0.607456,-0.587515,0.596719,-0.610524,0.596719,-0.581379
5.4326,0.016754,0.003653,-1.576932,1.566194,0.0000,0.0000,0.0000,-0.001247,-1.576932,1.566194,0.6425,0.6556,0.6809,0.000000,0.607456,-0.587515,0.596719,-0.610524,0.596719,-0.581379
5.4494,0.016746,0.003988,-1.576932,1.566194,0.0000,0.0000,0.0000,-0.001287,-1.576932,1.566194,0.6437,0.6547,0.6868,0.000000,0.607456,-0.587515,0.596719,-0.610524,0.596719,-0.581379
5.4661,0.016757,0.004323,-1.576932,1.566194,0.0000,0.0000,0.0000,-0.000396,-1.576932,1.566194,0.7585,0.7178,0.6935,0.000000,0.625864,-0.607456,0.616660,-0.628932,0.613592,-0.598253
