t,loop_dt,cmd_z,cmd_ant_l,cmd_ant_r,cmd_roll,cmd_pitch,cmd_yaw,pres_z,pres_ant_l,pres_ant_r,pres_roll,pres_pitch,pres_yaw,pres_j0,pres_j1,pres_j2,pres_j3,pres_j4,pres_j5,pres_j6
0.0000,0.000001,-0.005000,-1.573864,1.566194,0.0000,0.0000,0.0000,0.000074,-1.573864,1.566194,0.1351,0.2505,0.0155,-0.001534,0.627398,-0.625864,0.627398,-0.635068,0.630466,-0.621262
0.0168,0.016762,-0.004950,-1.573864,1.566194,0.0000,0.0000,0.0000,-0.000017,-1.573864,1.566194,0.1458,0.2181,-0.0113,0.000000,0.624330,-0.625864,0.625864,-0.632000,0.627398,-0.619728
0.0335,0.016759,-0.004899,-1.573864,1.566194,0.0000,0.0000,0.0000,-0.000017,-1.573864,1.566194,0.1458,0.2181,-0.0113,0.000000,0.624330,-0.625864,0.625864,-0.632000,0.627398,-0.619728
0.0503,0.016806,-0.004849,-1.573864,1.566194,0.0000,0.0000,0.0000,-0.000044,-1.573864,1.566194,0.1618,0.1182,0.0554,0.000000,0.622796,-0.627398,0.625864,-0.628932,0.627398,-0.618194
0.0671,0.016749,-0.004799,-1.573864,1.566194,0.0000,0.0000,0.0000,-0.000102,-1.573864,1.566194,0.0901,0.1126,0.1034,0.000000,0.621262,-0.625864,0.625864,-0.625864,0.625864,-0.618194
0.0839,0.016774,-0.004748,-1.573864,1.566194,0.0000,0.0000,0.0000,-0.000474,-1.573864,1.566194,0.0803,0.1485,0.0434,0.000000,0.613592,-0.616660,0.616660,-0.619728,0.618194,-0.610524
0.1007,0.016837,-0.004698,-1.573864,1.566194,0.0000,0.0000,0.0000,-0.001822,-1.573864,1.566194,0.0321,0.1308,-0.0047,0.000000,0.584447,-0.587515,0.587515,-0.590583,0.589049,-0.582913
0.1175,0.016771,-0.004648,-1.573864,1.566194,0.0000,0.0000,0.0000,-0.001822,-1.573864,1.566194,0.0321,0.1308,-0.0047,0.000000,0.584447,-0.587515,0.587515,-0.590583,0.589049,-0.582913
0.1342,0.016750,-0.004597,-1.573864,1.566194,0.0000,0.0000,0.0000,-0.003223,-1.573864,1.566194,-0.0106,0.2554,0.1055,0.000000,0.553767,-0.552233,0.555301,-0.561437,0.558369,-0.550699
0.1510,0.016776,-0.004547,-1.573864,1.566194,0.0000,0.0000,0.0000,-0.004482,-1.573864,1.566194,-0.0370,0.2624,0.0928,0.000000,0.524621,-0.523087,0.526155,-0.533825,0.530757,-0.521553
0.1677,0.016760,-0.004497,-1.573864,1.566194,0.0000,0.0000,0.0000,-0.005247,-1.573864,1.566194,-0.0954,0.2285,0.2488,0.000000,0.506214,-0.504680,0.509282,-0.513884,0.513884,-0.503146
0.1857,0.017946,-0.004443,-1.573864,1.566194,0.0000,0.0000,0.0000,-0.005636,-1.573864,1.566194,-0.1000,0.1803,0.2835,0.000000,0.497010,-0.495476,0.500078,-0.503146,0.504680,-0.493942
0.2024,0.016753,-0.004393,-1.573864,1.566194,0.0000,0.0000,0.0000,-0.005659,-1.573864,1.566194,-0.1998,0.2195,0.3313,0.000000,0.493942,-0.493942,0.500078,-0.501612,0.504680,-0.492408
0.2192,0.016777,-0.004342,-1.573864,1.566194,0.0000,0.0000,0.0000,-0.005644,-1.573864,1.566194,-0.1391,0.1984,0.3780,0.000000,0.495476,-0.493942,0.500078,-0.501612,0.504680,-0.492408
0.2360,0.016748,-0.004292,-1.573864,1.566194,0.0000,0.0000,0.0000,-0.005644,-1.573864,1.566194,-0.1391,0.1984,0.3780,0.000000,0.495476,-0.493942,0.500078,-0.501612,0.504680,-0.492408
0.2527,0.016766,-0.004242,-1.573864,1.566194,0.0000,0.0000,0.0000,-0.005658,-1.573864,1.566194,-0.1957,0.2175,0.3215,0.000000,0.493942,-0.493942,0.500078,-0.501612,0.504680,-0.492408
0.2695,0.016751,-0.004192,-1.573864,1.566194,0.0000,0.0000,0.0000,-0.005644,-1.573864,1.566194,-0.1798,0.2678,0.2755,0.000000,0.493942,-0.493942,0.500078,-0.503146,0.504680,-0.492408
0.2863,0.016769,-0.004141,-1.573864,1.566194,0.0000,0.0000,0.0000,-0.005646,-1.573864,1.566194,-0.1412,0.1934,0.3838,0.000000,0.495476,-0.493942,0.500078,-0.501612,0.504680,-0.492408
0.3030,0.016747,-0.004091,-1.573864,1.566194,0.0000,0.0000,0.0000,-0.005645,-1.573864,1.566194,-0.1452,0.2011,0.3725,0.000000,0.495476,-0.493942,0.500078,-0.501612,0.504680,-0.492408
0.3198,0.016761,-0.004041,-1.573864,1.566194,0.0000,0.0000,0.0000,-0.005645,-1.573864,1.566194,-0.1452,0.2011,0.3725,0.000000,0.493942,-0.493942,0.500078,-0.503146,0.504680,-0.492408
0.3366,0.016789,-0.003990,-1.573864,1.566194,0.0000,0.0000,0.0000,-0.005645,-1.573864,1.566194,-0.1851,0.2695,0.2702,0.000000,0.493942,-0.493942,0.500078,-0.503146,0.504680,-0.492408
0.3533,0.016760,-0.003940,-1.573864,1.566194,0.0000,0.0000,0.0000,-0.005658,-1.573864,1.566194,-0.1909,0.2102,0.3327,0.000000,0.493942,-0.493942,0.500078,-0.501612,0.504680,-0.492408
0.3701,0.016749,-0.003890,-1.573864,1.566194,0.0000,0.0000,0.0000,-0.005644,-1.573864,1.566194,-0.1400,0.1994,0.3779,0.000000,0.495476,-0.493942,0.500078,-0.501612,0.504680,-0.492408
0.3868,0.016761,-0.003840,-1.573864,1.566194,0.0000,0.0000,0.0000,-0.005633,-1.573864,1.566194,-0.1353,0.2527,0.3214,0.000000,0.495476,-0.493942,0.500078,-0.503146,0.504680,-0.492408
0.4036,0.016754,-0.003789,-1.573864,1.566194,0.0000,0.0000,0.0000,-0.005647,-1.573864,1.566194,-0.1861,0.2641,0.2756,0.000000,0.493942,-0.493942,0.500078,-0.503146,0.504680,-0.492408
0.4204,0.016775,-0.003739,-1.573864,1.566194,0.0000,0.0000,0.0000,-0.005647,-1.573864,1.566194,-0.1861,0.2641,0.2756,0.000000,0.493942,-0.493942,0.500078,-0.503146,0.504680,-0.492408
0.4371,0.016760,-0.003689,-1.573864,1.566194,0.0000,0.0000,0.0000,-0.005645,-1.573864,1.566194,-0.1808,0.2629,0.2803,0.000000,0.493942,-0.493942,0.500078,-0.503146,0.504680,-0.492408
0.4539,0.016763,-0.003638,-1.573864,1.566194,0.0000,0.0000,0.0000,-0.005633,-1.573864,1.566194,-0.1311,0.2461,0.3315,0.000000,0.495476,-0.493942,0.500078,-0.503146,0.504680,-0.492408
0.4706,0.016756,-0.003588,-1.573864,1.566194,0.0000,0.0000,0.0000,-0.005634,-1.573864,1.566194,-0.1363,0.2479,0.3262,0.000000,0.495476,-0.493942,0.500078,-0.503146,0.504680,-0.492408
0.4874,0.016763,-0.003538,-1.573864,1.566194,0.0000,0.0000,0.0000,-0.005634,-1.573864,1.566194,-0.1363,0.2479,0.3262,0.000000,0.495476,-0.493942,0.500078,-0.503146,0.504680,-0.492408
0.5041,0.016755,-0.003488,-1.573864,1.566194,0.0000,0.0000,0.0000,-0.005634,-1.573864,1.566194,-0.1363,0.2479,0.3262,0.000000,0.495476,-0.493942,0.500078,-0.503146,0.504680,-0.492408
0.5209,0.016772,-0.003437,-1.573864,1.566194,0.0000,0.0000,0.0000,-0.005634,-1.573864,1.566194,-0.1363,0.2479,0.3262,0.000000,0.495476,-0.493942,0.500078,-0.503146,0.504680,-0.492408
0.5377,0.016755,-0.003387,-1.573864,1.566194,0.0000,0.0000,0.0000,-0.005647,-1.573864,1.566194,-0.1860,0.2646,0.2751,0.000000,0.493942,-0.493942,0.500078,-0.503146,0.504680,-0.492408
0.5544,0.016766,-0.003337,-1.573864,1.566194,0.0000,0.0000,0.0000,-0.005633,-1.573864,1.566194,-0.1305,0.2459,0.3321,0.000000,0.495476,-0.493942,0.500078,-0.503146,0.504680,-0.492408
0.5712,0.016759,-0.003286,-1.573864,1.566194,0.0000,0.0000,0.0000,-0.005634,-1.573864,1.566194,-0.1363,0.2479,0.3261,0.000000,0.495476,-0.493942,0.500078,-0.503146,0.504680,-0.492408
0.5880,0.016764,-0.003236,-1.573864,1.566194,0.0000,0.0000,0.0000,-0.005634,-1.573864,1.566194,-0.1363,0.2479,0.3261,0.000000,0.495476,-0.493942,0.500078,-0.503146,0.504680,-0.492408
0.6047,0.016760,-0.003186,-1.573864,1.566194,0.0000,0.0000,0.0000,-0.005634,-1.573864,1.566194,-0.1363,0.2479,0.3261,0.000000,0.495476,-0.493942,0.500078,-0.503146,0.504680,-0.492408
0.6215,0.016759,-0.003136,-1.573864,1.566194,0.0000,0.0000,0.0000,-0.005634,-1.573864,1.566194,-0.1363,0.2479,0.3261,0.000000,0.495476,-0.493942,0.500078,-0.503146,0.504680,-0.492408
0.6382,0.016752,-0.003085,-1.573864,1.566194,0.0000,0.0000,0.0000,-0.005621,-1.573864,1.566194,-0.1459,0.2996,0.3784,0.000000,0.495476,-0.493942,0.501612,-0.503146,0.504680,-0.492408
0.6550,0.016725,-0.003035,-1.573864,1.566194,0.0000,0.0000,0.0000,-0.005610,-1.573864,1.566194,-0.1551,0.3461,0.4246,0.000000,0.495476,-0.493942,0.503146,-0.503146,0.504680,-0.492408
0.6717,0.016753,-0.002985,-1.573864,1.566194,0.0000,0.0000,0.0000,-0.005611,-1.573864,1.566194,-0.1541,0.3412,0.4198,0.000000,0.495476,-0.493942,0.503146,-0.503146,0.504680,-0.492408
0.6885,0.016757,-0.002935,-1.573864,1.566194,0.0000,0.0000,0.0000,-0.005598,-1.573864,1.566194,-0.1442,0.3940,0.3684,0.000000,0.495476,-0.493942,0.503146,-0.504680,0.504680,-0.492408
0.7052,0.016756,-0.002884,-1.573864,1.566194,0.0000,0.0000,0.0000,-0.005600,-1.573864,1.566194,-0.1452,0.3885,0.3738,0.000000,0.495476,-0.493942,0.503146,-0.504680,0.504680,-0.492408
0.7220,0.016752,-0.002834,-1.573864,1.566194,0.0000,0.0000,0.0000,-0.005600,-1.573864,1.566194,-0.1452,0.3885,0.3738,0.000000,0.495476,-0.493942,0.503146,-0.504680,0.504680,-0.492408
0.7387,0.016755,-0.002784,-1.573864,1.566194,0.0000,0.0000,0.0000,-0.005587,-1.573864,1.566194,-0.1049,0.3540,0.3219,0.000000,0.495476,-0.495476,0.503146,-0.504680,0.504680,-0.492408
0.7555,0.016756,-0.002734,-1.573864,1.566194,0.0000,0.0000,0.0000,-0.005538,-1.573864,1.566194,0.0115,0.4281,0.3272,0.000000,0.498544,-0.495476,0.503146,-0.507748,0.504680,-0.492408
0.7722,0.016757,-0.002683,-1.573864,1.566194,0.0000,0.0000,0.0000,-0.005531,-1.575398,1.566194,0.0095,0.4724,0.2747,0.000000,0.498544,-0.495476,0.503146,-0.509282,0.504680,-0.492408
0.7890,0.016756,-0.002633,-1.573864,1.566194,0.0000,0.0000,0.0000,-0.005507,-1.573864,1.566194,-0.0200,0.4852,0.2800,0.000000,0.498544,-0.495476,0.503146,-0.510816,0.506214,-0.492408
0.8058,0.016763,-0.002583,-1.573864,1.566194,0.0000,0.0000,0.0000,-0.005497,-1.573864,1.566194,-0.0068,0.5358,0.2275,0.000000,0.498544,-0.495476,0.503146,-0.512350,0.506214,-0.492408
0.8225,0.016757,-0.002532,-1.573864,1.566194,0.0000,0.0000,0.0000,-0.005497,-1.573864,1.566194,-0.0068,0.5358,0.2275,0.000000,0.498544,-0.495476,0.503146,-0.512350,0.506214,-0.492408
0.8393,0.016758,-0.002482,-1.573864,1.566194,0.0000,0.0000,0.0000,-0.005473,-1.573864,1.566194,0.0122,0.6344,0.1290,0.000000,0.498544,-0.495476,0.503146,-0.515418,0.506214,-0.492408
0.8561,0.016834,-0.002432,-1.573864,1.566194,0.0000,0.0000,0.0000,-0.005451,-1.573864,1.566194,-0.0195,0.6414,0.1388,0.000000,0.498544,-0.495476,0.503146,-0.516952,0.507748,-0.492408
0.8729,0.016757,-0.002381,-1.573864,1.566194,0.0000,0.0000,0.0000,-0.005417,-1.573864,1.566194,-0.0358,0.7097,0.0852,0.000000,0.498544,-0.495476,0.503146,-0.520019,0.509282,-0.492408
0.8896,0.016752,-0.002331,-1.573864,1.566194,0.0000,0.0000,0.0000,-0.005408,-1.573864,1.566194,-0.0239,0.7543,0.0387,0.000000,0.498544,-0.495476,0.503146,-0.521553,0.509282,-0.492408
0.9064,0.016763,-0.002281,-1.573864,1.566194,0.0000,0.0000,0.0000,-0.005360,-1.573864,1.566194,-0.0849,0.7841,0.0425,0.000000,0.498544,-0.495476,0.503146,-0.524621,0.512350,-0.492408
0.9231,0.016761,-0.002231,-1.573864,1.566194,0.0000,0.0000,0.0000,-0.005360,-1.573864,1.566194,-0.0849,0.7841,0.0425,0.000000,0.498544,-0.495476,0.503146,-0.524621,0.512350,-0.492408
0.9399,0.016753,-0.002180,-1.573864,1.566194,0.0000,0.0000,0.0000,-0.005302,-1.573864,1.566194,-0.1183,0.9544,0.0926,0.000000,0.498544,-0.495476,0.506214,-0.527689,0.513884,-0.492408
0.9567,0.016767,-0.002130,-1.573864,1.566194,0.0000,0.0000,0.0000,-0.005259,-1.573864,1.566194,-0.1342,0.9030,0.1907,0.000000,0.500078,-0.495476,0.506214,-0.529223,0.516952,-0.492408
0.9735,0.016843,-0.002079,-1.573864,1.566194,0.0000,0.0000,0.0000,-0.005215,-1.573864,1.566194,-0.0719,1.0475,0.1795,0.000000,0.501612,-0.495476,0.507748,-0.532291,0.516952,-0.492408
0.9903,0.016757,-0.002029,-1.573864,1.566194,0.0000,0.0000,0.0000,-0.005121,-1.573864,1.566194,0.0432,0.9989,0.1810,0.000000,0.506214,-0.497010,0.507748,-0.535359,0.518486,-0.493942
1.0070,0.016762,-0.001979,-1.573864,1.566194,0.0000,0.0000,0.0000,-0.005043,-1.573864,1.566194,0.0817,0.9875,0.2333,0.000000,0.509282,-0.498544,0.509282,-0.536893,0.520019,-0.495476
1.0238,0.016754,-0.001929,-1.573864,1.566194,0.0000,0.0000,0.0000,-0.005043,-1.573864,1.566194,0.0817,0.9875,0.2333,0.000000,0.509282,-0.498544,0.509282,-0.536893,0.520019,-0.495476
1.0405,0.016713,-0.001879,-1.573864,1.566194,0.0000,0.0000,0.0000,-0.004913,-1.573864,1.566194,0.0782,0.9562,0.3847,0.000000,0.513884,-0.500078,0.512350,-0.538427,0.523087,-0.498544
1.0572,0.016748,-0.001828,-1.573864,1.566194,0.0000,0.0000,0.0000,-0.004800,-1.573864,1.566194,0.1187,0.9610,0.4741,0.000000,0.518486,-0.501612,0.515418,-0.539961,0.524621,-0.501612
1.0740,0.016751,-0.001778,-1.573864,1.566194,0.0000,0.0000,0.0000,-0.004659,-1.573864,1.566194,0.1738,0.9944,0.4668,0.000000,0.523087,-0.504680,0.520019,-0.541495,0.524621,-0.506214
1.0908,0.016758,-0.001728,-1.573864,1.566194,0.0000,0.0000,0.0000,-0.004598,-1.573864,1.566194,0.2371,1.0090,0.5736,0.000000,0.526155,-0.506214,0.523087,-0.541495,0.524621,-0.507748
1.1075,0.016757,-0.001677,-1.573864,1.566194,0.0000,0.0000,0.0000,-0.004598,-1.573864,1.566194,0.2371,1.0090,0.5736,0.000000,0.529223,-0.509282,0.526155,-0.541495,0.524621,-0.510816
1.1243,0.016783,-0.001627,-1.573864,1.566194,0.0000,0.0000,0.0000,-0.004502,-1.573864,1.566194,0.2894,0.9718,0.5646,0.000000,0.529223,-0.509282,0.526155,-0.541495,0.524621,-0.510816
1.1411,0.016759,-0.001577,-1.573864,1.566194,0.0000,0.0000,0.0000,-0.004410,-1.573864,1.566194,0.3426,0.9402,0.5678,0.000000,0.532291,-0.512350,0.529223,-0.541495,0.524621,-0.513884
1.1578,0.016755,-0.001527,-1.573864,1.566194,0.0000,0.0000,0.0000,-0.004319,-1.573864,1.566194,0.4172,0.9081,0.4645,0.000000,0.535359,-0.515418,0.530757,-0.543029,0.524621,-0.516952
1.1746,0.016760,-0.001476,-1.573864,1.566194,0.0000,0.0000,0.0000,-0.004240,-1.573864,1.566194,0.4789,0.9619,0.4245,0.000000,0.536893,-0.518486,0.533825,-0.544563,0.524621,-0.518486
1.1916,0.017013,-0.001425,-1.573864,1.566194,0.0000,0.0000,0.0000,-0.004148,-1.573864,1.566194,0.4722,0.9220,0.4293,0.000000,0.539961,-0.520019,0.535359,-0.546097,0.526155,-0.521553
1.2083,0.016741,-0.001375,-1.573864,1.566194,0.0000,0.0000,0.0000,-0.004148,-1.573864,1.566194,0.4722,0.9220,0.4293,0.000000,0.539961,-0.520019,0.535359,-0.546097,0.526155,-0.521553
1.2251,0.016758,-0.001325,-1.573864,1.566194,0.0000,0.0000,0.0000,-0.004107,-1.573864,1.566194,0.5240,0.8729,0.3240,0.000000,0.539961,-0.523087,0.535359,-0.547631,0.527689,-0.521553
1.2418,0.016754,-0.001274,-1.573864,1.566194,0.0000,0.0000,0.0000,-0.004048,-1.573864,1.566194,0.5585,0.7392,0.2829,0.000000,0.541495,-0.526155,0.535359,-0.547631,0.529223,-0.523087
1.2586,0.016759,-0.001224,-1.573864,1.566194,0.0000,0.0000,0.0000,-0.004004,-1.573864,1.566194,0.6155,0.7188,0.2873,0.000000,0.543029,-0.527689,0.535359,-0.549165,0.530757,-0.523087
1.2754,0.016761,-0.001174,-1.573864,1.566194,0.0000,0.0000,0.0000,-0.003959,-1.573864,1.566194,0.4903,0.6862,0.2857,0.000000,0.543029,-0.527689,0.535359,-0.550699,0.533825,-0.524621
1.2924,0.017012,-0.001123,-1.573864,1.566194,0.0000,0.0000,0.0000,-0.003940,-1.573864,1.566194,0.4450,0.7937,0.2848,0.000000,0.543029,-0.526155,0.535359,-0.553767,0.535359,-0.524621
1.3091,0.016764,-0.001073,-1.573864,1.566194,0.0000,0.0000,0.0000,-0.003940,-1.573864,1.566194,0.4450,0.7937,0.2848,0.000000,0.543029,-0.526155,0.535359,-0.553767,0.535359,-0.524621
1.3259,0.016756,-0.001022,-1.573864,1.566194,0.0000,0.0000,0.0000,-0.003906,-1.573864,1.566194,0.4311,0.8510,0.2315,0.000000,0.543029,-0.526155,0.535359,-0.556835,0.536893,-0.524621
1.3426,0.016755,-0.000972,-1.573864,1.566194,0.0000,0.0000,0.0000,-0.003873,-1.573864,1.566194,0.3633,0.8282,0.2886,0.000000,0.543029,-0.526155,0.535359,-0.558369,0.539961,-0.524621
1.3594,0.016759,-0.000922,-1.573864,1.566194,0.0000,0.0000,0.0000,-0.003852,-1.573864,1.566194,0.3411,0.8478,0.2820,0.000000,0.543029,-0.526155,0.535359,-0.559903,0.541495,-0.524621
1.3762,0.016756,-0.000872,-1.573864,1.566194,0.0000,0.0000,0.0000,-0.003806,-1.573864,1.566194,0.2849,0.8802,0.2814,0.000000,0.543029,-0.526155,0.535359,-0.562971,0.544563,-0.524621
1.3929,0.016770,-0.000821,-1.573864,1.566194,0.0000,0.0000,0.0000,-0.003806,-1.573864,1.566194,0.2849,0.8802,0.2814,0.000000,0.543029,-0.527689,0.535359,-0.564505,0.546097,-0.524621
1.4097,0.016760,-0.000771,-1.573864,1.566194,0.0000,0.0000,0.0000,-0.003774,-1.573864,1.566194,0.3012,0.8584,0.2287,0.000000,0.543029,-0.527689,0.535359,-0.564505,0.546097,-0.524621
1.4264,0.016756,-0.000721,-1.573864,1.566194,0.0000,0.0000,0.0000,-0.003779,-1.573864,1.566194,0.2704,0.9475,0.2332,0.000000,0.543029,-0.526155,0.535359,-0.566039,0.546097,-0.524621
1.4432,0.016762,-0.000670,-1.573864,1.566194,0.0000,0.0000,0.0000,-0.003743,-1.573864,1.566194,0.2548,1.0066,0.1788,0.000000,0.543029,-0.526155,0.535359,-0.569107,0.547631,-0.524621
1.4600,0.016756,-0.000620,-1.573864,1.566194,0.0000,0.0000,0.0000,-0.003723,-1.573864,1.566194,0.2271,1.0176,0.1837,0.000000,0.543029,-0.526155,0.535359,-0.570641,0.549165,-0.524621
1.4767,0.016757,-0.000570,-1.573864,1.566194,0.0000,0.0000,0.0000,-0.003700,-1.573864,1.566194,0.2297,0.9467,0.1836,0.000000,0.543029,-0.527689,0.535359,-0.570641,0.550699,-0.524621
1.4935,0.016762,-0.000520,-1.573864,1.566194,0.0000,0.0000,0.0000,-0.003700,-1.573864,1.566194,0.2297,0.9467,0.1836,0.000000,0.543029,-0.527689,0.535359,-0.570641,0.550699,-0.524621
1.5102,0.016755,-0.000469,-1.573864,1.566194,0.0000,0.0000,0.0000,-0.003692,-1.573864,1.566194,0.1605,1.0072,0.2350,0.000000,0.543029,-0.526155,0.535359,-0.572175,0.552233,-0.524621
1.5270,0.016754,-0.000419,-1.573864,1.566194,0.0000,0.0000,0.0000,-0.003654,-1.573864,1.566194,0.1575,1.1560,0.2815,0.000000,0.543029,-0.526155,0.538427,-0.573709,0.552233,-0.524621
1.5438,0.016767,-0.000369,-1.573864,1.566194,0.0000,0.0000,0.0000,-0.003593,-1.573864,1.566194,0.1267,1.2624,0.4351,0.000000,0.544563,-0.526155,0.543029,-0.573709,0.552233,-0.526155
1.5605,0.016754,-0.000318,-1.573864,1.566194,0.0000,0.0000,0.0000,-0.003487,-1.573864,1.566194,0.1197,1.3046,0.4725,0.000000,0.549165,-0.526155,0.546097,-0.575243,0.552233,-0.530757
1.5773,0.016772,-0.000268,-1.573864,1.566194,0.0000,0.0000,0.0000,-0.003487,-1.573864,1.566194,0.1197,1.3046,0.4725,0.000000,0.552233,-0.526155,0.550699,-0.576777,0.553767,-0.533825
1.5940,0.016759,-0.000218,-1.573864,1.566194,0.0000,0.0000,0.0000,-0.003385,-1.573864,1.566194,0.0592,1.4051,0.6271,0.000000,0.552233,-0.526155,0.550699,-0.576777,0.553767,-0.533825
1.6108,0.016755,-0.000168,-1.573864,1.566194,0.0000,0.0000,0.0000,-0.003245,-1.573864,1.566194,0.0725,1.5149,0.7188,0.000000,0.556835,-0.527689,0.556835,-0.578311,0.553767,-0.538427
1.6276,0.016753,-0.000117,-1.573864,1.566194,0.0000,0.0000,0.0000,-0.003074,-1.573864,1.566194,0.2110,1.4355,0.7660,0.000000,0.562971,-0.532291,0.559903,-0.581379,0.556835,-0.541495
1.6444,0.016872,-0.000067,-1.573864,1.566194,0.0000,0.0000,0.0000,-0.002954,-1.573864,1.566194,0.2142,1.3406,0.8172,0.000000,0.567573,-0.535359,0.562971,-0.581379,0.558369,-0.546097
1.6612,0.016748,-0.000016,-1.573864,1.566194,0.0000,0.0000,0.0000,-0.002803,-1.573864,1.566194,0.2544,1.1780,0.7615,0.000000,0.572175,-0.539961,0.564505,-0.582913,0.561437,-0.550699
1.6779,0.016759,0.000034,-1.573864,1.566194,0.0000,0.0000,0.0000,-0.002681,-1.573864,1.566194,0.3191,1.1415,0.7169,0.000000,0.575243,-0.544563,0.567573,-0.584447,0.562971,-0.553767
1.6947,0.016746,0.000084,-1.573864,1.566194,0.0000,0.0000,0.0000,-0.002681,-1.573864,1.566194,0.3191,1.1415,0.7169,0.000000,0.575243,-0.544563,0.567573,-0.584447,0.562971,-0.553767
1.7114,0.016745,0.000134,-1.573864,1.566194,0.0000,0.0000,0.0000,-0.002591,-1.573864,1.566194,0.3318,1.0051,0.6169,0.000000,0.576777,-0.549165,0.569107,-0.584447,0.564505,-0.556835
1.7282,0.016740,0.000184,-1.573864,1.566194,0.0000,0.0000,0.0000,-0.002501,-1.573864,1.566194,0.4484,1.0533,0.6298,0.000000,0.579845,-0.552233,0.572175,-0.585981,0.564505,-0.558369
1.7449,0.016745,0.000235,-1.573864,1.566194,0.0000,0.0000,0.0000,-0.002434,-1.573864,1.566194,0.3883,0.9594,0.4147,0.000000,0.579845,-0.555301,0.572175,-0.587515,0.566039,-0.561437
1.7618,0.016923,0.000285,-1.573864,1.566194,0.0000,0.0000,0.0000,-0.002414,-1.573864,1.566194,0.4741,0.8988,0.3313,0.000000,0.579845,-0.558369,0.572175,-0.587515,0.566039,-0.561437
1.7786,0.016757,0.000336,-1.573864,1.566194,0.0000,0.0000,0.0000,-0.002366,-1.573864,1.566194,0.5157,0.8516,0.2333,0.000000,0.579845,-0.561437,0.572175,-0.589049,0.567573,-0.561437
1.7953,0.016742,0.000386,-1.573864,1.566194,0.0000,0.0000,0.0000,-0.002366,-1.573864,1.566194,0.5157,0.8516,0.2333,0.000000,0.579845,-0.561437,0.572175,-0.589049,0.567573,-0.561437
1.8121,0.016745,0.000436,-1.573864,1.566194,0.0000,0.0000,0.0000,-0.002346,-1.573864,1.566194,0.5617,0.8721,0.1368,0.000000,0.579845,-0.562971,0.572175,-0.590583,0.567573,-0.561437
1.8288,0.016745,0.000486,-1.573864,1.566194,0.0000,0.0000,0.0000,-0.002337,-1.573864,1.566194,0.5679,0.9208,0.0932,0.000000,0.579845,-0.562971,0.572175,-0.592117,0.567573,-0.561437
1.8456,0.016796,0.000537,-1.573864,1.566194,0.0000,0.0000,0.0000,-0.002326,-1.575398,1.566194,0.5783,0.9665,0.0441,0.000000,0.579845,-0.562971,0.572175,-0.593651,0.567573,-0.561437
1.8624,0.016746,0.000587,-1.573864,1.566194,0.0000,0.0000,0.0000,-0.002316,-1.573864,1.566194,0.5883,1.0124,-0.0045,0.000000,0.579845,-0.562971,0.572175,-0.595185,0.567573,-0.561437
1.8791,0.016750,0.000637,-1.573864,1.566194,0.0000,0.0000,0.0000,-0.002330,-1.573864,1.566194,0.6367,1.0252,0.0543,0.000000,0.579845,-0.562971,0.572175,-0.595185,0.567573,-0.559903
1.8958,0.016740,0.000688,-1.573864,1.566194,0.0000,0.0000,0.0000,-0.002330,-1.573864,1.566194,0.6367,1.0252,0.0543,0.000000,0.579845,-0.562971,0.572175,-0.595185,0.567573,-0.559903
1.9126,0.016742,0.000738,-1.573864,1.566194,0.0000,0.0000,0.0000,-0.002304,-1.573864,1.566194,0.5933,1.0569,-0.0593,0.000000,0.579845,-0.562971,0.572175,-0.596719,0.567573,-0.561437
1.9293,0.016744,0.000788,-1.573864,1.566194,0.0000,0.0000,0.0000,-0.002295,-1.573864,1.566194,0.6090,1.1042,-0.1012,0.000000,0.579845,-0.562971,0.572175,-0.598253,0.567573,-0.561437
1.9461,0.016758,0.000838,-1.573864,1.566194,0.0000,0.0000,0.0000,-0.002298,-1.573864,1.566194,0.6679,1.1674,-0.0968,0.000000,0.579845,-0.562971,0.572175,-0.599786,0.567573,-0.559903
1.9630,0.016869,0.000889,-1.573864,1.566194,0.0000,0.0000,0.0000,-0.002285,-1.573864,1.566194,0.6124,1.1432,-0.1510,0.000000,0.579845,-0.562971,0.572175,-0.599786,0.567573,-0.561437
1.9797,0.016750,0.000939,-1.573864,1.566194,0.0000,0.0000,0.0000,-0.002263,-1.573864,1.566194,0.7176,1.1143,-0.0371,0.000000,0.582913,-0.562971,0.572175,-0.599786,0.567573,-0.561437
1.9965,0.016742,0.000989,-1.573864,1.566194,0.0000,0.0000,0.0000,-0.002263,-1.573864,1.566194,0.7176,1.1143,-0.0371,0.000000,0.582913,-0.562971,0.572175,-0.599786,0.567573,-0.561437
2.0132,0.016746,0.001040,-1.573864,1.566194,0.0000,0.0000,0.0000,-0.002230,-1.573864,1.566194,0.7566,1.0685,0.0055,0.000000,0.585981,-0.562971,0.572175,-0.599786,0.567573,-0.562971
2.0300,0.016778,0.001090,-1.573864,1.566194,0.0000,0.0000,0.0000,-0.002138,-1.575398,1.566194,0.8525,1.0776,0.1104,0.000000,0.592117,-0.562971,0.573709,-0.601320,0.567573,-0.566039
2.0467,0.016753,0.001140,-1.573864,1.566194,0.0000,0.0000,0.0000,-0.002063,-1.573864,1.566194,0.8827,1.0768,0.0472,0.000000,0.595185,-0.564505,0.575243,-0.602854,0.567573,-0.569107
2.0635,0.016751,0.001190,-1.573864,1.566194,0.0000,0.0000,0.0000,-0.002063,-1.573864,1.566194,0.8827,1.0768,0.0472,0.000000,0.599786,-0.569107,0.578311,-0.605922,0.572175,-0.573709
2.0802,0.016759,0.001241,-1.573864,1.566194,0.0000,0.0000,0.0000,-0.001872,-1.573864,1.566194,0.8789,0.9739,0.0538,0.000000,0.599786,-0.569107,0.578311,-0.605922,0.572175,-0.573709
2.0970,0.016746,0.001291,-1.573864,1.566194,0.0000,0.0000,0.0000,-0.001694,-1.573864,1.566194,0.7901,0.8995,0.0524,0.000000,0.604388,-0.572175,0.581379,-0.608990,0.576777,-0.579845
2.1137,0.016752,0.001341,-1.573864,1.566194,0.0000,0.0000,0.0000,-0.001551,-1.573864,1.566194,0.8386,0.8715,-0.0009,0.000000,0.607456,-0.576777,0.584447,-0.612058,0.579845,-0.582913
2.1305,0.016742,0.001391,-1.573864,1.566194,0.0000,0.0000,0.0000,-0.001365,-1.573864,1.566194,0.8100,0.9078,0.1126,0.000000,0.610524,-0.581379,0.590583,-0.615126,0.584447,-0.585981
2.1472,0.016745,0.001442,-1.573864,1.566194,0.0000,0.0000,0.0000,-0.001259,-1.573864,1.566194,0.7613,0.8522,0.2080,0.000000,0.612058,-0.584447,0.593651,-0.616660,0.589049,-0.587515
2.1640,0.016749,0.001492,-1.573864,1.566194,0.0000,0.0000,0.0000,-0.001157,-1.573864,1.566194,0.7168,0.9056,0.1432,0.000000,0.612058,-0.587515,0.596719,-0.619728,0.592117,-0.589049
2.1807,0.016754,0.001542,-1.573864,1.566194,0.0000,0.0000,0.0000,-0.001157,-1.573864,1.566194,0.7168,0.9056,0.1432,0.000000,0.612058,-0.587515,0.596719,-0.619728,0.592117,-0.589049
2.1975,0.016744,0.001592,-1.573864,1.566194,0.0000,0.0000,0.0000,-0.001068,-1.573864,1.566194,0.7589,0.8992,0.2585,0.000000,0.613592,-0.590583,0.599786,-0.621262,0.595185,-0.589049
2.2142,0.016751,0.001643,-1.573864,1.566194,0.0000,0.0000,0.0000,-0.000977,-1.573864,1.566194,0.7824,0.9153,0.2472,0.000000,0.615126,-0.593651,0.602854,-0.622796,0.596719,-0.590583
2.2310,0.016744,0.001693,-1.573864,1.566194,0.0000,0.0000,0.0000,-0.000949,-1.573864,1.566194,0.7185,0.9817,0.4110,0.000000,0.615126,-0.593651,0.605922,-0.622796,0.598253,-0.590583
2.2477,0.016751,0.001743,-1.573864,1.566194,0.0000,0.0000,0.0000,-0.000914,-1.573864,1.566194,0.7643,1.0407,0.3403,0.000000,0.615126,-0.595185,0.607456,-0.624330,0.598253,-0.590583
2.2645,0.016743,0.001793,-1.573864,1.566194,0.0000,0.0000,0.0000,-0.000879,-1.575398,1.566194,0.8266,1.0151,0.2943,0.000000,0.615126,-0.598253,0.608990,-0.624330,0.598253,-0.590583
2.2812,0.016752,0.001844,-1.573864,1.566194,0.0000,0.0000,0.0000,-0.000879,-1.575398,1.566194,0.8266,1.0151,0.2943,0.000000,0.615126,-0.598253,0.608990,-0.624330,0.598253,-0.590583
2.2980,0.016746,0.001894,-1.573864,1.566194,0.0000,0.0000,0.0000,-0.000870,-1.573864,1.566194,0.8591,0.9827,0.2450,0.000000,0.615126,-0.599786,0.608990,-0.624330,0.598253,-0.590583
2.3147,0.016752,0.001944,-1.573864,1.566194,0.0000,0.0000,0.0000,-0.000848,-1.573864,1.566194,0.9160,1.0210,0.2507,0.000000,0.616660,-0.599786,0.608990,-0.625864,0.598253,-0.590583
2.3315,0.016743,0.001994,-1.573864,1.566194,0.0000,0.0000,0.0000,-0.000839,-1.573864,1.566194,0.9212,1.0673,0.1958,0.000000,0.616660,-0.599786,0.608990,-0.627398,0.598253,-0.590583
2.3482,0.016751,0.002045,-1.573864,1.566194,0.0000,0.0000,0.0000,-0.000805,-1.573864,1.566194,1.0200,1.0623,0.1480,0.000000,0.618194,-0.601320,0.608990,-0.628932,0.598253,-0.590583
2.3650,0.016747,0.002095,-1.573864,1.566194,0.0000,0.0000,0.0000,-0.000784,-1.573864,1.566194,1.0597,1.0777,0.0444,0.000000,0.618194,-0.602854,0.608990,-0.630466,0.598253,-0.590583
2.3817,0.016751,0.002145,-1.573864,1.566194,0.0000,0.0000,0.0000,-0.000784,-1.573864,1.566194,1.0597,1.0777,0.0444,0.000000,0.618194,-0.602854,0.608990,-0.630466,0.598253,-0.590583
2.3984,0.016742,0.002195,-1.573864,1.566194,0.0000,0.0000,0.0000,-0.000726,-1.573864,1.566194,1.0758,1.0081,0.1086,0.000000,0.619728,-0.604388,0.608990,-0.632000,0.601320,-0.590583
2.4152,0.016747,0.002246,-1.573864,1.566194,0.0000,0.0000,0.0000,-0.000646,-1.573864,1.566194,0.9579,0.9778,-0.0632,0.000000,0.619728,-0.605922,0.608990,-0.635068,0.604388,-0.593651
2.4319,0.016743,0.002296,-1.573864,1.566194,0.0000,0.0000,0.0000,-0.000581,-1.573864,1.566194,0.9317,0.9121,-0.1547,0.000000,0.621262,-0.607456,0.608990,-0.636602,0.605922,-0.596719
2.4487,0.016757,0.002346,-1.573864,1.566194,0.0000,0.0000,0.0000,-0.000503,-1.573864,1.566194,0.9454,0.8350,-0.1997,0.000000,0.624330,-0.608990,0.608990,-0.638136,0.607456,-0.599786
2.4654,0.016741,0.002396,-1.573864,1.566194,0.0000,0.0000,0.0000,-0.000503,-1.573864,1.566194,0.9454,0.8350,-0.1997,0.000000,0.624330,-0.608990,0.608990,-0.638136,0.607456,-0.599786
2.4822,0.016744,0.002447,-1.573864,1.566194,0.0000,0.0000,0.0000,-0.000426,-1.573864,1.566194,0.8662,0.7406,-0.2507,0.000000,0.625864,-0.610524,0.608990,-0.639670,0.610524,-0.602854
2.4989,0.016741,0.002497,-1.573864,1.566194,0.0000,0.0000,0.0000,-0.000338,-1.573864,1.566194,0.8080,0.6978,-0.3558,0.000000,0.627398,-0.612058,0.608990,-0.642738,0.613592,-0.605922
2.5157,0.016758,0.002547,-1.573864,1.566194,0.0000,0.0000,0.0000,-0.000286,-1.573864,1.566194,0.8536,0.6023,-0.3988,0.000000,0.630466,-0.613592,0.608990,-0.642738,0.613592,-0.608990
2.5324,0.016744,0.002597,-1.573864,1.566194,0.0000,0.0000,0.0000,-0.000208,-1.573864,1.566194,0.7824,0.5303,-0.3403,0.000000,0.633534,-0.613592,0.608990,-0.644272,0.616660,-0.612058
2.5492,0.016758,0.002648,-1.573864,1.566194,0.0000,0.0000,0.0000,-0.000145,-1.573864,1.566194,0.7723,0.4733,-0.2374,0.000000,0.636602,-0.613592,0.608990,-0.645806,0.619728,-0.613592
2.5659,0.016743,0.002698,-1.573864,1.566194,0.0000,0.0000,0.0000,-0.000145,-1.573864,1.566194,0.7723,0.4733,-0.2374,0.000000,0.636602,-0.613592,0.608990,-0.645806,0.619728,-0.613592
2.5827,0.016749,0.002748,-1.573864,1.566194,0.0000,0.0000,0.0000,-0.000092,-1.573864,1.566194,0.6974,0.4460,-0.3033,0.000000,0.638136,-0.613592,0.608990,-0.647340,0.621262,-0.616660
2.5994,0.016751,0.002798,-1.573864,1.566194,0.0000,0.0000,0.0000,-0.000060,-1.573864,1.566194,0.6949,0.4678,-0.2414,0.000000,0.639670,-0.613592,0.610524,-0.647340,0.621262,-0.618194
2.6162,0.016753,0.002849,-1.573864,1.566194,0.0000,0.0000,0.0000,0.000045,-1.573864,1.566194,0.6952,0.6376,-0.0836,0.000000,0.642738,-0.613592,0.615126,-0.650408,0.622796,-0.619728
2.6329,0.016715,0.002899,-1.573864,1.566194,0.0000,0.0000,0.0000,0.000130,-1.573864,1.566194,0.6458,0.6736,0.0096,0.000000,0.645806,-0.613592,0.618194,-0.651942,0.624330,-0.622796
2.6496,0.016743,0.002949,-1.573864,1.566194,0.0000,0.0000,0.0000,0.000194,-1.573864,1.566194,0.6010,0.7557,0.1092,0.000000,0.647340,-0.613592,0.621262,-0.653476,0.625864,-0.624330
2.6664,0.016749,0.002999,-1.573864,1.566194,0.0000,0.0000,0.0000,0.000194,-1.573864,1.566194,0.6010,0.7557,0.1092,0.000000,0.647340,-0.613592,0.621262,-0.653476,0.625864,-0.624330
2.6831,0.016758,0.003049,-1.573864,1.566194,0.0000,0.0000,0.0000,0.000261,-1.573864,1.566194,0.6427,0.8149,0.2090,0.000000,0.648874,-0.615126,0.624330,-0.655010,0.627398,-0.624330
2.6999,0.016745,0.003100,-1.573864,1.566194,0.0000,0.0000,0.0000,0.000329,-1.573864,1.566194,0.5376,0.9436,0.4172,0.000000,0.648874,-0.615126,0.628932,-0.656544,0.630466,-0.624330
2.7166,0.016765,0.003150,-1.573864,1.566194,0.0000,0.0000,0.0000,0.000371,-1.573864,1.566194,0.4707,0.9637,0.5042,0.000000,0.648874,-0.615126,0.630466,-0.658078,0.633534,-0.624330
2.7334,0.016749,0.003200,-1.573864,1.566194,0.0000,0.0000,0.0000,0.000454,-1.573864,1.566194,0.4937,0.9265,0.5515,0.000000,0.650408,-0.618194,0.633534,-0.658078,0.635068,-0.625864
2.7502,0.016758,0.003250,-1.573864,1.566194,0.0000,0.0000,0.0000,0.000530,-1.573864,1.566194,0.4398,1.0496,0.8217,0.000000,0.651942,-0.618194,0.638136,-0.659612,0.638136,-0.625864
2.7669,0.016746,0.003301,-1.573864,1.566194,0.0000,0.0000,0.0000,0.000530,-1.573864,1.566194,0.4398,1.0496,0.8217,0.000000,0.651942,-0.618194,0.638136,-0.659612,0.638136,-0.625864
2.7837,0.016757,0.003351,-1.573864,1.566194,0.0000,0.0000,0.0000,0.000570,-1.573864,1.566194,0.4956,1.1512,0.6836,0.000000,0.651942,-0.619728,0.639670,-0.662680,0.638136,-0.625864
2.8004,0.016747,0.003401,-1.573864,1.566194,0.0000,0.0000,0.0000,0.000641,-1.573864,1.566194,0.4901,1.1033,0.6981,0.000000,0.651942,-0.622796,0.641204,-0.664214,0.641204,-0.625864
2.8172,0.016762,0.003452,-1.573864,1.566194,0.0000,0.0000,0.0000,0.000706,-1.573864,1.566194,0.5282,1.1750,0.8079,0.000000,0.653476,-0.624330,0.644272,-0.665748,0.642738,-0.625864
2.8339,0.016746,0.003502,-1.573864,1.566194,0.0000,0.0000,0.0000,0.000724,-1.573864,1.566194,0.6387,1.2011,0.7986,0.000000,0.655010,-0.625864,0.645806,-0.665748,0.641204,-0.625864
2.8507,0.016765,0.003552,-1.573864,1.566194,0.0000,0.0000,0.0000,0.000724,-1.573864,1.566194,0.6387,1.2011,0.7986,0.000000,0.655010,-0.628932,0.645806,-0.667282,0.641204,-0.625864
2.8674,0.016746,0.003602,-1.573864,1.566194,0.0000,0.0000,0.0000,0.000759,-1.573864,1.566194,0.7158,1.1778,0.6348,0.000000,0.655010,-0.628932,0.645806,-0.667282,0.641204,-0.625864
2.8843,0.016831,0.003653,-1.573864,1.566194,0.0000,0.0000,0.0000,0.000790,-1.573864,1.566194,0.8061,1.1801,0.5977,0.000000,0.656544,-0.630466,0.645806,-0.668816,0.641204,-0.625864
2.9010,0.016742,0.003703,-1.573864,1.566194,0.0000,0.0000,0.0000,0.000825,-1.573864,1.566194,0.8624,1.1595,0.5475,0.000000,0.656544,-0.633534,0.647340,-0.668816,0.641204,-0.625864
2.9178,0.016763,0.003753,-1.573864,1.566194,0.0000,0.0000,0.0000,0.000847,-1.573864,1.566194,0.9057,1.0079,0.4419,0.000000,0.656544,-0.636602,0.645806,-0.668816,0.642738,-0.625864
2.9345,0.016744,0.003804,-1.573864,1.566194,0.0000,0.0000,0.0000,0.000867,-1.573864,1.566194,0.9509,1.0749,0.3435,0.000000,0.658078,-0.636602,0.645806,-0.670350,0.641204,-0.627398
2.9513,0.016789,0.003854,-1.573864,1.566194,0.0000,0.0000,0.0000,0.000867,-1.573864,1.566194,0.9509,1.0749,0.3435,0.000000,0.661146,-0.638136,0.647340,-0.673418,0.641204,-0.630466
2.9680,0.016748,0.003904,-1.573864,1.566194,0.0000,0.0000,0.0000,0.000960,-1.573864,1.566194,0.9960,1.1183,0.2445,0.000000,0.661146,-0.638136,0.647340,-0.673418,0.641204,-0.630466
2.9848,0.016758,0.003954,-1.573864,1.566194,0.0000,0.0000,0.0000,0.000997,-1.573864,1.566194,1.0411,1.0962,0.1448,0.000000,0.662680,-0.639670,0.647340,-0.674952,0.641204,-0.632000
3.0015,0.016741,0.004005,-1.573864,1.566194,0.0000,0.0000,0.0000,0.001066,-1.573864,1.566194,1.0360,1.0979,0.1553,0.000000,0.664214,-0.641204,0.648874,-0.676486,0.642738,-0.633534
3.0183,0.016755,0.004055,-1.573864,1.566194,0.0000,0.0000,0.0000,0.001176,-1.573864,1.566194,1.1734,1.0984,0.0457,0.000000,0.668816,-0.644272,0.650408,-0.679553,0.642738,-0.636602
3.0350,0.016737,0.004105,-1.573864,1.566194,0.0000,0.0000,0.0000,0.001296,-1.573864,1.566194,1.1202,1.1321,0.1125,0.000000,0.671884,-0.645806,0.653476,-0.682621,0.645806,-0.639670
3.0518,0.016765,0.004155,-1.573864,1.566194,0.0000,0.0000,0.0000,0.001296,-1.573864,1.566194,1.1202,1.1321,0.1125,0.000000,0.674952,-0.650408,0.655010,-0.684155,0.647340,-0.642738
3.0685,0.016745,0.004206,-1.573864,1.566194,0.0000,0.0000,0.0000,0.001405,-1.573864,1.566194,1.2014,1.0264,-0.0047,0.000000,0.674952,-0.650408,0.655010,-0.684155,0.647340,-0.642738
3.0853,0.016753,0.004256,-1.573864,1.566194,0.0000,0.0000,0.0000,0.001551,-1.573864,1.566194,1.1806,1.0863,0.0636,0.000000,0.678020,-0.653476,0.659612,-0.687223,0.650408,-0.645806
3.1020,0.016746,0.004306,-1.573864,1.566194,0.0000,0.0000,0.0000,0.001620,-1.573864,1.566194,1.2201,1.0444,0.0009,0.000000,0.679553,-0.656544,0.661146,-0.688757,0.651942,-0.647340
3.1188,0.016760,0.004356,-1.573864,1.566194,0.0000,0.0000,0.0000,0.001696,-1.575398,1.566194,1.2637,1.0339,0.0639,0.000000,0.682621,-0.658078,0.662680,-0.690291,0.653476,-0.648874
3.1355,0.016748,0.004407,-1.573864,1.566194,0.0000,0.0000,0.0000,0.001737,-1.573864,1.566194,1.2951,1.0026,0.1691,0.000000,0.684155,-0.659612,0.664214,-0.690291,0.655010,-0.648874
3.1523,0.016770,0.004457,-1.573864,1.566194,0.0000,0.0000,0.0000,0.001737,-1.573864,1.566194,1.2951,1.0026,0.1691,0.000000,0.684155,-0.659612,0.664214,-0.690291,0.655010,-0.648874
3.1691,0.016751,0.004507,-1.573864,1.566194,0.0000,0.0000,0.0000,0.001792,-1.575398,1.566194,1.2905,1.1071,0.3261,0.000000,0.685689,-0.659612,0.667282,-0.691825,0.656544,-0.648874
3.1858,0.016756,0.004557,-1.573864,1.566194,0.0000,0.0000,0.0000,0.001822,-1.573864,1.566194,1.3290,1.1599,0.2546,0.000000,0.685689,-0.661146,0.668816,-0.693359,0.656544,-0.648874
3.2026,0.016743,0.004608,-1.573864,1.566194,0.0000,0.0000,0.0000,0.001832,-1.573864,1.566194,1.3627,1.1195,0.2064,0.000000,0.685689,-0.662680,0.668816,-0.693359,0.656544,-0.648874
3.2196,0.016984,0.004659,-1.573864,1.566194,0.0000,0.0000,0.0000,0.001867,-1.573864,1.566194,1.4461,1.1026,0.0441,0.000000,0.685689,-0.665748,0.668816,-0.694893,0.656544,-0.648874
3.2363,0.016752,0.004709,-1.573864,1.566194,0.0000,0.0000,0.0000,0.001850,-1.573864,1.566194,1.4485,1.0545,0.0047,0.000000,0.685689,-0.665748,0.667282,-0.694893,0.656544,-0.648874
3.2531,0.016760,0.004759,-1.573864,1.566194,0.0000,0.0000,0.0000,0.001850,-1.573864,1.566194,1.4485,1.0545,0.0047,0.000000,0.685689,-0.665748,0.667282,-0.694893,0.656544,-0.648874
3.2698,0.016747,0.004809,-1.573864,1.566194,0.0000,0.0000,0.0000,0.001875,-1.573864,1.566194,1.4487,1.1581,0.0094,0.000000,0.685689,-0.665748,0.668816,-0.696427,0.656544,-0.648874
3.2866,0.016750,0.004860,-1.573864,1.566194,0.0000,0.0000,0.0000,0.001896,-1.573864,1.566194,1.5345,1.0982,0.0096,0.000000,0.687223,-0.667282,0.668816,-0.696427,0.656544,-0.648874
3.3033,0.016746,0.004910,-1.573864,1.566194,0.0000,0.0000,0.0000,0.001963,-1.573864,1.566194,1.6698,1.0220,0.0097,0.000000,0.690291,-0.670350,0.668816,-0.697961,0.658078,-0.648874
3.3201,0.016761,0.004960,-1.573864,1.566194,0.0000,0.0000,0.0000,0.002013,-1.573864,1.566194,1.7624,0.9827,0.0659,0.000000,0.693359,-0.671884,0.668816,-0.699495,0.659612,-0.648874
3.3368,0.016747,0.004990,-1.573864,1.566194,0.0000,0.0000,0.0000,0.002088,-1.573864,1.566194,1.8579,0.8718,0.1148,0.000000,0.696427,-0.674952,0.668816,-0.701029,0.662680,-0.648874
3.3536,0.016757,0.004939,-1.573864,1.566194,0.0000,0.0000,0.0000,0.002088,-1.573864,1.566194,1.8579,0.8718,0.1148,0.000000,0.696427,-0.674952,0.668816,-0.701029,0.662680,-0.648874
3.3703,0.016752,0.004889,-1.573864,1.566194,0.0000,0.0000,0.0000,0.002161,-1.573864,1.566194,1.9530,0.7687,0.1643,0.000000,0.699495,-0.678020,0.668816,-0.702563,0.665748,-0.648874
3.3871,0.016750,0.004839,-1.573864,1.566194,0.0000,0.0000,0.0000,0.002209,-1.573864,1.566194,2.0495,0.7332,0.2153,0.000000,0.702563,-0.679553,0.668816,-0.704097,0.667282,-0.648874
3.4038,0.016749,0.004789,-1.573864,1.566194,0.0000,0.0000,0.0000,0.002306,-1.575398,1.566194,2.0695,0.7237,0.3770,0.000000,0.705631,-0.681087,0.670350,-0.707165,0.671884,-0.648874
3.4206,0.016757,0.004738,-1.573864,1.566194,0.0000,0.0000,0.0000,0.002389,-1.573864,1.566194,2.0770,0.8074,0.4724,0.000000,0.707165,-0.682621,0.673418,-0.710233,0.674952,-0.648874
3.4376,0.016992,0.004687,-1.573864,1.566194,0.0000,0.0000,0.0000,0.002477,-1.573864,1.566194,2.1387,0.8797,0.5760,0.000000,0.708699,-0.685689,0.678020,-0.711767,0.676486,-0.648874
3.4543,0.016755,0.004637,-1.573864,1.566194,0.0000,0.0000,0.0000,0.002477,-1.573864,1.566194,2.1387,0.8797,0.5760,0.000000,0.708699,-0.685689,0.678020,-0.711767,0.676486,-0.648874
3.4711,0.016747,0.004587,-1.573864,1.566194,0.0000,0.0000,0.0000,0.002551,-1.575398,1.566194,2.1307,0.9059,0.7337,0.000000,0.710233,-0.687223,0.681087,-0.713301,0.679553,-0.648874
3.4878,0.016751,0.004537,-1.573864,1.566194,0.0000,0.0000,0.0000,0.002577,-1.573864,1.566194,2.1800,0.9883,0.7753,0.000000,0.711767,-0.687223,0.682621,-0.714835,0.679553,-0.648874
3.5046,0.016746,0.004486,-1.573864,1.566194,0.0000,0.0000,0.0000,0.002587,-1.573864,1.566194,2.1640,1.0290,0.8280,0.000000,0.711767,-0.687223,0.684155,-0.714835,0.679553,-0.648874
3.5213,0.016763,0.004436,-1.573864,1.566194,0.0000,0.0000,0.0000,0.002599,-1.573864,1.566194,2.1547,1.0741,0.8796,0.000000,0.711767,-0.687223,0.685689,-0.714835,0.679553,-0.648874
3.5381,0.016746,0.004386,-1.573864,1.566194,0.0000,0.0000,0.0000,0.002598,-1.573864,1.566194,2.1557,1.0693,0.8742,0.000000,0.711767,-0.687223,0.685689,-0.714835,0.679553,-0.648874
3.5548,0.016742,0.004336,-1.573864,1.566194,0.0000,0.0000,0.0000,0.002598,-1.573864,1.566194,2.1557,1.0693,0.8742,0.000000,0.711767,-0.687223,0.685689,-0.714835,0.679553,-0.648874
3.5716,0.016743,0.004285,-1.573864,1.566194,0.0000,0.0000,0.0000,0.002598,-1.573864,1.566194,2.1557,1.0693,0.8742,0.000000,0.711767,-0.687223,0.685689,-0.714835,0.679553,-0.648874
3.5883,0.016748,0.004235,-1.573864,1.566194,0.0000,0.0000,0.0000,0.002598,-1.573864,1.566194,2.1557,1.0693,0.8742,0.000000,0.711767,-0.687223,0.685689,-0.714835,0.679553,-0.648874
3.6051,0.016750,0.004185,-1.573864,1.566194,0.0000,0.0000,0.0000,0.002598,-1.573864,1.566194,2.1557,1.0693,0.8742,0.000000,0.711767,-0.687223,0.685689,-0.714835,0.679553,-0.648874
3.6218,0.016755,0.004135,-1.573864,1.566194,0.0000,0.0000,0.0000,0.002598,-1.573864,1.566194,2.1557,1.0693,0.8742,0.000000,0.711767,-0.687223,0.685689,-0.714835,0.679553,-0.648874
3.6386,0.016813,0.004084,-1.573864,1.566194,0.0000,0.0000,0.0000,0.002588,-1.573864,1.566194,2.1443,1.0213,0.9307,0.000000,0.711767,-0.687223,0.685689,-0.713301,0.679553,-0.648874
3.6554,0.016751,0.004034,-1.573864,1.566194,0.0000,0.0000,0.0000,0.002588,-1.573864,1.566194,2.1443,1.0213,0.9307,0.000000,0.711767,-0.687223,0.685689,-0.713301,0.679553,-0.648874
3.6721,0.016754,0.003984,-1.573864,1.566194,0.0000,0.0000,0.0000,0.002599,-1.573864,1.566194,2.1568,1.0749,0.8688,0.000000,0.711767,-0.687223,0.685689,-0.714835,0.679553,-0.648874
3.6889,0.016747,0.003933,-1.573864,1.566194,0.0000,0.0000,0.0000,0.002598,-1.573864,1.566194,2.1555,1.0693,0.8753,0.000000,0.711767,-0.687223,0.685689,-0.714835,0.679553,-0.648874
3.7056,0.016750,0.003883,-1.573864,1.566194,0.0000,0.0000,0.0000,0.002598,-1.573864,1.566194,2.1555,1.0693,0.8753,0.000000,0.711767,-0.687223,0.685689,-0.714835,0.679553,-0.648874
3.7224,0.016748,0.003833,-1.573864,1.566194,0.0000,0.0000,0.0000,0.002598,-1.573864,1.566194,2.1555,1.0693,0.8753,0.000000,0.711767,-0.687223,0.685689,-0.714835,0.679553,-0.648874
3.7391,0.016752,0.003783,-1.573864,1.566194,0.0000,0.0000,0.0000,0.002598,-1.573864,1.566194,2.1555,1.0693,0.8753,0.000000,0.711767,-0.687223,0.685689,-0.714835,0.679553,-0.648874
3.7559,0.016761,0.003732,-1.573864,1.566194,0.0000,0.0000,0.0000,0.002598,-1.573864,1.566194,2.1555,1.0693,0.8753,0.000000,0.711767,-0.687223,0.685689,-0.714835,0.679553,-0.648874
3.7726,0.016748,0.003682,-1.573864,1.566194,0.0000,0.0000,0.0000,0.002598,-1.573864,1.566194,2.1555,1.0693,0.8753,0.000000,0.711767,-0.687223,0.685689,-0.714835,0.679553,-0.648874
3.7894,0.016749,0.003632,-1.573864,1.566194,0.0000,0.0000,0.0000,0.002598,-1.573864,1.566194,2.1555,1.0693,0.8753,0.000000,0.711767,-0.687223,0.685689,-0.714835,0.679553,-0.648874
3.8061,0.016745,0.003582,-1.573864,1.566194,0.0000,0.0000,0.0000,0.002598,-1.573864,1.566194,2.1555,1.0693,0.8753,0.000000,0.711767,-0.687223,0.685689,-0.714835,0.679553,-0.648874
3.8229,0.016750,0.003531,-1.573864,1.566194,0.0000,0.0000,0.0000,0.002598,-1.573864,1.566194,2.1555,1.0693,0.8753,0.000000,0.711767,-0.687223,0.685689,-0.714835,0.679553,-0.648874
3.8398,0.016877,0.003481,-1.573864,1.566194,0.0000,0.0000,0.0000,0.002588,-1.573864,1.566194,2.1077,1.0826,0.8176,0.000000,0.710233,-0.687223,0.685689,-0.714835,0.679553,-0.648874
3.8565,0.016778,0.003430,-1.573864,1.566194,0.0000,0.0000,0.0000,0.002588,-1.573864,1.566194,2.1077,1.0826,0.8176,0.000000,0.710233,-0.687223,0.685689,-0.714835,0.679553,-0.648874
3.8733,0.016748,0.003380,-1.573864,1.566194,0.0000,0.0000,0.0000,0.002548,-1.573864,1.566194,1.9575,1.0714,0.7087,0.000000,0.705631,-0.687223,0.685689,-0.713301,0.679553,-0.648874
3.8901,0.016782,0.003330,-1.573864,1.566194,0.0000,0.0000,0.0000,0.002552,-1.573864,1.566194,1.9730,1.0727,0.7200,0.000000,0.705631,-0.687223,0.685689,-0.713301,0.679553,-0.648874
3.9068,0.016749,0.003280,-1.573864,1.566194,0.0000,0.0000,0.0000,0.002520,-1.573864,1.566194,1.9012,0.9885,0.7739,0.000000,0.704097,-0.687223,0.685689,-0.710233,0.679553,-0.648874
3.9236,0.016776,0.003229,-1.573864,1.566194,0.0000,0.0000,0.0000,0.002520,-1.573864,1.566194,1.9012,0.9885,0.7739,0.000000,0.704097,-0.687223,0.685689,-0.710233,0.679553,-0.648874
3.9403,0.016751,0.003179,-1.573864,1.566194,0.0000,0.0000,0.0000,0.002492,-1.573864,1.566194,1.8386,0.9131,0.8233,0.000000,0.702563,-0.687223,0.685689,-0.707165,0.679553,-0.648874
3.9571,0.016748,0.003129,-1.573864,1.566194,0.0000,0.0000,0.0000,0.002473,-1.573864,1.566194,1.7862,0.8854,0.8172,0.000000,0.701029,-0.687223,0.685689,-0.705631,0.679553,-0.648874
3.9738,0.016748,0.003078,-1.573864,1.566194,0.0000,0.0000,0.0000,0.002454,-1.573864,1.566194,1.7327,0.8528,0.8170,0.000000,0.699495,-0.687223,0.685689,-0.704097,0.679553,-0.648874
3.9906,0.016765,0.003028,-1.573864,1.566194,0.0000,0.0000,0.0000,0.002445,-1.573864,1.566194,1.6902,0.8696,0.7604,0.000000,0.697961,-0.687223,0.685689,-0.704097,0.679553,-0.648874
4.0073,0.016740,0.002978,-1.573864,1.566194,0.0000,0.0000,0.0000,0.002446,-1.573864,1.566194,1.6946,0.8678,0.7663,0.000000,0.697961,-0.687223,0.685689,-0.704097,0.679553,-0.648874
4.0241,0.016766,0.002928,-1.573864,1.566194,0.0000,0.0000,0.0000,0.002391,-1.573864,1.566194,1.5284,0.8107,0.7076,0.000000,0.693359,-0.687223,0.685689,-0.701029,0.679553,-0.648874
4.0409,0.016748,0.002877,-1.573864,1.566194,0.0000,0.0000,0.0000,0.002391,-1.573864,1.566194,1.5284,0.8107,0.7076,0.000000,0.693359,-0.687223,0.685689,-0.701029,0.679553,-0.648874
4.0576,0.016756,0.002827,-1.573864,1.566194,0.0000,0.0000,0.0000,0.002364,-1.573864,1.566194,1.4762,0.7325,0.7688,0.000000,0.691825,-0.687223,0.685689,-0.697961,0.679553,-0.648874
4.0744,0.016745,0.002777,-1.573864,1.566194,0.0000,0.0000,0.0000,0.002355,-1.573864,1.566194,1.4710,0.6916,0.8183,0.000000,0.691825,-0.687223,0.685689,-0.696427,0.679553,-0.648874
4.0911,0.016762,0.002727,-1.573864,1.566194,0.0000,0.0000,0.0000,0.002356,-1.573864,1.566194,1.4716,0.6959,0.8131,0.000000,0.691825,-0.687223,0.685689,-0.696427,0.679553,-0.648874
4.1079,0.016748,0.002676,-1.573864,1.566194,0.0000,0.0000,0.0000,0.002334,-1.575398,1.566194,1.4128,0.6601,0.8130,0.000000,0.690291,-0.687223,0.685689,-0.694893,0.679553,-0.648874
4.1246,0.016775,0.002626,-1.573864,1.566194,0.0000,0.0000,0.0000,0.002334,-1.575398,1.566194,1.4128,0.6601,0.8130,0.000000,0.690291,-0.687223,0.685689,-0.694893,0.679553,-0.648874
4.1414,0.016751,0.002576,-1.573864,1.566194,0.0000,0.0000,0.0000,0.002279,-1.573864,1.566194,1.2536,0.6070,0.7554,0.000000,0.685689,-0.687223,0.685689,-0.691825,0.679553,-0.648874
4.1582,0.016752,0.002526,-1.573864,1.566194,0.0000,0.0000,0.0000,0.002262,-1.573864,1.566194,1.1736,0.6406,0.6488,0.000000,0.682621,-0.687223,0.685689,-0.691825,0.679553,-0.648874
4.1749,0.016755,0.002475,-1.573864,1.566194,0.0000,0.0000,0.0000,0.002264,-1.573864,1.566194,1.1820,0.6372,0.6599,0.000000,0.682621,-0.687223,0.685689,-0.691825,0.679553,-0.648874
4.1917,0.016748,0.002425,-1.573864,1.566194,0.0000,0.0000,0.0000,0.002275,-1.575398,1.566194,1.2294,0.6235,0.7151,0.000000,0.684155,-0.687223,0.685689,-0.691825,0.679553,-0.648874
4.2084,0.016793,0.002375,-1.573864,1.566194,0.0000,0.0000,0.0000,0.002180,-1.573864,1.566194,1.0330,0.5258,0.8202,0.000000,0.681087,-0.684155,0.684155,-0.687223,0.679553,-0.648874
4.2252,0.016751,0.002324,-1.573864,1.566194,0.0000,0.0000,0.0000,0.002180,-1.573864,1.566194,1.0330,0.5258,0.8202,0.000000,0.681087,-0.684155,0.684155,-0.687223,0.679553,-0.648874
4.2419,0.016749,0.002274,-1.573864,1.566194,0.0000,0.0000,0.0000,0.002143,-1.573864,1.566194,0.9475,0.4859,0.9209,0.000000,0.679553,-0.682621,0.684155,-0.684155,0.679553,-0.648874
4.2587,0.016748,0.002224,-1.573864,1.566194,0.0000,0.0000,0.0000,0.002135,-1.573864,1.566194,0.9776,0.4615,0.9663,0.000000,0.681087,-0.681087,0.682621,-0.684155,0.679553,-0.648874
4.2754,0.016744,0.002174,-1.573864,1.566194,0.0000,0.0000,0.0000,0.002099,-1.573864,1.566194,0.9470,0.3800,0.7924,0.000000,0.679553,-0.681087,0.679553,-0.684155,0.679553,-0.648874
4.2922,0.016744,0.002123,-1.573864,1.566194,0.0000,0.0000,0.0000,0.002032,-1.573864,1.566194,0.8267,0.3038,0.6976,0.000000,0.676486,-0.679553,0.676486,-0.682621,0.679553,-0.648874
4.3090,0.016858,0.002073,-1.573864,1.566194,0.0000,0.0000,0.0000,0.001957,-1.575398,1.566194,0.6463,0.4086,0.6518,0.000000,0.671884,-0.676486,0.676486,-0.681087,0.678020,-0.648874
4.3258,0.016749,0.002023,-1.573864,1.566194,0.0000,0.0000,0.0000,0.001957,-1.575398,1.566194,0.6463,0.4086,0.6518,0.000000,0.671884,-0.676486,0.676486,-0.681087,0.678020,-0.648874
4.3425,0.016747,0.001972,-1.573864,1.566194,0.0000,0.0000,0.0000,0.001941,-1.573864,1.566194,0.6175,0.3830,0.7684,0.000000,0.671884,-0.674952,0.676486,-0.679553,0.678020,-0.648874
4.3593,0.016751,0.001922,-1.573864,1.566194,0.0000,0.0000,0.0000,0.001919,-1.573864,1.566194,0.6206,0.2868,0.7558,0.000000,0.671884,-0.674952,0.674952,-0.678020,0.678020,-0.648874
4.3760,0.016748,0.001872,-1.573864,1.566194,0.0000,0.0000,0.0000,0.001803,-1.573864,1.566194,0.7058,0.2863,0.7567,0.000000,0.671884,-0.671884,0.671884,-0.674952,0.673418,-0.647340
4.3928,0.016751,0.001822,-1.573864,1.566194,0.0000,0.0000,0.0000,0.001828,-1.573864,1.566194,0.6480,0.2700,0.7010,0.000000,0.671884,-0.671884,0.671884,-0.674952,0.673418,-0.648874
4.4096,0.016784,0.001771,-1.573864,1.566194,0.0000,0.0000,0.0000,0.001731,-1.573864,1.566194,0.5840,0.2547,0.5949,0.000000,0.668816,-0.670350,0.670350,-0.671884,0.670350,-0.648874
4.4263,0.016754,0.001721,-1.573864,1.566194,0.0000,0.0000,0.0000,0.001731,-1.573864,1.566194,0.5840,0.2547,0.5949,0.000000,0.668816,-0.670350,0.670350,-0.671884,0.670350,-0.648874
4.4431,0.016750,0.001671,-1.573864,1.566194,0.0000,0.0000,0.0000,0.001646,-1.575398,1.566194,0.4284,0.3048,0.3827,0.000000,0.664214,-0.667282,0.667282,-0.671884,0.668816,-0.648874
4.4598,0.016746,0.001621,-1.573864,1.566194,0.0000,0.0000,0.0000,0.001607,-1.573864,1.566194,0.4064,0.3336,0.2933,0.000000,0.662680,-0.665748,0.665748,-0.671884,0.667282,-0.648874
4.4766,0.016747,0.001570,-1.573864,1.566194,0.0000,0.0000,0.0000,0.001611,-1.573864,1.566194,0.3226,0.3115,0.3024,0.000000,0.661146,-0.665748,0.665748,-0.671884,0.668816,-0.648874
4.4933,0.016741,0.001520,-1.573864,1.566194,0.0000,0.0000,0.0000,0.001587,-1.573864,1.566194,0.3584,0.2983,0.3016,0.000000,0.661146,-0.665748,0.665748,-0.670350,0.667282,-0.648874
4.5101,0.016747,0.001470,-1.573864,1.566194,0.0000,0.0000,0.0000,0.001483,-1.573864,1.566194,0.2580,0.1696,0.3571,0.000000,0.659612,-0.662680,0.662680,-0.665748,0.665748,-0.648874
4.5268,0.016743,0.001420,-1.573864,1.566194,0.0000,0.0000,0.0000,0.001483,-1.573864,1.566194,0.2580,0.1696,0.3571,0.000000,0.659612,-0.662680,0.662680,-0.665748,0.665748,-0.648874
4.5435,0.016741,0.001369,-1.573864,1.566194,0.0000,0.0000,0.0000,0.001411,-1.573864,1.566194,0.3329,0.1705,0.2958,0.000000,0.659612,-0.661146,0.661146,-0.662680,0.661146,-0.648874
4.5603,0.016744,0.001319,-1.573864,1.566194,0.0000,0.0000,0.0000,0.001406,-1.573864,1.566194,0.3736,0.2239,0.3580,0.000000,0.661146,-0.659612,0.661146,-0.662680,0.659612,-0.648874
4.5770,0.016747,0.001269,-1.573864,1.566194,0.0000,0.0000,0.0000,0.001371,-1.575398,1.566194,0.2829,0.1989,0.1845,0.000000,0.658078,-0.659612,0.659612,-0.662680,0.659612,-0.648874
4.5939,0.016888,0.001218,-1.573864,1.566194,0.0000,0.0000,0.0000,0.001302,-1.575398,1.566194,0.1087,0.1823,0.0914,0.000000,0.653476,-0.658078,0.658078,-0.661146,0.659612,-0.648874
4.6107,0.016756,0.001168,-1.573864,1.566194,0.0000,0.0000,0.0000,0.001302,-1.575398,1.566194,0.1087,0.1823,0.0914,0.000000,0.653476,-0.658078,0.658078,-0.661146,0.659612,-0.648874
4.6274,0.016747,0.001118,-1.573864,1.566194,0.0000,0.0000,0.0000,0.001249,-1.575398,1.566194,-0.0084,0.1497,0.0456,0.000000,0.650408,-0.656544,0.656544,-0.659612,0.659612,-0.648874
4.6442,0.016746,0.001067,-1.573864,1.566194,0.0000,0.0000,0.0000,0.001195,-1.573864,1.566194,0.0415,0.1564,-0.0051,0.000000,0.650408,-0.655010,0.655010,-0.658078,0.656544,-0.648874
4.6609,0.016748,0.001017,-1.573864,1.566194,0.0000,0.0000,0.0000,0.001141,-1.575398,1.566194,0.1335,0.2244,-0.0553,0.000000,0.650408,-0.653476,0.653476,-0.658078,0.653476,-0.647340
4.6777,0.016749,0.000967,-1.573864,1.566194,0.0000,0.0000,0.0000,0.001074,-1.575398,1.566194,0.1621,0.1522,0.0608,0.000000,0.650408,-0.651942,0.651942,-0.655010,0.651942,-0.645806
4.6944,0.016748,0.000917,-1.573864,1.566194,0.0000,0.0000,0.0000,0.000984,-1.575398,1.566194,0.1592,0.0599,0.0486,0.000000,0.648874,-0.650408,0.648874,-0.651942,0.650408,-0.644272
4.7112,0.016747,0.000867,-1.573864,1.566194,0.0000,0.0000,0.0000,0.000984,-1.575398,1.566194,0.1592,0.0599,0.0486,0.000000,0.648874,-0.650408,0.648874,-0.651942,0.650408,-0.644272
4.7279,0.016746,0.000816,-1.573864,1.566194,0.0000,0.0000,0.0000,0.000933,-1.575398,1.566194,0.0623,0.1009,0.1052,0.000000,0.645806,-0.648874,0.648874,-0.650408,0.650408,-0.642738
4.7447,0.016746,0.000766,-1.573864,1.566194,0.0000,0.0000,0.0000,0.000878,-1.575398,1.566194,0.0345,0.2312,0.1545,0.000000,0.644272,-0.645806,0.648874,-0.650408,0.648874,-0.641204
4.7614,0.016750,0.000716,-1.573864,1.566194,0.0000,0.0000,0.0000,0.000847,-1.575398,1.566194,-0.0389,0.2177,0.0940,0.000000,0.642738,-0.644272,0.647340,-0.650408,0.648874,-0.641204
4.7782,0.016746,0.000666,-1.573864,1.566194,0.0000,0.0000,0.0000,0.000814,-1.575398,1.566194,0.0662,0.2193,0.0450,0.000000,0.642738,-0.644272,0.645806,-0.650408,0.647340,-0.639670
4.7951,0.016922,0.000615,-1.573864,1.566194,0.0000,0.0000,0.0000,0.000684,-1.575398,1.566194,0.0932,0.1849,-0.0051,0.000000,0.639670,-0.642738,0.642738,-0.647340,0.644272,-0.636602
4.8118,0.016747,0.000565,-1.573864,1.566194,0.0000,0.0000,0.0000,0.000684,-1.575398,1.566194,0.0932,0.1849,-0.0051,0.000000,0.639670,-0.642738,0.642738,-0.647340,0.644272,-0.636602
4.8286,0.016746,0.000514,-1.573864,1.566194,0.0000,0.0000,0.0000,0.000601,-1.575398,1.566194,0.1664,0.0882,-0.1102,0.000000,0.638136,-0.642738,0.639670,-0.644272,0.641204,-0.635068
4.8453,0.016749,0.000464,-1.573864,1.566194,0.0000,0.0000,0.0000,0.000574,-1.575398,1.566194,0.1483,0.1170,-0.0440,0.000000,0.638136,-0.641204,0.639670,-0.642738,0.639670,-0.635068
4.8621,0.016743,0.000414,-1.573864,1.566194,0.0000,0.0000,0.0000,0.000564,-1.575398,1.566194,0.1122,0.1485,0.0043,0.000000,0.638136,-0.639670,0.639670,-0.642738,0.639670,-0.635068
4.8788,0.016750,0.000364,-1.573864,1.566194,0.0000,0.0000,0.0000,0.000504,-1.575398,1.566194,0.0887,0.2619,0.1643,0.000000,0.636602,-0.636602,0.639670,-0.642738,0.639670,-0.632000
4.8958,0.017021,0.000313,-1.573864,1.566194,0.0000,0.0000,0.0000,0.000377,-1.575398,1.566194,0.0147,0.1128,0.0925,0.000000,0.632000,-0.635068,0.635068,-0.639670,0.639670,-0.628932
4.9126,0.016746,0.000262,-1.573864,1.566194,0.0000,0.0000,0.0000,0.000377,-1.575398,1.566194,0.0147,0.1128,0.0925,0.000000,0.632000,-0.635068,0.635068,-0.639670,0.639670,-0.628932
4.9293,0.016746,0.000212,-1.573864,1.566194,0.0000,0.0000,0.0000,0.000342,-1.575398,1.566194,-0.0373,0.1627,0.1000,0.000000,0.630466,-0.633534,0.635068,-0.638136,0.638136,-0.628932
4.9461,0.016752,0.000162,-1.573864,1.566194,0.0000,0.0000,0.0000,0.000297,-1.575398,1.566194,0.1316,0.2766,-0.0107,0.000000,0.630466,-0.633534,0.635068,-0.638136,0.633534,-0.627398
4.9628,0.016744,0.000112,-1.573864,1.566194,0.0000,0.0000,0.0000,0.000216,-1.575398,1.566194,0.1631,0.1486,0.0557,0.000000,0.630466,-0.632000,0.632000,-0.635068,0.632000,-0.625864
4.9796,0.016755,0.000061,-1.573864,1.566194,0.0000,0.0000,0.0000,0.000164,-1.575398,1.566194,0.1981,0.1275,-0.0062,0.000000,0.628932,-0.632000,0.630466,-0.633534,0.630466,-0.624330
4.9963,0.016749,0.000011,-1.573864,1.566194,0.0000,0.0000,0.0000,0.000121,-1.575398,1.566194,0.1072,0.0793,0.0003,0.000000,0.627398,-0.630466,0.628932,-0.632000,0.630466,-0.624330
5.0132,0.016881,-0.000040,-1.573864,1.566194,0.0000,0.0000,0.0000,0.000121,-1.575398,1.566194,0.1072,0.0793,0.0003,0.000000,0.627398,-0.630466,0.628932,-0.632000,0.630466,-0.624330
5.0299,0.016743,-0.000090,-1.573864,1.566194,0.0000,0.0000,0.0000,0.000003,-1.575398,1.566194,0.0402,0.1855,0.1091,0.000000,0.624330,-0.625864,0.627398,-0.630466,0.628932,-0.621262
5.0467,0.016749,-0.000140,-1.573864,1.566194,0.0000,0.0000,0.0000,-0.000021,-1.575398,1.566194,-0.1064,0.1748,0.1524,0.000000,0.622796,-0.622796,0.625864,-0.630466,0.630466,-0.621262
5.0634,0.016750,-0.000190,-1.573864,1.566194,0.0000,0.0000,0.0000,-0.000055,-1.575398,1.566194,-0.0422,0.2612,0.2024,0.000000,0.622796,-0.621262,0.625864,-0.630466,0.628932,-0.619728
5.0802,0.016753,-0.000241,-1.573864,1.566194,0.0000,0.0000,0.0000,-0.000137,-1.575398,1.566194,0.0450,0.2864,0.1427,0.000000,0.621262,-0.621262,0.625864,-0.627398,0.624330,-0.618194
5.0970,0.016778,-0.000291,-1.573864,1.566194,0.0000,0.0000,0.0000,-0.000214,-1.575398,1.566194,0.1342,0.2151,0.0941,0.000000,0.619728,-0.621262,0.622796,-0.625864,0.622796,-0.615126
5.1137,0.016758,-0.000341,-1.573864,1.566194,0.0000,0.0000,0.0000,-0.000214,-1.575398,1.566194,0.1342,0.2151,0.0941,0.000000,0.619728,-0.621262,0.622796,-0.625864,0.622796,-0.615126
5.1305,0.016744,-0.000391,-1.573864,1.566194,0.0000,0.0000,0.0000,-0.000218,-1.575398,1.566194,0.1740,0.1057,0.1538,0.000000,0.621262,-0.621262,0.621262,-0.624330,0.622796,-0.615126
5.1472,0.016746,-0.000442,-1.573864,1.566194,0.0000,0.0000,0.0000,-0.000279,-1.575398,1.566194,0.1099,0.0821,-0.0164,0.000000,0.618194,-0.621262,0.619728,-0.622796,0.621262,-0.615126
5.1640,0.016743,-0.000492,-1.573864,1.566194,0.0000,0.0000,0.0000,-0.000395,-1.575398,1.566194,-0.0478,0.1676,0.1105,0.000000,0.613592,-0.616660,0.618194,-0.621262,0.621262,-0.612058
5.1807,0.016748,-0.000542,-1.573864,1.566194,0.0000,0.0000,0.0000,-0.000444,-1.575398,1.566194,-0.0420,0.2095,0.1518,0.000000,0.612058,-0.615126,0.618194,-0.619728,0.619728,-0.610524
5.1977,0.016964,-0.000593,-1.573864,1.566194,0.0000,0.0000,0.0000,-0.000488,-1.575398,1.566194,0.0278,0.2588,0.2562,0.000000,0.613592,-0.612058,0.616660,-0.619728,0.618194,-0.608990
5.2144,0.016764,-0.000643,-1.573864,1.566194,0.0000,0.0000,0.0000,-0.000488,-1.575398,1.566194,0.0278,0.2588,0.2562,0.000000,0.613592,-0.612058,0.616660,-0.619728,0.618194,-0.608990
5.2312,0.016745,-0.000694,-1.573864,1.566194,0.0000,0.0000,0.0000,-0.000606,-1.575398,1.566194,0.2065,0.2032,0.0274,0.000000,0.612058,-0.612058,0.612058,-0.618194,0.613592,-0.605922
5.2479,0.016761,-0.000744,-1.573864,1.566194,0.0000,0.0000,0.0000,-0.000655,-1.575398,1.566194,0.2054,0.1744,0.1056,0.000000,0.610524,-0.612058,0.612058,-0.615126,0.612058,-0.604388
5.2647,0.016778,-0.000794,-1.573864,1.566194,0.0000,0.0000,0.0000,-0.000662,-1.575398,1.566194,0.1562,0.1933,0.0430,0.000000,0.608990,-0.612058,0.612058,-0.615126,0.612058,-0.604388
5.2815,0.016751,-0.000844,-1.573864,1.566194,0.0000,0.0000,0.0000,-0.000686,-1.575398,1.566194,0.1613,0.0899,0.0495,0.000000,0.608990,-0.612058,0.610524,-0.613592,0.612058,-0.604388
5.2984,0.016908,-0.000895,-1.573864,1.566194,0.0000,0.0000,0.0000,-0.000769,-1.575398,1.566194,0.0236,0.1352,-0.0055,0.000000,0.605922,-0.608990,0.608990,-0.612058,0.610524,-0.604388
5.3151,0.016760,-0.000945,-1.573864,1.566194,0.0000,0.0000,0.0000,-0.000769,-1.575398,1.566194,0.0236,0.1352,-0.0055,0.000000,0.605922,-0.608990,0.608990,-0.612058,0.610524,-0.604388
5.3319,0.016740,-0.000996,-1.573864,1.566194,0.0000,0.0000,0.0000,-0.000847,-1.575398,1.566194,0.0591,0.2324,0.0544,0.000000,0.604388,-0.605922,0.607456,-0.612058,0.608990,-0.601320
5.3486,0.016758,-0.001046,-1.573864,1.566194,0.0000,0.0000,0.0000,-0.000925,-1.575398,1.566194,0.1928,0.0866,0.1024,0.000000,0.604388,-0.605922,0.604388,-0.608990,0.607456,-0.598253
5.3654,0.016744,-0.001096,-1.573864,1.566194,0.0000,0.0000,0.0000,-0.000954,-1.575398,1.566194,0.0696,0.0829,0.0432,0.000000,0.601320,-0.605922,0.604388,-0.607456,0.607456,-0.598253
5.3821,0.016749,-0.001146,-1.573864,1.566194,0.0000,0.0000,0.0000,-0.001061,-1.575398,1.566194,0.0222,0.1871,-0.1132,0.000000,0.598253,-0.602854,0.602854,-0.605922,0.602854,-0.598253
5.3989,0.016746,-0.001197,-1.573864,1.566194,0.0000,0.0000,0.0000,-0.001111,-1.575398,1.566194,0.1157,0.2275,0.0657,0.000000,0.598253,-0.601320,0.602854,-0.604388,0.601320,-0.595185
5.4156,0.016750,-0.001247,-1.573864,1.566194,0.0000,0.0000,0.0000,-0.001111,-1.575398,1.566194,0.1157,0.2275,0.0657,0.000000,0.598253,-0.601320,0.602854,-0.604388,0.601320,-0.595185
5.4324,0.016743,-0.001297,-1.573864,1.566194,0.0000,0.0000,0.0000,-0.001168,-1.575398,1.566194,0.1481,0.1219,-0.0073,0.000000,0.598253,-0.599786,0.598253,-0.604388,0.601320,-0.593651
5.4491,0.016754,-0.001347,-1.573864,1.566194,0.0000,0.0000,0.0000,-0.001249,-1.575398,1.566194,0.1551,0.0819,-0.0538,0.000000,0.596719,-0.598253,0.595185,-0.602854,0.599786,-0.592117
5.4659,0.016751,-0.001398,-1.573864,1.566194,0.0000,0.0000,0.0000,-0.001289,-1.575398,1.566194,0.0344,0.0166,-0.0488,0.000000,0.593651,-0.598253,0.595185,-0.599786,0.599786,-0.592117
5.4826,0.016751,-0.001448,-1.573864,1.566194,0.0000,0.0000,0.0000,-0.001273,-1.575398,1.566194,0.0366,0.0744,0.0048,0.000000,0.593651,-0.598253,0.596719,-0.599786,0.599786,-0.592117
