t,loop_dt,cmd_z,cmd_ant_l,cmd_ant_r,cmd_roll,cmd_pitch,cmd_yaw,pres_z,pres_ant_l,pres_ant_r,pres_roll,pres_pitch,pres_yaw,pres_j0,pres_j1,pres_j2,pres_j3,pres_j4,pres_j5,pres_j6
0.0000,0.000002,-0.005000,-1.576932,1.566194,0.0000,0.0000,0.0000,-0.002496,-1.576932,1.566194,0.5713,1.1469,0.1872,0.000000,0.570641,-0.561437,0.572175,-0.592117,0.567573,-0.550699
0.0167,0.016745,-0.004916,-1.576932,1.566194,0.0000,0.0000,0.0000,-0.002483,-1.576932,1.566194,0.6262,1.1291,0.2467,0.000000,0.572175,-0.561437,0.572175,-0.592117,0.567573,-0.550699
0.0335,0.016772,-0.004832,-1.576932,1.566194,0.0000,0.0000,0.0000,-0.002483,-1.576932,1.566194,0.6262,1.1291,0.2467,0.000000,0.572175,-0.561437,0.572175,-0.592117,0.567573,-0.550699
0.0503,0.016744,-0.004749,-1.576932,1.566194,0.0000,0.0000,0.0000,-0.002497,-1.576932,1.566194,0.6702,1.1486,0.2940,0.000000,0.572175,-0.561437,0.572175,-0.592117,0.567573,-0.549165
0.0670,0.016753,-0.004665,-1.576932,1.566194,0.0000,0.0000,0.0000,-0.002483,-1.576932,1.566194,0.6159,1.1289,0.2355,0.000000,0.572175,-0.561437,0.572175,-0.592117,0.567573,-0.550699
0.0839,0.016843,-0.004581,-1.576932,1.566194,0.0000,0.0000,0.0000,-0.002806,-1.576932,1.566194,0.6112,1.0111,0.1343,0.000000,0.564505,-0.556835,0.564505,-0.584447,0.561437,-0.544563
0.1006,0.016765,-0.004497,-1.576932,1.566194,0.0000,0.0000,0.0000,-0.003680,-1.576932,1.566194,0.5309,0.8896,0.0908,0.000000,0.544563,-0.539961,0.546097,-0.562971,0.543029,-0.527689
0.1178,0.017162,-0.004411,-1.576932,1.566194,0.0000,0.0000,0.0000,-0.004529,-1.576932,1.566194,0.4389,0.7337,0.1460,0.000000,0.524621,-0.521553,0.526155,-0.541495,0.526155,-0.509282
0.1346,0.016770,-0.004327,-1.576932,1.566194,0.0000,0.0000,0.0000,-0.004529,-1.576932,1.566194,0.4389,0.7337,0.1460,0.000000,0.524621,-0.521553,0.526155,-0.541495,0.526155,-0.509282
0.1513,0.016760,-0.004243,-1.576932,1.566194,0.0000,0.0000,0.0000,-0.005156,-1.576932,1.566194,0.2568,0.5267,0.1915,0.000000,0.509282,-0.507748,0.512350,-0.521553,0.512350,-0.498544
0.1681,0.016760,-0.004160,-1.576932,1.566194,0.0000,0.0000,0.0000,-0.005355,-1.576932,1.566194,-0.0061,0.3045,0.2384,0.000000,0.501612,-0.503146,0.507748,-0.510816,0.509282,-0.497010
0.1849,0.016793,-0.004076,-1.576932,1.566194,0.0000,0.0000,0.0000,-0.005372,-1.576932,1.566194,-0.0390,0.2582,0.3890,0.000000,0.501612,-0.501612,0.507748,-0.507748,0.509282,-0.497010
0.2016,0.016765,-0.003992,-1.576932,1.566194,0.0000,0.0000,0.0000,-0.005383,-1.576932,1.566194,-0.0254,0.2111,0.3214,0.000000,0.501612,-0.501612,0.506214,-0.507748,0.509282,-0.497010
0.2187,0.017023,-0.003907,-1.576932,1.566194,0.0000,0.0000,0.0000,-0.005395,-1.576932,1.566194,0.0129,0.2508,0.2767,0.000000,0.501612,-0.501612,0.506214,-0.507748,0.507748,-0.497010
0.2354,0.016770,-0.003823,-1.576932,1.566194,0.0000,0.0000,0.0000,-0.005395,-1.576932,1.566194,0.0129,0.2508,0.2767,0.000000,0.501612,-0.501612,0.506214,-0.507748,0.507748,-0.497010
0.2522,0.016750,-0.003739,-1.576932,1.566194,0.0000,0.0000,0.0000,-0.005381,-1.576932,1.566194,-0.0013,0.2986,0.3332,0.000000,0.501612,-0.501612,0.507748,-0.507748,0.507748,-0.497010
0.2689,0.016751,-0.003655,-1.576932,1.566194,0.0000,0.0000,0.0000,-0.005382,-1.576932,1.566194,-0.0294,0.2069,0.3273,0.000000,0.501612,-0.501612,0.506214,-0.507748,0.509282,-0.497010
0.2857,0.016754,-0.003572,-1.576932,1.566194,0.0000,0.0000,0.0000,-0.005370,-1.576932,1.566194,-0.0164,0.2686,0.2760,0.000000,0.501612,-0.501612,0.506214,-0.509282,0.509282,-0.497010
0.3024,0.016756,-0.003488,-1.576932,1.566194,0.0000,0.0000,0.0000,-0.005371,-1.576932,1.566194,-0.0177,0.2622,0.2813,0.000000,0.501612,-0.501612,0.506214,-0.509282,0.509282,-0.497010
0.3192,0.016755,-0.003404,-1.576932,1.566194,0.0000,0.0000,0.0000,-0.005371,-1.576932,1.566194,-0.0177,0.2622,0.2813,0.000000,0.501612,-0.501612,0.506214,-0.509282,0.509282,-0.497010
0.3360,0.016767,-0.003320,-1.576932,1.566194,0.0000,0.0000,0.0000,-0.005371,-1.576932,1.566194,-0.0177,0.2622,0.2813,0.000000,0.501612,-0.501612,0.506214,-0.509282,0.509282,-0.497010
0.3527,0.016748,-0.003236,-1.576932,1.566194,0.0000,0.0000,0.0000,-0.005371,-1.576932,1.566194,-0.0177,0.2622,0.2813,0.000000,0.501612,-0.501612,0.506214,-0.509282,0.509282,-0.497010
0.3695,0.016758,-0.003153,-1.576932,1.566194,0.0000,0.0000,0.0000,-0.005371,-1.576932,1.566194,-0.0177,0.2622,0.2813,0.000000,0.501612,-0.501612,0.506214,-0.509282,0.509282,-0.497010
0.3862,0.016753,-0.003069,-1.576932,1.566194,0.0000,0.0000,0.0000,-0.005358,-1.576932,1.566194,-0.0075,0.3149,0.2288,0.000000,0.501612,-0.501612,0.506214,-0.510816,0.509282,-0.497010
0.4030,0.016757,-0.002985,-1.576932,1.566194,0.0000,0.0000,0.0000,-0.005360,-1.576932,1.566194,-0.0086,0.3094,0.2343,0.000000,0.501612,-0.501612,0.506214,-0.510816,0.509282,-0.497010
0.4197,0.016756,-0.002901,-1.576932,1.566194,0.0000,0.0000,0.0000,-0.005360,-1.576932,1.566194,-0.0086,0.3094,0.2343,0.000000,0.501612,-0.503146,0.506214,-0.510816,0.509282,-0.497010
0.4365,0.016752,-0.002818,-1.576932,1.566194,0.0000,0.0000,0.0000,-0.005347,-1.576932,1.566194,0.0315,0.2748,0.1821,0.000000,0.501612,-0.503146,0.506214,-0.510816,0.509282,-0.497010
0.4533,0.016781,-0.002734,-1.576932,1.566194,0.0000,0.0000,0.0000,-0.005348,-1.576932,1.566194,-0.0630,0.2962,0.1874,0.000000,0.501612,-0.501612,0.506214,-0.510816,0.509282,-0.498544
0.4700,0.016779,-0.002650,-1.576932,1.566194,0.0000,0.0000,0.0000,-0.005335,-1.576932,1.566194,-0.0132,0.2588,0.1352,0.000000,0.501612,-0.503146,0.506214,-0.510816,0.509282,-0.498544
0.4868,0.016753,-0.002566,-1.576932,1.566194,0.0000,0.0000,0.0000,-0.005349,-1.576932,1.566194,-0.0583,0.2978,0.1923,0.000000,0.501612,-0.501612,0.506214,-0.510816,0.509282,-0.498544
0.5036,0.016761,-0.002482,-1.576932,1.566194,0.0000,0.0000,0.0000,-0.005335,-1.576932,1.566194,-0.0137,0.2587,0.1347,0.000000,0.501612,-0.503146,0.506214,-0.510816,0.509282,-0.498544
0.5203,0.016773,-0.002398,-1.576932,1.566194,0.0000,0.0000,0.0000,-0.005335,-1.576932,1.566194,-0.0137,0.2587,0.1347,0.000000,0.501612,-0.503146,0.506214,-0.510816,0.509282,-0.500078
0.5371,0.016755,-0.002315,-1.576932,1.566194,0.0000,0.0000,0.0000,-0.005324,-1.576932,1.566194,-0.0687,0.2454,0.0889,0.000000,0.501612,-0.503146,0.506214,-0.510816,0.509282,-0.500078
0.5538,0.016751,-0.002231,-1.576932,1.566194,0.0000,0.0000,0.0000,-0.005350,-1.576932,1.566194,-0.0525,0.2992,0.1971,0.000000,0.501612,-0.501612,0.506214,-0.510816,0.509282,-0.498544
0.5706,0.016754,-0.002147,-1.576932,1.566194,0.0000,0.0000,0.0000,-0.005322,-1.576932,1.566194,-0.0042,0.3105,0.0822,0.000000,0.501612,-0.503146,0.506214,-0.512350,0.509282,-0.498544
0.5873,0.016758,-0.002063,-1.576932,1.566194,0.0000,0.0000,0.0000,-0.005263,-1.576932,1.566194,0.0615,0.3620,0.0422,0.000000,0.504680,-0.503146,0.506214,-0.515418,0.509282,-0.500078
0.6041,0.016758,-0.001979,-1.576932,1.566194,0.0000,0.0000,0.0000,-0.005183,-1.576932,1.566194,0.1963,0.5655,0.0977,0.000000,0.507748,-0.503146,0.507748,-0.521553,0.510816,-0.498544
0.6209,0.016761,-0.001896,-1.576932,1.566194,0.0000,0.0000,0.0000,-0.005183,-1.576932,1.566194,0.1963,0.5655,0.0977,0.000000,0.507748,-0.503146,0.507748,-0.521553,0.510816,-0.498544
0.6376,0.016763,-0.001812,-1.576932,1.566194,0.0000,0.0000,0.0000,-0.005191,-1.576932,1.566194,0.1822,0.5443,0.0919,0.000000,0.507748,-0.503146,0.507748,-0.521553,0.510816,-0.498544
0.6544,0.016752,-0.001728,-1.576932,1.566194,0.0000,0.0000,0.0000,-0.005053,-1.576932,1.566194,0.3151,0.4946,0.0406,0.000000,0.512350,-0.506214,0.507748,-0.526155,0.513884,-0.500078
0.6712,0.016798,-0.001644,-1.576932,1.566194,0.0000,0.0000,0.0000,-0.004969,-1.576932,1.566194,0.3720,0.5182,0.1499,0.000000,0.515418,-0.507748,0.509282,-0.529223,0.516952,-0.500078
0.6879,0.016759,-0.001560,-1.576932,1.566194,0.0000,0.0000,0.0000,-0.004640,-1.576932,1.566194,0.3975,0.6735,0.2949,0.000000,0.523087,-0.512350,0.516952,-0.538427,0.524621,-0.504680
0.7047,0.016753,-0.001477,-1.576932,1.566194,0.0000,0.0000,0.0000,-0.004640,-1.576932,1.566194,0.3975,0.6735,0.2949,0.000000,0.523087,-0.512350,0.516952,-0.538427,0.524621,-0.504680
0.7214,0.016755,-0.001393,-1.576932,1.566194,0.0000,0.0000,0.0000,-0.004523,-1.576932,1.566194,0.3448,0.7444,0.3844,0.000000,0.526155,-0.513884,0.521553,-0.541495,0.527689,-0.507748
0.7382,0.016760,-0.001309,-1.576932,1.566194,0.0000,0.0000,0.0000,-0.004385,-1.576932,1.566194,0.4005,0.8260,0.5852,0.000000,0.530757,-0.515418,0.526155,-0.544563,0.530757,-0.509282
0.7550,0.016756,-0.001225,-1.576932,1.566194,0.0000,0.0000,0.0000,-0.004249,-1.576932,1.566194,0.3947,0.8169,0.5651,0.000000,0.533825,-0.518486,0.529223,-0.547631,0.533825,-0.512350
0.7717,0.016758,-0.001141,-1.576932,1.566194,0.0000,0.0000,0.0000,-0.004086,-1.576932,1.566194,0.3348,0.8511,0.5683,0.000000,0.536893,-0.521553,0.533825,-0.550699,0.536893,-0.516952
0.7885,0.016768,-0.001058,-1.576932,1.566194,0.0000,0.0000,0.0000,-0.004086,-1.576932,1.566194,0.3348,0.8511,0.5683,0.000000,0.539961,-0.524621,0.535359,-0.553767,0.539961,-0.520019
0.8053,0.016793,-0.000974,-1.576932,1.566194,0.0000,0.0000,0.0000,-0.003966,-1.576932,1.566194,0.3518,0.7952,0.5162,0.000000,0.539961,-0.524621,0.535359,-0.553767,0.539961,-0.520019
0.8221,0.016795,-0.000890,-1.576932,1.566194,0.0000,0.0000,0.0000,-0.003853,-1.576932,1.566194,0.4004,0.7828,0.4173,0.000000,0.543029,-0.527689,0.536893,-0.556835,0.541495,-0.523087
0.8388,0.016762,-0.000806,-1.576932,1.566194,0.0000,0.0000,0.0000,-0.003777,-1.576932,1.566194,0.3053,0.8371,0.5854,0.000000,0.544563,-0.527689,0.539961,-0.558369,0.544563,-0.524621
0.8559,0.017061,-0.000721,-1.576932,1.566194,0.0000,0.0000,0.0000,-0.003659,-1.576932,1.566194,0.3051,0.7438,0.4637,0.000000,0.547631,-0.530757,0.541495,-0.559903,0.546097,-0.529223
0.8726,0.016750,-0.000637,-1.576932,1.566194,0.0000,0.0000,0.0000,-0.003585,-1.576932,1.566194,0.4055,0.8229,0.4245,0.000000,0.550699,-0.532291,0.543029,-0.562971,0.546097,-0.530757
0.8894,0.016763,-0.000553,-1.576932,1.566194,0.0000,0.0000,0.0000,-0.003585,-1.576932,1.566194,0.4055,0.8229,0.4245,0.000000,0.550699,-0.532291,0.543029,-0.562971,0.546097,-0.530757
0.9062,0.016750,-0.000469,-1.576932,1.566194,0.0000,0.0000,0.0000,-0.003530,-1.576932,1.566194,0.3957,0.7788,0.2706,0.000000,0.552233,-0.533825,0.543029,-0.564505,0.546097,-0.533825
0.9229,0.016762,-0.000385,-1.576932,1.566194,0.0000,0.0000,0.0000,-0.003475,-1.576932,1.566194,0.4973,0.7495,0.2348,0.000000,0.555301,-0.535359,0.543029,-0.566039,0.546097,-0.535359
0.9397,0.016755,-0.000302,-1.576932,1.566194,0.0000,0.0000,0.0000,-0.003394,-1.576932,1.566194,0.5383,0.7322,-0.0253,0.000000,0.556835,-0.538427,0.543029,-0.569107,0.546097,-0.538427
0.9564,0.016758,-0.000218,-1.576932,1.566194,0.0000,0.0000,0.0000,-0.003328,-1.576932,1.566194,0.6744,0.6643,-0.1029,0.000000,0.559903,-0.541495,0.543029,-0.570641,0.546097,-0.539961
0.9732,0.016753,-0.000134,-1.576932,1.566194,0.0000,0.0000,0.0000,-0.003225,-1.576932,1.566194,0.6328,0.6185,-0.2539,0.000000,0.562971,-0.543029,0.543029,-0.573709,0.547631,-0.544563
0.9900,0.016765,-0.000050,-1.576932,1.566194,0.0000,0.0000,0.0000,-0.003225,-1.576932,1.566194,0.6328,0.6185,-0.2539,0.000000,0.562971,-0.543029,0.543029,-0.573709,0.547631,-0.544563
1.0067,0.016755,0.000034,-1.576932,1.566194,0.0000,0.0000,0.0000,-0.003123,-1.576932,1.566194,0.7364,0.4502,-0.2911,0.000000,0.566039,-0.547631,0.543029,-0.575243,0.550699,-0.546097
1.0235,0.016762,0.000117,-1.576932,1.566194,0.0000,0.0000,0.0000,-0.002996,-1.576932,1.566194,0.7253,0.3956,-0.4474,0.000000,0.567573,-0.552233,0.544563,-0.578311,0.553767,-0.549165
1.0403,0.016823,0.000201,-1.576932,1.566194,0.0000,0.0000,0.0000,-0.002860,-1.576932,1.566194,0.7263,0.4012,-0.4317,0.000000,0.570641,-0.555301,0.547631,-0.581379,0.556835,-0.552233
1.0571,0.016769,0.000285,-1.576932,1.566194,0.0000,0.0000,0.0000,-0.002710,-1.576932,1.566194,0.6552,0.3844,-0.3807,0.000000,0.573709,-0.558369,0.552233,-0.582913,0.559903,-0.556835
1.0739,0.016822,0.000369,-1.576932,1.566194,0.0000,0.0000,0.0000,-0.002563,-1.576932,1.566194,0.6520,0.4380,-0.3333,0.000000,0.576777,-0.561437,0.556835,-0.585981,0.562971,-0.559903
1.0907,0.016778,0.000453,-1.576932,1.566194,0.0000,0.0000,0.0000,-0.002563,-1.576932,1.566194,0.6520,0.4380,-0.3333,0.000000,0.576777,-0.561437,0.556835,-0.585981,0.562971,-0.559903
1.1074,0.016766,0.000537,-1.576932,1.566194,0.0000,0.0000,0.0000,-0.002427,-1.576932,1.566194,0.6011,0.4834,-0.2325,0.000000,0.578311,-0.564505,0.561437,-0.589049,0.567573,-0.561437
1.1242,0.016765,0.000621,-1.576932,1.566194,0.0000,0.0000,0.0000,-0.002329,-1.576932,1.566194,0.6458,0.5456,-0.2967,0.000000,0.579845,-0.567573,0.564505,-0.592117,0.569107,-0.562971
1.1410,0.016767,0.000705,-1.576932,1.566194,0.0000,0.0000,0.0000,-0.002214,-1.576932,1.566194,0.6298,0.5926,-0.0760,0.000000,0.582913,-0.569107,0.569107,-0.593651,0.572175,-0.564505
1.1577,0.016762,0.000789,-1.576932,1.566194,0.0000,0.0000,0.0000,-0.002152,-1.576932,1.566194,0.6702,0.6565,0.0082,0.000000,0.584447,-0.570641,0.572175,-0.595185,0.573709,-0.564505
1.1749,0.017197,0.000875,-1.576932,1.566194,0.0000,0.0000,0.0000,-0.002048,-1.576932,1.566194,0.6371,0.7376,0.1601,0.000000,0.587515,-0.570641,0.575243,-0.598253,0.576777,-0.566039
1.1917,0.016768,0.000958,-1.576932,1.566194,0.0000,0.0000,0.0000,-0.002048,-1.576932,1.566194,0.6371,0.7376,0.1601,0.000000,0.587515,-0.570641,0.575243,-0.598253,0.576777,-0.566039
1.2084,0.016748,0.001042,-1.576932,1.566194,0.0000,0.0000,0.0000,-0.002009,-1.576932,1.566194,0.5903,0.8488,0.2512,0.000000,0.587515,-0.570641,0.578311,-0.599786,0.578311,-0.566039
1.2252,0.016761,0.001126,-1.576932,1.566194,0.0000,0.0000,0.0000,-0.001915,-1.576932,1.566194,0.5551,0.8741,0.4566,0.000000,0.590583,-0.570641,0.581379,-0.601320,0.581379,-0.567573
1.2420,0.016761,0.001210,-1.576932,1.566194,0.0000,0.0000,0.0000,-0.001852,-1.576932,1.566194,0.5790,0.8750,0.6503,0.000000,0.593651,-0.570641,0.582913,-0.602854,0.584447,-0.567573
1.2588,0.016794,0.001294,-1.576932,1.566194,0.0000,0.0000,0.0000,-0.001798,-1.576932,1.566194,0.5758,0.9790,0.7918,0.000000,0.595185,-0.570641,0.585981,-0.604388,0.585981,-0.567573
1.2755,0.016764,0.001378,-1.576932,1.566194,0.0000,0.0000,0.0000,-0.001743,-1.576932,1.566194,0.5082,0.9185,0.8304,0.000000,0.596719,-0.570641,0.585981,-0.605922,0.589049,-0.569107
1.2923,0.016769,0.001461,-1.576932,1.566194,0.0000,0.0000,0.0000,-0.001743,-1.576932,1.566194,0.5082,0.9185,0.8304,0.000000,0.596719,-0.570641,0.585981,-0.605922,0.589049,-0.569107
1.3090,0.016747,0.001545,-1.576932,1.566194,0.0000,0.0000,0.0000,-0.001663,-1.576932,1.566194,0.4371,0.9929,0.7722,0.000000,0.598253,-0.570641,0.587515,-0.608990,0.590583,-0.572175
1.3258,0.016757,0.001629,-1.576932,1.566194,0.0000,0.0000,0.0000,-0.001589,-1.576932,1.566194,0.4755,0.9056,0.9408,0.000000,0.602854,-0.570641,0.587515,-0.610524,0.593651,-0.573709
1.3426,0.016848,0.001713,-1.576932,1.566194,0.0000,0.0000,0.0000,-0.001473,-1.576932,1.566194,0.3829,0.9646,0.9233,0.000000,0.604388,-0.572175,0.590583,-0.613592,0.596719,-0.576777
1.3595,0.016810,0.001797,-1.576932,1.566194,0.0000,0.0000,0.0000,-0.001338,-1.576932,1.566194,0.3540,1.0595,0.8176,0.000000,0.607456,-0.573709,0.593651,-0.618194,0.598253,-0.581379
1.3762,0.016764,0.001881,-1.576932,1.566194,0.0000,0.0000,0.0000,-0.001338,-1.576932,1.566194,0.3540,1.0595,0.8176,0.000000,0.610524,-0.578311,0.596719,-0.621262,0.601320,-0.585981
1.3930,0.016767,0.001965,-1.576932,1.566194,0.0000,0.0000,0.0000,-0.001178,-1.576932,1.566194,0.3476,0.9953,0.7223,0.000000,0.610524,-0.578311,0.596719,-0.621262,0.601320,-0.585981
1.4098,0.016780,0.002049,-1.576932,1.566194,0.0000,0.0000,0.0000,-0.000984,-1.576932,1.566194,0.3375,0.9503,0.7885,0.000000,0.615126,-0.582913,0.601320,-0.624330,0.605922,-0.590583
1.4265,0.016752,0.002133,-1.576932,1.566194,0.0000,0.0000,0.0000,-0.000894,-1.576932,1.566194,0.3780,0.8864,0.7291,0.000000,0.618194,-0.585981,0.602854,-0.625864,0.607456,-0.593651
1.4433,0.016758,0.002216,-1.576932,1.566194,0.0000,0.0000,0.0000,-0.000751,-1.576932,1.566194,0.4202,0.8704,0.6289,0.000000,0.619728,-0.592117,0.607456,-0.627398,0.608990,-0.596719
1.4600,0.016756,0.002300,-1.576932,1.566194,0.0000,0.0000,0.0000,-0.000607,-1.576932,1.566194,0.4547,0.8724,0.5868,0.000000,0.624330,-0.595185,0.610524,-0.630466,0.610524,-0.601320
1.4768,0.016770,0.002384,-1.576932,1.566194,0.0000,0.0000,0.0000,-0.000607,-1.576932,1.566194,0.4547,0.8724,0.5868,0.000000,0.625864,-0.601320,0.613592,-0.632000,0.612058,-0.604388
1.4939,0.017071,0.002469,-1.576932,1.566194,0.0000,0.0000,0.0000,-0.000484,-1.576932,1.566194,0.5083,0.7995,0.4295,0.000000,0.625864,-0.601320,0.613592,-0.632000,0.612058,-0.604388
1.5106,0.016748,0.002553,-1.576932,1.566194,0.0000,0.0000,0.0000,-0.000397,-1.576932,1.566194,0.6083,0.8210,0.3386,0.000000,0.627398,-0.605922,0.616660,-0.633534,0.612058,-0.605922
1.5274,0.016761,0.002637,-1.576932,1.566194,0.0000,0.0000,0.0000,-0.000309,-1.576932,1.566194,0.6478,0.8335,0.2394,0.000000,0.628932,-0.608990,0.618194,-0.636602,0.613592,-0.607456
1.5441,0.016747,0.002721,-1.576932,1.566194,0.0000,0.0000,0.0000,-0.000219,-1.576932,1.566194,0.7269,0.8831,0.2524,0.000000,0.632000,-0.612058,0.622796,-0.636602,0.612058,-0.610524
1.5609,0.016757,0.002804,-1.576932,1.566194,0.0000,0.0000,0.0000,-0.000167,-1.576932,1.566194,0.8075,0.8259,0.0878,0.000000,0.633534,-0.615126,0.622796,-0.638136,0.612058,-0.612058
1.5776,0.016748,0.002888,-1.576932,1.566194,0.0000,0.0000,0.0000,-0.000167,-1.576932,1.566194,0.8075,0.8259,0.0878,0.000000,0.633534,-0.615126,0.622796,-0.638136,0.612058,-0.612058
1.5944,0.016758,0.002972,-1.576932,1.566194,0.0000,0.0000,0.0000,-0.000123,-1.576932,1.566194,0.7988,0.8637,0.1047,0.000000,0.633534,-0.616660,0.624330,-0.639670,0.613592,-0.612058
1.6111,0.016748,0.003056,-1.576932,1.566194,0.0000,0.0000,0.0000,-0.000116,-1.576932,1.566194,0.9264,0.8434,0.0497,0.000000,0.635068,-0.618194,0.624330,-0.639670,0.612058,-0.612058
1.6279,0.016758,0.003139,-1.576932,1.566194,0.0000,0.0000,0.0000,-0.000080,-1.576932,1.566194,0.9614,0.7615,0.1100,0.000000,0.636602,-0.619728,0.624330,-0.639670,0.613592,-0.612058
1.6447,0.016757,0.003223,-1.576932,1.566194,0.0000,0.0000,0.0000,-0.000002,-1.576932,1.566194,1.0792,0.8376,-0.0594,0.000000,0.639670,-0.621262,0.624330,-0.644272,0.613592,-0.613592
1.6615,0.016824,0.003307,-1.576932,1.566194,0.0000,0.0000,0.0000,-0.000002,-1.576932,1.566194,1.0792,0.8376,-0.0594,0.000000,0.642738,-0.624330,0.624330,-0.647340,0.619728,-0.615126
1.6782,0.016760,0.003391,-1.576932,1.566194,0.0000,0.0000,0.0000,0.000123,-1.576932,1.566194,1.0585,0.6770,0.0109,0.000000,0.642738,-0.624330,0.624330,-0.647340,0.619728,-0.615126
1.6950,0.016765,0.003475,-1.576932,1.566194,0.0000,0.0000,0.0000,0.000206,-1.576932,1.566194,0.9948,0.6417,-0.1074,0.000000,0.644272,-0.625864,0.624330,-0.650408,0.622796,-0.618194
1.7118,0.016752,0.003559,-1.576932,1.566194,0.0000,0.0000,0.0000,0.000521,-1.576932,1.566194,0.9288,0.5780,-0.1518,0.000000,0.651942,-0.630466,0.627398,-0.659612,0.632000,-0.625864
1.7286,0.016860,0.003643,-1.576932,1.566194,0.0000,0.0000,0.0000,0.000643,-1.576932,1.566194,0.9186,0.5494,-0.2034,0.000000,0.655010,-0.633534,0.628932,-0.664214,0.636602,-0.628932
1.7454,0.016762,0.003727,-1.576932,1.566194,0.0000,0.0000,0.0000,0.000643,-1.576932,1.566194,0.9186,0.5494,-0.2034,0.000000,0.655010,-0.633534,0.628932,-0.664214,0.636602,-0.628932
1.7621,0.016759,0.003811,-1.576932,1.566194,0.0000,0.0000,0.0000,0.000763,-1.576932,1.566194,0.8814,0.5871,-0.1431,0.000000,0.658078,-0.635068,0.632000,-0.667282,0.639670,-0.632000
1.7789,0.016755,0.003894,-1.576932,1.566194,0.0000,0.0000,0.0000,0.000921,-1.576932,1.566194,0.7860,0.6859,0.0710,0.000000,0.661146,-0.636602,0.638136,-0.670350,0.644272,-0.635068
1.7957,0.016764,0.003978,-1.576932,1.566194,0.0000,0.0000,0.0000,0.001025,-1.576932,1.566194,0.8337,0.8107,0.1600,0.000000,0.664214,-0.638136,0.642738,-0.673418,0.645806,-0.636602
1.8124,0.016757,0.004062,-1.576932,1.566194,0.0000,0.0000,0.0000,0.001135,-1.576932,1.566194,0.8280,0.8283,0.1505,0.000000,0.665748,-0.641204,0.645806,-0.676486,0.648874,-0.638136
1.8293,0.016900,0.004147,-1.576932,1.566194,0.0000,0.0000,0.0000,0.001135,-1.576932,1.566194,0.8280,0.8283,0.1505,0.000000,0.665748,-0.641204,0.645806,-0.676486,0.648874,-0.638136
1.8461,0.016758,0.004230,-1.576932,1.566194,0.0000,0.0000,0.0000,0.001268,-1.576932,1.566194,0.8655,0.8929,0.2630,0.000000,0.668816,-0.644272,0.650408,-0.679553,0.651942,-0.639670
1.8628,0.016756,0.004314,-1.576932,1.566194,0.0000,0.0000,0.0000,0.001389,-1.576932,1.566194,0.8771,0.9191,0.3082,0.000000,0.671884,-0.647340,0.655010,-0.681087,0.653476,-0.642738
1.8796,0.016764,0.004398,-1.576932,1.566194,0.0000,0.0000,0.0000,0.001508,-1.576932,1.566194,0.9237,0.9324,0.3597,0.000000,0.674952,-0.650408,0.658078,-0.684155,0.656544,-0.644272
1.8964,0.016767,0.004482,-1.576932,1.566194,0.0000,0.0000,0.0000,0.001592,-1.576932,1.566194,1.0321,0.9642,0.3564,0.000000,0.678020,-0.653476,0.661146,-0.685689,0.656544,-0.645806
1.9131,0.016753,0.004566,-1.576932,1.566194,0.0000,0.0000,0.0000,0.001666,-1.576932,1.566194,1.1822,1.0112,0.4149,0.000000,0.681087,-0.656544,0.664214,-0.687223,0.656544,-0.645806
1.9299,0.016772,0.004649,-1.576932,1.566194,0.0000,0.0000,0.0000,0.001666,-1.576932,1.566194,1.1822,1.0112,0.4149,0.000000,0.681087,-0.656544,0.664214,-0.687223,0.656544,-0.645806
1.9466,0.016756,0.004733,-1.576932,1.566194,0.0000,0.0000,0.0000,0.001754,-1.576932,1.566194,1.2792,1.0395,0.4113,0.000000,0.684155,-0.659612,0.667282,-0.688757,0.656544,-0.647340
1.9634,0.016758,0.004817,-1.576932,1.566194,0.0000,0.0000,0.0000,0.001851,-1.576932,1.566194,1.3932,1.1188,0.3586,0.000000,0.687223,-0.662680,0.670350,-0.691825,0.656544,-0.648874
1.9802,0.016760,0.004901,-1.576932,1.566194,0.0000,0.0000,0.0000,0.001901,-1.576932,1.566194,1.5052,1.1252,0.3098,0.000000,0.688757,-0.665748,0.671884,-0.693359,0.656544,-0.648874
1.9969,0.016752,0.004985,-1.576932,1.566194,0.0000,0.0000,0.0000,0.001979,-1.576932,1.566194,1.6541,1.1748,0.3738,0.000000,0.691825,-0.668816,0.674952,-0.694893,0.656544,-0.648874
2.0139,0.017038,0.004930,-1.576932,1.566194,0.0000,0.0000,0.0000,0.002053,-1.576932,1.566194,1.7716,1.1373,0.4241,0.000000,0.694893,-0.671884,0.676486,-0.696427,0.658078,-0.648874
2.0307,0.016768,0.004846,-1.576932,1.566194,0.0000,0.0000,0.0000,0.002053,-1.576932,1.566194,1.7716,1.1373,0.4241,0.000000,0.696427,-0.676486,0.681087,-0.697961,0.661146,-0.648874
2.0475,0.016750,0.004763,-1.576932,1.566194,0.0000,0.0000,0.0000,0.002167,-1.576932,1.566194,1.8209,1.1536,0.5312,0.000000,0.696427,-0.676486,0.681087,-0.697961,0.661146,-0.648874
2.0642,0.016747,0.004679,-1.576932,1.566194,0.0000,0.0000,0.0000,0.002272,-1.576932,1.566194,1.9106,1.1846,0.6331,0.000000,0.699495,-0.679553,0.684155,-0.701029,0.664214,-0.648874
2.0810,0.016750,0.004595,-1.576932,1.566194,0.0000,0.0000,0.0000,0.002378,-1.576932,1.566194,1.9961,1.2141,0.7357,0.000000,0.702563,-0.682621,0.687223,-0.704097,0.667282,-0.648874
2.0977,0.016767,0.004511,-1.576932,1.566194,0.0000,0.0000,0.0000,0.002483,-1.576932,1.566194,2.0819,1.2438,0.8384,0.000000,0.705631,-0.685689,0.690291,-0.707165,0.670350,-0.648874
2.1145,0.016745,0.004428,-1.576932,1.566194,0.0000,0.0000,0.0000,0.002541,-1.576932,1.566194,2.0554,1.1420,0.9372,0.000000,0.707165,-0.687223,0.690291,-0.708699,0.674952,-0.648874
2.1313,0.016790,0.004344,-1.576932,1.566194,0.0000,0.0000,0.0000,0.002581,-1.576932,1.566194,2.0308,1.1378,0.9268,0.000000,0.708699,-0.687223,0.690291,-0.710233,0.676486,-0.650408
2.1480,0.016747,0.004260,-1.576932,1.566194,0.0000,0.0000,0.0000,0.002581,-1.576932,1.566194,2.0308,1.1378,0.9268,0.000000,0.708699,-0.687223,0.690291,-0.710233,0.676486,-0.650408
2.1648,0.016747,0.004176,-1.576932,1.566194,0.0000,0.0000,0.0000,0.002580,-1.576932,1.566194,1.9369,1.1340,0.8147,0.000000,0.707165,-0.687223,0.690291,-0.710233,0.676486,-0.651942
2.1815,0.016746,0.004093,-1.576932,1.566194,0.0000,0.0000,0.0000,0.002592,-1.576932,1.566194,1.9088,1.1015,0.8815,0.000000,0.707165,-0.687223,0.690291,-0.710233,0.678020,-0.651942
2.1983,0.016757,0.004009,-1.576932,1.566194,0.0000,0.0000,0.0000,0.002601,-1.576932,1.566194,1.9596,1.0917,0.9315,0.000000,0.708699,-0.687223,0.690291,-0.710233,0.678020,-0.651942
2.2150,0.016749,0.003925,-1.576932,1.566194,0.0000,0.0000,0.0000,0.002610,-1.576932,1.566194,1.9655,1.1414,0.8704,0.000000,0.708699,-0.687223,0.690291,-0.711767,0.678020,-0.651942
2.2318,0.016770,0.003841,-1.576932,1.566194,0.0000,0.0000,0.0000,0.002610,-1.576932,1.566194,1.9655,1.1414,0.8704,0.000000,0.708699,-0.687223,0.690291,-0.711767,0.678020,-0.651942
2.2485,0.016749,0.003757,-1.576932,1.566194,0.0000,0.0000,0.0000,0.002599,-1.576932,1.566194,1.9537,1.0876,0.9327,0.000000,0.708699,-0.687223,0.690291,-0.710233,0.678020,-0.651942
2.2653,0.016756,0.003674,-1.576932,1.566194,0.0000,0.0000,0.0000,0.002590,-1.576932,1.566194,1.9071,1.1063,0.8692,0.000000,0.707165,-0.687223,0.690291,-0.710233,0.678020,-0.651942
2.2820,0.016746,0.003590,-1.576932,1.566194,0.0000,0.0000,0.0000,0.002601,-1.576932,1.566194,1.9231,1.1530,0.8199,0.000000,0.707165,-0.687223,0.690291,-0.711767,0.678020,-0.651942
2.2988,0.016761,0.003506,-1.576932,1.566194,0.0000,0.0000,0.0000,0.002589,-1.576932,1.566194,1.9102,1.0995,0.8810,0.000000,0.707165,-0.687223,0.690291,-0.710233,0.678020,-0.651942
2.3155,0.016748,0.003422,-1.576932,1.566194,0.0000,0.0000,0.0000,0.002601,-1.576932,1.566194,1.9595,1.0919,0.9316,0.000000,0.708699,-0.687223,0.690291,-0.710233,0.678020,-0.651942
2.3323,0.016748,0.003339,-1.576932,1.566194,0.0000,0.0000,0.0000,0.002601,-1.576932,1.566194,1.9595,1.0919,0.9316,0.000000,0.708699,-0.687223,0.690291,-0.710233,0.678020,-0.651942
2.3490,0.016749,0.003255,-1.576932,1.566194,0.0000,0.0000,0.0000,0.002589,-1.576932,1.566194,1.9065,1.1058,0.8693,0.000000,0.707165,-0.687223,0.690291,-0.710233,0.678020,-0.651942
2.3658,0.016742,0.003171,-1.576932,1.566194,0.0000,0.0000,0.0000,0.002591,-1.576932,1.566194,1.9120,1.1044,0.8758,0.000000,0.707165,-0.687223,0.690291,-0.710233,0.678020,-0.651942
2.3825,0.016743,0.003087,-1.576932,1.566194,0.0000,0.0000,0.0000,0.002570,-1.576932,1.566194,1.8157,1.1309,0.7613,0.000000,0.704097,-0.687223,0.690291,-0.710233,0.678020,-0.651942
2.3993,0.016747,0.003004,-1.576932,1.566194,0.0000,0.0000,0.0000,0.002561,-1.576932,1.566194,1.7777,1.1415,0.7163,0.000000,0.702563,-0.687223,0.690291,-0.710233,0.678020,-0.651942
2.4160,0.016750,0.002920,-1.576932,1.566194,0.0000,0.0000,0.0000,0.002541,-1.576932,1.566194,1.7226,1.1052,0.7201,0.000000,0.701029,-0.687223,0.690291,-0.708699,0.678020,-0.651942
2.4328,0.016762,0.002836,-1.576932,1.566194,0.0000,0.0000,0.0000,0.002541,-1.576932,1.566194,1.7226,1.1052,0.7201,0.000000,0.701029,-0.687223,0.690291,-0.708699,0.678020,-0.651942
2.4495,0.016752,0.002752,-1.576932,1.566194,0.0000,0.0000,0.0000,0.002443,-1.576932,1.566194,1.5032,0.9192,0.6595,0.000000,0.694893,-0.687223,0.688757,-0.702563,0.678020,-0.651942
2.4663,0.016744,0.002669,-1.576932,1.566194,0.0000,0.0000,0.0000,0.002398,-1.576932,1.566194,1.3975,0.8195,0.7202,0.000000,0.691825,-0.687223,0.688757,-0.697961,0.678020,-0.651942
2.4830,0.016747,0.002585,-1.576932,1.566194,0.0000,0.0000,0.0000,0.002392,-1.576932,1.566194,1.3765,0.7807,0.8824,0.000000,0.691825,-0.687223,0.690291,-0.694893,0.678020,-0.651942
2.4998,0.016746,0.002501,-1.576932,1.566194,0.0000,0.0000,0.0000,0.002382,-1.576932,1.566194,1.3307,0.7986,0.8090,0.000000,0.690291,-0.687223,0.690291,-0.694893,0.678020,-0.651942
2.5165,0.016751,0.002417,-1.576932,1.566194,0.0000,0.0000,0.0000,0.002359,-1.576932,1.566194,1.3354,0.6986,0.8156,0.000000,0.690291,-0.687223,0.688757,-0.693359,0.678020,-0.651942
2.5333,0.016756,0.002334,-1.576932,1.566194,0.0000,0.0000,0.0000,0.002359,-1.576932,1.566194,1.3354,0.6986,0.8156,0.000000,0.690291,-0.687223,0.688757,-0.693359,0.678020,-0.651942
2.5500,0.016754,0.002250,-1.576932,1.566194,0.0000,0.0000,0.0000,0.002281,-1.576932,1.566194,1.1322,0.6178,0.6442,0.000000,0.684155,-0.687223,0.687223,-0.690291,0.678020,-0.651942
2.5668,0.016747,0.002166,-1.576932,1.566194,0.0000,0.0000,0.0000,0.002183,-1.576932,1.566194,0.9342,0.5417,0.6043,0.000000,0.679553,-0.684155,0.684155,-0.687223,0.678020,-0.651942
2.5835,0.016746,0.002082,-1.576932,1.566194,0.0000,0.0000,0.0000,0.002157,-1.576932,1.566194,0.9176,0.4858,0.6640,0.000000,0.679553,-0.682621,0.682621,-0.685689,0.678020,-0.651942
2.6003,0.016744,0.001999,-1.576932,1.566194,0.0000,0.0000,0.0000,0.002100,-1.576932,1.566194,0.8442,0.3929,0.6008,0.000000,0.678020,-0.681087,0.679553,-0.684155,0.678020,-0.651942
2.6172,0.016902,0.001914,-1.576932,1.566194,0.0000,0.0000,0.0000,0.001975,-1.576932,1.566194,0.6165,0.3235,0.6624,0.000000,0.674952,-0.674952,0.674952,-0.681087,0.678020,-0.651942
2.6339,0.016747,0.001830,-1.576932,1.566194,0.0000,0.0000,0.0000,0.001975,-1.576932,1.566194,0.6165,0.3235,0.6624,0.000000,0.670350,-0.671884,0.673418,-0.676486,0.678020,-0.651942
2.6507,0.016750,0.001747,-1.576932,1.566194,0.0000,0.0000,0.0000,0.001882,-1.576932,1.566194,0.3997,0.2457,0.7114,0.000000,0.670350,-0.671884,0.673418,-0.676486,0.678020,-0.651942
2.6674,0.016746,0.001663,-1.576932,1.566194,0.0000,0.0000,0.0000,0.001857,-1.576932,1.566194,0.4115,0.2726,0.7622,0.000000,0.670350,-0.670350,0.673418,-0.674952,0.676486,-0.651942
2.6842,0.016744,0.001579,-1.576932,1.566194,0.0000,0.0000,0.0000,0.001801,-1.576932,1.566194,0.4362,0.2534,0.5891,0.000000,0.668816,-0.670350,0.671884,-0.673418,0.673418,-0.651942
2.7009,0.016749,0.001495,-1.576932,1.566194,0.0000,0.0000,0.0000,0.001676,-1.576932,1.566194,0.5557,0.2391,0.2162,0.000000,0.665748,-0.670350,0.667282,-0.671884,0.667282,-0.650408
2.7179,0.016951,0.001411,-1.576932,1.566194,0.0000,0.0000,0.0000,0.001606,-1.576932,1.566194,0.3116,0.2734,0.0881,0.000000,0.661146,-0.667282,0.665748,-0.670350,0.665748,-0.651942
2.7346,0.016746,0.001327,-1.576932,1.566194,0.0000,0.0000,0.0000,0.001606,-1.576932,1.566194,0.3116,0.2734,0.0881,0.000000,0.661146,-0.667282,0.665748,-0.670350,0.665748,-0.651942
2.7513,0.016750,0.001243,-1.576932,1.566194,0.0000,0.0000,0.0000,0.001494,-1.576932,1.566194,0.0786,0.2580,0.0136,-0.001534,0.658078,-0.661146,0.662680,-0.667282,0.664214,-0.653476
2.7681,0.016743,0.001160,-1.576932,1.566194,0.0000,0.0000,0.0000,0.001386,-1.576932,1.566194,0.1407,0.1640,0.1234,-0.001534,0.658078,-0.658078,0.659612,-0.662680,0.661146,-0.651942
2.7848,0.016705,0.001076,-1.576932,1.566194,0.0000,0.0000,0.0000,0.001373,-1.576932,1.566194,0.1072,0.1585,0.1998,0.000000,0.658078,-0.656544,0.658078,-0.662680,0.661146,-0.651942
2.8015,0.016743,0.000992,-1.576932,1.566194,0.0000,0.0000,0.0000,0.001302,-1.576932,1.566194,0.1107,0.1592,0.2008,0.000000,0.656544,-0.655010,0.656544,-0.661146,0.659612,-0.650408
2.8186,0.017068,0.000907,-1.576932,1.566194,0.0000,0.0000,0.0000,0.001130,-1.576932,1.566194,0.0295,0.0933,0.2330,0.001534,0.651942,-0.651942,0.653476,-0.655010,0.655010,-0.648874
2.8354,0.016745,0.000823,-1.576932,1.566194,0.0000,0.0000,0.0000,0.001130,-1.576932,1.566194,0.0295,0.0933,0.2330,0.001534,0.651942,-0.651942,0.653476,-0.655010,0.655010,-0.648874
2.8521,0.016748,0.000739,-1.576932,1.566194,0.0000,0.0000,0.0000,0.000979,-1.576932,1.566194,0.1136,0.1315,0.1278,0.001534,0.647340,-0.650408,0.650408,-0.651942,0.650408,-0.644272
2.8688,0.016744,0.000656,-1.576932,1.566194,0.0000,0.0000,0.0000,0.000958,-1.576932,1.566194,0.1428,0.1933,-0.0044,0.000000,0.645806,-0.650408,0.650408,-0.651942,0.648874,-0.642738
2.8856,0.016745,0.000572,-1.576932,1.566194,0.0000,0.0000,0.0000,0.000887,-1.576932,1.566194,0.1610,0.1869,-0.1105,0.000000,0.644272,-0.648874,0.647340,-0.651942,0.647340,-0.641204
2.9023,0.016747,0.000488,-1.576932,1.566194,0.0000,0.0000,0.0000,0.000786,-1.576932,1.566194,0.0454,0.1224,0.0663,0.000000,0.642738,-0.644272,0.644272,-0.648874,0.647340,-0.639670
2.9191,0.016760,0.000405,-1.576932,1.566194,0.0000,0.0000,0.0000,0.000687,-1.576932,1.566194,-0.0189,0.1292,-0.0073,0.000000,0.639670,-0.641204,0.641204,-0.647340,0.645806,-0.638136
2.9358,0.016745,0.000321,-1.576932,1.566194,0.0000,0.0000,0.0000,0.000687,-1.576932,1.566194,-0.0189,0.1292,-0.0073,0.000000,0.639670,-0.641204,0.641204,-0.647340,0.645806,-0.638136
2.9526,0.016745,0.000237,-1.576932,1.566194,0.0000,0.0000,0.0000,0.000480,-1.576932,1.566194,-0.0336,0.1290,0.1105,0.000000,0.635068,-0.636602,0.638136,-0.641204,0.641204,-0.633534
2.9693,0.016747,0.000153,-1.576932,1.566194,0.0000,0.0000,0.0000,0.000404,-1.576932,1.566194,0.0657,0.1983,0.2081,0.000000,0.635068,-0.633534,0.636602,-0.639670,0.638136,-0.630466
2.9861,0.016746,0.000070,-1.576932,1.566194,0.0000,0.0000,0.0000,0.000363,-1.576932,1.566194,0.0829,0.2069,0.1980,0.000000,0.633534,-0.633534,0.636602,-0.638136,0.636602,-0.628932
3.0028,0.016742,-0.000014,-1.576932,1.566194,0.0000,0.0000,0.0000,0.000294,-1.576932,1.566194,0.0596,0.1685,-0.0209,0.000000,0.628932,-0.635068,0.635068,-0.636602,0.635068,-0.627398
3.0197,0.016901,-0.000099,-1.576932,1.566194,0.0000,0.0000,0.0000,0.000155,-1.576932,1.566194,0.0452,0.1070,0.1115,0.000000,0.627398,-0.630466,0.630466,-0.633534,0.633534,-0.624330
3.0365,0.016742,-0.000182,-1.576932,1.566194,0.0000,0.0000,0.0000,0.000155,-1.576932,1.566194,0.0452,0.1070,0.1115,0.000000,0.627398,-0.630466,0.630466,-0.633534,0.633534,-0.624330
3.0532,0.016744,-0.000266,-1.576932,1.566194,0.0000,0.0000,0.0000,-0.000037,-1.576932,1.566194,0.1445,0.1828,0.0428,0.000000,0.624330,-0.625864,0.625864,-0.630466,0.627398,-0.619728
3.0700,0.016744,-0.000350,-1.576932,1.566194,0.0000,0.0000,0.0000,-0.000127,-1.576932,1.566194,0.1556,0.1755,0.1045,0.000000,0.622796,-0.622796,0.622796,-0.628932,0.625864,-0.616660
3.0868,0.016843,-0.000434,-1.576932,1.566194,0.0000,0.0000,0.0000,-0.000142,-1.576932,1.566194,0.1056,0.1606,0.2075,0.000000,0.622796,-0.621262,0.622796,-0.627398,0.625864,-0.616660
3.1035,0.016747,-0.000518,-1.576932,1.566194,0.0000,0.0000,0.0000,-0.000189,-1.576932,1.566194,0.1000,0.1112,0.0874,0.000000,0.621262,-0.621262,0.621262,-0.625864,0.624330,-0.616660
3.1203,0.016762,-0.000602,-1.576932,1.566194,0.0000,0.0000,0.0000,-0.000331,-1.576932,1.566194,0.1177,0.1827,-0.0094,0.000000,0.616660,-0.619728,0.619728,-0.622796,0.619728,-0.613592
3.1374,0.017085,-0.000687,-1.576932,1.566194,0.0000,0.0000,0.0000,-0.000331,-1.576932,1.566194,0.1177,0.1827,-0.0094,0.000000,0.616660,-0.619728,0.619728,-0.622796,0.619728,-0.613592
3.1545,0.017082,-0.000772,-1.576932,1.566194,0.0000,0.0000,0.0000,-0.000524,-1.576932,1.566194,0.1543,0.1412,-0.0539,0.000000,0.612058,-0.616660,0.615126,-0.618194,0.615126,-0.608990
3.1712,0.016743,-0.000856,-1.576932,1.566194,0.0000,0.0000,0.0000,-0.000541,-1.576932,1.566194,0.1719,0.1457,0.0052,0.000000,0.612058,-0.615126,0.613592,-0.618194,0.615126,-0.607456
3.1880,0.016756,-0.000940,-1.576932,1.566194,0.0000,0.0000,0.0000,-0.000625,-1.576932,1.566194,0.0719,0.2468,0.0535,0.000000,0.608990,-0.612058,0.613592,-0.616660,0.613592,-0.605922
3.2047,0.016740,-0.001024,-1.576932,1.566194,0.0000,0.0000,0.0000,-0.000702,-1.576932,1.566194,-0.0443,0.1190,0.1029,0.000000,0.607456,-0.608990,0.610524,-0.613592,0.613592,-0.605922
3.2216,0.016917,-0.001108,-1.576932,1.566194,0.0000,0.0000,0.0000,-0.000702,-1.576932,1.566194,-0.0443,0.1190,0.1029,0.000000,0.605922,-0.605922,0.608990,-0.610524,0.613592,-0.604388
3.2384,0.016747,-0.001192,-1.576932,1.566194,0.0000,0.0000,0.0000,-0.000780,-1.576932,1.566194,-0.1198,0.0819,0.2608,0.000000,0.605922,-0.605922,0.608990,-0.610524,0.613592,-0.604388
3.2551,0.016757,-0.001276,-1.576932,1.566194,0.0000,0.0000,0.0000,-0.001055,-1.576932,1.566194,0.0740,0.1371,0.1893,0.000000,0.601320,-0.601320,0.602854,-0.605922,0.605922,-0.596719
3.2719,0.016741,-0.001359,-1.576932,1.566194,0.0000,0.0000,0.0000,-0.001162,-1.576932,1.566194,0.2018,0.1153,0.0340,0.000000,0.599786,-0.599786,0.598253,-0.604388,0.601320,-0.593651
3.2889,0.016994,-0.001444,-1.576932,1.566194,0.0000,0.0000,0.0000,-0.001175,-1.576932,1.566194,0.1779,0.1679,-0.0581,0.000000,0.598253,-0.599786,0.598253,-0.604388,0.599786,-0.593651
3.3056,0.016751,-0.001528,-1.576932,1.566194,0.0000,0.0000,0.0000,-0.001186,-1.576932,1.566194,0.1699,0.2460,0.0056,0.000000,0.596719,-0.599786,0.599786,-0.604388,0.599786,-0.592117
3.3232,0.017589,-0.001616,-1.576932,1.566194,0.0000,0.0000,0.0000,-0.001567,-1.576932,1.566194,-0.0268,0.1693,-0.0548,0.000000,0.585981,-0.592117,0.592117,-0.595185,0.593651,-0.585981
3.3400,0.016754,-0.001700,-1.576932,1.566194,0.0000,0.0000,0.0000,-0.001567,-1.576932,1.566194,-0.0268,0.1693,-0.0548,0.000000,0.585981,-0.592117,0.592117,-0.595185,0.593651,-0.585981
3.3567,0.016757,-0.001784,-1.576932,1.566194,0.0000,0.0000,0.0000,-0.001528,-1.576932,1.566194,-0.0067,0.1773,-0.0486,0.000000,0.585981,-0.592117,0.592117,-0.595185,0.593651,-0.585981
3.3735,0.016743,-0.001867,-1.576932,1.566194,0.0000,0.0000,0.0000,-0.001631,-1.576932,1.566194,0.0620,0.1605,0.0585,0.000000,0.585981,-0.589049,0.589049,-0.593651,0.592117,-0.582913
3.3902,0.016745,-0.001951,-1.576932,1.566194,0.0000,0.0000,0.0000,-0.001706,-1.576932,1.566194,0.1222,0.1112,-0.0065,0.000000,0.584447,-0.589049,0.587515,-0.590583,0.589049,-0.581379
3.4070,0.016753,-0.002035,-1.576932,1.566194,0.0000,0.0000,0.0000,-0.001860,-1.576932,1.566194,0.0663,0.1329,-0.0535,0.000000,0.579845,-0.585981,0.584447,-0.587515,0.585981,-0.578311
3.4238,0.016816,-0.002119,-1.576932,1.566194,0.0000,0.0000,0.0000,-0.001844,-1.576932,1.566194,0.0721,0.1306,-0.0486,0.000000,0.579845,-0.585981,0.584447,-0.587515,0.585981,-0.578311
3.4405,0.016747,-0.002203,-1.576932,1.566194,0.0000,0.0000,0.0000,-0.001844,-1.576932,1.566194,0.0721,0.1306,-0.0486,0.000000,0.579845,-0.585981,0.584447,-0.587515,0.585981,-0.578311
3.4573,0.016756,-0.002286,-1.576932,1.566194,0.0000,0.0000,0.0000,-0.002131,-1.576932,1.566194,-0.1328,0.2509,0.4333,0.000000,0.573709,-0.575243,0.581379,-0.581379,0.584447,-0.570641
3.4740,0.016742,-0.002370,-1.576932,1.566194,0.0000,0.0000,0.0000,-0.002138,-1.576932,1.566194,-0.1226,0.2565,0.4368,0.000000,0.573709,-0.573709,0.581379,-0.579845,0.582913,-0.570641
3.4908,0.016744,-0.002454,-1.576932,1.566194,0.0000,0.0000,0.0000,-0.002273,-1.576932,1.566194,-0.0536,0.1049,0.4703,0.001534,0.573709,-0.570641,0.575243,-0.576777,0.579845,-0.569107
3.5075,0.016745,-0.002538,-1.576932,1.566194,0.0000,0.0000,0.0000,-0.002408,-1.576932,1.566194,-0.0428,0.1879,0.3685,0.001534,0.569107,-0.569107,0.573709,-0.573709,0.575243,-0.566039
3.5243,0.016768,-0.002621,-1.576932,1.566194,0.0000,0.0000,0.0000,-0.002481,-1.576932,1.566194,-0.0651,0.2818,0.3254,0.001534,0.566039,-0.567573,0.573709,-0.572175,0.572175,-0.564505
3.5410,0.016717,-0.002705,-1.576932,1.566194,0.0000,0.0000,0.0000,-0.002481,-1.576932,1.566194,-0.0651,0.2818,0.3254,0.001534,0.566039,-0.567573,0.573709,-0.572175,0.572175,-0.564505
3.5578,0.016757,-0.002789,-1.576932,1.566194,0.0000,0.0000,0.0000,-0.002573,-1.576932,1.566194,-0.0130,0.0836,0.1351,0.000000,0.564505,-0.567573,0.569107,-0.569107,0.570641,-0.562971
3.5745,0.016751,-0.002873,-1.576932,1.566194,0.0000,0.0000,0.0000,-0.002689,-1.576932,1.566194,0.0418,0.1028,0.1455,0.000000,0.561437,-0.566039,0.566039,-0.567573,0.569107,-0.558369
3.5913,0.016751,-0.002956,-1.576932,1.566194,0.0000,0.0000,0.0000,-0.002739,-1.576932,1.566194,-0.0032,0.2386,0.1975,0.000000,0.559903,-0.562971,0.566039,-0.567573,0.567573,-0.556835
3.6082,0.016928,-0.003041,-1.576932,1.566194,0.0000,0.0000,0.0000,-0.002808,-1.576932,1.566194,-0.0482,0.3109,0.2983,0.000000,0.558369,-0.559903,0.566039,-0.566039,0.566039,-0.555301
3.6252,0.016990,-0.003126,-1.576932,1.566194,0.0000,0.0000,0.0000,-0.003087,-1.576932,1.566194,-0.0937,0.2872,0.2339,0.000000,0.552233,-0.553767,0.559903,-0.559903,0.559903,-0.550699
3.6419,0.016713,-0.003209,-1.576932,1.566194,0.0000,0.0000,0.0000,-0.003087,-1.576932,1.566194,-0.0937,0.2872,0.2339,0.000000,0.552233,-0.553767,0.559903,-0.559903,0.559903,-0.550699
3.6586,0.016753,-0.003293,-1.576932,1.566194,0.0000,0.0000,0.0000,-0.003158,-1.576932,1.566194,-0.1286,0.1186,0.1344,0.000000,0.550699,-0.552233,0.555301,-0.556835,0.558369,-0.550699
3.6754,0.016742,-0.003377,-1.576932,1.566194,0.0000,0.0000,0.0000,-0.003188,-1.576932,1.566194,-0.0461,0.1361,0.1978,0.000000,0.550699,-0.552233,0.555301,-0.555301,0.556835,-0.549165
3.6921,0.016763,-0.003461,-1.576932,1.566194,0.0000,0.0000,0.0000,-0.003210,-1.576932,1.566194,-0.0838,0.1178,0.1911,0.000000,0.550699,-0.550699,0.553767,-0.555301,0.556835,-0.549165
3.7090,0.016828,-0.003545,-1.576932,1.566194,0.0000,0.0000,0.0000,-0.003333,-1.576932,1.566194,-0.0798,0.1868,0.1915,0.000000,0.546097,-0.549165,0.552233,-0.553767,0.555301,-0.544563
3.7259,0.016880,-0.003629,-1.576932,1.566194,0.0000,0.0000,0.0000,-0.003558,-1.576932,1.566194,-0.0411,0.2148,0.1381,0.000000,0.541495,-0.544563,0.547631,-0.549165,0.549165,-0.539961
3.7427,0.016809,-0.003713,-1.576932,1.566194,0.0000,0.0000,0.0000,-0.003558,-1.576932,1.566194,-0.0411,0.2148,0.1381,0.000000,0.541495,-0.544563,0.547631,-0.549165,0.549165,-0.539961
3.7594,0.016753,-0.003797,-1.576932,1.566194,0.0000,0.0000,0.0000,-0.003598,-1.576932,1.566194,0.0051,0.1592,0.1964,0.000000,0.539961,-0.544563,0.546097,-0.547631,0.549165,-0.536893
3.7762,0.016746,-0.003881,-1.576932,1.566194,0.0000,0.0000,0.0000,-0.003644,-1.576932,1.566194,0.0402,0.2000,0.2957,0.000000,0.539961,-0.543029,0.546097,-0.546097,0.547631,-0.535359
3.7929,0.016753,-0.003965,-1.576932,1.566194,0.0000,0.0000,0.0000,-0.003727,-1.576932,1.566194,0.0264,0.1442,0.3379,0.000000,0.538427,-0.541495,0.544563,-0.543029,0.546097,-0.533825
3.8097,0.016747,-0.004048,-1.576932,1.566194,0.0000,0.0000,0.0000,-0.003855,-1.576932,1.566194,-0.0229,0.1692,0.2804,0.000000,0.536893,-0.536893,0.541495,-0.539961,0.541495,-0.533825
3.8267,0.017008,-0.004133,-1.576932,1.566194,0.0000,0.0000,0.0000,-0.004105,-1.576932,1.566194,-0.0972,0.1669,0.2330,0.000000,0.530757,-0.530757,0.535359,-0.535359,0.536893,-0.529223
3.8434,0.016744,-0.004217,-1.576932,1.566194,0.0000,0.0000,0.0000,-0.004105,-1.576932,1.566194,-0.0972,0.1669,0.2330,0.000000,0.530757,-0.530757,0.535359,-0.535359,0.536893,-0.529223
3.8602,0.016754,-0.004301,-1.576932,1.566194,0.0000,0.0000,0.0000,-0.004180,-1.576932,1.566194,-0.1187,0.1146,0.2378,0.000000,0.527689,-0.529223,0.532291,-0.533825,0.536893,-0.526155
3.8769,0.016746,-0.004385,-1.576932,1.566194,0.0000,0.0000,0.0000,-0.004185,-1.576932,1.566194,-0.1666,0.1368,0.1848,0.000000,0.526155,-0.529223,0.532291,-0.533825,0.536893,-0.526155
3.8937,0.016751,-0.004468,-1.576932,1.566194,0.0000,0.0000,0.0000,-0.004209,-1.576932,1.566194,-0.0719,0.1864,0.1902,0.000000,0.526155,-0.529223,0.532291,-0.533825,0.535359,-0.524621
3.9104,0.016740,-0.004552,-1.576932,1.566194,0.0000,0.0000,0.0000,-0.004307,-1.576932,1.566194,-0.0124,0.2331,0.2942,0.000000,0.524621,-0.527689,0.532291,-0.530757,0.532291,-0.521553
3.9272,0.016760,-0.004636,-1.576932,1.566194,0.0000,0.0000,0.0000,-0.004523,-1.576932,1.566194,-0.0186,0.2286,0.2827,0.000000,0.520019,-0.523087,0.527689,-0.526155,0.527689,-0.516952
3.9439,0.016741,-0.004720,-1.576932,1.566194,0.0000,0.0000,0.0000,-0.004523,-1.576932,1.566194,-0.0186,0.2286,0.2827,0.000000,0.520019,-0.523087,0.527689,-0.526155,0.527689,-0.516952
3.9607,0.016755,-0.004803,-1.576932,1.566194,0.0000,0.0000,0.0000,-0.004677,-1.576932,1.566194,-0.0287,0.1434,0.1791,0.000000,0.516952,-0.520019,0.523087,-0.521553,0.523087,-0.515418
3.9774,0.016743,-0.004887,-1.576932,1.566194,0.0000,0.0000,0.0000,-0.004673,-1.576932,1.566194,-0.0175,0.1004,0.1376,0.000000,0.516952,-0.520019,0.521553,-0.521553,0.523087,-0.515418
3.9942,0.016749,-0.004971,-1.576932,1.566194,0.0000,0.0000,0.0000,-0.004712,-1.576932,1.566194,-0.0583,0.1739,0.1940,0.000000,0.515418,-0.518486,0.521553,-0.521553,0.523087,-0.513884
4.0109,0.016748,-0.004945,-1.576932,1.566194,0.0000,0.0000,0.0000,-0.004796,-1.576932,1.566194,-0.0939,0.2013,0.2400,0.000000,0.513884,-0.515418,0.520019,-0.520019,0.521553,-0.512350
4.0277,0.016777,-0.004862,-1.576932,1.566194,0.0000,0.0000,0.0000,-0.005001,-1.576932,1.566194,-0.0803,0.2508,0.1825,0.000000,0.509282,-0.510816,0.515418,-0.516952,0.516952,-0.507748
4.0444,0.016746,-0.004778,-1.576932,1.566194,0.0000,0.0000,0.0000,-0.005001,-1.576932,1.566194,-0.0803,0.2508,0.1825,0.000000,0.509282,-0.510816,0.515418,-0.516952,0.516952,-0.507748
4.0612,0.016751,-0.004694,-1.576932,1.566194,0.0000,0.0000,0.0000,-0.005094,-1.576932,1.566194,-0.0619,0.1409,0.2405,0.000000,0.506214,-0.510816,0.513884,-0.512350,0.515418,-0.504680
4.0779,0.016750,-0.004610,-1.576932,1.566194,0.0000,0.0000,0.0000,-0.005147,-1.576932,1.566194,-0.1142,0.1352,0.1825,0.000000,0.504680,-0.509282,0.512350,-0.510816,0.513884,-0.504680
4.0947,0.016754,-0.004527,-1.576932,1.566194,0.0000,0.0000,0.0000,-0.005129,-1.576932,1.566194,-0.0585,0.1187,0.2404,0.000000,0.506214,-0.509282,0.512350,-0.510816,0.513884,-0.504680
4.1114,0.016744,-0.004443,-1.576932,1.566194,0.0000,0.0000,0.0000,-0.005131,-1.576932,1.566194,-0.0746,0.1025,0.1306,0.000000,0.504680,-0.510816,0.512350,-0.510816,0.513884,-0.504680
4.1282,0.016754,-0.004359,-1.576932,1.566194,0.0000,0.0000,0.0000,-0.005131,-1.576932,1.566194,-0.0746,0.1025,0.1306,0.000000,0.504680,-0.510816,0.512350,-0.510816,0.513884,-0.504680
4.1449,0.016747,-0.004275,-1.576932,1.566194,0.0000,0.0000,0.0000,-0.005156,-1.576932,1.566194,-0.1028,0.0873,0.1420,0.000000,0.504680,-0.509282,0.510816,-0.510816,0.513884,-0.504680
4.1617,0.016748,-0.004192,-1.576932,1.566194,0.0000,0.0000,0.0000,-0.005153,-1.576932,1.566194,-0.0998,0.0889,0.1408,0.000000,0.504680,-0.509282,0.510816,-0.510816,0.513884,-0.504680
4.1784,0.016761,-0.004108,-1.576932,1.566194,0.0000,0.0000,0.0000,-0.005141,-1.576932,1.566194,-0.1102,0.1406,0.1929,0.000000,0.504680,-0.509282,0.512350,-0.510816,0.513884,-0.504680
4.1952,0.016750,-0.004024,-1.576932,1.566194,0.0000,0.0000,0.0000,-0.005142,-1.576932,1.566194,-0.1091,0.1352,0.1874,0.000000,0.504680,-0.509282,0.512350,-0.510816,0.513884,-0.504680
4.2120,0.016825,-0.003940,-1.576932,1.566194,0.0000,0.0000,0.0000,-0.005142,-1.576932,1.566194,-0.1091,0.1352,0.1874,0.000000,0.504680,-0.509282,0.512350,-0.510816,0.513884,-0.504680
4.2288,0.016762,-0.003856,-1.576932,1.566194,0.0000,0.0000,0.0000,-0.005142,-1.576932,1.566194,-0.1091,0.1352,0.1874,0.000000,0.504680,-0.509282,0.512350,-0.510816,0.513884,-0.504680
4.2455,0.016748,-0.003772,-1.576932,1.566194,0.0000,0.0000,0.0000,-0.005142,-1.576932,1.566194,-0.1091,0.1352,0.1874,0.000000,0.504680,-0.509282,0.512350,-0.510816,0.513884,-0.504680
4.2623,0.016759,-0.003689,-1.576932,1.566194,0.0000,0.0000,0.0000,-0.005129,-1.576932,1.566194,-0.0590,0.1187,0.2399,0.000000,0.506214,-0.509282,0.512350,-0.510816,0.513884,-0.504680
4.2791,0.016786,-0.003605,-1.576932,1.566194,0.0000,0.0000,0.0000,-0.005143,-1.576932,1.566194,-0.1145,0.1375,0.1825,0.000000,0.504680,-0.509282,0.512350,-0.510816,0.513884,-0.504680
4.2958,0.016751,-0.003521,-1.576932,1.566194,0.0000,0.0000,0.0000,-0.005142,-1.576932,1.566194,-0.1087,0.1355,0.1885,0.000000,0.504680,-0.509282,0.512350,-0.510816,0.513884,-0.504680
4.3129,0.017067,-0.003436,-1.576932,1.566194,0.0000,0.0000,0.0000,-0.005142,-1.576932,1.566194,-0.1087,0.1355,0.1885,0.000000,0.504680,-0.509282,0.512350,-0.510816,0.513884,-0.504680
4.3296,0.016752,-0.003352,-1.576932,1.566194,0.0000,0.0000,0.0000,-0.005142,-1.576932,1.566194,-0.1087,0.1355,0.1885,0.000000,0.504680,-0.509282,0.512350,-0.510816,0.513884,-0.504680
4.3464,0.016752,-0.003268,-1.576932,1.566194,0.0000,0.0000,0.0000,-0.005142,-1.576932,1.566194,-0.1087,0.1355,0.1885,0.000000,0.504680,-0.509282,0.512350,-0.510816,0.513884,-0.504680
4.3631,0.016746,-0.003184,-1.576932,1.566194,0.0000,0.0000,0.0000,-0.005142,-1.576932,1.566194,-0.1087,0.1355,0.1885,0.000000,0.504680,-0.509282,0.512350,-0.510816,0.513884,-0.504680
4.3800,0.016849,-0.003100,-1.576932,1.566194,0.0000,0.0000,0.0000,-0.005142,-1.576932,1.566194,-0.1087,0.1355,0.1885,0.000000,0.504680,-0.509282,0.512350,-0.510816,0.513884,-0.504680
4.3967,0.016749,-0.003016,-1.576932,1.566194,0.0000,0.0000,0.0000,-0.005129,-1.576932,1.566194,-0.0591,0.1187,0.2398,0.000000,0.506214,-0.509282,0.512350,-0.510816,0.513884,-0.504680
4.4136,0.016897,-0.002932,-1.576932,1.566194,0.0000,0.0000,0.0000,-0.005143,-1.576932,1.566194,-0.1145,0.1375,0.1826,0.000000,0.504680,-0.509282,0.512350,-0.510816,0.513884,-0.504680
4.4304,0.016764,-0.002848,-1.576932,1.566194,0.0000,0.0000,0.0000,-0.005143,-1.576932,1.566194,-0.1145,0.1375,0.1826,0.000000,0.504680,-0.509282,0.512350,-0.510816,0.513884,-0.504680
4.4471,0.016748,-0.002764,-1.576932,1.566194,0.0000,0.0000,0.0000,-0.005142,-1.576932,1.566194,-0.1087,0.1355,0.1885,0.000000,0.504680,-0.509282,0.512350,-0.510816,0.513884,-0.504680
4.4639,0.016746,-0.002681,-1.576932,1.566194,0.0000,0.0000,0.0000,-0.005142,-1.576932,1.566194,-0.1087,0.1355,0.1885,0.000000,0.504680,-0.509282,0.512350,-0.510816,0.513884,-0.504680
4.4806,0.016759,-0.002597,-1.576932,1.566194,0.0000,0.0000,0.0000,-0.005130,-1.576932,1.566194,-0.0694,0.1008,0.1360,0.000000,0.504680,-0.510816,0.512350,-0.510816,0.513884,-0.504680
4.4974,0.016748,-0.002513,-1.576932,1.566194,0.0000,0.0000,0.0000,-0.005131,-1.576932,1.566194,-0.0631,0.1223,0.2453,0.000000,0.506214,-0.509282,0.512350,-0.510816,0.513884,-0.504680
4.5142,0.016763,-0.002429,-1.576932,1.566194,0.0000,0.0000,0.0000,-0.005131,-1.576932,1.566194,-0.0631,0.1223,0.2453,0.000000,0.506214,-0.510816,0.512350,-0.510816,0.515418,-0.506214
4.5309,0.016747,-0.002345,-1.576932,1.566194,0.0000,0.0000,0.0000,-0.005093,-1.576932,1.566194,-0.1139,0.0330,0.1822,0.000000,0.506214,-0.510816,0.512350,-0.510816,0.515418,-0.506214
4.5477,0.016747,-0.002262,-1.576932,1.566194,0.0000,0.0000,0.0000,-0.005071,-1.576932,1.566194,-0.1087,0.1464,0.1887,0.000000,0.506214,-0.510816,0.513884,-0.512350,0.515418,-0.506214
4.5644,0.016747,-0.002178,-1.576932,1.566194,0.0000,0.0000,0.0000,-0.005036,-1.576932,1.566194,-0.0990,0.1167,0.1361,0.000000,0.506214,-0.512350,0.513884,-0.513884,0.516952,-0.506214
4.5812,0.016755,-0.002094,-1.576932,1.566194,0.0000,0.0000,0.0000,-0.005015,-1.576932,1.566194,-0.0801,0.2238,0.0374,0.000000,0.506214,-0.512350,0.513884,-0.516952,0.516952,-0.506214
4.5981,0.016909,-0.002010,-1.576932,1.566194,0.0000,0.0000,0.0000,-0.005004,-1.576932,1.566194,-0.0720,0.2645,-0.0044,0.000000,0.506214,-0.512350,0.513884,-0.518486,0.516952,-0.506214
4.6148,0.016751,-0.001926,-1.576932,1.566194,0.0000,0.0000,0.0000,-0.005004,-1.576932,1.566194,-0.0720,0.2645,-0.0044,0.000000,0.506214,-0.512350,0.513884,-0.518486,0.516952,-0.506214
4.6316,0.016749,-0.001842,-1.576932,1.566194,0.0000,0.0000,0.0000,-0.004980,-1.576932,1.566194,-0.0527,0.3640,-0.1045,0.000000,0.506214,-0.512350,0.513884,-0.521553,0.516952,-0.506214
4.6483,0.016746,-0.001758,-1.576932,1.566194,0.0000,0.0000,0.0000,-0.004958,-1.576932,1.566194,-0.0345,0.4571,-0.1986,0.000000,0.506214,-0.512350,0.513884,-0.524621,0.516952,-0.506214
4.6651,0.016745,-0.001675,-1.576932,1.566194,0.0000,0.0000,0.0000,-0.004923,-1.576932,1.566194,0.0345,0.5338,-0.2413,0.000000,0.507748,-0.512350,0.513884,-0.527689,0.516952,-0.506214
4.6818,0.016752,-0.001591,-1.576932,1.566194,0.0000,0.0000,0.0000,-0.004877,-1.576932,1.566194,0.0883,0.5264,-0.2370,0.000000,0.510816,-0.512350,0.513884,-0.529223,0.516952,-0.507748
4.6987,0.016898,-0.001506,-1.576932,1.566194,0.0000,0.0000,0.0000,-0.004821,-1.576932,1.566194,0.2146,0.6482,-0.2901,0.000000,0.513884,-0.512350,0.513884,-0.533825,0.516952,-0.507748
4.7155,0.016753,-0.001423,-1.576932,1.566194,0.0000,0.0000,0.0000,-0.004821,-1.576932,1.566194,0.2146,0.6482,-0.2901,0.000000,0.513884,-0.512350,0.513884,-0.533825,0.516952,-0.507748
4.7322,0.016749,-0.001339,-1.576932,1.566194,0.0000,0.0000,0.0000,-0.004727,-1.576932,1.566194,0.2335,0.6189,-0.2850,0.000000,0.518486,-0.512350,0.513884,-0.536893,0.518486,-0.510816
4.7490,0.016753,-0.001255,-1.576932,1.566194,0.0000,0.0000,0.0000,-0.004600,-1.576932,1.566194,0.2026,0.6758,-0.1297,0.000000,0.523087,-0.512350,0.516952,-0.539961,0.521553,-0.513884
4.7659,0.016938,-0.001171,-1.576932,1.566194,0.0000,0.0000,0.0000,-0.004463,-1.576932,1.566194,0.2164,0.6885,-0.0416,0.000000,0.527689,-0.513884,0.520019,-0.543029,0.524621,-0.516952
4.7826,0.016748,-0.001087,-1.576932,1.566194,0.0000,0.0000,0.0000,-0.004290,-1.576932,1.566194,0.1462,0.7054,0.0006,0.000000,0.532291,-0.515418,0.523087,-0.547631,0.529223,-0.521553
4.7994,0.016756,-0.001003,-1.576932,1.566194,0.0000,0.0000,0.0000,-0.004120,-1.576932,1.566194,0.1532,0.7050,0.1537,0.000000,0.536893,-0.518486,0.527689,-0.550699,0.533825,-0.524621
4.8162,0.016750,-0.000919,-1.576932,1.566194,0.0000,0.0000,0.0000,-0.004120,-1.576932,1.566194,0.1532,0.7050,0.1537,0.000000,0.536893,-0.518486,0.527689,-0.550699,0.533825,-0.524621
4.8329,0.016747,-0.000835,-1.576932,1.566194,0.0000,0.0000,0.0000,-0.003950,-1.576932,1.566194,0.0623,0.7241,0.2951,0.000000,0.541495,-0.520019,0.532291,-0.553767,0.538427,-0.529223
4.8496,0.016739,-0.000752,-1.576932,1.566194,0.0000,0.0000,0.0000,-0.003792,-1.576932,1.566194,0.1621,0.6701,0.2818,0.000000,0.546097,-0.524621,0.535359,-0.556835,0.541495,-0.532291
4.8664,0.016746,-0.000668,-1.576932,1.566194,0.0000,0.0000,0.0000,-0.003645,-1.576932,1.566194,0.1411,0.7273,0.3364,0.000000,0.549165,-0.527689,0.539961,-0.559903,0.544563,-0.535359
4.8831,0.016747,-0.000584,-1.576932,1.566194,0.0000,0.0000,0.0000,-0.003522,-1.576932,1.566194,0.1835,0.7192,0.2786,0.000000,0.550699,-0.532291,0.543029,-0.562971,0.547631,-0.536893
4.8999,0.016747,-0.000501,-1.576932,1.566194,0.0000,0.0000,0.0000,-0.003397,-1.576932,1.566194,0.2682,0.6701,0.4446,0.000000,0.555301,-0.535359,0.546097,-0.564505,0.550699,-0.538427
4.9166,0.016750,-0.000417,-1.576932,1.566194,0.0000,0.0000,0.0000,-0.003397,-1.576932,1.566194,0.2682,0.6701,0.4446,0.000000,0.555301,-0.535359,0.546097,-0.564505,0.550699,-0.538427
4.9334,0.016742,-0.000333,-1.576932,1.566194,0.0000,0.0000,0.0000,-0.003285,-1.576932,1.566194,0.2885,0.7943,0.4280,0.000000,0.556835,-0.538427,0.550699,-0.567573,0.552233,-0.539961
4.9501,0.016746,-0.000249,-1.576932,1.566194,0.0000,0.0000,0.0000,-0.003184,-1.576932,1.566194,0.2872,0.7792,0.2711,0.000000,0.558369,-0.541495,0.552233,-0.570641,0.553767,-0.543029
4.9669,0.016756,-0.000166,-1.576932,1.566194,0.0000,0.0000,0.0000,-0.003119,-1.576932,1.566194,0.4450,0.7813,0.3955,0.000000,0.561437,-0.544563,0.555301,-0.570641,0.553767,-0.543029
4.9836,0.016746,-0.000082,-1.576932,1.566194,0.0000,0.0000,0.0000,-0.003013,-1.576932,1.566194,0.5577,0.6943,0.3308,0.000000,0.564505,-0.549165,0.556835,-0.572175,0.555301,-0.544563
5.0004,0.016745,0.000002,-1.576932,1.566194,0.0000,0.0000,0.0000,-0.002974,-1.576932,1.566194,0.5459,0.7366,0.3375,0.000000,0.564505,-0.550699,0.558369,-0.573709,0.556835,-0.544563
5.0171,0.016746,0.000086,-1.576932,1.566194,0.0000,0.0000,0.0000,-0.002974,-1.576932,1.566194,0.5459,0.7366,0.3375,0.000000,0.564505,-0.550699,0.558369,-0.573709,0.556835,-0.544563
5.0339,0.016742,0.000169,-1.576932,1.566194,0.0000,0.0000,0.0000,-0.002916,-1.576932,1.566194,0.6369,0.6792,0.1780,0.000000,0.566039,-0.553767,0.558369,-0.575243,0.556835,-0.546097
5.0506,0.016749,0.000253,-1.576932,1.566194,0.0000,0.0000,0.0000,-0.002885,-1.576932,1.566194,0.7274,0.6850,0.1420,0.000000,0.567573,-0.555301,0.558369,-0.576777,0.556835,-0.546097
5.0674,0.016752,0.000337,-1.576932,1.566194,0.0000,0.0000,0.0000,-0.002803,-1.576932,1.566194,0.7384,0.5825,0.1987,0.000000,0.570641,-0.556835,0.558369,-0.578311,0.559903,-0.547631
5.0841,0.016739,0.000420,-1.576932,1.566194,0.0000,0.0000,0.0000,-0.002724,-1.576932,1.566194,0.8270,0.6427,0.0337,0.000000,0.572175,-0.559903,0.559903,-0.581379,0.559903,-0.549165
5.1009,0.016765,0.000504,-1.576932,1.566194,0.0000,0.0000,0.0000,-0.002607,-1.576932,1.566194,0.7185,0.7035,-0.0557,0.000000,0.573709,-0.561437,0.562971,-0.584447,0.561437,-0.553767
5.1176,0.016746,0.000588,-1.576932,1.566194,0.0000,0.0000,0.0000,-0.002607,-1.576932,1.566194,0.7185,0.7035,-0.0557,0.000000,0.573709,-0.561437,0.562971,-0.584447,0.561437,-0.553767
5.1343,0.016744,0.000672,-1.576932,1.566194,0.0000,0.0000,0.0000,-0.002495,-1.576932,1.566194,0.6796,0.6811,0.0603,0.000000,0.576777,-0.562971,0.566039,-0.585981,0.564505,-0.556835
5.1512,0.016867,0.000756,-1.576932,1.566194,0.0000,0.0000,0.0000,-0.002370,-1.576932,1.566194,0.6442,0.7183,0.1015,0.000000,0.579845,-0.564505,0.569107,-0.589049,0.567573,-0.559903
5.1680,0.016744,0.000840,-1.576932,1.566194,0.0000,0.0000,0.0000,-0.002235,-1.576932,1.566194,0.6984,0.7987,-0.0092,0.000000,0.582913,-0.567573,0.572175,-0.593651,0.569107,-0.562971
5.1847,0.016742,0.000924,-1.576932,1.566194,0.0000,0.0000,0.0000,-0.002112,-1.576932,1.566194,0.6025,0.7402,0.1625,0.000000,0.585981,-0.569107,0.575243,-0.595185,0.573709,-0.566039
5.2016,0.016865,0.001008,-1.576932,1.566194,0.0000,0.0000,0.0000,-0.001977,-1.576932,1.566194,0.6227,0.7654,0.2524,0.000000,0.590583,-0.570641,0.578311,-0.598253,0.576777,-0.569107
5.2183,0.016741,0.001092,-1.576932,1.566194,0.0000,0.0000,0.0000,-0.001977,-1.576932,1.566194,0.6227,0.7654,0.2524,0.000000,0.590583,-0.570641,0.578311,-0.598253,0.576777,-0.569107
5.2351,0.016753,0.001175,-1.576932,1.566194,0.0000,0.0000,0.0000,-0.001882,-1.576932,1.566194,0.5527,0.7815,0.2963,0.000000,0.593651,-0.570641,0.579845,-0.601320,0.579845,-0.572175
5.2518,0.016747,0.001259,-1.576932,1.566194,0.0000,0.0000,0.0000,-0.001818,-1.576932,1.566194,0.4810,0.7811,0.3986,0.000000,0.595185,-0.570641,0.581379,-0.602854,0.582913,-0.573709
5.2686,0.016780,0.001343,-1.576932,1.566194,0.0000,0.0000,0.0000,-0.001738,-1.576932,1.566194,0.3987,0.8337,0.5489,0.000000,0.596719,-0.570641,0.584447,-0.604388,0.585981,-0.575243
5.2853,0.016746,0.001427,-1.576932,1.566194,0.0000,0.0000,0.0000,-0.001637,-1.576932,1.566194,0.3394,0.8472,0.5867,0.000000,0.599786,-0.570641,0.585981,-0.607456,0.589049,-0.578311
5.3021,0.016764,0.001510,-1.576932,1.566194,0.0000,0.0000,0.0000,-0.001479,-1.576932,1.566194,0.2103,0.8155,0.6898,0.000000,0.604388,-0.570641,0.587515,-0.612058,0.595185,-0.582913
5.3190,0.016884,0.001595,-1.576932,1.566194,0.0000,0.0000,0.0000,-0.001479,-1.576932,1.566194,0.2103,0.8155,0.6898,0.000000,0.604388,-0.570641,0.587515,-0.612058,0.595185,-0.582913
5.3357,0.016743,0.001679,-1.576932,1.566194,0.0000,0.0000,0.0000,-0.001424,-1.576932,1.566194,0.2337,0.8389,0.7875,0.000000,0.607456,-0.570641,0.589049,-0.613592,0.596719,-0.584447
5.3525,0.016754,0.001762,-1.576932,1.566194,0.0000,0.0000,0.0000,-0.001429,-1.576932,1.566194,0.2312,0.8365,0.7773,0.000000,0.607456,-0.570641,0.589049,-0.613592,0.596719,-0.584447
5.3693,0.016804,0.001846,-1.576932,1.566194,0.0000,0.0000,0.0000,-0.001194,-1.576932,1.566194,0.1319,0.9045,0.8332,0.000000,0.612058,-0.573709,0.595185,-0.618194,0.601320,-0.590583
5.3860,0.016750,0.001930,-1.576932,1.566194,0.0000,0.0000,0.0000,-0.001058,-1.576932,1.566194,0.1825,0.8613,0.7753,0.000000,0.615126,-0.578311,0.598253,-0.621262,0.604388,-0.593651
5.4028,0.016781,0.002014,-1.576932,1.566194,0.0000,0.0000,0.0000,-0.000922,-1.576932,1.566194,0.3223,0.8458,0.7848,0.000000,0.618194,-0.584447,0.602854,-0.622796,0.605922,-0.595185
5.4196,0.016738,0.002098,-1.576932,1.566194,0.0000,0.0000,0.0000,-0.000922,-1.576932,1.566194,0.3223,0.8458,0.7848,0.000000,0.618194,-0.584447,0.602854,-0.622796,0.605922,-0.595185
5.4363,0.016748,0.002181,-1.576932,1.566194,0.0000,0.0000,0.0000,-0.000761,-1.576932,1.566194,0.2757,0.9279,0.7852,0.000000,0.619728,-0.589049,0.608990,-0.625864,0.608990,-0.598253
5.4531,0.016759,0.002265,-1.576932,1.566194,0.0000,0.0000,0.0000,-0.000778,-1.576932,1.566194,0.2806,0.9193,0.7851,0.000000,0.619728,-0.589049,0.608990,-0.625864,0.608990,-0.598253
5.4699,0.016855,0.002350,-1.576932,1.566194,0.0000,0.0000,0.0000,-0.000478,-1.576932,1.566194,0.4652,0.8299,0.5721,0.000000,0.625864,-0.599786,0.615126,-0.630466,0.612058,-0.604388
