t,loop_dt,cmd_z,cmd_ant_l,cmd_ant_r,cmd_roll,cmd_pitch,cmd_yaw,pres_z,pres_ant_l,pres_ant_r,pres_roll,pres_pitch,pres_yaw,pres_j0,pres_j1,pres_j2,pres_j3,pres_j4,pres_j5,pres_j6
0.0000,0.000001,-0.005000,-1.576932,1.566194,0.0000,0.0000,0.0000,-0.000376,-1.576932,1.566194,0.2883,0.3375,0.2455,0.000000,0.613592,-0.619728,0.619728,-0.625864,0.622796,-0.602854
0.0169,0.016852,-0.004865,-1.576932,1.566194,0.0000,0.0000,0.0000,-0.000376,-1.576932,1.566194,0.2883,0.3375,0.2455,0.000000,0.613592,-0.619728,0.619728,-0.625864,0.622796,-0.602854
0.0336,0.016761,-0.004731,-1.576932,1.566194,0.0000,0.0000,0.0000,-0.000389,-1.576932,1.566194,0.3384,0.3539,0.3006,0.000000,0.613592,-0.619728,0.619728,-0.625864,0.622796,-0.601320
0.0504,0.016755,-0.004597,-1.576932,1.566194,0.0000,0.0000,0.0000,-0.000387,-1.576932,1.566194,0.2343,0.3512,0.1858,0.000000,0.612058,-0.619728,0.619728,-0.625864,0.622796,-0.602854
0.0671,0.016751,-0.004463,-1.576932,1.566194,0.0000,0.0000,0.0000,-0.000449,-1.576932,1.566194,0.2180,0.3368,0.3613,0.000000,0.612058,-0.616660,0.618194,-0.624330,0.622796,-0.601320
0.0841,0.016969,-0.004327,-1.576932,1.566194,0.0000,0.0000,0.0000,-0.000449,-1.576932,1.566194,0.2180,0.3368,0.3613,0.000000,0.592117,-0.596719,0.596719,-0.604388,0.601320,-0.581379
0.1009,0.016859,-0.004192,-1.576932,1.566194,0.0000,0.0000,0.0000,-0.001423,-1.576932,1.566194,0.2685,0.3263,0.2316,0.000000,0.592117,-0.596719,0.596719,-0.604388,0.601320,-0.581379
0.1177,0.016799,-0.004058,-1.576932,1.566194,0.0000,0.0000,0.0000,-0.002720,-1.576932,1.566194,0.1259,0.2974,0.1882,0.000000,0.561437,-0.567573,0.567573,-0.575243,0.573709,-0.553767
0.1345,0.016751,-0.003924,-1.576932,1.566194,0.0000,0.0000,0.0000,-0.003958,-1.576932,1.566194,0.0792,0.3056,0.1901,0.000000,0.533825,-0.538427,0.539961,-0.546097,0.544563,-0.527689
0.1513,0.016758,-0.003790,-1.576932,1.566194,0.0000,0.0000,0.0000,-0.004886,-1.576932,1.566194,-0.0265,0.3253,0.2919,0.000000,0.512350,-0.515418,0.520019,-0.523087,0.523087,-0.507748
0.1682,0.016957,-0.003654,-1.576932,1.566194,0.0000,0.0000,0.0000,-0.004886,-1.576932,1.566194,-0.0265,0.3253,0.2919,0.000000,0.503146,-0.504680,0.509282,-0.512350,0.513884,-0.498544
0.1850,0.016817,-0.003520,-1.576932,1.566194,0.0000,0.0000,0.0000,-0.005283,-1.576932,1.566194,-0.0561,0.2556,0.3319,0.000000,0.503146,-0.504680,0.509282,-0.512350,0.513884,-0.498544
0.2018,0.016756,-0.003386,-1.576932,1.566194,0.0000,0.0000,0.0000,-0.005279,-1.576932,1.566194,-0.0634,0.2805,0.3795,0.000000,0.503146,-0.503146,0.509282,-0.510816,0.512350,-0.498544
0.2185,0.016752,-0.003252,-1.576932,1.566194,0.0000,0.0000,0.0000,-0.005267,-1.576932,1.566194,-0.0124,0.2611,0.4264,0.000000,0.504680,-0.503146,0.509282,-0.510816,0.512350,-0.498544
0.2353,0.016749,-0.003118,-1.576932,1.566194,0.0000,0.0000,0.0000,-0.005268,-1.576932,1.566194,-0.0177,0.2632,0.4216,0.000000,0.504680,-0.503146,0.509282,-0.510816,0.512350,-0.498544
0.2520,0.016762,-0.002984,-1.576932,1.566194,0.0000,0.0000,0.0000,-0.005268,-1.576932,1.566194,-0.0177,0.2632,0.4216,0.000000,0.504680,-0.503146,0.509282,-0.510816,0.512350,-0.498544
0.2689,0.016807,-0.002849,-1.576932,1.566194,0.0000,0.0000,0.0000,-0.005268,-1.576932,1.566194,-0.0177,0.2632,0.4216,0.000000,0.504680,-0.503146,0.509282,-0.510816,0.512350,-0.498544
0.2856,0.016765,-0.002715,-1.576932,1.566194,0.0000,0.0000,0.0000,-0.005268,-1.576932,1.566194,-0.0177,0.2632,0.4216,0.000000,0.504680,-0.503146,0.509282,-0.510816,0.512350,-0.498544
0.3024,0.016749,-0.002581,-1.576932,1.566194,0.0000,0.0000,0.0000,-0.005256,-1.576932,1.566194,0.0229,0.2278,0.3704,0.000000,0.504680,-0.504680,0.509282,-0.510816,0.512350,-0.498544
0.3191,0.016760,-0.002447,-1.576932,1.566194,0.0000,0.0000,0.0000,-0.005244,-1.576932,1.566194,0.0085,0.2834,0.4276,0.000000,0.504680,-0.504680,0.510816,-0.510816,0.512350,-0.498544
0.3359,0.016757,-0.002313,-1.576932,1.566194,0.0000,0.0000,0.0000,-0.005220,-1.576932,1.566194,-0.0801,0.2254,0.4218,0.000000,0.504680,-0.504680,0.510816,-0.510816,0.513884,-0.500078
0.3526,0.016762,-0.002179,-1.576932,1.566194,0.0000,0.0000,0.0000,-0.005235,-1.576932,1.566194,-0.0312,0.2662,0.3705,0.000000,0.504680,-0.504680,0.510816,-0.510816,0.512350,-0.500078
0.3694,0.016754,-0.002045,-1.576932,1.566194,0.0000,0.0000,0.0000,-0.005221,-1.576932,1.566194,-0.0759,0.2271,0.4278,0.000000,0.504680,-0.504680,0.510816,-0.510816,0.513884,-0.500078
0.3862,0.016768,-0.001911,-1.576932,1.566194,0.0000,0.0000,0.0000,-0.005210,-1.576932,1.566194,-0.0613,0.2834,0.3698,0.000000,0.504680,-0.504680,0.510816,-0.512350,0.513884,-0.500078
0.4029,0.016759,-0.001777,-1.576932,1.566194,0.0000,0.0000,0.0000,-0.005210,-1.576932,1.566194,-0.0613,0.2834,0.3698,0.000000,0.504680,-0.504680,0.510816,-0.512350,0.513884,-0.500078
0.4197,0.016764,-0.001642,-1.576932,1.566194,0.0000,0.0000,0.0000,-0.005186,-1.576932,1.566194,-0.0025,0.3128,0.3758,0.000000,0.506214,-0.504680,0.510816,-0.513884,0.513884,-0.500078
0.4365,0.016756,-0.001508,-1.576932,1.566194,0.0000,0.0000,0.0000,-0.005126,-1.576932,1.566194,-0.0279,0.3093,0.3233,0.000000,0.506214,-0.506214,0.510816,-0.516952,0.516952,-0.500078
0.4532,0.016763,-0.001374,-1.576932,1.566194,0.0000,0.0000,0.0000,-0.005071,-1.576932,1.566194,0.0155,0.4143,0.2763,0.000000,0.507748,-0.506214,0.510816,-0.521553,0.518486,-0.500078
0.4700,0.016755,-0.001240,-1.576932,1.566194,0.0000,0.0000,0.0000,-0.004914,-1.576932,1.566194,0.0421,0.6306,0.4368,0.000000,0.512350,-0.506214,0.515418,-0.527689,0.521553,-0.501612
0.4867,0.016770,-0.001106,-1.576932,1.566194,0.0000,0.0000,0.0000,-0.004914,-1.576932,1.566194,0.0421,0.6306,0.4368,0.000000,0.515418,-0.506214,0.518486,-0.533825,0.526155,-0.503146
0.5035,0.016754,-0.000972,-1.576932,1.566194,0.0000,0.0000,0.0000,-0.004781,-1.576932,1.566194,-0.0096,0.7654,0.5233,0.000000,0.515418,-0.506214,0.518486,-0.533825,0.526155,-0.503146
0.5202,0.016750,-0.000838,-1.576932,1.566194,0.0000,0.0000,0.0000,-0.004544,-1.576932,1.566194,0.0063,0.8735,0.6195,0.000000,0.521553,-0.509282,0.524621,-0.539961,0.530757,-0.507748
0.5370,0.016718,-0.000704,-1.576932,1.566194,0.0000,0.0000,0.0000,-0.004293,-1.576932,1.566194,0.0155,0.9143,0.7156,0.000000,0.527689,-0.513884,0.530757,-0.546097,0.536893,-0.512350
0.5537,0.016752,-0.000570,-1.576932,1.566194,0.0000,0.0000,0.0000,-0.004069,-1.576932,1.566194,0.0754,0.9448,0.7073,0.000000,0.533825,-0.518486,0.535359,-0.552233,0.541495,-0.516952
0.5705,0.016759,-0.000436,-1.576932,1.566194,0.0000,0.0000,0.0000,-0.003817,-1.576932,1.566194,0.0694,1.0099,0.7099,0.000000,0.539961,-0.523087,0.541495,-0.558369,0.546097,-0.523087
0.5872,0.016748,-0.000302,-1.576932,1.566194,0.0000,0.0000,0.0000,-0.003817,-1.576932,1.566194,0.0694,1.0099,0.7099,0.000000,0.544563,-0.529223,0.544563,-0.561437,0.549165,-0.527689
0.6039,0.016708,-0.000169,-1.576932,1.566194,0.0000,0.0000,0.0000,-0.003642,-1.576932,1.566194,0.1503,0.8974,0.6070,0.000000,0.544563,-0.529223,0.544563,-0.561437,0.549165,-0.527689
0.6207,0.016754,-0.000035,-1.576932,1.566194,0.0000,0.0000,0.0000,-0.003423,-1.576932,1.566194,0.1921,0.8923,0.6726,0.000000,0.550699,-0.533825,0.549165,-0.566039,0.553767,-0.532291
0.6374,0.016756,0.000100,-1.576932,1.566194,0.0000,0.0000,0.0000,-0.003195,-1.576932,1.566194,0.2673,0.8568,0.5625,0.000000,0.556835,-0.539961,0.553767,-0.570641,0.556835,-0.538427
0.6542,0.016755,0.000234,-1.576932,1.566194,0.0000,0.0000,0.0000,-0.003044,-1.576932,1.566194,0.3389,0.8249,0.4699,0.000000,0.561437,-0.544563,0.556835,-0.573709,0.558369,-0.543029
0.6711,0.016899,0.000369,-1.576932,1.566194,0.0000,0.0000,0.0000,-0.002896,-1.576932,1.566194,0.4391,0.8107,0.5351,0.000000,0.566039,-0.549165,0.561437,-0.575243,0.559903,-0.546097
0.6879,0.016761,0.000503,-1.576932,1.566194,0.0000,0.0000,0.0000,-0.002896,-1.576932,1.566194,0.4391,0.8107,0.5351,0.000000,0.566039,-0.549165,0.561437,-0.575243,0.559903,-0.546097
0.7046,0.016751,0.000637,-1.576932,1.566194,0.0000,0.0000,0.0000,-0.002762,-1.576932,1.566194,0.3895,0.7425,0.4223,0.000000,0.569107,-0.552233,0.562971,-0.578311,0.562971,-0.550699
0.7214,0.016754,0.000771,-1.576932,1.566194,0.0000,0.0000,0.0000,-0.002588,-1.576932,1.566194,0.5525,0.7482,0.3831,0.000000,0.573709,-0.558369,0.567573,-0.581379,0.564505,-0.553767
0.7381,0.016752,0.000905,-1.576932,1.566194,0.0000,0.0000,0.0000,-0.002419,-1.576932,1.566194,0.5143,0.7456,0.3348,0.000000,0.576777,-0.562971,0.572175,-0.584447,0.567573,-0.558369
0.7549,0.016764,0.001039,-1.576932,1.566194,0.0000,0.0000,0.0000,-0.002263,-1.576932,1.566194,0.5685,0.7973,0.2341,0.000000,0.581379,-0.566039,0.575243,-0.589049,0.569107,-0.562971
0.7717,0.016846,0.001174,-1.576932,1.566194,0.0000,0.0000,0.0000,-0.002094,-1.576932,1.566194,0.6120,0.7061,0.2988,0.000000,0.585981,-0.570641,0.578311,-0.592117,0.573709,-0.566039
0.7885,0.016771,0.001308,-1.576932,1.566194,0.0000,0.0000,0.0000,-0.002094,-1.576932,1.566194,0.6120,0.7061,0.2988,0.000000,0.585981,-0.570641,0.578311,-0.592117,0.573709,-0.566039
0.8052,0.016755,0.001442,-1.576932,1.566194,0.0000,0.0000,0.0000,-0.001939,-1.576932,1.566194,0.6677,0.7503,0.2929,0.000000,0.590583,-0.573709,0.581379,-0.596719,0.576777,-0.569107
0.8220,0.016752,0.001576,-1.576932,1.566194,0.0000,0.0000,0.0000,-0.001771,-1.576932,1.566194,0.7111,0.8315,0.3485,0.000000,0.595185,-0.576777,0.585981,-0.601320,0.579845,-0.572175
0.8388,0.016764,0.001710,-1.576932,1.566194,0.0000,0.0000,0.0000,-0.001590,-1.576932,1.566194,0.7060,0.7200,0.3432,0.000000,0.599786,-0.581379,0.589049,-0.604388,0.584447,-0.576777
0.8555,0.016752,0.001844,-1.576932,1.566194,0.0000,0.0000,0.0000,-0.001387,-1.576932,1.566194,0.7060,0.7309,0.3445,0.000000,0.604388,-0.585981,0.593651,-0.608990,0.589049,-0.581379
0.8723,0.016769,0.001978,-1.576932,1.566194,0.0000,0.0000,0.0000,-0.001236,-1.576932,1.566194,0.6774,0.7458,0.3443,0.000000,0.607456,-0.589049,0.596719,-0.613592,0.593651,-0.584447
0.8890,0.016748,0.002112,-1.576932,1.566194,0.0000,0.0000,0.0000,-0.001236,-1.576932,1.566194,0.6774,0.7458,0.3443,0.000000,0.607456,-0.589049,0.596719,-0.613592,0.593651,-0.584447
0.9058,0.016755,0.002246,-1.576932,1.566194,0.0000,0.0000,0.0000,-0.001091,-1.576932,1.566194,0.6692,0.7946,0.3993,0.000000,0.610524,-0.592117,0.601320,-0.616660,0.596719,-0.587515
0.9225,0.016750,0.002380,-1.576932,1.566194,0.0000,0.0000,0.0000,-0.000909,-1.576932,1.566194,0.6697,0.8210,0.3941,0.000000,0.613592,-0.596719,0.605922,-0.621262,0.601320,-0.590583
0.9393,0.016772,0.002514,-1.576932,1.566194,0.0000,0.0000,0.0000,-0.000769,-1.576932,1.566194,0.7185,0.8021,0.4501,0.000000,0.618194,-0.599786,0.608990,-0.624330,0.604388,-0.593651
0.9561,0.016748,0.002648,-1.576932,1.566194,0.0000,0.0000,0.0000,-0.000611,-1.576932,1.566194,0.7027,0.7509,0.3361,0.000000,0.621262,-0.604388,0.612058,-0.627398,0.607456,-0.598253
0.9728,0.016767,0.002783,-1.576932,1.566194,0.0000,0.0000,0.0000,-0.000467,-1.576932,1.566194,0.6930,0.8063,0.4033,0.000000,0.624330,-0.607456,0.616660,-0.630466,0.610524,-0.601320
0.9896,0.016752,0.002917,-1.576932,1.566194,0.0000,0.0000,0.0000,-0.000467,-1.576932,1.566194,0.6930,0.8063,0.4033,0.000000,0.624330,-0.607456,0.616660,-0.630466,0.610524,-0.601320
1.0063,0.016766,0.003051,-1.576932,1.566194,0.0000,0.0000,0.0000,-0.000311,-1.576932,1.566194,0.6555,0.8328,0.2875,0.000000,0.627398,-0.610524,0.619728,-0.635068,0.613592,-0.605922
1.0234,0.017067,0.003187,-1.576932,1.566194,0.0000,0.0000,0.0000,-0.000144,-1.576932,1.566194,0.7358,0.8294,0.3558,0.000000,0.632000,-0.615126,0.624330,-0.638136,0.616660,-0.608990
1.0402,0.016755,0.003321,-1.576932,1.566194,0.0000,0.0000,0.0000,0.000020,-1.576932,1.566194,0.7480,0.8301,0.4038,0.000000,0.636602,-0.618194,0.627398,-0.642738,0.621262,-0.612058
1.0569,0.016749,0.003455,-1.576932,1.566194,0.0000,0.0000,0.0000,0.000161,-1.576932,1.566194,0.7574,0.8792,0.3445,0.000000,0.639670,-0.621262,0.630466,-0.647340,0.624330,-0.615126
1.0741,0.017140,0.003592,-1.576932,1.566194,0.0000,0.0000,0.0000,0.000161,-1.576932,1.566194,0.7574,0.8792,0.3445,0.000000,0.642738,-0.624330,0.632000,-0.650408,0.627398,-0.619728
1.0908,0.016753,0.003726,-1.576932,1.566194,0.0000,0.0000,0.0000,0.000292,-1.576932,1.566194,0.7181,0.8057,0.2409,0.000000,0.642738,-0.624330,0.632000,-0.650408,0.627398,-0.619728
1.1076,0.016754,0.003861,-1.576932,1.566194,0.0000,0.0000,0.0000,0.000473,-1.576932,1.566194,0.7592,0.7792,0.3625,0.000000,0.647340,-0.628932,0.636602,-0.653476,0.632000,-0.622796
1.1244,0.016884,0.003996,-1.576932,1.566194,0.0000,0.0000,0.0000,0.000660,-1.576932,1.566194,0.7158,0.8157,0.4055,0.000000,0.651942,-0.632000,0.641204,-0.658078,0.636602,-0.627398
1.1413,0.016869,0.004131,-1.576932,1.566194,0.0000,0.0000,0.0000,0.000808,-1.576932,1.566194,0.7798,0.8459,0.4021,0.000000,0.656544,-0.635068,0.644272,-0.662680,0.639670,-0.630466
1.1582,0.016839,0.004265,-1.576932,1.566194,0.0000,0.0000,0.0000,0.000950,-1.576932,1.566194,0.7614,0.8919,0.4586,0.000000,0.659612,-0.638136,0.648874,-0.665748,0.642738,-0.633534
1.1749,0.016772,0.004399,-1.576932,1.566194,0.0000,0.0000,0.0000,0.000950,-1.576932,1.566194,0.7614,0.8919,0.4586,0.000000,0.659612,-0.638136,0.648874,-0.665748,0.642738,-0.633534
1.1917,0.016750,0.004533,-1.576932,1.566194,0.0000,0.0000,0.0000,0.001115,-1.576932,1.566194,0.7841,0.8875,0.5087,0.000000,0.664214,-0.641204,0.651942,-0.670350,0.647340,-0.636602
1.2084,0.016761,0.004668,-1.576932,1.566194,0.0000,0.0000,0.0000,0.001290,-1.576932,1.566194,0.8679,0.9369,0.5054,0.000000,0.668816,-0.645806,0.656544,-0.674952,0.650408,-0.639670
1.2252,0.016752,0.004802,-1.576932,1.566194,0.0000,0.0000,0.0000,0.001499,-1.576932,1.566194,0.9561,0.9614,0.4515,0.000000,0.673418,-0.651942,0.661146,-0.681087,0.655010,-0.642738
1.2419,0.016760,0.004936,-1.576932,1.566194,0.0000,0.0000,0.0000,0.001632,-1.576932,1.566194,0.9944,0.9433,0.5141,0.000000,0.678020,-0.655010,0.664214,-0.684155,0.658078,-0.645806
1.2587,0.016751,0.004930,-1.576932,1.566194,0.0000,0.0000,0.0000,0.001632,-1.576932,1.566194,0.9944,0.9433,0.5141,0.000000,0.678020,-0.655010,0.664214,-0.684155,0.658078,-0.645806
1.2755,0.016750,0.004796,-1.576932,1.566194,0.0000,0.0000,0.0000,0.001798,-1.576932,1.566194,1.0276,1.0078,0.4531,0.000000,0.681087,-0.659612,0.668816,-0.688757,0.661146,-0.648874
1.2922,0.016760,0.004662,-1.576932,1.566194,0.0000,0.0000,0.0000,0.001947,-1.576932,1.566194,1.0332,0.9524,0.5717,0.000000,0.685689,-0.662680,0.671884,-0.691825,0.665748,-0.651942
1.3090,0.016802,0.004528,-1.576932,1.566194,0.0000,0.0000,0.0000,0.002145,-1.576932,1.566194,1.2035,0.9576,0.5622,0.000000,0.691825,-0.668816,0.676486,-0.696427,0.668816,-0.655010
1.3258,0.016757,0.004394,-1.576932,1.566194,0.0000,0.0000,0.0000,0.002495,-1.576932,1.566194,1.2201,0.9189,0.5090,0.000000,0.699495,-0.678020,0.684155,-0.704097,0.676486,-0.662680
1.3433,0.017502,0.004254,-1.576932,1.566194,0.0000,0.0000,0.0000,0.002576,-1.576932,1.566194,1.3032,0.9716,0.5162,0.000000,0.702563,-0.681087,0.687223,-0.707165,0.678020,-0.664214
1.3600,0.016766,0.004120,-1.576932,1.566194,0.0000,0.0000,0.0000,0.002576,-1.576932,1.566194,1.3032,0.9716,0.5162,0.000000,0.702563,-0.681087,0.687223,-0.707165,0.678020,-0.664214
1.3768,0.016758,0.003986,-1.576932,1.566194,0.0000,0.0000,0.0000,0.002638,-1.576932,1.566194,1.3302,0.9031,0.6288,0.000000,0.705631,-0.682621,0.688757,-0.707165,0.679553,-0.665748
1.3936,0.016762,0.003852,-1.576932,1.566194,0.0000,0.0000,0.0000,0.002632,-1.576932,1.566194,1.3274,0.9102,0.6171,0.000000,0.705631,-0.682621,0.688757,-0.707165,0.679553,-0.665748
1.4103,0.016761,0.003717,-1.576932,1.566194,0.0000,0.0000,0.0000,0.002633,-1.576932,1.566194,1.3278,0.9092,0.6187,0.000000,0.705631,-0.682621,0.688757,-0.707165,0.679553,-0.665748
1.4271,0.016759,0.003583,-1.576932,1.566194,0.0000,0.0000,0.0000,0.002633,-1.576932,1.566194,1.3278,0.9092,0.6187,0.000000,0.705631,-0.682621,0.688757,-0.707165,0.679553,-0.665748
1.4438,0.016753,0.003449,-1.576932,1.566194,0.0000,0.0000,0.0000,0.002645,-1.576932,1.566194,1.3649,0.8748,0.5618,0.000000,0.705631,-0.684155,0.688757,-0.707165,0.679553,-0.665748
1.4606,0.016753,0.003315,-1.576932,1.566194,0.0000,0.0000,0.0000,0.002645,-1.576932,1.566194,1.3649,0.8748,0.5618,0.000000,0.705631,-0.684155,0.688757,-0.707165,0.679553,-0.665748
1.4773,0.016753,0.003181,-1.576932,1.566194,0.0000,0.0000,0.0000,0.002631,-1.576932,1.566194,1.3238,0.9132,0.6240,0.000000,0.705631,-0.682621,0.688757,-0.707165,0.679553,-0.665748
1.4941,0.016766,0.003047,-1.576932,1.566194,0.0000,0.0000,0.0000,0.002632,-1.576932,1.566194,1.3280,0.9092,0.6176,0.000000,0.705631,-0.682621,0.688757,-0.707165,0.679553,-0.665748
1.5109,0.016749,0.002913,-1.576932,1.566194,0.0000,0.0000,0.0000,0.002632,-1.576932,1.566194,1.3280,0.9092,0.6176,0.000000,0.705631,-0.682621,0.688757,-0.707165,0.679553,-0.665748
1.5276,0.016753,0.002779,-1.576932,1.566194,0.0000,0.0000,0.0000,0.002613,-1.576932,1.566194,1.2580,0.8536,0.5043,0.000000,0.702563,-0.684155,0.688757,-0.705631,0.679553,-0.665748
1.5444,0.016771,0.002645,-1.576932,1.566194,0.0000,0.0000,0.0000,0.002613,-1.576932,1.566194,1.2580,0.8536,0.5043,0.000000,0.697961,-0.682621,0.688757,-0.702563,0.679553,-0.665748
1.5611,0.016761,0.002511,-1.576932,1.566194,0.0000,0.0000,0.0000,0.002548,-1.576932,1.566194,1.0618,0.8384,0.5142,0.000000,0.697961,-0.682621,0.688757,-0.702563,0.679553,-0.665748
1.5779,0.016763,0.002377,-1.576932,1.566194,0.0000,0.0000,0.0000,0.002455,-1.576932,1.566194,0.7983,0.7153,0.4544,0.000000,0.690291,-0.682621,0.688757,-0.696427,0.679553,-0.665748
1.5946,0.016752,0.002243,-1.576932,1.566194,0.0000,0.0000,0.0000,0.002420,-1.576932,1.566194,0.6114,0.6574,0.3472,0.000000,0.685689,-0.682621,0.688757,-0.693359,0.679553,-0.667282
1.6114,0.016761,0.002109,-1.576932,1.566194,0.0000,0.0000,0.0000,0.002388,-1.576932,1.566194,0.6468,0.5616,0.4140,0.000000,0.684155,-0.684155,0.688757,-0.690291,0.679553,-0.665748
1.6282,0.016758,0.001975,-1.576932,1.566194,0.0000,0.0000,0.0000,0.002296,-1.576932,1.566194,0.5684,0.4727,0.1816,0.000000,0.681087,-0.682621,0.684155,-0.688757,0.678020,-0.665748
1.6449,0.016776,0.001840,-1.576932,1.566194,0.0000,0.0000,0.0000,0.002296,-1.576932,1.566194,0.5684,0.4727,0.1816,0.000000,0.676486,-0.679553,0.678020,-0.682621,0.679553,-0.665748
1.6617,0.016757,0.001706,-1.576932,1.566194,0.0000,0.0000,0.0000,0.002163,-1.576932,1.566194,0.3198,0.1673,0.2044,0.000000,0.676486,-0.679553,0.678020,-0.682621,0.679553,-0.665748
1.6785,0.016753,0.001572,-1.576932,1.566194,0.0000,0.0000,0.0000,0.001975,-1.576932,1.566194,0.0404,0.0350,0.1460,0.000000,0.670350,-0.673418,0.671884,-0.676486,0.678020,-0.665748
1.6954,0.016949,0.001437,-1.576932,1.566194,0.0000,0.0000,0.0000,0.001888,-1.576932,1.566194,-0.1241,0.0861,0.0962,0.000000,0.667282,-0.668816,0.670350,-0.673418,0.674952,-0.667282
1.7122,0.016755,0.001303,-1.576932,1.566194,0.0000,0.0000,0.0000,0.001826,-1.576932,1.566194,0.0269,0.1834,-0.0104,0.000000,0.667282,-0.667282,0.668816,-0.673418,0.670350,-0.665748
1.7289,0.016773,0.001169,-1.576932,1.566194,0.0000,0.0000,0.0000,0.001826,-1.576932,1.566194,0.0269,0.1834,-0.0104,0.000000,0.664214,-0.662680,0.661146,-0.670350,0.662680,-0.659612
1.7457,0.016751,0.001035,-1.576932,1.566194,0.0000,0.0000,0.0000,0.001580,-1.576932,1.566194,0.2157,0.1922,-0.1662,0.000000,0.664214,-0.662680,0.661146,-0.670350,0.662680,-0.659612
1.7624,0.016761,0.000900,-1.576932,1.566194,0.0000,0.0000,0.0000,0.001354,-1.576932,1.566194,0.2395,0.1733,-0.0940,0.000000,0.658078,-0.659612,0.658078,-0.662680,0.656544,-0.653476
1.7792,0.016749,0.000766,-1.576932,1.566194,0.0000,0.0000,0.0000,0.001209,-1.576932,1.566194,0.1565,0.1041,0.0094,0.000000,0.651942,-0.658078,0.656544,-0.656544,0.655010,-0.648874
1.7960,0.016765,0.000632,-1.576932,1.566194,0.0000,0.0000,0.0000,0.001139,-1.576932,1.566194,0.0792,0.2298,0.1651,0.000000,0.650408,-0.653476,0.656544,-0.655010,0.653476,-0.647340
1.8127,0.016752,0.000498,-1.576932,1.566194,0.0000,0.0000,0.0000,0.001074,-1.576932,1.566194,0.0327,0.2172,0.1486,0.000000,0.648874,-0.650408,0.653476,-0.655010,0.653476,-0.645806
1.8295,0.016769,0.000364,-1.576932,1.566194,0.0000,0.0000,0.0000,0.001074,-1.576932,1.566194,0.0327,0.2172,0.1486,0.000000,0.645806,-0.642738,0.645806,-0.651942,0.648874,-0.639670
1.8462,0.016752,0.000230,-1.576932,1.566194,0.0000,0.0000,0.0000,0.000827,-1.576932,1.566194,0.0910,0.2386,0.2049,0.000000,0.645806,-0.642738,0.645806,-0.651942,0.648874,-0.639670
1.8630,0.016760,0.000096,-1.576932,1.566194,0.0000,0.0000,0.0000,0.000525,-1.576932,1.566194,0.0847,0.0678,0.0334,0.000000,0.638136,-0.638136,0.636602,-0.644272,0.642738,-0.633534
1.8797,0.016748,-0.000038,-1.576932,1.566194,0.0000,0.0000,0.0000,0.000362,-1.576932,1.566194,0.0852,0.0539,0.0511,0.000000,0.635068,-0.633534,0.632000,-0.639670,0.638136,-0.630466
1.8965,0.016723,-0.000172,-1.576932,1.566194,0.0000,0.0000,0.0000,0.000307,-1.576932,1.566194,-0.0449,0.0362,-0.0605,0.000000,0.630466,-0.633534,0.632000,-0.636602,0.636602,-0.630466
1.9132,0.016748,-0.000306,-1.576932,1.566194,0.0000,0.0000,0.0000,0.000191,-1.576932,1.566194,0.0448,0.1388,-0.1587,0.000000,0.627398,-0.632000,0.630466,-0.635068,0.632000,-0.627398
1.9300,0.016785,-0.000440,-1.576932,1.566194,0.0000,0.0000,0.0000,0.000191,-1.576932,1.566194,0.0448,0.1388,-0.1587,0.000000,0.627398,-0.632000,0.630466,-0.635068,0.632000,-0.627398
1.9467,0.016752,-0.000574,-1.576932,1.566194,0.0000,0.0000,0.0000,-0.000101,-1.576932,1.566194,0.1124,0.2296,-0.0933,0.000000,0.621262,-0.625864,0.625864,-0.628932,0.624330,-0.619728
1.9636,0.016805,-0.000708,-1.576932,1.566194,0.0000,0.0000,0.0000,-0.000365,-1.576932,1.566194,0.2147,0.2029,0.1184,0.000000,0.616660,-0.619728,0.619728,-0.622796,0.619728,-0.610524
1.9804,0.016867,-0.000843,-1.576932,1.566194,0.0000,0.0000,0.0000,-0.000436,-1.576932,1.566194,0.1276,0.2384,0.2053,0.000000,0.613592,-0.616660,0.618194,-0.621262,0.619728,-0.607456
1.9972,0.016761,-0.000977,-1.576932,1.566194,0.0000,0.0000,0.0000,-0.000453,-1.576932,1.566194,0.2353,0.1341,0.3052,0.000000,0.615126,-0.616660,0.616660,-0.619728,0.619728,-0.605922
2.0141,0.016956,-0.001113,-1.576932,1.566194,0.0000,0.0000,0.0000,-0.000610,-1.576932,1.566194,0.1357,0.1309,0.1312,0.000000,0.612058,-0.612058,0.612058,-0.616660,0.615126,-0.605922
2.0309,0.016764,-0.001247,-1.576932,1.566194,0.0000,0.0000,0.0000,-0.000610,-1.576932,1.566194,0.1357,0.1309,0.1312,0.000000,0.612058,-0.612058,0.612058,-0.616660,0.615126,-0.605922
2.0477,0.016765,-0.001381,-1.576932,1.566194,0.0000,0.0000,0.0000,-0.000912,-1.576932,1.566194,0.0757,0.1151,0.0403,0.000000,0.604388,-0.605922,0.605922,-0.608990,0.607456,-0.601320
2.0644,0.016750,-0.001515,-1.576932,1.566194,0.0000,0.0000,0.0000,-0.001176,-1.576932,1.566194,0.1592,0.1170,-0.0586,0.000000,0.598253,-0.601320,0.599786,-0.602854,0.599786,-0.595185
2.0812,0.016762,-0.001649,-1.576932,1.566194,0.0000,0.0000,0.0000,-0.001176,-1.576932,1.566194,0.1592,0.1170,-0.0586,0.000000,0.596719,-0.599786,0.598253,-0.601320,0.599786,-0.595185
2.0981,0.016929,-0.001785,-1.576932,1.566194,0.0000,0.0000,0.0000,-0.001198,-1.576932,1.566194,0.0624,0.0659,-0.0483,0.000000,0.596719,-0.599786,0.598253,-0.601320,0.599786,-0.595185
2.1149,0.016750,-0.001919,-1.576932,1.566194,0.0000,0.0000,0.0000,-0.001257,-1.576932,1.566194,0.0830,0.1221,-0.1035,0.000000,0.595185,-0.598253,0.596719,-0.601320,0.598253,-0.593651
2.1317,0.016841,-0.002054,-1.576932,1.566194,0.0000,0.0000,0.0000,-0.001758,-1.576932,1.566194,0.0526,0.1990,0.0639,0.000000,0.582913,-0.587515,0.587515,-0.592117,0.590583,-0.579845
2.1485,0.016755,-0.002188,-1.576932,1.566194,0.0000,0.0000,0.0000,-0.001842,-1.576932,1.566194,-0.0324,0.2430,0.2079,0.000000,0.579845,-0.582913,0.585981,-0.589049,0.589049,-0.576777
2.1654,0.016990,-0.002324,-1.576932,1.566194,0.0000,0.0000,0.0000,-0.001957,-1.576932,1.566194,0.0541,0.2056,0.0853,0.000000,0.578311,-0.581379,0.582913,-0.585981,0.584447,-0.575243
2.1822,0.016752,-0.002458,-1.576932,1.566194,0.0000,0.0000,0.0000,-0.002254,-1.576932,1.566194,-0.0540,0.1771,0.1513,0.000000,0.572175,-0.573709,0.576777,-0.578311,0.578311,-0.570641
2.1990,0.016761,-0.002592,-1.576932,1.566194,0.0000,0.0000,0.0000,-0.002254,-1.576932,1.566194,-0.0540,0.1771,0.1513,0.000000,0.572175,-0.573709,0.576777,-0.578311,0.578311,-0.570641
2.2157,0.016753,-0.002726,-1.576932,1.566194,0.0000,0.0000,0.0000,-0.002224,-1.576932,1.566194,-0.0429,0.1800,0.1445,0.000000,0.572175,-0.573709,0.576777,-0.578311,0.578311,-0.570641
2.2325,0.016750,-0.002860,-1.576932,1.566194,0.0000,0.0000,0.0000,-0.002475,-1.576932,1.566194,-0.0543,0.2314,0.3584,0.000000,0.567573,-0.567573,0.573709,-0.572175,0.573709,-0.564505
2.2492,0.016752,-0.002994,-1.576932,1.566194,0.0000,0.0000,0.0000,-0.002524,-1.576932,1.566194,-0.0034,0.1402,0.2293,0.000000,0.566039,-0.567573,0.570641,-0.570641,0.572175,-0.562971
2.2660,0.016756,-0.003128,-1.576932,1.566194,0.0000,0.0000,0.0000,-0.002793,-1.576932,1.566194,-0.0086,0.0805,0.2421,0.000000,0.559903,-0.562971,0.564505,-0.564505,0.567573,-0.556835
2.2827,0.016771,-0.003262,-1.576932,1.566194,0.0000,0.0000,0.0000,-0.003039,-1.576932,1.566194,-0.0083,0.1899,0.2400,0.000000,0.553767,-0.556835,0.559903,-0.559903,0.561437,-0.550699
2.2995,0.016762,-0.003396,-1.576932,1.566194,0.0000,0.0000,0.0000,-0.003039,-1.576932,1.566194,-0.0083,0.1899,0.2400,0.000000,0.553767,-0.556835,0.559903,-0.559903,0.561437,-0.550699
2.3163,0.016753,-0.003530,-1.576932,1.566194,0.0000,0.0000,0.0000,-0.003213,-1.576932,1.566194,-0.1084,0.2818,0.1337,0.000000,0.547631,-0.552233,0.556835,-0.556835,0.556835,-0.547631
2.3331,0.016862,-0.003665,-1.576932,1.566194,0.0000,0.0000,0.0000,-0.003245,-1.576932,1.566194,-0.1087,0.2208,0.0388,0.000000,0.546097,-0.552233,0.555301,-0.555301,0.555301,-0.547631
2.3499,0.016761,-0.003799,-1.576932,1.566194,0.0000,0.0000,0.0000,-0.003330,-1.576932,1.566194,-0.0772,0.1760,0.2073,0.000000,0.546097,-0.549165,0.552233,-0.553767,0.555301,-0.544563
2.3666,0.016708,-0.003933,-1.576932,1.566194,0.0000,0.0000,0.0000,-0.003558,-1.576932,1.566194,-0.0016,0.1476,0.2422,0.000000,0.543029,-0.544563,0.547631,-0.547631,0.549165,-0.539961
2.3834,0.016782,-0.004067,-1.576932,1.566194,0.0000,0.0000,0.0000,-0.003558,-1.576932,1.566194,-0.0016,0.1476,0.2422,0.000000,0.536893,-0.536893,0.539961,-0.539961,0.543029,-0.532291
2.4001,0.016752,-0.004201,-1.576932,1.566194,0.0000,0.0000,0.0000,-0.003885,-1.576932,1.566194,0.0011,0.0996,0.3429,0.000000,0.536893,-0.536893,0.539961,-0.539961,0.543029,-0.532291
2.4169,0.016761,-0.004335,-1.576932,1.566194,0.0000,0.0000,0.0000,-0.004052,-1.576932,1.566194,-0.0996,0.2078,0.2266,0.000000,0.530757,-0.532291,0.536893,-0.536893,0.538427,-0.529223
2.4336,0.016751,-0.004469,-1.576932,1.566194,0.0000,0.0000,0.0000,-0.004085,-1.576932,1.566194,-0.0494,0.2316,0.3436,0.000000,0.530757,-0.530757,0.536893,-0.535359,0.536893,-0.527689
2.4504,0.016758,-0.004603,-1.576932,1.566194,0.0000,0.0000,0.0000,-0.004106,-1.576932,1.566194,-0.0944,0.1943,0.2263,0.000000,0.529223,-0.530757,0.535359,-0.535359,0.536893,-0.527689
2.4672,0.016802,-0.004738,-1.576932,1.566194,0.0000,0.0000,0.0000,-0.004255,-1.576932,1.566194,-0.1295,0.0937,0.1336,0.000000,0.524621,-0.529223,0.530757,-0.532291,0.535359,-0.524621
2.4840,0.016781,-0.004872,-1.576932,1.566194,0.0000,0.0000,0.0000,-0.004255,-1.576932,1.566194,-0.1295,0.0937,0.1336,0.000000,0.524621,-0.529223,0.530757,-0.532291,0.535359,-0.524621
2.5007,0.016754,-0.004994,-1.576932,1.566194,0.0000,0.0000,0.0000,-0.004566,-1.576932,1.566194,-0.0365,0.1564,0.1426,0.000000,0.518486,-0.523087,0.524621,-0.526155,0.527689,-0.516952
2.5175,0.016768,-0.004860,-1.576932,1.566194,0.0000,0.0000,0.0000,-0.004811,-1.576932,1.566194,-0.1065,0.1851,0.1412,0.000000,0.512350,-0.516952,0.520019,-0.520019,0.521553,-0.512350
2.5343,0.016773,-0.004726,-1.576932,1.566194,0.0000,0.0000,0.0000,-0.004810,-1.576932,1.566194,-0.0995,0.2520,0.1412,0.000000,0.512350,-0.515418,0.520019,-0.520019,0.520019,-0.512350
2.5510,0.016757,-0.004592,-1.576932,1.566194,0.0000,0.0000,0.0000,-0.004873,-1.576932,1.566194,-0.0501,0.2282,0.1932,0.000000,0.512350,-0.513884,0.518486,-0.518486,0.518486,-0.510816
2.5678,0.016760,-0.004458,-1.576932,1.566194,0.0000,0.0000,0.0000,-0.005119,-1.576932,1.566194,-0.1451,0.1092,0.1875,0.000000,0.506214,-0.509282,0.512350,-0.512350,0.515418,-0.506214
2.5846,0.016836,-0.004323,-1.576932,1.566194,0.0000,0.0000,0.0000,-0.005119,-1.576932,1.566194,-0.1451,0.1092,0.1875,0.000000,0.506214,-0.509282,0.512350,-0.512350,0.515418,-0.506214
2.6014,0.016755,-0.004189,-1.576932,1.566194,0.0000,0.0000,0.0000,-0.005195,-1.576932,1.566194,-0.0749,0.0869,0.1878,0.000000,0.504680,-0.507748,0.509282,-0.510816,0.513884,-0.503146
2.6181,0.016745,-0.004055,-1.576932,1.566194,0.0000,0.0000,0.0000,-0.005200,-1.576932,1.566194,-0.1220,0.1242,0.2396,0.000000,0.504680,-0.506214,0.509282,-0.510816,0.513884,-0.503146
2.6349,0.016763,-0.003921,-1.576932,1.566194,0.0000,0.0000,0.0000,-0.005187,-1.576932,1.566194,-0.0772,0.0853,0.1824,0.000000,0.504680,-0.507748,0.509282,-0.510816,0.513884,-0.503146
2.6516,0.016756,-0.003787,-1.576932,1.566194,0.0000,0.0000,0.0000,-0.005200,-1.576932,1.566194,-0.1218,0.1244,0.2402,0.000000,0.504680,-0.506214,0.509282,-0.510816,0.513884,-0.503146
2.6684,0.016767,-0.003653,-1.576932,1.566194,0.0000,0.0000,0.0000,-0.005200,-1.576932,1.566194,-0.1218,0.1244,0.2402,0.000000,0.504680,-0.506214,0.509282,-0.510816,0.513884,-0.503146
2.6852,0.016754,-0.003519,-1.576932,1.566194,0.0000,0.0000,0.0000,-0.005199,-1.576932,1.566194,-0.1172,0.1203,0.2341,0.000000,0.504680,-0.506214,0.509282,-0.510816,0.513884,-0.503146
2.7019,0.016755,-0.003385,-1.576932,1.566194,0.0000,0.0000,0.0000,-0.005187,-1.576932,1.566194,-0.0777,0.0857,0.1830,0.000000,0.504680,-0.507748,0.509282,-0.510816,0.513884,-0.503146
2.7187,0.016755,-0.003251,-1.576932,1.566194,0.0000,0.0000,0.0000,-0.005200,-1.576932,1.566194,-0.1217,0.1244,0.2401,0.000000,0.504680,-0.506214,0.509282,-0.510816,0.513884,-0.503146
2.7354,0.016724,-0.003117,-1.576932,1.566194,0.0000,0.0000,0.0000,-0.005186,-1.576932,1.566194,-0.0773,0.0853,0.1824,0.000000,0.504680,-0.507748,0.509282,-0.510816,0.513884,-0.503146
2.7522,0.016764,-0.002983,-1.576932,1.566194,0.0000,0.0000,0.0000,-0.005200,-1.576932,1.566194,-0.1218,0.1244,0.2402,0.000000,0.504680,-0.506214,0.509282,-0.510816,0.513884,-0.503146
2.7689,0.016768,-0.002849,-1.576932,1.566194,0.0000,0.0000,0.0000,-0.005200,-1.576932,1.566194,-0.1218,0.1244,0.2402,0.000000,0.504680,-0.506214,0.509282,-0.510816,0.513884,-0.503146
2.7857,0.016759,-0.002715,-1.576932,1.566194,0.0000,0.0000,0.0000,-0.005186,-1.576932,1.566194,-0.0773,0.0853,0.1823,0.000000,0.504680,-0.507748,0.509282,-0.510816,0.513884,-0.503146
2.8024,0.016752,-0.002581,-1.576932,1.566194,0.0000,0.0000,0.0000,-0.005188,-1.576932,1.566194,-0.0819,0.0894,0.1884,0.000000,0.504680,-0.507748,0.509282,-0.510816,0.513884,-0.503146
2.8192,0.016751,-0.002447,-1.576932,1.566194,0.0000,0.0000,0.0000,-0.005188,-1.576932,1.566194,-0.0819,0.0894,0.1884,0.000000,0.504680,-0.507748,0.509282,-0.510816,0.513884,-0.503146
2.8360,0.016780,-0.002312,-1.576932,1.566194,0.0000,0.0000,0.0000,-0.005188,-1.576932,1.566194,-0.0819,0.0894,0.1884,0.000000,0.504680,-0.507748,0.509282,-0.510816,0.513884,-0.503146
2.8527,0.016751,-0.002178,-1.576932,1.566194,0.0000,0.0000,0.0000,-0.005188,-1.576932,1.566194,-0.0819,0.0894,0.1884,0.000000,0.504680,-0.507748,0.509282,-0.510816,0.513884,-0.503146
2.8695,0.016772,-0.002044,-1.576932,1.566194,0.0000,0.0000,0.0000,-0.005188,-1.576932,1.566194,-0.0819,0.0894,0.1884,0.000000,0.504680,-0.507748,0.510816,-0.510816,0.513884,-0.503146
2.8862,0.016746,-0.001910,-1.576932,1.566194,0.0000,0.0000,0.0000,-0.005175,-1.576932,1.566194,-0.0915,0.1409,0.2396,0.000000,0.504680,-0.507748,0.510816,-0.510816,0.513884,-0.503146
2.9030,0.016754,-0.001776,-1.576932,1.566194,0.0000,0.0000,0.0000,-0.005114,-1.576932,1.566194,-0.0696,0.0659,0.2865,0.000000,0.506214,-0.509282,0.510816,-0.512350,0.516952,-0.503146
2.9198,0.016791,-0.001642,-1.576932,1.566194,0.0000,0.0000,0.0000,-0.005108,-1.576932,1.566194,-0.0619,0.1258,0.2295,0.000000,0.506214,-0.509282,0.510816,-0.513884,0.516952,-0.503146
2.9365,0.016764,-0.001508,-1.576932,1.566194,0.0000,0.0000,0.0000,-0.005083,-1.576932,1.566194,-0.0428,0.2236,0.1313,0.000000,0.506214,-0.509282,0.510816,-0.516952,0.516952,-0.503146
2.9533,0.016793,-0.001373,-1.576932,1.566194,0.0000,0.0000,0.0000,-0.005023,-1.576932,1.566194,0.0056,0.4044,0.1932,0.000000,0.507748,-0.509282,0.513884,-0.520019,0.516952,-0.503146
2.9701,0.016764,-0.001239,-1.576932,1.566194,0.0000,0.0000,0.0000,-0.005023,-1.576932,1.566194,0.0056,0.4044,0.1932,0.000000,0.507748,-0.509282,0.513884,-0.520019,0.516952,-0.503146
2.9869,0.016753,-0.001105,-1.576932,1.566194,0.0000,0.0000,0.0000,-0.004903,-1.576932,1.566194,0.0312,0.6115,0.1861,0.000000,0.510816,-0.509282,0.516952,-0.526155,0.518486,-0.504680
3.0036,0.016758,-0.000971,-1.576932,1.566194,0.0000,0.0000,0.0000,-0.004728,-1.576932,1.566194,0.0094,0.6940,0.1343,0.000000,0.515418,-0.510816,0.520019,-0.532291,0.521553,-0.509282
3.0204,0.016746,-0.000837,-1.576932,1.566194,0.0000,0.0000,0.0000,-0.004495,-1.576932,1.566194,0.1124,0.7892,0.2447,0.000000,0.521553,-0.515418,0.526155,-0.538427,0.526155,-0.512350
3.0371,0.016762,-0.000703,-1.576932,1.566194,0.0000,0.0000,0.0000,-0.004231,-1.576932,1.566194,0.1623,0.8146,0.3912,0.000000,0.529223,-0.520019,0.532291,-0.544563,0.532291,-0.516952
3.0539,0.016752,-0.000569,-1.576932,1.566194,0.0000,0.0000,0.0000,-0.004033,-1.576932,1.566194,0.0672,0.8289,0.3762,0.000000,0.533825,-0.523087,0.536893,-0.549165,0.536893,-0.523087
3.0706,0.016757,-0.000435,-1.576932,1.566194,0.0000,0.0000,0.0000,-0.004033,-1.576932,1.566194,0.0672,0.8289,0.3762,0.000000,0.533825,-0.523087,0.536893,-0.549165,0.536893,-0.523087
3.0873,0.016705,-0.000301,-1.576932,1.566194,0.0000,0.0000,0.0000,-0.003790,-1.576932,1.566194,0.1780,0.8265,0.3266,0.000000,0.539961,-0.529223,0.541495,-0.555301,0.541495,-0.527689
3.1041,0.016755,-0.000167,-1.576932,1.566194,0.0000,0.0000,0.0000,-0.003578,-1.576932,1.566194,0.2166,0.8096,0.3858,0.000000,0.546097,-0.533825,0.546097,-0.559903,0.546097,-0.532291
3.1209,0.016761,-0.000033,-1.576932,1.566194,0.0000,0.0000,0.0000,-0.003375,-1.576932,1.566194,0.2127,0.8105,0.3805,0.000000,0.550699,-0.538427,0.550699,-0.564505,0.550699,-0.536893
3.1376,0.016753,0.000101,-1.576932,1.566194,0.0000,0.0000,0.0000,-0.003211,-1.576932,1.566194,0.3237,0.8291,0.4352,0.000000,0.556835,-0.541495,0.553767,-0.569107,0.553767,-0.539961
3.1545,0.016931,0.000236,-1.576932,1.566194,0.0000,0.0000,0.0000,-0.003027,-1.576932,1.566194,0.3411,0.8091,0.4311,0.000000,0.561437,-0.546097,0.558369,-0.572175,0.556835,-0.544563
3.1713,0.016756,0.000370,-1.576932,1.566194,0.0000,0.0000,0.0000,-0.003027,-1.576932,1.566194,0.3411,0.8091,0.4311,0.000000,0.561437,-0.546097,0.558369,-0.572175,0.556835,-0.544563
3.1880,0.016753,0.000504,-1.576932,1.566194,0.0000,0.0000,0.0000,-0.002860,-1.576932,1.566194,0.3892,0.7252,0.4859,0.000000,0.566039,-0.550699,0.561437,-0.575243,0.561437,-0.547631
3.2048,0.016755,0.000638,-1.576932,1.566194,0.0000,0.0000,0.0000,-0.002715,-1.576932,1.566194,0.4238,0.6981,0.4280,0.000000,0.569107,-0.555301,0.564505,-0.578311,0.564505,-0.550699
3.2216,0.016762,0.000773,-1.576932,1.566194,0.0000,0.0000,0.0000,-0.002543,-1.576932,1.566194,0.4988,0.7006,0.4889,0.000000,0.573709,-0.559903,0.569107,-0.581379,0.567573,-0.553767
3.2383,0.016759,0.000907,-1.576932,1.566194,0.0000,0.0000,0.0000,-0.002399,-1.576932,1.566194,0.5300,0.7006,0.4306,0.000000,0.578311,-0.562971,0.572175,-0.584447,0.569107,-0.558369
3.2551,0.016761,0.001041,-1.576932,1.566194,0.0000,0.0000,0.0000,-0.002399,-1.576932,1.566194,0.5300,0.7006,0.4306,0.000000,0.582913,-0.566039,0.575243,-0.589049,0.573709,-0.561437
3.2718,0.016752,0.001175,-1.576932,1.566194,0.0000,0.0000,0.0000,-0.002229,-1.576932,1.566194,0.5475,0.7013,0.4909,0.000000,0.582913,-0.566039,0.575243,-0.589049,0.573709,-0.561437
3.2886,0.016752,0.001309,-1.576932,1.566194,0.0000,0.0000,0.0000,-0.002072,-1.576932,1.566194,0.5353,0.6479,0.3782,0.000000,0.585981,-0.570641,0.578311,-0.592117,0.576777,-0.566039
3.3053,0.016763,0.001443,-1.576932,1.566194,0.0000,0.0000,0.0000,-0.001892,-1.576932,1.566194,0.6355,0.7239,0.4992,0.000000,0.592117,-0.573709,0.582913,-0.596719,0.579845,-0.569107
3.3221,0.016747,0.001577,-1.576932,1.566194,0.0000,0.0000,0.0000,-0.001751,-1.576932,1.566194,0.6356,0.7662,0.4334,0.000000,0.595185,-0.576777,0.585981,-0.601320,0.582913,-0.572175
3.3389,0.016771,0.001711,-1.576932,1.566194,0.0000,0.0000,0.0000,-0.001567,-1.576932,1.566194,0.6352,0.6589,0.4411,0.000000,0.599786,-0.581379,0.589049,-0.604388,0.587515,-0.576777
3.3556,0.016765,0.001845,-1.576932,1.566194,0.0000,0.0000,0.0000,-0.001567,-1.576932,1.566194,0.6352,0.6589,0.4411,0.000000,0.599786,-0.581379,0.589049,-0.604388,0.587515,-0.576777
3.3724,0.016754,0.001979,-1.576932,1.566194,0.0000,0.0000,0.0000,-0.001377,-1.576932,1.566194,0.5957,0.7046,0.4951,0.000000,0.604388,-0.584447,0.593651,-0.608990,0.592117,-0.581379
3.3892,0.016767,0.002113,-1.576932,1.566194,0.0000,0.0000,0.0000,-0.001212,-1.576932,1.566194,0.6388,0.7656,0.4365,0.000000,0.607456,-0.589049,0.598253,-0.613592,0.595185,-0.584447
3.4059,0.016760,0.002247,-1.576932,1.566194,0.0000,0.0000,0.0000,-0.001044,-1.576932,1.566194,0.7115,0.7589,0.4985,0.000000,0.612058,-0.593651,0.602854,-0.616660,0.598253,-0.587515
3.4227,0.016756,0.002381,-1.576932,1.566194,0.0000,0.0000,0.0000,-0.000925,-1.576932,1.566194,0.6543,0.7742,0.4380,0.000000,0.613592,-0.596719,0.605922,-0.619728,0.601320,-0.590583
3.4394,0.016771,0.002516,-1.576932,1.566194,0.0000,0.0000,0.0000,-0.000925,-1.576932,1.566194,0.6543,0.7742,0.4380,0.000000,0.616660,-0.599786,0.608990,-0.622796,0.604388,-0.593651
3.4563,0.016840,0.002650,-1.576932,1.566194,0.0000,0.0000,0.0000,-0.000790,-1.576932,1.566194,0.6600,0.7718,0.4450,0.000000,0.616660,-0.599786,0.608990,-0.622796,0.604388,-0.593651
3.4730,0.016752,0.002784,-1.576932,1.566194,0.0000,0.0000,0.0000,-0.000644,-1.576932,1.566194,0.6980,0.7362,0.3907,0.000000,0.619728,-0.604388,0.612058,-0.625864,0.607456,-0.596719
3.4898,0.016752,0.002918,-1.576932,1.566194,0.0000,0.0000,0.0000,-0.000452,-1.576932,1.566194,0.6545,0.7739,0.4516,0.000000,0.624330,-0.607456,0.616660,-0.630466,0.612058,-0.601320
3.5065,0.016721,0.003052,-1.576932,1.566194,0.0000,0.0000,0.0000,-0.000312,-1.576932,1.566194,0.6872,0.7509,0.2827,0.000000,0.627398,-0.612058,0.619728,-0.633534,0.613592,-0.605922
3.5233,0.016748,0.003186,-1.576932,1.566194,0.0000,0.0000,0.0000,-0.000144,-1.576932,1.566194,0.7045,0.7536,0.3554,0.000000,0.632000,-0.615126,0.622796,-0.638136,0.618194,-0.608990
3.5400,0.016766,0.003320,-1.576932,1.566194,0.0000,0.0000,0.0000,-0.000144,-1.576932,1.566194,0.7045,0.7536,0.3554,0.000000,0.635068,-0.618194,0.625864,-0.641204,0.621262,-0.612058
3.5568,0.016753,0.003454,-1.576932,1.566194,0.0000,0.0000,0.0000,-0.000015,-1.576932,1.566194,0.7023,0.7526,0.3483,0.000000,0.635068,-0.618194,0.625864,-0.641204,0.621262,-0.612058
3.5735,0.016752,0.003588,-1.576932,1.566194,0.0000,0.0000,0.0000,0.000153,-1.576932,1.566194,0.7511,0.8373,0.4052,0.000000,0.639670,-0.621262,0.630466,-0.645806,0.624330,-0.615126
3.5903,0.016752,0.003722,-1.576932,1.566194,0.0000,0.0000,0.0000,0.000330,-1.576932,1.566194,0.7451,0.7268,0.3998,0.000000,0.644272,-0.625864,0.633534,-0.648874,0.628932,-0.619728
3.6070,0.016757,0.003856,-1.576932,1.566194,0.0000,0.0000,0.0000,0.000518,-1.576932,1.566194,0.7065,0.7722,0.4561,0.000000,0.648874,-0.628932,0.638136,-0.653476,0.633534,-0.624330
3.6238,0.016746,0.003990,-1.576932,1.566194,0.0000,0.0000,0.0000,0.000849,-1.576932,1.566194,0.7582,0.7823,0.5073,0.000000,0.656544,-0.636602,0.645806,-0.661146,0.641204,-0.630466
3.6406,0.016783,0.004125,-1.576932,1.566194,0.0000,0.0000,0.0000,0.000849,-1.576932,1.566194,0.7582,0.7823,0.5073,0.000000,0.656544,-0.636602,0.645806,-0.661146,0.641204,-0.630466
3.6573,0.016751,0.004259,-1.576932,1.566194,0.0000,0.0000,0.0000,0.000982,-1.576932,1.566194,0.8120,0.8154,0.5032,0.000000,0.661146,-0.639670,0.648874,-0.665748,0.644272,-0.633534
3.6741,0.016754,0.004393,-1.576932,1.566194,0.0000,0.0000,0.0000,0.001124,-1.576932,1.566194,0.8546,0.9275,0.5602,0.000000,0.664214,-0.642738,0.653476,-0.670350,0.647340,-0.635068
3.6908,0.016753,0.004527,-1.576932,1.566194,0.0000,0.0000,0.0000,0.001301,-1.576932,1.566194,0.9090,0.8813,0.5552,0.000000,0.668816,-0.647340,0.656544,-0.674952,0.651942,-0.638136
3.7076,0.016756,0.004661,-1.576932,1.566194,0.0000,0.0000,0.0000,0.001427,-1.576932,1.566194,0.9025,0.8850,0.5565,0.000000,0.671884,-0.650408,0.659612,-0.678020,0.655010,-0.641204
3.7243,0.016749,0.004795,-1.576932,1.566194,0.0000,0.0000,0.0000,0.001629,-1.576932,1.566194,0.9887,0.9020,0.5588,0.000000,0.678020,-0.655010,0.664214,-0.682621,0.658078,-0.645806
3.7411,0.016768,0.004929,-1.576932,1.566194,0.0000,0.0000,0.0000,0.001629,-1.576932,1.566194,0.9887,0.9020,0.5588,0.000000,0.678020,-0.655010,0.664214,-0.682621,0.658078,-0.645806
3.7578,0.016751,0.004937,-1.576932,1.566194,0.0000,0.0000,0.0000,0.001788,-1.576932,1.566194,1.0168,0.9630,0.5042,0.000000,0.681087,-0.659612,0.668816,-0.687223,0.661146,-0.648874
3.7746,0.016755,0.004803,-1.576932,1.566194,0.0000,0.0000,0.0000,0.001950,-1.576932,1.566194,1.0608,0.8730,0.5665,0.000000,0.685689,-0.664214,0.671884,-0.690291,0.665748,-0.651942
3.7914,0.016800,0.004669,-1.576932,1.566194,0.0000,0.0000,0.0000,0.002145,-1.576932,1.566194,1.2006,0.9659,0.5627,0.000000,0.691825,-0.668816,0.676486,-0.696427,0.668816,-0.655010
3.8082,0.016757,0.004535,-1.576932,1.566194,0.0000,0.0000,0.0000,0.002305,-1.576932,1.566194,1.1731,0.9361,0.6197,0.000000,0.694893,-0.673418,0.681087,-0.699495,0.673418,-0.658078
3.8249,0.016764,0.004401,-1.576932,1.566194,0.0000,0.0000,0.0000,0.002454,-1.576932,1.566194,1.2602,0.8893,0.6153,0.000000,0.699495,-0.678020,0.684155,-0.702563,0.676486,-0.661146
3.8417,0.016771,0.004266,-1.576932,1.566194,0.0000,0.0000,0.0000,0.002454,-1.576932,1.566194,1.2602,0.8893,0.6153,0.000000,0.702563,-0.681087,0.687223,-0.704097,0.678020,-0.662680
3.8585,0.016762,0.004132,-1.576932,1.566194,0.0000,0.0000,0.0000,0.002546,-1.576932,1.566194,1.3245,0.8942,0.6735,0.000000,0.702563,-0.681087,0.687223,-0.704097,0.678020,-0.662680
3.8753,0.016808,0.003998,-1.576932,1.566194,0.0000,0.0000,0.0000,0.002595,-1.576932,1.566194,1.2797,0.9278,0.7241,0.000000,0.704097,-0.681087,0.688757,-0.705631,0.679553,-0.664214
3.8921,0.016808,0.003863,-1.576932,1.566194,0.0000,0.0000,0.0000,0.002602,-1.576932,1.566194,1.2361,0.9074,0.6625,0.000000,0.704097,-0.681087,0.688757,-0.705631,0.679553,-0.665748
3.9088,0.016769,0.003729,-1.576932,1.566194,0.0000,0.0000,0.0000,0.002614,-1.576932,1.566194,1.2780,0.8748,0.6127,0.000000,0.704097,-0.682621,0.688757,-0.705631,0.679553,-0.665748
3.9256,0.016761,0.003595,-1.576932,1.566194,0.0000,0.0000,0.0000,0.002614,-1.576932,1.566194,1.2780,0.8748,0.6127,0.000000,0.704097,-0.682621,0.688757,-0.705631,0.679553,-0.665748
3.9424,0.016754,0.003461,-1.576932,1.566194,0.0000,0.0000,0.0000,0.002613,-1.576932,1.566194,1.2736,0.8782,0.6179,0.000000,0.704097,-0.682621,0.688757,-0.705631,0.679553,-0.665748
3.9591,0.016756,0.003327,-1.576932,1.566194,0.0000,0.0000,0.0000,0.002613,-1.576932,1.566194,1.2736,0.8782,0.6179,0.000000,0.704097,-0.682621,0.688757,-0.705631,0.679553,-0.665748
3.9759,0.016748,0.003193,-1.576932,1.566194,0.0000,0.0000,0.0000,0.002613,-1.576932,1.566194,1.2736,0.8782,0.6179,0.000000,0.704097,-0.682621,0.688757,-0.705631,0.679553,-0.665748
3.9927,0.016847,0.003058,-1.576932,1.566194,0.0000,0.0000,0.0000,0.002613,-1.576932,1.566194,1.2736,0.8782,0.6179,0.000000,0.704097,-0.682621,0.688757,-0.705631,0.679553,-0.665748
4.0095,0.016771,0.002924,-1.576932,1.566194,0.0000,0.0000,0.0000,0.002613,-1.576932,1.566194,1.2736,0.8782,0.6179,0.000000,0.704097,-0.682621,0.688757,-0.705631,0.678020,-0.665748
4.0262,0.016772,0.002790,-1.576932,1.566194,0.0000,0.0000,0.0000,0.002601,-1.576932,1.566194,1.3119,0.9110,0.5620,0.000000,0.704097,-0.682621,0.688757,-0.705631,0.678020,-0.665748
4.0430,0.016756,0.002656,-1.576932,1.566194,0.0000,0.0000,0.0000,0.002593,-1.576932,1.566194,1.1745,0.9020,0.5096,0.000000,0.701029,-0.682621,0.688757,-0.705631,0.679553,-0.665748
4.0598,0.016758,0.002522,-1.576932,1.566194,0.0000,0.0000,0.0000,0.002539,-1.576932,1.566194,1.0226,0.8474,0.4570,0.000000,0.696427,-0.682621,0.688757,-0.702563,0.679553,-0.665748
4.0765,0.016758,0.002388,-1.576932,1.566194,0.0000,0.0000,0.0000,0.002454,-1.576932,1.566194,0.8243,0.7142,0.3477,0.000000,0.690291,-0.682621,0.687223,-0.697961,0.679553,-0.665748
4.0933,0.016768,0.002254,-1.576932,1.566194,0.0000,0.0000,0.0000,0.002454,-1.576932,1.566194,0.8243,0.7142,0.3477,0.000000,0.690291,-0.682621,0.687223,-0.697961,0.679553,-0.665748
4.1100,0.016753,0.002120,-1.576932,1.566194,0.0000,0.0000,0.0000,0.002430,-1.576932,1.566194,0.7530,0.6448,0.5273,0.000000,0.688757,-0.682621,0.688757,-0.693359,0.679553,-0.665748
4.1268,0.016759,0.001986,-1.576932,1.566194,0.0000,0.0000,0.0000,0.002351,-1.576932,1.566194,0.6430,0.5819,0.3393,0.000000,0.684155,-0.682621,0.687223,-0.690291,0.678020,-0.665748
4.1436,0.016763,0.001852,-1.576932,1.566194,0.0000,0.0000,0.0000,0.002265,-1.576932,1.566194,0.4993,0.3870,0.2452,0.000000,0.679553,-0.682621,0.684155,-0.685689,0.678020,-0.665748
4.1603,0.016762,0.001717,-1.576932,1.566194,0.0000,0.0000,0.0000,0.002120,-1.576932,1.566194,0.2949,0.1264,0.1978,0.000000,0.674952,-0.679553,0.678020,-0.679553,0.678020,-0.665748
4.1771,0.016755,0.001583,-1.576932,1.566194,0.0000,0.0000,0.0000,0.002027,-1.576932,1.566194,0.1076,0.0888,0.2586,0.000000,0.671884,-0.674952,0.674952,-0.676486,0.678020,-0.665748
4.1938,0.016764,0.001449,-1.576932,1.566194,0.0000,0.0000,0.0000,0.001966,-1.576932,1.566194,0.1102,0.1951,0.0284,0.000000,0.670350,-0.671884,0.671884,-0.678020,0.674952,-0.665748
4.2106,0.016752,0.001315,-1.576932,1.566194,0.0000,0.0000,0.0000,0.001966,-1.576932,1.566194,0.1102,0.1951,0.0284,0.000000,0.670350,-0.671884,0.671884,-0.678020,0.674952,-0.665748
4.2274,0.016767,0.001181,-1.576932,1.566194,0.0000,0.0000,0.0000,0.001769,-1.576932,1.566194,0.1210,0.2714,-0.0035,0.000000,0.667282,-0.665748,0.667282,-0.674952,0.668816,-0.662680
4.2441,0.016747,0.001047,-1.576932,1.566194,0.0000,0.0000,0.0000,0.001478,-1.576932,1.566194,0.1574,0.2295,-0.2226,0.000000,0.659612,-0.661146,0.659612,-0.668816,0.661146,-0.656544
4.2609,0.016764,0.000913,-1.576932,1.566194,0.0000,0.0000,0.0000,0.001340,-1.576932,1.566194,0.0835,0.0515,0.0227,0.000000,0.656544,-0.658078,0.656544,-0.661146,0.659612,-0.653476
4.2776,0.016753,0.000779,-1.576932,1.566194,0.0000,0.0000,0.0000,0.001306,-1.576932,1.566194,0.1184,0.0853,-0.0027,0.000000,0.655010,-0.658078,0.656544,-0.659612,0.658078,-0.651942
4.2944,0.016798,0.000645,-1.576932,1.566194,0.0000,0.0000,0.0000,0.001306,-1.576932,1.566194,0.1184,0.0853,-0.0027,0.000000,0.655010,-0.658078,0.656544,-0.659612,0.658078,-0.651942
4.3112,0.016757,0.000511,-1.576932,1.566194,0.0000,0.0000,0.0000,0.001153,-1.576932,1.566194,0.0450,0.0976,0.0554,0.000000,0.650408,-0.655010,0.655010,-0.655010,0.655010,-0.648874
4.3280,0.016836,0.000376,-1.576932,1.566194,0.0000,0.0000,0.0000,0.000795,-1.576932,1.566194,0.0742,0.1971,0.1044,0.000000,0.642738,-0.645806,0.647340,-0.648874,0.647340,-0.639670
4.3448,0.016753,0.000242,-1.576932,1.566194,0.0000,0.0000,0.0000,0.000723,-1.576932,1.566194,0.1035,0.2065,0.2647,0.000000,0.642738,-0.641204,0.644272,-0.647340,0.645806,-0.636602
4.3619,0.017108,0.000105,-1.576932,1.566194,0.0000,0.0000,0.0000,0.000694,-1.576932,1.566194,0.1002,0.2052,0.0823,0.000000,0.641204,-0.641204,0.642738,-0.647340,0.644272,-0.636602
4.3787,0.016827,-0.000030,-1.576932,1.566194,0.0000,0.0000,0.0000,0.000563,-1.576932,1.566194,-0.0141,0.1709,-0.0642,0.000000,0.636602,-0.638136,0.638136,-0.645806,0.642738,-0.635068
4.3955,0.016784,-0.000164,-1.576932,1.566194,0.0000,0.0000,0.0000,0.000189,-1.576932,1.566194,0.0249,0.1594,-0.0487,0.000000,0.628932,-0.630466,0.630466,-0.636602,0.633534,-0.627398
4.4122,0.016750,-0.000298,-1.576932,1.566194,0.0000,0.0000,0.0000,0.000189,-1.576932,1.566194,0.0249,0.1594,-0.0487,0.000000,0.628932,-0.630466,0.630466,-0.636602,0.633534,-0.627398
4.4290,0.016750,-0.000432,-1.576932,1.566194,0.0000,0.0000,0.0000,-0.000016,-1.576932,1.566194,0.0592,0.1268,0.0594,0.000000,0.624330,-0.625864,0.625864,-0.630466,0.628932,-0.621262
4.4457,0.016755,-0.000566,-1.576932,1.566194,0.0000,0.0000,0.0000,-0.000019,-1.576932,1.566194,0.0943,0.0960,0.1578,0.000000,0.624330,-0.625864,0.625864,-0.628932,0.628932,-0.619728
4.4625,0.016760,-0.000700,-1.576932,1.566194,0.0000,0.0000,0.0000,-0.000116,-1.576932,1.566194,0.0798,0.1495,0.0379,0.000000,0.621262,-0.624330,0.624330,-0.627398,0.625864,-0.618194
4.4793,0.016762,-0.000834,-1.576932,1.566194,0.0000,0.0000,0.0000,-0.000424,-1.576932,1.566194,0.0922,0.1954,0.1593,0.000000,0.615126,-0.616660,0.618194,-0.621262,0.619728,-0.610524
4.4960,0.016773,-0.000968,-1.576932,1.566194,0.0000,0.0000,0.0000,-0.000424,-1.576932,1.566194,0.0922,0.1954,0.1593,0.000000,0.615126,-0.616660,0.618194,-0.621262,0.619728,-0.610524
4.5128,0.016754,-0.001102,-1.576932,1.566194,0.0000,0.0000,0.0000,-0.000760,-1.576932,1.566194,0.0909,0.1915,0.1461,0.000000,0.607456,-0.608990,0.610524,-0.613592,0.612058,-0.602854
4.5296,0.016766,-0.001236,-1.576932,1.566194,0.0000,0.0000,0.0000,-0.000860,-1.576932,1.566194,0.1015,0.2429,0.0929,0.000000,0.604388,-0.605922,0.607456,-0.612058,0.608990,-0.599786
4.5465,0.016976,-0.001372,-1.576932,1.566194,0.0000,0.0000,0.0000,-0.000862,-1.576932,1.566194,0.0899,0.1869,0.1528,0.000000,0.604388,-0.605922,0.607456,-0.610524,0.608990,-0.599786
4.5633,0.016800,-0.001507,-1.576932,1.566194,0.0000,0.0000,0.0000,-0.000886,-1.576932,1.566194,0.1402,0.1764,0.0379,0.000000,0.604388,-0.605922,0.605922,-0.610524,0.607456,-0.599786
4.5801,0.016732,-0.001641,-1.576932,1.566194,0.0000,0.0000,0.0000,-0.000886,-1.576932,1.566194,0.1402,0.1764,0.0379,0.000000,0.604388,-0.605922,0.605922,-0.610524,0.607456,-0.599786
4.5968,0.016769,-0.001775,-1.576932,1.566194,0.0000,0.0000,0.0000,-0.001093,-1.576932,1.566194,0.1246,0.0579,0.1040,0.000000,0.599786,-0.602854,0.601320,-0.604388,0.604388,-0.595185
4.6136,0.016752,-0.001909,-1.576932,1.566194,0.0000,0.0000,0.0000,-0.001441,-1.576932,1.566194,0.0273,0.0702,-0.0111,0.000000,0.590583,-0.595185,0.593651,-0.596719,0.596719,-0.589049
4.6303,0.016752,-0.002043,-1.576932,1.566194,0.0000,0.0000,0.0000,-0.001677,-1.576932,1.566194,0.0373,0.1715,0.0008,0.000000,0.584447,-0.589049,0.589049,-0.592117,0.590583,-0.582913
4.6471,0.016756,-0.002177,-1.576932,1.566194,0.0000,0.0000,0.0000,-0.001739,-1.576932,1.566194,-0.0026,0.1960,0.0533,0.000000,0.582913,-0.585981,0.587515,-0.590583,0.589049,-0.581379
4.6639,0.016755,-0.002311,-1.576932,1.566194,0.0000,0.0000,0.0000,-0.001967,-1.576932,1.566194,-0.0483,0.2102,-0.0059,0.000000,0.576777,-0.581379,0.582913,-0.585981,0.584447,-0.576777
4.6806,0.016755,-0.002445,-1.576932,1.566194,0.0000,0.0000,0.0000,-0.002303,-1.576932,1.566194,-0.0928,0.1932,0.2677,0.000000,0.570641,-0.572175,0.576777,-0.576777,0.578311,-0.569107
4.6974,0.016818,-0.002579,-1.576932,1.566194,0.0000,0.0000,0.0000,-0.002303,-1.576932,1.566194,-0.0928,0.1932,0.2677,0.000000,0.570641,-0.572175,0.576777,-0.576777,0.578311,-0.569107
4.7142,0.016746,-0.002713,-1.576932,1.566194,0.0000,0.0000,0.0000,-0.002268,-1.576932,1.566194,-0.0883,0.1949,0.2394,0.000000,0.570641,-0.572175,0.576777,-0.576777,0.578311,-0.569107
4.7309,0.016754,-0.002847,-1.576932,1.566194,0.0000,0.0000,0.0000,-0.002459,-1.576932,1.566194,-0.0886,0.1952,0.4021,0.000000,0.567573,-0.567573,0.573709,-0.572175,0.575243,-0.564505
4.7477,0.016752,-0.002981,-1.576932,1.566194,0.0000,0.0000,0.0000,-0.002538,-1.576932,1.566194,-0.0392,0.1789,0.2780,0.000000,0.566039,-0.566039,0.570641,-0.570641,0.572175,-0.562971
4.7644,0.016759,-0.003116,-1.576932,1.566194,0.0000,0.0000,0.0000,-0.002766,-1.576932,1.566194,-0.0051,0.0433,0.2371,0.000000,0.561437,-0.562971,0.564505,-0.564505,0.567573,-0.558369
4.7812,0.016766,-0.003250,-1.576932,1.566194,0.0000,0.0000,0.0000,-0.002766,-1.576932,1.566194,-0.0051,0.0433,0.2371,0.000000,0.552233,-0.556835,0.556835,-0.558369,0.558369,-0.550699
4.7980,0.016762,-0.003384,-1.576932,1.566194,0.0000,0.0000,0.0000,-0.003117,-1.576932,1.566194,0.0300,0.1255,0.0282,0.000000,0.552233,-0.556835,0.556835,-0.558369,0.558369,-0.550699
4.8147,0.016749,-0.003518,-1.576932,1.566194,0.0000,0.0000,0.0000,-0.003230,-1.576932,1.566194,-0.0628,0.2719,0.0496,0.000000,0.547631,-0.552233,0.555301,-0.556835,0.555301,-0.547631
4.8315,0.016745,-0.003652,-1.576932,1.566194,0.0000,0.0000,0.0000,-0.003231,-1.576932,1.566194,-0.0430,0.2052,-0.0056,0.000000,0.547631,-0.552233,0.553767,-0.556835,0.555301,-0.547631
4.8482,0.016764,-0.003786,-1.576932,1.566194,0.0000,0.0000,0.0000,-0.003306,-1.576932,1.566194,-0.0947,0.1259,0.1062,0.000000,0.546097,-0.550699,0.552233,-0.553767,0.555301,-0.546097
4.8650,0.016758,-0.003920,-1.576932,1.566194,0.0000,0.0000,0.0000,-0.003461,-1.576932,1.566194,-0.0288,0.1695,0.2528,0.000000,0.544563,-0.546097,0.549165,-0.550699,0.552233,-0.541495
4.8817,0.016763,-0.004054,-1.576932,1.566194,0.0000,0.0000,0.0000,-0.003795,-1.576932,1.566194,-0.0854,0.1824,0.3421,0.000000,0.536893,-0.538427,0.543029,-0.543029,0.546097,-0.533825
4.8985,0.016768,-0.004188,-1.576932,1.566194,0.0000,0.0000,0.0000,-0.003795,-1.576932,1.566194,-0.0854,0.1824,0.3421,0.000000,0.536893,-0.538427,0.543029,-0.543029,0.546097,-0.533825
4.9153,0.016756,-0.004322,-1.576932,1.566194,0.0000,0.0000,0.0000,-0.003761,-1.576932,1.566194,-0.0795,0.1811,0.3329,0.000000,0.536893,-0.538427,0.543029,-0.543029,0.546097,-0.533825
4.9320,0.016772,-0.004456,-1.576932,1.566194,0.0000,0.0000,0.0000,-0.004065,-1.576932,1.566194,-0.0114,0.1994,0.4378,0.000000,0.532291,-0.532291,0.538427,-0.535359,0.538427,-0.527689
4.9488,0.016763,-0.004590,-1.576932,1.566194,0.0000,0.0000,0.0000,-0.004084,-1.576932,1.566194,0.0314,0.2146,0.3217,0.000000,0.530757,-0.532291,0.536893,-0.535359,0.536893,-0.526155
4.9656,0.016773,-0.004725,-1.576932,1.566194,0.0000,0.0000,0.0000,-0.004084,-1.576932,1.566194,0.0314,0.2146,0.3217,0.000000,0.524621,-0.529223,0.530757,-0.532291,0.533825,-0.524621
4.9823,0.016750,-0.004859,-1.576932,1.566194,0.0000,0.0000,0.0000,-0.004270,-1.576932,1.566194,-0.1030,0.1264,0.0712,0.000000,0.524621,-0.529223,0.530757,-0.532291,0.533825,-0.524621
4.9991,0.016741,-0.004993,-1.576932,1.566194,0.0000,0.0000,0.0000,-0.004590,-1.576932,1.566194,-0.0996,0.1539,0.1490,0.000000,0.518486,-0.521553,0.524621,-0.524621,0.526155,-0.518486
5.0158,0.016756,-0.004873,-1.576932,1.566194,0.0000,0.0000,0.0000,-0.004770,-1.576932,1.566194,-0.0900,0.2033,0.0884,0.000000,0.513884,-0.516952,0.520019,-0.521553,0.521553,-0.513884
5.0331,0.017301,-0.004735,-1.576932,1.566194,0.0000,0.0000,0.0000,-0.004777,-1.576932,1.566194,-0.0909,0.2322,0.0947,0.000000,0.512350,-0.516952,0.520019,-0.521553,0.521553,-0.512350
5.0502,0.017063,-0.004598,-1.576932,1.566194,0.0000,0.0000,0.0000,-0.005016,-1.576932,1.566194,-0.0809,0.1777,0.0418,0.000000,0.507748,-0.512350,0.513884,-0.516952,0.516952,-0.507748
5.0670,0.016762,-0.004464,-1.576932,1.566194,0.0000,0.0000,0.0000,-0.005016,-1.576932,1.566194,-0.0809,0.1777,0.0418,0.000000,0.507748,-0.512350,0.513884,-0.516952,0.516952,-0.507748
5.0837,0.016766,-0.004330,-1.576932,1.566194,0.0000,0.0000,0.0000,-0.005294,-1.576932,1.566194,-0.0017,0.1838,0.2544,0.000000,0.503146,-0.506214,0.509282,-0.509282,0.510816,-0.500078
5.1005,0.016755,-0.004196,-1.576932,1.566194,0.0000,0.0000,0.0000,-0.005328,-1.576932,1.566194,-0.0200,0.2352,0.2841,0.000000,0.501612,-0.504680,0.509282,-0.507748,0.509282,-0.498544
5.1172,0.016763,-0.004062,-1.576932,1.566194,0.0000,0.0000,0.0000,-0.005312,-1.576932,1.566194,-0.0080,0.2820,0.2291,0.000000,0.501612,-0.504680,0.509282,-0.509282,0.509282,-0.498544
5.1340,0.016756,-0.003928,-1.576932,1.566194,0.0000,0.0000,0.0000,-0.005314,-1.576932,1.566194,-0.0093,0.2771,0.2348,0.000000,0.501612,-0.504680,0.509282,-0.509282,0.509282,-0.498544
5.1508,0.016773,-0.003794,-1.576932,1.566194,0.0000,0.0000,0.0000,-0.005326,-1.576932,1.566194,-0.0491,0.3127,0.2859,0.000000,0.501612,-0.503146,0.509282,-0.509282,0.509282,-0.498544
5.1675,0.016757,-0.003660,-1.576932,1.566194,0.0000,0.0000,0.0000,-0.005326,-1.576932,1.566194,-0.0491,0.3127,0.2859,0.000000,0.501612,-0.503146,0.509282,-0.509282,0.509282,-0.498544
5.1843,0.016762,-0.003526,-1.576932,1.566194,0.0000,0.0000,0.0000,-0.005312,-1.576932,1.566194,-0.0050,0.2739,0.2289,0.000000,0.501612,-0.504680,0.509282,-0.509282,0.509282,-0.498544
5.2011,0.016768,-0.003392,-1.576932,1.566194,0.0000,0.0000,0.0000,-0.005314,-1.576932,1.566194,-0.0096,0.2780,0.2349,0.000000,0.501612,-0.504680,0.509282,-0.509282,0.509282,-0.498544
5.2178,0.016762,-0.003257,-1.576932,1.566194,0.0000,0.0000,0.0000,-0.005314,-1.576932,1.566194,-0.0096,0.2780,0.2349,0.000000,0.501612,-0.504680,0.509282,-0.509282,0.509282,-0.498544
5.2346,0.016757,-0.003123,-1.576932,1.566194,0.0000,0.0000,0.0000,-0.005314,-1.576932,1.566194,-0.0096,0.2780,0.2349,0.000000,0.501612,-0.504680,0.509282,-0.509282,0.509282,-0.498544
5.2513,0.016770,-0.002989,-1.576932,1.566194,0.0000,0.0000,0.0000,-0.005314,-1.576932,1.566194,-0.0096,0.2780,0.2349,0.000000,0.501612,-0.504680,0.509282,-0.509282,0.509282,-0.498544
5.2681,0.016752,-0.002855,-1.576932,1.566194,0.0000,0.0000,0.0000,-0.005314,-1.576932,1.566194,-0.0096,0.2780,0.2349,0.000000,0.501612,-0.504680,0.509282,-0.509282,0.509282,-0.498544
5.2849,0.016761,-0.002721,-1.576932,1.566194,0.0000,0.0000,0.0000,-0.005314,-1.576932,1.566194,-0.0096,0.2780,0.2349,0.000000,0.501612,-0.504680,0.509282,-0.509282,0.509282,-0.498544
5.3016,0.016759,-0.002587,-1.576932,1.566194,0.0000,0.0000,0.0000,-0.005314,-1.576932,1.566194,-0.0096,0.2780,0.2349,0.000000,0.501612,-0.504680,0.509282,-0.509282,0.509282,-0.498544
5.3184,0.016766,-0.002453,-1.576932,1.566194,0.0000,0.0000,0.0000,-0.005301,-1.576932,1.566194,0.0009,0.3296,0.1823,0.000000,0.501612,-0.504680,0.509282,-0.510816,0.509282,-0.498544
5.3352,0.016774,-0.002319,-1.576932,1.566194,0.0000,0.0000,0.0000,-0.005301,-1.576932,1.566194,0.0009,0.3296,0.1823,0.000000,0.501612,-0.504680,0.509282,-0.510816,0.509282,-0.500078
5.3519,0.016777,-0.002185,-1.576932,1.566194,0.0000,0.0000,0.0000,-0.005289,-1.576932,1.566194,-0.0505,0.3070,0.1360,0.000000,0.501612,-0.504680,0.509282,-0.510816,0.509282,-0.500078
5.3687,0.016754,-0.002051,-1.576932,1.566194,0.0000,0.0000,0.0000,-0.005278,-1.576932,1.566194,-0.0849,0.2745,0.1927,0.000000,0.501612,-0.504680,0.509282,-0.510816,0.510816,-0.500078
5.3855,0.016804,-0.001916,-1.576932,1.566194,0.0000,0.0000,0.0000,-0.005254,-1.576932,1.566194,-0.0412,0.3128,0.2905,0.000000,0.503146,-0.504680,0.510816,-0.510816,0.510816,-0.500078
5.4022,0.016762,-0.001782,-1.576932,1.566194,0.0000,0.0000,0.0000,-0.005231,-1.576932,1.566194,-0.0353,0.2571,0.3842,0.000000,0.504680,-0.504680,0.510816,-0.510816,0.512350,-0.500078
5.4190,0.016755,-0.001648,-1.576932,1.566194,0.0000,0.0000,0.0000,-0.005184,-1.576932,1.566194,0.0248,0.2283,0.3746,0.000000,0.506214,-0.506214,0.510816,-0.512350,0.513884,-0.500078
5.4358,0.016784,-0.001514,-1.576932,1.566194,0.0000,0.0000,0.0000,-0.005184,-1.576932,1.566194,0.0248,0.2283,0.3746,0.000000,0.507748,-0.506214,0.510816,-0.515418,0.516952,-0.500078
5.4525,0.016759,-0.001380,-1.576932,1.566194,0.0000,0.0000,0.0000,-0.005126,-1.576932,1.566194,0.0095,0.2493,0.4275,0.000000,0.507748,-0.506214,0.510816,-0.515418,0.516952,-0.500078
5.4693,0.016754,-0.001246,-1.576932,1.566194,0.0000,0.0000,0.0000,-0.005058,-1.576932,1.566194,0.0524,0.2489,0.5260,0.000000,0.510816,-0.506214,0.510816,-0.518486,0.520019,-0.500078
