t,loop_dt,cmd_x,cmd_y,cmd_z,cmd_roll,cmd_pitch,cmd_yaw,cmd_ant_l,cmd_ant_r,pres_x,pres_y,pres_z,pres_roll,pres_pitch,pres_yaw,pres_ant_l,pres_ant_r,pres_j0,pres_j1,pres_j2,pres_j3,pres_j4,pres_j5,pres_j6
0.0000,0.000001,0.000302,0.001384,0.002321,1.1953,2.1166,0.0564,-0.177942,0.174874,0.000302,0.001384,0.002321,1.1953,2.1166,0.0564,-0.177942,0.174874,0.000000,0.674952,-0.679553,0.696427,-0.717903,0.671884,-0.644272
0.0167,0.016741,0.000297,0.001360,0.002282,1.1753,2.0812,0.0551,-0.177885,0.174868,0.000302,0.001384,0.002321,1.1953,2.1166,0.0564,-0.177942,0.174874,0.000000,0.674952,-0.679553,0.696427,-0.717903,0.671884,-0.644272
0.0335,0.016751,0.000292,0.001337,0.002243,1.1552,2.0457,0.0538,-0.177828,0.174862,0.000302,0.001384,0.002321,1.1953,2.1166,0.0564,-0.177942,0.174874,0.000000,0.674952,-0.679553,0.696427,-0.717903,0.671884,-0.644272
0.0502,0.016748,0.000287,0.001314,0.002204,1.1352,2.0103,0.0526,-0.177771,0.174857,0.000302,0.001384,0.002321,1.1953,2.1166,0.0564,-0.177942,0.174874,0.000000,0.674952,-0.679553,0.696427,-0.717903,0.671884,-0.644272
0.0670,0.016747,0.000282,0.001291,0.002165,1.1152,1.9749,0.0513,-0.177713,0.174851,0.000302,0.001384,0.002321,1.1953,2.1166,0.0564,-0.177942,0.174874,0.000000,0.674952,-0.679553,0.696427,-0.717903,0.671884,-0.644272
0.0837,0.016753,0.000277,0.001268,0.002126,1.0951,1.9394,0.0500,-0.177656,0.174845,0.000345,0.001456,0.002272,1.1681,2.1333,0.0543,-0.179476,0.174874,0.000000,0.673418,-0.678020,0.694893,-0.717903,0.671884,-0.642738
0.1005,0.016764,0.000271,0.001245,0.002087,1.0751,1.9040,0.0488,-0.177599,0.174840,0.000552,0.001603,0.002141,1.2414,2.2107,-0.0032,-0.177942,0.174874,0.000000,0.668816,-0.676486,0.691825,-0.717903,0.670350,-0.636602
0.1175,0.016992,0.000266,0.001221,0.002048,1.0547,1.8680,0.0475,-0.177541,0.174834,0.000552,0.001603,0.002141,1.2414,2.2107,-0.0032,-0.179476,0.174874,0.000000,0.665748,-0.673418,0.691825,-0.716369,0.668816,-0.632000
0.1342,0.016749,0.000261,0.001198,0.002009,1.0347,1.8326,0.0463,-0.177484,0.174828,0.000589,0.001586,0.002046,1.2356,2.3365,0.1708,-0.179476,0.174874,0.000000,0.665748,-0.673418,0.691825,-0.716369,0.668816,-0.632000
0.1510,0.016740,0.000256,0.001175,0.001970,1.0147,1.7972,0.0451,-0.177427,0.174822,0.000640,0.001570,0.002032,1.2742,2.2920,0.2650,-0.179476,0.174874,0.000000,0.665748,-0.673418,0.691825,-0.714835,0.668816,-0.630466
0.1677,0.016753,0.000251,0.001152,0.001931,0.9946,1.7618,0.0439,-0.177370,0.174817,0.000685,0.001569,0.001987,1.2696,2.1017,0.2542,-0.179476,0.174874,0.000000,0.665748,-0.673418,0.688757,-0.711767,0.668816,-0.630466
0.1845,0.016744,0.000246,0.001128,0.001893,0.9746,1.7263,0.0427,-0.177313,0.174811,0.000595,0.001568,0.001945,1.2706,2.0925,0.2556,-0.179476,0.174874,0.000000,0.665748,-0.671884,0.687223,-0.710233,0.667282,-0.630466
0.2012,0.016762,0.000241,0.001105,0.001854,0.9546,1.6909,0.0416,-0.177256,0.174805,0.000630,0.001566,0.001925,1.2701,1.9958,0.2549,-0.179476,0.174874,0.000000,0.665748,-0.671884,0.685689,-0.708699,0.667282,-0.630466
0.2181,0.016858,0.000236,0.001082,0.001815,0.9344,1.6552,0.0404,-0.177198,0.174799,0.000541,0.001566,0.001880,1.2707,1.9768,0.2553,-0.179476,0.173340,0.000000,0.665748,-0.670350,0.684155,-0.707165,0.665748,-0.630466
0.2348,0.016743,0.000231,0.001059,0.001776,0.9144,1.6198,0.0392,-0.177141,0.174794,0.000541,0.001566,0.001880,1.2707,1.9768,0.2553,-0.179476,0.173340,0.000000,0.665748,-0.670350,0.684155,-0.707165,0.665748,-0.630466
0.2516,0.016743,0.000226,0.001036,0.001737,0.8943,1.5843,0.0381,-0.177084,0.174788,0.000553,0.001369,0.001781,1.1521,1.9769,0.0878,-0.179476,0.173340,0.000000,0.661146,-0.668816,0.682621,-0.704097,0.662680,-0.630466
0.2683,0.016747,0.000221,0.001012,0.001698,0.8743,1.5489,0.0370,-0.177027,0.174782,0.000552,0.001307,0.001721,1.0672,1.9764,-0.0070,-0.179476,0.173340,0.000000,0.658078,-0.667282,0.681087,-0.702563,0.661146,-0.630466
0.2851,0.016748,0.000216,0.000989,0.001659,0.8543,1.5135,0.0359,-0.176970,0.174777,0.000578,0.001312,0.001704,1.0757,1.8785,0.0025,-0.177942,0.174874,0.000000,0.658078,-0.667282,0.679553,-0.701029,0.661146,-0.630466
0.3018,0.016758,0.000211,0.000966,0.001620,0.8343,1.4780,0.0348,-0.176913,0.174771,0.000576,0.001311,0.001706,1.0748,1.8887,0.0015,-0.179476,0.173340,0.000000,0.658078,-0.667282,0.679553,-0.701029,0.661146,-0.630466
0.3186,0.016797,0.000206,0.000943,0.001581,0.8142,1.4424,0.0337,-0.176856,0.174765,0.000462,0.001211,0.001624,1.0166,1.7960,0.1693,-0.179476,0.173340,0.000000,0.658078,-0.664214,0.678020,-0.696427,0.659612,-0.630466
0.3354,0.016740,0.000201,0.000920,0.001542,0.7941,1.4070,0.0326,-0.176799,0.174759,0.000462,0.001211,0.001624,1.0166,1.7960,0.1693,-0.179476,0.173340,0.000000,0.658078,-0.664214,0.678020,-0.696427,0.659612,-0.630466
0.3521,0.016741,0.000196,0.000896,0.001504,0.7741,1.3716,0.0316,-0.176741,0.174754,0.000484,0.001177,0.001562,0.9739,1.5951,0.2623,-0.179476,0.174874,0.000000,0.658078,-0.662680,0.674952,-0.691825,0.659612,-0.630466
0.3691,0.017003,0.000190,0.000873,0.001464,0.7538,1.3356,0.0305,-0.176683,0.174748,0.000521,0.001122,0.001534,0.9675,1.4685,0.3079,-0.179476,0.173340,0.000000,0.658078,-0.662680,0.673418,-0.688757,0.659612,-0.630466
0.3859,0.016792,0.000185,0.000850,0.001425,0.7337,1.3001,0.0295,-0.176626,0.174742,0.000521,0.001122,0.001534,0.9675,1.4685,0.3079,-0.179476,0.173340,0.000000,0.658078,-0.662680,0.673418,-0.688757,0.659612,-0.630466
0.4027,0.016815,0.000180,0.000826,0.001386,0.7136,1.2645,0.0284,-0.176569,0.174737,0.000521,0.001122,0.001534,0.9675,1.4685,0.3079,-0.179476,0.173340,0.000000,0.658078,-0.662680,0.673418,-0.688757,0.659612,-0.630466
0.4195,0.016773,0.000175,0.000803,0.001347,0.6936,1.2290,0.0274,-0.176512,0.174731,0.000521,0.001122,0.001534,0.9675,1.4685,0.3079,-0.179476,0.173340,0.000000,0.658078,-0.662680,0.673418,-0.688757,0.659612,-0.630466
0.4363,0.016751,0.000170,0.000780,0.001308,0.6735,1.1935,0.0264,-0.176455,0.174725,0.000521,0.001122,0.001534,0.9675,1.4685,0.3079,-0.179476,0.173340,0.000000,0.658078,-0.662680,0.673418,-0.688757,0.659612,-0.630466
0.4530,0.016744,0.000165,0.000757,0.001269,0.6535,1.1581,0.0254,-0.176398,0.174719,0.000466,0.001049,0.001442,0.8705,1.6755,-0.1418,-0.179476,0.173340,0.000000,0.651942,-0.661146,0.671884,-0.690291,0.655010,-0.630466
0.4699,0.016872,0.000160,0.000734,0.001230,0.6334,1.1223,0.0245,-0.176340,0.174714,0.000485,0.000999,0.001440,0.8701,1.6054,-0.0392,-0.179476,0.173340,0.000000,0.651942,-0.661146,0.671884,-0.688757,0.655010,-0.630466
0.4866,0.016748,0.000155,0.000710,0.001191,0.6133,1.0869,0.0235,-0.176283,0.174708,0.000485,0.000999,0.001440,0.8701,1.6054,-0.0392,-0.179476,0.173340,0.000000,0.651942,-0.661146,0.671884,-0.688757,0.655010,-0.630466
0.5034,0.016747,0.000150,0.000687,0.001153,0.5933,1.0514,0.0225,-0.176226,0.174702,0.000340,0.001066,0.001321,0.7191,1.4565,0.1705,-0.179476,0.173340,0.000000,0.651942,-0.655010,0.667282,-0.684155,0.655010,-0.630466
0.5201,0.016753,0.000145,0.000664,0.001114,0.5733,1.0160,0.0216,-0.176169,0.174697,0.000326,0.001074,0.001297,0.6969,1.4080,0.2037,-0.179476,0.173340,0.000000,0.651942,-0.653476,0.665748,-0.682621,0.655010,-0.630466
0.5369,0.016742,0.000140,0.000641,0.001075,0.5533,0.9805,0.0207,-0.176112,0.174691,0.000366,0.000981,0.001120,0.7648,1.2661,0.1454,-0.177942,0.173340,0.000000,0.648874,-0.651942,0.661146,-0.676486,0.650408,-0.627398
0.5536,0.016752,0.000135,0.000618,0.001036,0.5333,0.9451,0.0198,-0.176055,0.174685,0.000388,0.000876,0.001008,0.7365,1.1821,0.0961,-0.177942,0.174874,0.000000,0.645806,-0.650408,0.658078,-0.671884,0.647340,-0.625864
0.5704,0.016747,0.000130,0.000594,0.000997,0.5132,0.9096,0.0189,-0.175998,0.174679,0.000386,0.000773,0.000984,0.7181,1.1903,0.0464,-0.177942,0.173340,0.000000,0.644272,-0.650408,0.658078,-0.670350,0.645806,-0.625864
0.5871,0.016744,0.000125,0.000571,0.000958,0.4932,0.8742,0.0180,-0.175940,0.174674,0.000386,0.000773,0.000984,0.7181,1.1903,0.0464,-0.177942,0.173340,0.000000,0.644272,-0.650408,0.658078,-0.670350,0.645806,-0.625864
0.6038,0.016746,0.000120,0.000548,0.000919,0.4732,0.8387,0.0171,-0.175883,0.174668,0.000386,0.000784,0.000987,0.7200,1.1895,0.0516,-0.177942,0.173340,0.000000,0.644272,-0.650408,0.658078,-0.670350,0.645806,-0.625864
0.6206,0.016772,0.000115,0.000525,0.000880,0.4532,0.8032,0.0162,-0.175826,0.174662,0.000399,0.000838,0.000938,0.7308,1.1415,0.1613,-0.179476,0.173340,0.000000,0.644272,-0.648874,0.656544,-0.668816,0.645806,-0.624330
0.6374,0.016745,0.000109,0.000502,0.000842,0.4332,0.7678,0.0154,-0.175769,0.174657,0.000398,0.000752,0.000907,0.6323,1.1469,0.2048,-0.179476,0.174874,0.000000,0.642738,-0.647340,0.656544,-0.667282,0.645806,-0.624330
0.6541,0.016759,0.000104,0.000479,0.000803,0.4131,0.7323,0.0146,-0.175712,0.174651,0.000450,0.000871,0.000825,0.6639,0.9489,0.2545,-0.179476,0.174874,0.000000,0.642738,-0.645806,0.651942,-0.664214,0.645806,-0.622796
0.6710,0.016854,0.000099,0.000455,0.000764,0.3930,0.6966,0.0137,-0.175655,0.174645,0.000513,0.000705,0.000762,0.5902,0.8842,0.1386,-0.177942,0.173340,0.000000,0.639670,-0.645806,0.650408,-0.661146,0.644272,-0.622796
0.6877,0.016756,0.000094,0.000432,0.000725,0.3730,0.6611,0.0129,-0.175597,0.174639,0.000513,0.000705,0.000762,0.5902,0.8842,0.1386,-0.177942,0.173340,0.000000,0.639670,-0.645806,0.650408,-0.661146,0.644272,-0.622796
0.7045,0.016743,0.000089,0.000409,0.000686,0.3530,0.6257,0.0121,-0.175540,0.174634,0.000410,0.000698,0.000697,0.5111,0.9102,0.1505,-0.177942,0.173340,0.000000,0.638136,-0.642738,0.648874,-0.659612,0.642738,-0.622796
0.7212,0.016749,0.000084,0.000386,0.000647,0.3330,0.5902,0.0113,-0.175483,0.174628,0.000365,0.000683,0.000692,0.5575,0.9416,0.0946,-0.177942,0.173340,0.000000,0.638136,-0.642738,0.648874,-0.659612,0.641204,-0.622796
0.7380,0.016743,0.000079,0.000363,0.000608,0.3130,0.5548,0.0105,-0.175426,0.174622,0.000315,0.000669,0.000681,0.5910,0.9724,0.0457,-0.179476,0.173340,0.000000,0.638136,-0.642738,0.648874,-0.659612,0.639670,-0.622796
0.7566,0.018636,0.000073,0.000337,0.000565,0.2907,0.5153,0.0097,-0.175363,0.174616,0.000389,0.000549,0.000646,0.4410,0.8857,0.2157,-0.179476,0.173340,0.000000,0.636602,-0.641204,0.648874,-0.656544,0.641204,-0.622796
0.7734,0.016742,0.000068,0.000314,0.000526,0.2707,0.4798,0.0089,-0.175306,0.174610,0.000392,0.000520,0.000541,0.4077,0.6792,0.1423,-0.179476,0.173340,0.000000,0.635068,-0.639670,0.644272,-0.651942,0.639670,-0.622796
0.7901,0.016761,0.000063,0.000290,0.000487,0.2507,0.4444,0.0082,-0.175248,0.174604,0.000392,0.000520,0.000541,0.4077,0.6792,0.1423,-0.177942,0.173340,0.000000,0.635068,-0.638136,0.641204,-0.648874,0.638136,-0.622796
0.8069,0.016742,0.000058,0.000267,0.000448,0.2307,0.4089,0.0075,-0.175191,0.174599,0.000334,0.000522,0.000480,0.4112,0.5695,0.1499,-0.177942,0.173340,0.000000,0.635068,-0.638136,0.641204,-0.648874,0.638136,-0.622796
0.8236,0.016752,0.000053,0.000244,0.000409,0.2107,0.3735,0.0068,-0.175134,0.174593,0.000298,0.000594,0.000462,0.3832,0.5654,0.1488,-0.177942,0.173340,0.000000,0.635068,-0.636602,0.639670,-0.648874,0.638136,-0.622796
0.8404,0.016746,0.000048,0.000221,0.000370,0.1907,0.3380,0.0061,-0.175077,0.174587,0.000192,0.000587,0.000440,0.3863,0.6348,0.1491,-0.179476,0.173340,0.000000,0.635068,-0.635068,0.639670,-0.648874,0.636602,-0.622796
0.8571,0.016760,0.000043,0.000198,0.000332,0.1706,0.3025,0.0054,-0.175020,0.174582,0.000300,0.000452,0.000443,0.2770,0.6072,-0.0713,-0.177942,0.173340,0.000000,0.632000,-0.636602,0.639670,-0.648874,0.636602,-0.624330
0.8739,0.016744,0.000038,0.000175,0.000293,0.1506,0.2671,0.0047,-0.174963,0.174576,0.000386,0.000409,0.000333,0.2777,0.5925,0.0067,-0.177942,0.173340,0.000000,0.628932,-0.635068,0.638136,-0.645806,0.635068,-0.621262
0.8906,0.016758,0.000033,0.000151,0.000254,0.1306,0.2316,0.0040,-0.174906,0.174570,0.000386,0.000409,0.000333,0.2777,0.5925,0.0067,-0.177942,0.173340,0.000000,0.628932,-0.635068,0.638136,-0.645806,0.635068,-0.621262
0.9074,0.016748,0.000028,0.000128,0.000215,0.1106,0.1961,0.0034,-0.174849,0.174565,0.000375,0.000317,0.000248,0.2180,0.4280,-0.0013,-0.177942,0.173340,0.000000,0.627398,-0.633534,0.635068,-0.641204,0.633534,-0.621262
0.9241,0.016760,0.000023,0.000105,0.000176,0.0906,0.1606,0.0027,-0.174792,0.174559,0.000321,0.000343,0.000245,0.1862,0.4798,0.0544,-0.177942,0.173340,0.000000,0.627398,-0.632000,0.635068,-0.641204,0.633534,-0.621262
0.9409,0.016746,0.000018,0.000082,0.000137,0.0706,0.1252,0.0021,-0.174735,0.174553,0.000188,0.000324,0.000221,0.2281,0.4776,0.1587,-0.177942,0.173340,0.000000,0.628932,-0.630466,0.635068,-0.639670,0.632000,-0.621262
0.9576,0.016751,0.000013,0.000059,0.000098,0.0506,0.0897,0.0015,-0.174677,0.174547,0.000270,0.000286,0.000187,0.1746,0.3929,0.0928,-0.177942,0.173340,0.000000,0.627398,-0.630466,0.633534,-0.638136,0.632000,-0.621262
0.9744,0.016744,0.000008,0.000035,0.000059,0.0306,0.0543,0.0009,-0.174620,0.174542,0.000259,0.000385,0.000093,0.2398,0.2355,0.0995,-0.176408,0.173340,0.000000,0.627398,-0.628932,0.628932,-0.635068,0.630466,-0.619728
0.9911,0.016758,0.000003,0.000012,0.000021,0.0106,0.0188,0.0003,-0.174563,0.174536,0.000259,0.000385,0.000093,0.2398,0.2355,0.0995,-0.176408,0.173340,0.000000,0.627398,-0.628932,0.628932,-0.635068,0.630466,-0.619728
1.0079,0.016747,0.000000,0.000000,0.000015,0.0096,0.0000,0.0069,-0.173498,0.173498,0.000315,0.000311,-0.000031,0.0966,0.2173,0.0438,-0.176408,0.173340,0.000000,0.622796,-0.625864,0.625864,-0.632000,0.628932,-0.618194
1.0246,0.016765,0.000000,0.000000,0.000046,0.0302,0.0000,0.0217,-0.171293,0.171293,0.000323,0.000263,-0.000030,0.1009,0.1689,0.1045,-0.176408,0.173340,0.000000,0.622796,-0.625864,0.625864,-0.630466,0.628932,-0.618194
1.0414,0.016743,0.000000,0.000000,0.000078,0.0507,0.0000,0.0364,-0.169094,0.169094,0.000322,0.000268,-0.000031,0.1005,0.1739,0.0981,-0.176408,0.173340,0.000000,0.622796,-0.625864,0.625864,-0.630466,0.628932,-0.618194
1.0581,0.016756,0.000000,0.000000,0.000110,0.0712,0.0000,0.0511,-0.166898,0.166898,0.000267,0.000251,-0.000042,0.1388,0.2078,0.0441,-0.176408,0.173340,0.000000,0.622796,-0.625864,0.625864,-0.630466,0.627398,-0.618194
1.0749,0.016746,0.000000,0.000000,0.000141,0.0917,0.0000,0.0659,-0.164712,0.164712,0.000299,0.000141,-0.000102,0.1135,0.1032,-0.0050,-0.176408,0.173340,0.000000,0.621262,-0.625864,0.624330,-0.627398,0.625864,-0.618194
1.0916,0.016756,0.000000,0.000000,0.000173,0.1122,0.0000,0.0806,-0.162534,0.162534,0.000299,0.000141,-0.000102,0.1135,0.1032,-0.0050,-0.176408,0.173340,0.000000,0.621262,-0.625864,0.624330,-0.627398,0.625864,-0.618194
1.1084,0.016745,0.000000,0.000000,0.000204,0.1326,0.0000,0.0953,-0.160370,0.160370,0.000268,0.000169,-0.000132,0.0778,0.0478,0.0549,-0.174874,0.173340,0.000000,0.621262,-0.624330,0.622796,-0.625864,0.625864,-0.618194
1.1251,0.016753,0.000000,0.000000,0.000236,0.1530,0.0000,0.1100,-0.158218,0.158218,0.000271,0.000166,-0.000129,0.0815,0.0536,0.0486,-0.174874,0.171806,0.000000,0.621262,-0.624330,0.622796,-0.625864,0.625864,-0.618194
1.1419,0.016744,0.000000,0.000000,0.000267,0.1734,0.0000,0.1247,-0.156085,0.156085,0.000229,0.000127,-0.000117,0.0319,0.0368,-0.0054,-0.174874,0.171806,0.000000,0.621262,-0.624330,0.622796,-0.625864,0.625864,-0.619728
1.1586,0.016756,0.000000,0.000000,0.000299,0.1938,0.0000,0.1394,-0.153967,0.153967,0.000275,0.000170,-0.000131,0.0863,0.0547,0.0549,-0.173340,0.171806,0.000000,0.621262,-0.624330,0.622796,-0.625864,0.625864,-0.618194
1.1754,0.016748,0.000000,0.000000,0.000330,0.2141,0.0000,0.1541,-0.151872,0.151872,0.000270,0.000166,-0.000129,0.0806,0.0528,0.0486,-0.168738,0.170272,0.000000,0.621262,-0.624330,0.622796,-0.625864,0.625864,-0.618194
1.1921,0.016754,0.000000,0.000000,0.000361,0.2344,0.0000,0.1688,-0.149798,0.149798,0.000270,0.000166,-0.000129,0.0806,0.0528,0.0486,-0.168738,0.170272,0.000000,0.621262,-0.624330,0.622796,-0.625864,0.625864,-0.618194
1.2089,0.016743,0.000000,0.000000,0.000393,0.2547,0.0000,0.1835,-0.147750,0.147750,0.000270,0.000166,-0.000129,0.0806,0.0528,0.0486,-0.159534,0.170272,0.000000,0.621262,-0.624330,0.622796,-0.625864,0.625864,-0.618194
1.2256,0.016750,0.000000,0.000000,0.000424,0.2749,0.0000,0.1981,-0.145729,0.145729,0.000270,0.000166,-0.000129,0.0806,0.0528,0.0486,-0.153398,0.167204,0.000000,0.621262,-0.624330,0.622796,-0.625864,0.625864,-0.618194
1.2424,0.016740,0.000000,0.000000,0.000455,0.2950,0.0000,0.2128,-0.143737,0.143737,0.000270,0.000166,-0.000129,0.0806,0.0528,0.0486,-0.154932,0.162602,0.000000,0.621262,-0.624330,0.622796,-0.625864,0.625864,-0.618194
1.2591,0.016756,0.000000,0.000000,0.000486,0.3151,0.0000,0.2274,-0.141773,0.141773,0.000270,0.000166,-0.000129,0.0806,0.0528,0.0486,-0.153398,0.156466,0.000000,0.621262,-0.624330,0.622796,-0.625864,0.625864,-0.618194
1.2759,0.016741,0.000000,0.000000,0.000517,0.3351,0.0000,0.2421,-0.139845,0.139845,0.000270,0.000166,-0.000129,0.0806,0.0528,0.0486,-0.148796,0.148796,0.000000,0.621262,-0.624330,0.622796,-0.625864,0.625864,-0.618194
1.2926,0.016749,0.000000,0.000000,0.000548,0.3551,0.0000,0.2567,-0.137949,0.137949,0.000270,0.000166,-0.000129,0.0806,0.0528,0.0486,-0.148796,0.148796,0.000000,0.621262,-0.624330,0.622796,-0.625864,0.625864,-0.618194
1.3094,0.016739,0.000000,0.000000,0.000579,0.3750,0.0000,0.2713,-0.136092,0.136092,0.000270,0.000166,-0.000129,0.0806,0.0528,0.0486,-0.145728,0.145728,0.000000,0.621262,-0.624330,0.622796,-0.625864,0.625864,-0.618194
1.3261,0.016750,0.000000,0.000000,0.000610,0.3948,0.0000,0.2859,-0.134271,0.134271,0.000270,0.000166,-0.000129,0.0806,0.0528,0.0486,-0.145728,0.142660,0.000000,0.621262,-0.624330,0.622796,-0.625864,0.625864,-0.618194
1.3428,0.016740,0.000000,0.000000,0.000641,0.4146,0.0000,0.3004,-0.132492,0.132492,0.000270,0.000166,-0.000129,0.0806,0.0528,0.0486,-0.145728,0.142660,0.000000,0.621262,-0.624330,0.622796,-0.625864,0.625864,-0.618194
1.3596,0.016753,0.000000,0.000000,0.000672,0.4343,0.0000,0.3150,-0.130753,0.130753,0.000270,0.000166,-0.000129,0.0806,0.0528,0.0486,-0.144194,0.142660,0.000000,0.621262,-0.624330,0.622796,-0.625864,0.625864,-0.618194
1.3763,0.016739,0.000000,0.000000,0.000703,0.4539,0.0000,0.3295,-0.129059,0.129059,0.000270,0.000166,-0.000129,0.0806,0.0528,0.0486,-0.139592,0.142660,0.000000,0.621262,-0.624330,0.622796,-0.625864,0.625864,-0.618194
1.3931,0.016754,0.000000,0.000000,0.000733,0.4734,0.0000,0.3441,-0.127410,0.127410,0.000270,0.000166,-0.000129,0.0806,0.0528,0.0486,-0.139592,0.142660,0.000000,0.621262,-0.624330,0.622796,-0.625864,0.625864,-0.618194
1.4098,0.016745,0.000000,0.000000,0.000764,0.4928,0.0000,0.3586,-0.125807,0.125807,0.000270,0.000166,-0.000129,0.0806,0.0528,0.0486,-0.133456,0.141126,0.000000,0.621262,-0.624330,0.622796,-0.625864,0.625864,-0.618194
1.4266,0.016746,0.000000,0.000000,0.000794,0.5121,0.0000,0.3730,-0.124254,0.124254,0.000270,0.000166,-0.000129,0.0806,0.0528,0.0486,-0.131922,0.138058,0.000000,0.621262,-0.624330,0.622796,-0.625864,0.625864,-0.618194
1.4434,0.016813,0.000000,0.000000,0.000825,0.5315,0.0000,0.3876,-0.122744,0.122744,0.000270,0.000166,-0.000129,0.0806,0.0528,0.0486,-0.133456,0.133456,0.000000,0.621262,-0.624330,0.622796,-0.625864,0.625864,-0.618194
1.4609,0.017537,0.000000,0.000000,0.000857,0.5515,0.0000,0.4027,-0.121225,0.121225,0.000270,0.000166,-0.000129,0.0806,0.0528,0.0486,-0.133456,0.133456,0.000000,0.621262,-0.624330,0.622796,-0.625864,0.625864,-0.618194
1.4808,0.019848,0.000000,0.000000,0.000893,0.5740,0.0000,0.4198,-0.119576,0.119576,0.000270,0.000166,-0.000129,0.0806,0.0528,0.0486,-0.133456,0.133456,0.000000,0.621262,-0.624330,0.622796,-0.625864,0.625864,-0.618194
1.4975,0.016769,0.000000,0.000000,0.000923,0.5930,0.0000,0.4342,-0.118243,0.118243,0.000270,0.000166,-0.000129,0.0806,0.0528,0.0486,-0.125786,0.124252,0.000000,0.621262,-0.624330,0.622796,-0.625864,0.625864,-0.618194
1.5144,0.016813,0.000000,0.000000,0.000953,0.6118,0.0000,0.4486,-0.116963,0.116963,0.000270,0.000166,-0.000129,0.0806,0.0528,0.0486,-0.125786,0.124252,0.000000,0.621262,-0.624330,0.622796,-0.625864,0.625864,-0.618194
1.5311,0.016753,0.000000,0.000000,0.000983,0.6305,0.0000,0.4630,-0.115745,0.115745,0.000270,0.000166,-0.000129,0.0806,0.0528,0.0486,-0.125786,0.124252,0.000000,0.621262,-0.624330,0.622796,-0.625864,0.625864,-0.618194
1.5479,0.016746,0.000000,0.000000,0.001012,0.6491,0.0000,0.4773,-0.114586,0.114586,0.000270,0.000166,-0.000129,0.0806,0.0528,0.0486,-0.125786,0.124252,0.000000,0.621262,-0.624330,0.622796,-0.625864,0.625864,-0.618194
1.5646,0.016745,0.000000,0.000000,0.001042,0.6675,0.0000,0.4916,-0.113486,0.113486,0.000270,0.000166,-0.000129,0.0806,0.0528,0.0486,-0.124252,0.122718,0.000000,0.621262,-0.624330,0.622796,-0.625864,0.625864,-0.618194
1.5814,0.016746,0.000000,0.000000,0.001072,0.6858,0.0000,0.5058,-0.112448,0.112448,0.000270,0.000166,-0.000129,0.0806,0.0528,0.0486,-0.121184,0.121184,0.000000,0.621262,-0.624330,0.622796,-0.625864,0.625864,-0.618194
1.5981,0.016759,0.000000,0.000000,0.001101,0.7040,0.0000,0.5201,-0.111470,0.111470,0.000270,0.000166,-0.000129,0.0806,0.0528,0.0486,-0.118117,0.118117,0.000000,0.621262,-0.624330,0.622796,-0.625864,0.625864,-0.618194
1.6149,0.016768,0.000000,0.000000,0.001130,0.7221,0.0000,0.5343,-0.110555,0.110555,0.000270,0.000166,-0.000129,0.0806,0.0528,0.0486,-0.113515,0.116583,0.000000,0.621262,-0.624330,0.622796,-0.625864,0.625864,-0.618194
1.6316,0.016750,0.000000,0.000000,0.001160,0.7400,0.0000,0.5485,-0.109705,0.109705,0.000270,0.000166,-0.000129,0.0806,0.0528,0.0486,-0.113515,0.116583,0.000000,0.621262,-0.624330,0.622796,-0.625864,0.625864,-0.618194
1.6484,0.016747,0.000000,0.000000,0.001189,0.7578,0.0000,0.5626,-0.108920,0.108920,0.000270,0.000166,-0.000129,0.0806,0.0528,0.0486,-0.113515,0.115049,0.000000,0.621262,-0.624330,0.622796,-0.625864,0.625864,-0.618194
1.6651,0.016748,0.000000,0.000000,0.001218,0.7754,0.0000,0.5768,-0.108200,0.108200,0.000270,0.000166,-0.000129,0.0806,0.0528,0.0486,-0.113515,0.115049,0.000000,0.621262,-0.624330,0.622796,-0.625864,0.625864,-0.618194
1.6820,0.016888,0.000000,0.000000,0.001247,0.7931,0.0000,0.5910,-0.107541,0.107541,0.000270,0.000166,-0.000129,0.0806,0.0528,0.0486,-0.113515,0.115049,0.000000,0.621262,-0.624330,0.622796,-0.625864,0.625864,-0.618194
1.6988,0.016751,0.000000,0.000000,0.001275,0.8104,0.0000,0.6050,-0.106954,0.106954,0.000270,0.000166,-0.000129,0.0806,0.0528,0.0486,-0.111981,0.113515,0.000000,0.621262,-0.624330,0.622796,-0.625864,0.625864,-0.618194
1.7155,0.016765,0.000000,0.000000,0.001304,0.8276,0.0000,0.6191,-0.106434,0.106434,0.000270,0.000166,-0.000129,0.0806,0.0528,0.0486,-0.110447,0.113515,0.000000,0.621262,-0.624330,0.622796,-0.625864,0.625864,-0.618194
1.7323,0.016753,0.000000,0.000000,0.001332,0.8447,0.0000,0.6331,-0.105982,0.105982,0.000270,0.000166,-0.000129,0.0806,0.0528,0.0486,-0.110447,0.113515,0.000000,0.621262,-0.624330,0.622796,-0.625864,0.625864,-0.618194
1.7490,0.016745,0.000000,0.000000,0.001360,0.8615,0.0000,0.6470,-0.105599,0.105599,0.000270,0.000166,-0.000129,0.0806,0.0528,0.0486,-0.110447,0.111981,0.000000,0.621262,-0.624330,0.622796,-0.625864,0.625864,-0.618194
1.7658,0.016755,0.000000,0.000000,0.001388,0.8783,0.0000,0.6610,-0.105285,0.105285,0.000270,0.000166,-0.000129,0.0806,0.0528,0.0486,-0.108913,0.108913,0.000000,0.621262,-0.624330,0.622796,-0.625864,0.625864,-0.618194
1.7825,0.016746,0.000000,0.000000,0.001416,0.8948,0.0000,0.6748,-0.105040,0.105040,0.000270,0.000166,-0.000129,0.0806,0.0528,0.0486,-0.108913,0.105845,0.000000,0.621262,-0.624330,0.622796,-0.625864,0.625864,-0.618194
1.7993,0.016764,0.000000,0.000000,0.001444,0.9112,0.0000,0.6887,-0.104863,0.104863,0.000270,0.000166,-0.000129,0.0806,0.0528,0.0486,-0.108913,0.104311,0.000000,0.621262,-0.624330,0.622796,-0.625864,0.625864,-0.618194
1.8160,0.016751,0.000000,0.000000,0.001472,0.9274,0.0000,0.7025,-0.104757,0.104757,0.000270,0.000166,-0.000129,0.0806,0.0528,0.0486,-0.108913,0.104311,0.000000,0.621262,-0.624330,0.622796,-0.625864,0.625864,-0.618194
1.8328,0.016753,0.000000,0.000000,0.001499,0.9435,0.0000,0.7163,-0.104720,0.104720,0.000270,0.000166,-0.000129,0.0806,0.0528,0.0486,-0.107379,0.104311,0.000000,0.621262,-0.624330,0.622796,-0.625864,0.625864,-0.618194
1.8495,0.016744,0.000000,0.000000,0.001526,0.9593,0.0000,0.7300,-0.104752,0.104752,0.000270,0.000166,-0.000129,0.0806,0.0528,0.0486,-0.107379,0.104311,0.000000,0.621262,-0.624330,0.622796,-0.625864,0.625864,-0.618194
1.8663,0.016743,0.000000,0.000000,0.001553,0.9750,0.0000,0.7437,-0.104854,0.104854,0.000270,0.000166,-0.000129,0.0806,0.0528,0.0486,-0.107379,0.104311,0.000000,0.621262,-0.624330,0.622796,-0.625864,0.625864,-0.618194
1.8830,0.016752,0.000000,0.000000,0.001580,0.9905,0.0000,0.7574,-0.105026,0.105026,0.000270,0.000166,-0.000129,0.0806,0.0528,0.0486,-0.107379,0.104311,0.000000,0.621262,-0.624330,0.622796,-0.625864,0.625864,-0.618194
1.9002,0.017156,0.000000,0.000000,0.001608,1.0062,0.0000,0.7713,-0.105273,0.105273,0.000270,0.000166,-0.000129,0.0806,0.0528,0.0486,-0.107379,0.104311,0.000000,0.621262,-0.624330,0.622796,-0.625864,0.625864,-0.618194
1.9182,0.017983,0.000000,0.000000,0.001636,1.0224,0.0000,0.7859,-0.105611,0.105611,0.000270,0.000166,-0.000129,0.0806,0.0528,0.0486,-0.107379,0.104311,0.000000,0.621262,-0.624330,0.622796,-0.625864,0.625864,-0.618194
1.9349,0.016739,0.000000,0.000000,0.001663,1.0373,0.0000,0.7994,-0.105996,0.105996,0.000270,0.000166,-0.000129,0.0806,0.0528,0.0486,-0.107379,0.104311,0.000000,0.621262,-0.624330,0.622796,-0.625864,0.625864,-0.618194
1.9517,0.016745,0.000000,0.000000,0.001689,1.0521,0.0000,0.8129,-0.106449,0.106449,0.000270,0.000166,-0.000129,0.0806,0.0528,0.0486,-0.107379,0.104311,0.000000,0.621262,-0.624330,0.622796,-0.625864,0.625864,-0.618194
1.9684,0.016744,0.000000,0.000000,0.001715,1.0666,0.0000,0.8263,-0.106970,0.106970,0.000270,0.000166,-0.000129,0.0806,0.0528,0.0486,-0.107379,0.104311,0.000000,0.621262,-0.624330,0.622796,-0.625864,0.625864,-0.618194
1.9851,0.016744,0.000000,0.000000,0.001741,1.0809,0.0000,0.8397,-0.107559,0.107559,0.000229,0.000206,-0.000117,0.1304,0.0372,0.1040,-0.107379,0.104311,0.000000,0.622796,-0.624330,0.622796,-0.625864,0.625864,-0.618194
2.0019,0.016746,0.000000,0.000000,0.001766,1.0950,0.0000,0.8531,-0.108214,0.108214,0.000178,0.000297,-0.000094,0.1849,0.0735,0.0982,-0.107379,0.104311,0.000000,0.624330,-0.624330,0.622796,-0.627398,0.625864,-0.618194
2.0189,0.017028,0.000000,0.000000,0.001792,1.1092,0.0000,0.8666,-0.108948,0.108948,0.000155,0.000271,-0.000097,0.2177,0.0036,0.2083,-0.107379,0.104311,0.000000,0.625864,-0.624330,0.622796,-0.625864,0.625864,-0.618194
2.0357,0.016743,0.000000,0.000000,0.001817,1.1229,0.0000,0.8798,-0.109736,0.109736,0.000155,0.000271,-0.000097,0.2177,0.0036,0.2083,-0.107379,0.104311,0.000000,0.625864,-0.624330,0.622796,-0.625864,0.625864,-0.618194
2.0524,0.016745,0.000000,0.000000,0.001842,1.1364,0.0000,0.8930,-0.110588,0.110588,0.000158,0.000273,-0.000096,0.2143,0.0109,0.1968,-0.108913,0.105845,0.000000,0.625864,-0.624330,0.622796,-0.625864,0.625864,-0.618194
2.0692,0.016747,0.000000,0.000000,0.001867,1.1497,0.0000,0.9062,-0.111504,0.111504,0.000158,0.000273,-0.000096,0.2143,0.0109,0.1968,-0.108913,0.107379,0.000000,0.625864,-0.624330,0.622796,-0.625864,0.625864,-0.618194
2.0859,0.016713,0.000000,0.000000,0.001892,1.1627,0.0000,0.9193,-0.112481,0.112481,0.000158,0.000273,-0.000096,0.2143,0.0109,0.1968,-0.108913,0.105845,0.000000,0.625864,-0.624330,0.622796,-0.625864,0.625864,-0.618194
2.1026,0.016747,0.000000,0.000000,0.001916,1.1756,0.0000,0.9323,-0.113522,0.113522,0.000144,0.000329,-0.000084,0.2252,0.0606,0.1433,-0.111981,0.107379,0.000000,0.625864,-0.624330,0.622796,-0.627398,0.625864,-0.618194
2.1194,0.016794,0.000000,0.000000,0.001940,1.1882,0.0000,0.9454,-0.114626,0.114626,0.000144,0.000329,-0.000084,0.2252,0.0606,0.1433,-0.113515,0.108913,0.000000,0.625864,-0.624330,0.622796,-0.625864,0.625864,-0.618194
2.1361,0.016743,0.000000,0.000000,0.001964,1.2007,0.0000,0.9583,-0.115787,0.115787,0.000159,0.000267,-0.000098,0.2135,0.0049,0.2036,-0.113515,0.108913,0.000000,0.625864,-0.624330,0.622796,-0.625864,0.625864,-0.618194
2.1529,0.016746,0.000000,0.000000,0.001988,1.2128,0.0000,0.9712,-0.117007,0.117007,0.000157,0.000274,-0.000096,0.2148,0.0107,0.1973,-0.113515,0.110447,0.000000,0.625864,-0.624330,0.622796,-0.625864,0.625864,-0.618194
2.1697,0.016755,0.000000,0.000000,0.002012,1.2248,0.0000,0.9841,-0.118285,0.118285,0.000144,0.000329,-0.000084,0.2252,0.0606,0.1433,-0.113515,0.111981,0.000000,0.625864,-0.624330,0.622796,-0.627398,0.625864,-0.618194
2.1865,0.016862,0.000000,0.000000,0.002035,1.2366,0.0000,0.9970,-0.119627,0.119627,0.000145,0.000323,-0.000086,0.2241,0.0554,0.1489,-0.116583,0.115049,0.000000,0.625864,-0.624330,0.622796,-0.627398,0.625864,-0.618194
2.2033,0.016749,0.000000,0.000000,0.002058,1.2481,0.0000,1.0097,-0.121016,0.121016,0.000145,0.000323,-0.000086,0.2241,0.0554,0.1489,-0.118117,0.115049,0.000000,0.625864,-0.624330,0.622796,-0.627398,0.625864,-0.618194
2.2200,0.016748,0.000000,0.000000,0.002081,1.2594,0.0000,1.0224,-0.122457,0.122457,0.000145,0.000323,-0.000086,0.2241,0.0554,0.1489,-0.118117,0.115049,0.000000,0.625864,-0.624330,0.622796,-0.627398,0.625864,-0.618194
2.2368,0.016742,0.000000,0.000000,0.002104,1.2704,0.0000,1.0350,-0.123950,0.123950,0.000145,0.000323,-0.000086,0.2241,0.0554,0.1489,-0.119651,0.115049,0.000000,0.625864,-0.624330,0.622796,-0.627398,0.625864,-0.618194
2.2535,0.016742,0.000000,0.000000,0.002126,1.2812,0.0000,1.0476,-0.125494,0.125494,0.000145,0.000323,-0.000086,0.2241,0.0554,0.1489,-0.122718,0.119651,0.000000,0.625864,-0.624330,0.622796,-0.627398,0.625864,-0.618194
2.2702,0.016755,0.000000,0.000000,0.002148,1.2917,0.0000,1.0601,-0.127087,0.127087,0.000145,0.000323,-0.000086,0.2241,0.0554,0.1489,-0.121184,0.119651,0.000000,0.625864,-0.624330,0.622796,-0.627398,0.625864,-0.618194
2.2870,0.016757,0.000000,0.000000,0.002170,1.3021,0.0000,1.0726,-0.128728,0.128728,0.000145,0.000323,-0.000086,0.2241,0.0554,0.1489,-0.121184,0.119651,0.000000,0.625864,-0.624330,0.622796,-0.627398,0.625864,-0.618194
2.3038,0.016777,0.000000,0.000000,0.002192,1.3121,0.0000,1.0850,-0.130417,0.130417,0.000145,0.000323,-0.000086,0.2241,0.0554,0.1489,-0.128854,0.124252,0.000000,0.625864,-0.624330,0.622796,-0.627398,0.625864,-0.618194
2.3205,0.016755,0.000000,0.000000,0.002213,1.3220,0.0000,1.0974,-0.132148,0.132148,0.000145,0.000323,-0.000086,0.2241,0.0554,0.1489,-0.128854,0.124252,0.000000,0.625864,-0.624330,0.622796,-0.627398,0.625864,-0.618194
2.3373,0.016766,0.000000,0.000000,0.002234,1.3316,0.0000,1.1097,-0.133922,0.133922,0.000145,0.000323,-0.000086,0.2241,0.0554,0.1489,-0.128854,0.124252,0.000000,0.625864,-0.624330,0.622796,-0.627398,0.625864,-0.618194
2.3541,0.016758,0.000000,0.000000,0.002255,1.3409,0.0000,1.1219,-0.135735,0.135735,0.000145,0.000323,-0.000086,0.2241,0.0554,0.1489,-0.130388,0.128854,0.000000,0.625864,-0.624330,0.622796,-0.627398,0.625864,-0.618194
2.3708,0.016764,0.000000,0.000000,0.002276,1.3500,0.0000,1.1341,-0.137588,0.137588,0.000145,0.000323,-0.000086,0.2241,0.0554,0.1489,-0.134990,0.130388,0.000000,0.625864,-0.624330,0.622796,-0.627398,0.625864,-0.618194
2.3876,0.016759,0.000000,0.000000,0.002297,1.3588,0.0000,1.1462,-0.139478,0.139478,0.000145,0.000323,-0.000086,0.2241,0.0554,0.1489,-0.134990,0.131922,0.000000,0.625864,-0.624330,0.622796,-0.627398,0.625864,-0.618194
2.4045,0.016916,0.000000,0.000000,0.002317,1.3674,0.0000,1.1584,-0.141420,0.141420,0.000145,0.000323,-0.000086,0.2241,0.0554,0.1489,-0.136524,0.134990,0.000000,0.625864,-0.624330,0.622796,-0.627398,0.625864,-0.618194
2.4213,0.016767,0.000000,0.000000,0.002337,1.3757,0.0000,1.1704,-0.143379,0.143379,0.000145,0.000323,-0.000086,0.2241,0.0554,0.1489,-0.136524,0.134990,0.000000,0.625864,-0.624330,0.622796,-0.627398,0.625864,-0.618194
2.4380,0.016754,0.000000,0.000000,0.002357,1.3838,0.0000,1.1823,-0.145367,0.145367,0.000117,0.000387,-0.000049,0.3607,-0.0101,0.2031,-0.139592,0.136524,0.000000,0.628932,-0.625864,0.622796,-0.627398,0.625864,-0.618194
2.4548,0.016758,0.000000,0.000000,0.002376,1.3916,0.0000,1.1941,-0.147385,0.147385,-0.000061,0.000515,-0.000030,0.4551,-0.0151,0.4170,-0.139592,0.138058,0.000000,0.633534,-0.624330,0.622796,-0.627398,0.625864,-0.618194
2.4716,0.016771,0.000000,0.000000,0.002395,1.3991,0.0000,1.2059,-0.149432,0.149432,-0.000043,0.000502,-0.000032,0.4451,-0.0145,0.3946,-0.139592,0.138058,0.000000,0.633534,-0.624330,0.622796,-0.627398,0.625864,-0.618194
2.4883,0.016770,0.000000,0.000000,0.002414,1.4064,0.0000,1.2177,-0.151503,0.151503,-0.000200,0.000717,0.000039,0.6521,-0.1253,0.7266,-0.150330,0.145728,0.000000,0.641204,-0.624330,0.622796,-0.627398,0.627398,-0.618194
2.5052,0.016887,0.000000,0.000000,0.002433,1.4135,0.0000,1.2294,-0.153612,0.153612,-0.000200,0.000717,0.000039,0.6521,-0.1253,0.7266,-0.150330,0.145728,0.000000,0.641204,-0.624330,0.622796,-0.627398,0.627398,-0.618194
2.5249,0.019682,0.000000,0.000000,0.002454,1.4214,0.0000,1.2430,-0.156097,0.156097,-0.000200,0.000717,0.000039,0.6521,-0.1253,0.7266,-0.150330,0.145728,0.000000,0.641204,-0.624330,0.622796,-0.627398,0.627398,-0.618194
2.5416,0.016748,0.000000,0.000000,0.002472,1.4278,0.0000,1.2545,-0.158232,0.158232,-0.000200,0.000717,0.000039,0.6521,-0.1253,0.7266,-0.150330,0.145728,0.000000,0.641204,-0.624330,0.622796,-0.627398,0.627398,-0.618194
2.5584,0.016783,0.000000,0.000000,0.002490,1.4340,0.0000,1.2660,-0.160387,0.160387,-0.000200,0.000717,0.000039,0.6521,-0.1253,0.7266,-0.151864,0.148796,0.000000,0.651942,-0.624330,0.622796,-0.627398,0.625864,-0.618194
2.5752,0.016765,0.000000,0.000000,0.002508,1.4398,0.0000,1.2774,-0.162554,0.162554,-0.000530,0.001028,0.000127,1.0300,-0.2409,1.1574,-0.150330,0.148796,0.000000,0.655010,-0.624330,0.622796,-0.627398,0.627398,-0.618194
2.5919,0.016746,0.000000,0.000000,0.002525,1.4455,0.0000,1.2887,-0.164730,0.164730,-0.000530,0.001028,0.000127,1.0300,-0.2409,1.1574,-0.150330,0.148796,0.000000,0.655010,-0.624330,0.622796,-0.627398,0.627398,-0.618194
2.6087,0.016743,0.000000,0.000000,0.002542,1.4508,0.0000,1.2999,-0.166916,0.166916,-0.000518,0.001043,0.000148,1.1149,-0.2846,1.1435,-0.153398,0.148796,0.000000,0.656544,-0.625864,0.622796,-0.627398,0.627398,-0.618194
2.6254,0.016745,0.000000,0.000000,0.002558,1.4559,0.0000,1.3111,-0.169110,0.169110,-0.000574,0.001058,0.000133,1.0673,-0.2450,1.2002,-0.158000,0.153398,0.000000,0.656544,-0.624330,0.622796,-0.627398,0.627398,-0.618194
2.6422,0.016753,0.000000,0.000000,0.002575,1.4607,0.0000,1.3222,-0.171311,0.171311,-0.000514,0.001040,0.000147,1.1111,-0.2842,1.1391,-0.165670,0.161068,0.000000,0.656544,-0.625864,0.622796,-0.627398,0.627398,-0.618194
2.6589,0.016746,0.000000,0.000000,0.002591,1.4652,0.0000,1.3332,-0.173513,0.173513,-0.000630,0.001043,0.000121,1.1060,-0.2115,1.1461,-0.167204,0.167204,0.000000,0.656544,-0.624330,0.622796,-0.627398,0.625864,-0.618194
2.6757,0.016747,0.000000,0.000000,0.002607,1.4695,0.0000,1.3441,-0.175717,0.175717,-0.000605,0.001098,0.000146,1.1165,-0.2672,1.2552,-0.168738,0.167204,0.000000,0.658078,-0.624330,0.622796,-0.627398,0.627398,-0.618194
2.6924,0.016747,0.000000,0.000000,0.002622,1.4735,0.0000,1.3550,-0.177919,0.177919,-0.000605,0.001098,0.000146,1.1165,-0.2672,1.2552,-0.168738,0.167204,0.000000,0.658078,-0.624330,0.622796,-0.627398,0.627398,-0.618194
2.7092,0.016741,0.000000,0.000000,0.002637,1.4772,0.0000,1.3658,-0.180118,0.180118,-0.000608,0.001092,0.000144,1.1155,-0.2614,1.2438,-0.173340,0.168738,0.000000,0.658078,-0.624330,0.622796,-0.627398,0.627398,-0.618194
2.7259,0.016746,0.000000,0.000000,0.002652,1.4806,0.0000,1.3765,-0.182311,0.182311,-0.000553,0.001076,0.000157,1.1544,-0.2970,1.1898,-0.177942,0.173340,0.000000,0.658078,-0.625864,0.622796,-0.627398,0.627398,-0.618194
2.7427,0.016753,0.000000,0.000000,0.002667,1.4837,0.0000,1.3872,-0.184498,0.184498,-0.000656,0.001135,0.000153,1.1598,-0.2728,1.3060,-0.177942,0.173340,0.000000,0.659612,-0.624330,0.622796,-0.627398,0.627398,-0.618194
2.7596,0.016942,0.000000,0.000000,0.002681,1.4866,0.0000,1.3979,-0.186699,0.186699,-0.000633,0.001152,0.000178,1.2463,-0.3248,1.2940,-0.177942,0.174874,0.000000,0.661146,-0.625864,0.622796,-0.627398,0.627398,-0.618194
2.7764,0.016765,0.000000,0.000000,0.002695,1.4892,0.0000,1.4084,-0.188865,0.188865,-0.000633,0.001152,0.000178,1.2463,-0.3248,1.2940,-0.177942,0.174874,0.000000,0.661146,-0.625864,0.622796,-0.627398,0.627398,-0.618194
2.7931,0.016750,0.000000,0.000000,0.002709,1.4916,0.0000,1.4188,-0.191015,0.191015,-0.000635,0.001150,0.000175,1.2373,-0.3193,1.2953,-0.187146,0.181010,0.000000,0.661146,-0.625864,0.622796,-0.627398,0.627398,-0.618194
2.8099,0.016742,0.000000,0.000000,0.002722,1.4936,0.0000,1.4291,-0.193147,0.193147,-0.000568,0.001156,0.000212,1.3640,-0.4044,1.2398,-0.188680,0.182544,0.000000,0.662680,-0.628932,0.622796,-0.627398,0.627398,-0.618194
2.8266,0.016750,0.000000,0.000000,0.002735,1.4953,0.0000,1.4394,-0.195262,0.195262,-0.000575,0.001155,0.000208,1.3508,-0.3955,1.2456,-0.185612,0.179476,0.000000,0.662680,-0.628932,0.622796,-0.627398,0.627398,-0.618194
2.8434,0.016775,0.000000,0.000000,0.002748,1.4968,0.0000,1.4496,-0.197359,0.197359,-0.000533,0.001083,0.000234,1.3797,-0.3812,1.2449,-0.190214,0.185612,0.000000,0.662680,-0.630466,0.624330,-0.627398,0.627398,-0.618194
2.8601,0.016748,0.000000,0.000000,0.002761,1.4980,0.0000,1.4597,-0.199430,0.199430,-0.000538,0.001091,0.000231,1.3767,-0.3827,1.2450,-0.194816,0.191748,0.000000,0.662680,-0.630466,0.624330,-0.627398,0.627398,-0.618194
2.8769,0.016743,0.000000,0.000000,0.002773,1.4989,0.0000,1.4698,-0.201476,0.201476,-0.000538,0.001091,0.000231,1.3767,-0.3827,1.2450,-0.194816,0.191748,0.000000,0.662680,-0.630466,0.624330,-0.627398,0.627398,-0.618194
2.8936,0.016750,0.000000,0.000000,0.002785,1.4996,0.0000,1.4797,-0.203496,0.203496,-0.000496,0.001018,0.000257,1.4045,-0.3673,1.2450,-0.196350,0.193282,0.000000,0.662680,-0.632000,0.625864,-0.627398,0.627398,-0.618194
2.9104,0.016753,0.000000,0.000000,0.002796,1.4999,0.0000,1.4896,-0.205487,0.205487,-0.000486,0.000955,0.000304,1.4290,-0.2528,1.2462,-0.197884,0.194816,0.000000,0.662680,-0.633534,0.628932,-0.628932,0.627398,-0.618194
2.9271,0.016748,0.000000,0.000000,0.002808,1.5000,0.0000,1.4994,-0.207447,0.207447,-0.000500,0.000906,0.000312,1.4153,-0.2147,1.3016,-0.200951,0.199418,0.000000,0.662680,-0.633534,0.630466,-0.628932,0.627398,-0.618194
2.9439,0.016771,0.000000,0.000000,0.002819,1.4998,0.0000,1.5091,-0.209376,0.209376,-0.000416,0.000655,0.000362,1.4498,-0.1891,1.4060,-0.200951,0.200951,0.000000,0.662680,-0.636602,0.635068,-0.627398,0.627398,-0.618194
2.9610,0.017129,0.000000,0.000000,0.002830,1.4993,0.0000,1.5189,-0.211311,0.211311,-0.000355,0.000481,0.000418,1.4904,-0.1118,1.4512,-0.204019,0.200951,0.000000,0.662680,-0.639670,0.639670,-0.627398,0.627398,-0.618194
2.9778,0.016748,0.000000,0.000000,0.002840,1.4985,0.0000,1.5285,-0.213166,0.213166,-0.000355,0.000481,0.000418,1.4904,-0.1118,1.4512,-0.204019,0.200951,0.000000,0.662680,-0.639670,0.639670,-0.627398,0.627398,-0.618194
2.9945,0.016762,0.000000,0.000000,0.002850,1.4974,0.0000,1.5380,-0.214983,0.214983,-0.000360,0.000372,0.000473,1.5023,0.0456,1.5043,-0.210155,0.207087,0.000000,0.662680,-0.641204,0.644272,-0.628932,0.627398,-0.618194
3.0113,0.016745,0.000000,0.000000,0.002860,1.4961,0.0000,1.5473,-0.216759,0.216759,-0.000263,0.000294,0.000505,1.5675,0.0095,1.4433,-0.210155,0.208621,0.000000,0.662680,-0.644272,0.645806,-0.628932,0.627398,-0.618194
3.0280,0.016775,0.000000,0.000000,0.002869,1.4945,0.0000,1.5566,-0.218495,0.218495,-0.000245,0.000174,0.000538,1.5772,0.0779,1.5060,-0.210155,0.205553,0.000000,0.662680,-0.645806,0.648874,-0.628932,0.627398,-0.618194
3.0448,0.016754,0.000000,0.000000,0.002878,1.4926,0.0000,1.5658,-0.220186,0.220186,-0.000150,0.000097,0.000572,1.6425,0.0513,1.4440,-0.211689,0.210155,0.000000,0.662680,-0.648874,0.650408,-0.628932,0.627398,-0.618194
3.0618,0.016976,0.000000,0.000000,0.002887,1.4904,0.0000,1.5751,-0.221852,0.221852,-0.000119,0.000032,0.000592,1.6633,0.0692,1.4508,-0.216291,0.216291,0.000000,0.662680,-0.650408,0.651942,-0.628932,0.627398,-0.618194
3.0785,0.016743,0.000000,0.000000,0.002895,1.4879,0.0000,1.5841,-0.223449,0.223449,-0.000119,0.000032,0.000592,1.6633,0.0692,1.4508,-0.216291,0.216291,0.000000,0.662680,-0.650408,0.651942,-0.628932,0.627398,-0.618194
3.0953,0.016764,0.000000,0.000000,0.002904,1.4852,0.0000,1.5931,-0.224998,0.224998,-0.000149,0.000040,0.000614,1.6608,0.1677,1.4521,-0.217825,0.216291,0.000000,0.662680,-0.650408,0.653476,-0.630466,0.627398,-0.618194
3.1120,0.016747,0.000000,0.000000,0.002911,1.4822,0.0000,1.6019,-0.226495,0.226495,-0.000159,0.000096,0.000625,1.6718,0.2082,1.3978,-0.219359,0.217825,0.000000,0.662680,-0.650408,0.653476,-0.632000,0.627398,-0.618194
3.1289,0.016883,0.000000,0.000000,0.002919,1.4788,0.0000,1.6108,-0.227952,0.227952,-0.000158,0.000090,0.000623,1.6706,0.2040,1.4034,-0.219359,0.219359,0.000000,0.662680,-0.650408,0.653476,-0.632000,0.627398,-0.618194
3.1457,0.016747,0.000000,0.000000,0.002926,1.4753,0.0000,1.6195,-0.229344,0.229344,-0.000158,0.000090,0.000623,1.6706,0.2040,1.4034,-0.223961,0.222427,0.000000,0.662680,-0.650408,0.653476,-0.632000,0.627398,-0.618194
3.1624,0.016762,0.000000,0.000000,0.002933,1.4714,0.0000,1.6281,-0.230683,0.230683,-0.000172,0.000147,0.000636,1.6815,0.2552,1.3486,-0.225495,0.225495,0.000000,0.662680,-0.650408,0.653476,-0.633534,0.627398,-0.618194
3.1792,0.016748,0.000000,0.000000,0.002939,1.4673,0.0000,1.6366,-0.231964,0.231964,-0.000172,0.000147,0.000636,1.6815,0.2552,1.3486,-0.225495,0.225495,0.000000,0.662680,-0.650408,0.653476,-0.633534,0.627398,-0.618194
3.1959,0.016750,0.000000,0.000000,0.002945,1.4629,0.0000,1.6450,-0.233189,0.233189,-0.000184,0.000198,0.000647,1.6911,0.3006,1.3000,-0.227029,0.225495,0.000000,0.662680,-0.650408,0.653476,-0.635068,0.627398,-0.618194
3.2127,0.016744,0.000000,0.000000,0.002951,1.4582,0.0000,1.6534,-0.234354,0.234354,-0.000182,0.000193,0.000646,1.6901,0.2959,1.3051,-0.228563,0.225495,0.000000,0.662680,-0.650408,0.653476,-0.635068,0.627398,-0.618194
3.2294,0.016759,0.000000,0.000000,0.002957,1.4533,0.0000,1.6616,-0.235461,0.235461,-0.000182,0.000193,0.000646,1.6901,0.2959,1.3051,-0.231631,0.230097,0.000000,0.662680,-0.650408,0.653476,-0.635068,0.627398,-0.618194
3.2462,0.016749,0.000000,0.000000,0.002962,1.4481,0.0000,1.6698,-0.236507,0.236507,-0.000182,0.000193,0.000646,1.6901,0.2959,1.3051,-0.231631,0.231631,0.000000,0.662680,-0.650408,0.653476,-0.635068,0.627398,-0.618194
3.2630,0.016813,0.000000,0.000000,0.002967,1.4426,0.0000,1.6779,-0.237494,0.237494,-0.000182,0.000193,0.000646,1.6901,0.2959,1.3051,-0.236233,0.234699,0.000000,0.662680,-0.650408,0.653476,-0.635068,0.627398,-0.618194
3.2797,0.016710,0.000000,0.000000,0.002971,1.4368,0.0000,1.6858,-0.238413,0.238413,-0.000182,0.000193,0.000646,1.6901,0.2959,1.3051,-0.236233,0.234699,0.000000,0.662680,-0.650408,0.653476,-0.635068,0.627398,-0.618194
3.2964,0.016749,0.000000,0.000000,0.002975,1.4308,0.0000,1.6937,-0.239270,0.239270,-0.000182,0.000193,0.000646,1.6901,0.2959,1.3051,-0.234699,0.234699,0.000000,0.662680,-0.650408,0.653476,-0.635068,0.627398,-0.618194
3.3132,0.016706,0.000000,0.000000,0.002979,1.4245,0.0000,1.7015,-0.240061,0.240061,-0.000182,0.000193,0.000646,1.6901,0.2959,1.3051,-0.237767,0.234699,0.000000,0.662680,-0.650408,0.653476,-0.635068,0.627398,-0.618194
3.3299,0.016787,0.000000,0.000000,0.002983,1.4179,0.0000,1.7092,-0.240790,0.240790,-0.000182,0.000193,0.000646,1.6901,0.2959,1.3051,-0.237767,0.234699,0.000000,0.662680,-0.650408,0.653476,-0.635068,0.627398,-0.618194
3.3467,0.016746,0.000000,0.000000,0.002986,1.4111,0.0000,1.7168,-0.241451,0.241451,-0.000182,0.000193,0.000646,1.6901,0.2959,1.3051,-0.237767,0.239301,0.000000,0.662680,-0.650408,0.653476,-0.635068,0.627398,-0.618194
3.3635,0.016780,0.000000,0.000000,0.002989,1.4040,0.0000,1.7243,-0.242047,0.242047,-0.000182,0.000193,0.000646,1.6901,0.2959,1.3051,-0.240835,0.239301,0.000000,0.662680,-0.650408,0.653476,-0.635068,0.627398,-0.618194
3.3802,0.016750,0.000000,0.000000,0.002992,1.3966,0.0000,1.7317,-0.242574,0.242574,-0.000182,0.000193,0.000646,1.6901,0.2959,1.3051,-0.240835,0.239301,0.000000,0.662680,-0.650408,0.653476,-0.635068,0.627398,-0.618194
3.3970,0.016754,0.000000,0.000000,0.002994,1.3890,0.0000,1.7391,-0.243034,0.243034,-0.000182,0.000193,0.000646,1.6901,0.2959,1.3051,-0.240835,0.239301,0.000000,0.662680,-0.650408,0.653476,-0.635068,0.627398,-0.618194
3.4137,0.016742,0.000000,0.000000,0.002996,1.3811,0.0000,1.7463,-0.243425,0.243425,-0.000182,0.000193,0.000646,1.6901,0.2959,1.3051,-0.240835,0.239301,0.000000,0.662680,-0.650408,0.653476,-0.635068,0.627398,-0.618194
3.4305,0.016773,0.000000,0.000000,0.002997,1.3730,0.0000,1.7534,-0.243748,0.243748,-0.000182,0.000193,0.000646,1.6901,0.2959,1.3051,-0.242369,0.239301,0.000000,0.662680,-0.650408,0.653476,-0.635068,0.627398,-0.618194
3.4472,0.016742,0.000000,0.000000,0.002998,1.3646,0.0000,1.7605,-0.244001,0.244001,-0.000196,0.000250,0.000658,1.7010,0.3470,1.2503,-0.242369,0.242369,0.000000,0.662680,-0.650408,0.653476,-0.636602,0.627398,-0.618194
3.4640,0.016783,0.000000,0.000000,0.002999,1.3559,0.0000,1.7674,-0.244186,0.244186,-0.000196,0.000250,0.000658,1.7010,0.3470,1.2503,-0.242369,0.242369,0.000000,0.662680,-0.650408,0.653476,-0.635068,0.627398,-0.618194
3.4808,0.016744,0.000000,0.000000,0.003000,1.3470,0.0000,1.7743,-0.244300,0.244300,-0.000181,0.000187,0.000644,1.6891,0.2910,1.3103,-0.242369,0.242369,0.000000,0.662680,-0.650408,0.653476,-0.635068,0.627398,-0.618194
3.4975,0.016752,0.000000,0.000000,0.003000,1.3379,0.0000,1.7810,-0.244345,0.244345,-0.000196,0.000251,0.000658,1.7011,0.3475,1.2497,-0.243903,0.242369,0.000000,0.662680,-0.650408,0.653476,-0.636602,0.627398,-0.618194
3.5142,0.016741,0.000000,0.000000,0.003000,1.3285,0.0000,1.7877,-0.244321,0.244321,-0.000181,0.000187,0.000644,1.6891,0.2910,1.3103,-0.243903,0.242369,0.000000,0.662680,-0.650408,0.653476,-0.635068,0.627398,-0.618194
3.5310,0.016752,0.000000,0.000000,0.002999,1.3188,0.0000,1.7942,-0.244227,0.244227,-0.000183,0.000194,0.000646,1.6903,0.2969,1.3040,-0.243903,0.242369,0.000000,0.662680,-0.650408,0.653476,-0.635068,0.627398,-0.618194
3.5477,0.016743,0.000000,0.000000,0.002999,1.3089,0.0000,1.8007,-0.244064,0.244064,-0.000183,0.000194,0.000646,1.6903,0.2969,1.3040,-0.243903,0.242369,0.000000,0.662680,-0.650408,0.653476,-0.635068,0.627398,-0.618194
3.5646,0.016877,0.000000,0.000000,0.002998,1.2987,0.0000,1.8071,-0.243829,0.243829,-0.000183,0.000194,0.000646,1.6903,0.2969,1.3040,-0.243903,0.242369,0.000000,0.662680,-0.650408,0.653476,-0.635068,0.627398,-0.618194
3.5814,0.016765,0.000000,0.000000,0.002996,1.2883,0.0000,1.8134,-0.243526,0.243526,-0.000183,0.000194,0.000646,1.6903,0.2969,1.3040,-0.243903,0.242369,0.000000,0.662680,-0.650408,0.653476,-0.635068,0.627398,-0.618194
3.5982,0.016821,0.000000,0.000000,0.002994,1.2776,0.0000,1.8196,-0.243153,0.243153,-0.000183,0.000194,0.000646,1.6903,0.2969,1.3040,-0.243903,0.242369,0.000000,0.662680,-0.650408,0.653476,-0.635068,0.627398,-0.618194
3.6151,0.016855,0.000000,0.000000,0.002992,1.2667,0.0000,1.8257,-0.242711,0.242711,-0.000183,0.000194,0.000646,1.6903,0.2969,1.3040,-0.243903,0.242369,0.000000,0.662680,-0.650408,0.653476,-0.635068,0.627398,-0.618194
3.6318,0.016764,0.000000,0.000000,0.002990,1.2556,0.0000,1.8316,-0.242202,0.242202,-0.000183,0.000194,0.000646,1.6903,0.2969,1.3040,-0.243903,0.242369,0.000000,0.662680,-0.650408,0.653476,-0.635068,0.627398,-0.618194
3.6486,0.016774,0.000000,0.000000,0.002987,1.2442,0.0000,1.8375,-0.241625,0.241625,-0.000183,0.000194,0.000646,1.6903,0.2969,1.3040,-0.243903,0.242369,0.000000,0.662680,-0.650408,0.653476,-0.635068,0.627398,-0.618194
3.6654,0.016761,0.000000,0.000000,0.002984,1.2326,0.0000,1.8433,-0.240982,0.240982,-0.000183,0.000194,0.000646,1.6903,0.2969,1.3040,-0.243903,0.242369,0.000000,0.662680,-0.650408,0.653476,-0.635068,0.627398,-0.618194
3.6821,0.016746,0.000000,0.000000,0.002980,1.2208,0.0000,1.8489,-0.240273,0.240273,-0.000196,0.000250,0.000658,1.7010,0.3469,1.2504,-0.243903,0.242369,0.000000,0.662680,-0.650408,0.653476,-0.636602,0.627398,-0.618194
3.6989,0.016765,0.000000,0.000000,0.002977,1.2088,0.0000,1.8545,-0.239498,0.239498,-0.000195,0.000244,0.000657,1.6999,0.3417,1.2560,-0.242369,0.240835,0.000000,0.662680,-0.650408,0.653476,-0.636602,0.627398,-0.618194
3.7156,0.016740,0.000000,0.000000,0.002973,1.1965,0.0000,1.8600,-0.238659,0.238659,-0.000195,0.000244,0.000657,1.6999,0.3417,1.2560,-0.242369,0.240835,0.000000,0.662680,-0.650408,0.653476,-0.636602,0.627398,-0.618194
3.7324,0.016773,0.000000,0.000000,0.002968,1.1840,0.0000,1.8654,-0.237755,0.237755,-0.000195,0.000244,0.000657,1.6999,0.3417,1.2560,-0.242369,0.240835,0.000000,0.662680,-0.650408,0.653476,-0.636602,0.627398,-0.618194
3.7491,0.016752,0.000000,0.000000,0.002963,1.1713,0.0000,1.8706,-0.236789,0.236789,-0.000195,0.000244,0.000657,1.6999,0.3417,1.2560,-0.242369,0.240835,0.000000,0.662680,-0.650408,0.653476,-0.636602,0.627398,-0.618194
3.7659,0.016747,0.000000,0.000000,0.002958,1.1584,0.0000,1.8758,-0.235760,0.235760,-0.000195,0.000244,0.000657,1.6999,0.3417,1.2560,-0.242369,0.240835,0.000000,0.662680,-0.650408,0.653476,-0.636602,0.627398,-0.618194
3.7826,0.016744,0.000000,0.000000,0.002953,1.1452,0.0000,1.8808,-0.234671,0.234671,-0.000195,0.000244,0.000657,1.6999,0.3417,1.2560,-0.242369,0.240835,0.000000,0.662680,-0.650408,0.653476,-0.636602,0.627398,-0.618194
3.7994,0.016744,0.000000,0.000000,0.002947,1.1319,0.0000,1.8858,-0.233523,0.233523,-0.000195,0.000244,0.000657,1.6999,0.3417,1.2560,-0.240835,0.240835,0.000000,0.662680,-0.650408,0.653476,-0.636602,0.627398,-0.618194
3.8161,0.016742,0.000000,0.000000,0.002941,1.1183,0.0000,1.8907,-0.232315,0.232315,-0.000195,0.000244,0.000657,1.6999,0.3417,1.2560,-0.239301,0.240835,0.000000,0.662680,-0.650408,0.653476,-0.636602,0.627398,-0.618194
3.8329,0.016749,0.000000,0.000000,0.002935,1.1045,0.0000,1.8954,-0.231049,0.231049,-0.000195,0.000244,0.000657,1.6999,0.3417,1.2560,-0.239301,0.240835,0.000000,0.662680,-0.650408,0.653476,-0.636602,0.627398,-0.618194
3.8496,0.016739,0.000000,0.000000,0.002928,1.0906,0.0000,1.9001,-0.229728,0.229728,-0.000195,0.000244,0.000657,1.6999,0.3417,1.2560,-0.236233,0.240835,0.000000,0.662680,-0.650408,0.653476,-0.636602,0.627398,-0.618194
3.8663,0.016743,0.000000,0.000000,0.002921,1.0764,0.0000,1.9046,-0.228352,0.228352,-0.000195,0.000244,0.000657,1.6999,0.3417,1.2560,-0.234699,0.240835,0.000000,0.662680,-0.650408,0.653476,-0.636602,0.627398,-0.618194
3.8831,0.016741,0.000000,0.000000,0.002914,1.0620,-0.0000,1.9090,-0.226922,0.226922,-0.000195,0.000244,0.000657,1.6999,0.3417,1.2560,-0.233165,0.239301,0.000000,0.662680,-0.650408,0.653476,-0.636602,0.627398,-0.618194
3.8998,0.016748,0.000000,0.000000,0.002906,1.0474,0.0000,1.9134,-0.225440,0.225440,-0.000195,0.000244,0.000657,1.6999,0.3417,1.2560,-0.233165,0.236233,0.000000,0.662680,-0.650408,0.653476,-0.636602,0.627398,-0.618194
3.9166,0.016793,0.000000,0.000000,0.002898,1.0326,0.0000,1.9176,-0.223902,0.223902,-0.000195,0.000244,0.000657,1.6999,0.3417,1.2560,-0.231631,0.231631,0.000000,0.662680,-0.650408,0.653476,-0.636602,0.627398,-0.618194
3.9333,0.016714,0.000000,0.000000,0.002889,1.0176,0.0000,1.9218,-0.222323,0.222323,-0.000195,0.000244,0.000657,1.6999,0.3417,1.2560,-0.231631,0.231631,0.000000,0.662680,-0.650408,0.653476,-0.636602,0.627398,-0.618194
3.9501,0.016747,0.000000,0.000000,0.002881,1.0024,0.0000,1.9258,-0.220693,0.220693,-0.000181,0.000188,0.000645,1.6892,0.2916,1.3097,-0.230097,0.228563,0.000000,0.662680,-0.650408,0.653476,-0.635068,0.627398,-0.618194
3.9668,0.016748,0.000000,0.000000,0.002872,0.9871,0.0000,1.9297,-0.219017,0.219017,-0.000196,0.000251,0.000658,1.7011,0.3475,1.2498,-0.230097,0.228563,0.000000,0.662680,-0.650408,0.653476,-0.636602,0.627398,-0.618194
3.9836,0.016746,0.000000,0.000000,0.002863,0.9716,0.0000,1.9335,-0.217296,0.217296,-0.000181,0.000187,0.000644,1.6891,0.2910,1.3103,-0.230097,0.227029,0.000000,0.662680,-0.650408,0.653476,-0.635068,0.627398,-0.618194
4.0004,0.016774,0.000000,0.000000,0.002853,0.9558,0.0000,1.9372,-0.215530,0.215530,-0.000196,0.000251,0.000658,1.7011,0.3475,1.2497,-0.230097,0.227029,0.000000,0.662680,-0.650408,0.653476,-0.636602,0.627398,-0.618194
4.0171,0.016754,0.000000,0.000000,0.002843,0.9399,0.0000,1.9409,-0.213726,0.213726,-0.000196,0.000251,0.000658,1.7011,0.3475,1.2497,-0.230097,0.227029,0.000000,0.662680,-0.650408,0.653476,-0.635068,0.627398,-0.618194
4.0339,0.016751,0.000000,0.000000,0.002833,0.9238,0.0000,1.9444,-0.211882,0.211882,-0.000181,0.000187,0.000644,1.6891,0.2910,1.3103,-0.230097,0.227029,0.000000,0.662680,-0.650408,0.653476,-0.635068,0.627398,-0.618194
4.0506,0.016782,0.000000,0.000000,0.002822,0.9075,0.0000,1.9478,-0.209998,0.209998,-0.000183,0.000194,0.000646,1.6903,0.2969,1.3040,-0.228563,0.227029,0.000000,0.662680,-0.650408,0.653476,-0.635068,0.627398,-0.618194
4.0674,0.016749,0.000000,0.000000,0.002811,0.8911,0.0000,1.9511,-0.208082,0.208082,-0.000196,0.000250,0.000658,1.7010,0.3469,1.2504,-0.228563,0.227029,0.000000,0.662680,-0.650408,0.653476,-0.636602,0.627398,-0.618194
4.0841,0.016742,0.000000,0.000000,0.002800,0.8745,0.0000,1.9542,-0.206134,0.206134,-0.000181,0.000187,0.000644,1.6891,0.2911,1.3103,-0.227029,0.227029,0.000000,0.662680,-0.650408,0.653476,-0.635068,0.627398,-0.618194
4.1009,0.016747,0.000000,0.000000,0.002789,0.8578,0.0000,1.9573,-0.204153,0.204153,-0.000183,0.000194,0.000646,1.6903,0.2969,1.3040,-0.219359,0.227029,0.000000,0.662680,-0.650408,0.653476,-0.635068,0.627398,-0.618194
4.1179,0.017021,0.000000,0.000000,0.002777,0.8406,0.0000,1.9603,-0.202110,0.202110,-0.000196,0.000250,0.000658,1.7010,0.3469,1.2504,-0.211689,0.223961,0.000000,0.662680,-0.650408,0.653476,-0.636602,0.627398,-0.618194
4.1346,0.016742,0.000000,0.000000,0.002765,0.8235,0.0000,1.9632,-0.200073,0.200073,-0.000196,0.000250,0.000658,1.7010,0.3469,1.2504,-0.211689,0.223961,0.000000,0.662680,-0.650408,0.653476,-0.636602,0.627398,-0.618194
4.1514,0.016745,0.000000,0.000000,0.002752,0.8063,0.0000,1.9660,-0.198009,0.198009,-0.000181,0.000187,0.000644,1.6891,0.2911,1.3103,-0.205553,0.219359,0.000000,0.662680,-0.650408,0.653476,-0.635068,0.627398,-0.618194
4.1681,0.016741,0.000000,0.000000,0.002740,0.7889,0.0000,1.9686,-0.195923,0.195923,-0.000183,0.000194,0.000646,1.6903,0.2969,1.3040,-0.205553,0.214757,0.000000,0.662680,-0.650408,0.653476,-0.635068,0.627398,-0.618194
4.1849,0.016745,0.000000,0.000000,0.002726,0.7714,0.0000,1.9712,-0.193816,0.193816,-0.000196,0.000250,0.000658,1.7010,0.3469,1.2504,-0.205553,0.208621,0.000000,0.662680,-0.650408,0.653476,-0.636602,0.627398,-0.618194
4.2016,0.016747,0.000000,0.000000,0.002713,0.7537,0.0000,1.9736,-0.191688,0.191688,-0.000181,0.000187,0.000644,1.6891,0.2911,1.3103,-0.204019,0.204019,0.000000,0.662680,-0.650408,0.653476,-0.635068,0.627398,-0.618194
4.2184,0.016756,0.000000,0.000000,0.002700,0.7359,0.0000,1.9759,-0.189543,0.189543,-0.000196,0.000251,0.000658,1.7011,0.3475,1.2497,-0.202485,0.200951,0.000000,0.662680,-0.650408,0.653476,-0.636602,0.627398,-0.618194
4.2351,0.016743,0.000000,0.000000,0.002686,0.7180,0.0000,1.9782,-0.187384,0.187384,-0.000196,0.000251,0.000658,1.7011,0.3475,1.2497,-0.202485,0.200951,0.000000,0.662680,-0.650408,0.653476,-0.636602,0.627398,-0.618194
4.2519,0.016741,0.000000,0.000000,0.002671,0.6999,0.0000,1.9803,-0.185212,0.185212,-0.000195,0.000244,0.000657,1.6999,0.3416,1.2561,-0.200951,0.199418,0.000000,0.662680,-0.650408,0.653476,-0.636602,0.627398,-0.618194
4.2686,0.016731,0.000000,0.000000,0.002657,0.6817,0.0000,1.9823,-0.183032,0.183032,-0.000195,0.000244,0.000657,1.6999,0.3416,1.2561,-0.200951,0.199418,0.000000,0.662680,-0.650408,0.653476,-0.636602,0.627398,-0.618194
4.2854,0.016806,0.000000,0.000000,0.002642,0.6633,0.0000,1.9842,-0.180833,0.180833,-0.000195,0.000244,0.000657,1.6999,0.3416,1.2561,-0.200951,0.199418,0.000000,0.662680,-0.650408,0.653476,-0.636602,0.627398,-0.618194
4.3021,0.016745,0.000000,0.000000,0.002627,0.6448,0.0000,1.9860,-0.178635,0.178635,-0.000181,0.000188,0.000645,1.6892,0.2916,1.3097,-0.199418,0.197884,0.000000,0.662680,-0.650408,0.653476,-0.635068,0.627398,-0.618194
4.3190,0.016860,0.000000,0.000000,0.002611,0.6261,0.0000,1.9877,-0.176419,0.176419,-0.000196,0.000251,0.000658,1.7011,0.3475,1.2498,-0.196350,0.197884,0.000000,0.662680,-0.650408,0.653476,-0.636602,0.627398,-0.618194
4.3357,0.016746,0.000000,0.000000,0.002596,0.6074,0.0000,1.9893,-0.174215,0.174215,-0.000196,0.000251,0.000658,1.7011,0.3475,1.2498,-0.196350,0.197884,0.000000,0.662680,-0.650408,0.653476,-0.636602,0.627398,-0.618194
4.3525,0.016748,0.000000,0.000000,0.002580,0.5886,0.0000,1.9907,-0.172012,0.172012,-0.000195,0.000244,0.000657,1.6999,0.3416,1.2561,-0.188680,0.196350,0.000000,0.662680,-0.650408,0.653476,-0.636602,0.627398,-0.618194
4.3692,0.016743,0.000000,0.000000,0.002564,0.5697,0.0000,1.9921,-0.169812,0.169812,-0.000181,0.000188,0.000645,1.6892,0.2916,1.3097,-0.179476,0.191748,0.000000,0.662680,-0.650408,0.653476,-0.635068,0.627398,-0.618194
4.3862,0.016975,0.000000,0.000000,0.002547,0.5504,0.0000,1.9934,-0.167586,0.167586,-0.000196,0.000251,0.000658,1.7011,0.3475,1.2498,-0.179476,0.187146,0.000000,0.662680,-0.650408,0.653476,-0.636602,0.627398,-0.618194
4.4030,0.016746,0.000000,0.000000,0.002530,0.5312,0.0000,1.9945,-0.165397,0.165397,-0.000195,0.000244,0.000657,1.6999,0.3416,1.2561,-0.179476,0.179476,0.000000,0.662680,-0.650408,0.653476,-0.636602,0.627398,-0.618194
4.4197,0.016757,0.000000,0.000000,0.002513,0.5120,0.0000,1.9955,-0.163216,0.163216,-0.000195,0.000244,0.000657,1.6999,0.3416,1.2561,-0.177942,0.173340,0.000000,0.662680,-0.650408,0.653476,-0.635068,0.627398,-0.618194
4.4365,0.016739,0.000000,0.000000,0.002496,0.4927,0.0000,1.9965,-0.161048,0.161048,-0.000181,0.000188,0.000645,1.6892,0.2916,1.3097,-0.177942,0.173340,0.000000,0.662680,-0.650408,0.653476,-0.635068,0.627398,-0.618194
4.4532,0.016749,0.000000,0.000000,0.002478,0.4732,0.0000,1.9973,-0.158892,0.158892,-0.000196,0.000251,0.000658,1.7011,0.3475,1.2498,-0.174874,0.168738,0.000000,0.662680,-0.650408,0.653476,-0.636602,0.627398,-0.618194
4.4699,0.016745,0.000000,0.000000,0.002460,0.4537,0.0000,1.9980,-0.156753,0.156753,-0.000195,0.000244,0.000657,1.6999,0.3416,1.2561,-0.173340,0.168738,0.000000,0.662680,-0.650408,0.653476,-0.636602,0.627398,-0.618194
4.4867,0.016771,0.000000,0.000000,0.002442,0.4341,0.0000,1.9986,-0.154628,0.154628,-0.000181,0.000188,0.000645,1.6892,0.2916,1.3097,-0.173340,0.167204,0.000000,0.662680,-0.650408,0.653476,-0.635068,0.627398,-0.618194
4.5035,0.016747,0.000000,0.000000,0.002423,0.4144,0.0000,1.9991,-0.152526,0.152526,-0.000196,0.000251,0.000658,1.7011,0.3475,1.2498,-0.168738,0.167204,0.000000,0.662680,-0.650408,0.653476,-0.636602,0.627398,-0.618194
4.5202,0.016775,0.000000,0.000000,0.002404,0.3946,0.0000,1.9995,-0.150442,0.150442,-0.000195,0.000244,0.000657,1.6999,0.3416,1.2561,-0.162602,0.165670,0.000000,0.662680,-0.650408,0.653476,-0.636602,0.627398,-0.618194
4.5370,0.016748,0.000000,0.000000,0.002385,0.3748,0.0000,1.9998,-0.148386,0.148386,-0.000195,0.000244,0.000657,1.6999,0.3416,1.2561,-0.162602,0.165670,0.000000,0.662680,-0.650408,0.653476,-0.636602,0.627398,-0.618194
4.5537,0.016754,0.000000,0.000000,0.002366,0.3549,0.0000,1.9999,-0.146355,0.146355,-0.000195,0.000244,0.000657,1.6999,0.3416,1.2561,-0.156466,0.162602,0.000000,0.662680,-0.650408,0.653476,-0.636602,0.627398,-0.618194
4.5705,0.016747,0.000000,0.000000,0.002347,0.3349,0.0000,2.0000,-0.144353,0.144353,-0.000195,0.000244,0.000657,1.6999,0.3416,1.2561,-0.154932,0.156466,0.000000,0.662680,-0.650408,0.653476,-0.636602,0.627398,-0.618194
4.5872,0.016757,0.000000,0.000000,0.002327,0.3149,0.0000,2.0000,-0.142380,0.142380,-0.000181,0.000188,0.000645,1.6892,0.2916,1.3097,-0.154932,0.150330,0.000000,0.662680,-0.650408,0.653476,-0.635068,0.627398,-0.618194
