t,loop_dt,cmd_x,cmd_y,cmd_z,cmd_roll,cmd_pitch,cmd_yaw,cmd_ant_l,cmd_ant_r,pres_x,pres_y,pres_z,pres_roll,pres_pitch,pres_yaw,pres_ant_l,pres_ant_r,pres_j0,pres_j1,pres_j2,pres_j3,pres_j4,pres_j5,pres_j6
0.0000,0.000001,0.000316,0.000022,-0.001901,-0.0985,0.1768,0.0004,-0.003068,0.000000,0.000316,0.000022,-0.001901,-0.0985,0.1768,0.0004,-0.003068,0.000000,0.000000,0.576777,-0.582913,0.584447,-0.585981,0.585981,-0.578311
0.0167,0.016744,0.000311,0.000022,-0.001869,-0.0969,0.1738,0.0003,-0.003017,0.000000,0.000316,0.000022,-0.001901,-0.0985,0.1768,0.0004,-0.003068,0.000000,0.000000,0.576777,-0.582913,0.584447,-0.585981,0.585981,-0.578311
0.0335,0.016765,0.000306,0.000021,-0.001838,-0.0952,0.1708,0.0003,-0.002965,0.000000,0.000316,0.000022,-0.001901,-0.0985,0.1768,0.0004,-0.003068,0.000000,0.000000,0.576777,-0.582913,0.584447,-0.585981,0.585981,-0.578311
0.0503,0.016748,0.000300,0.000021,-0.001806,-0.0936,0.1679,0.0003,-0.002914,0.000000,0.000316,0.000022,-0.001901,-0.0985,0.1768,0.0004,-0.003068,0.000000,0.000000,0.576777,-0.582913,0.584447,-0.585981,0.585981,-0.578311
0.0670,0.016742,0.000295,0.000020,-0.001774,-0.0919,0.1649,0.0003,-0.002862,0.000000,0.000303,0.000077,-0.001926,-0.0876,0.2286,0.1070,-0.003068,0.000000,0.000000,0.576777,-0.581379,0.584447,-0.585981,0.585981,-0.576777
0.0837,0.016746,0.000290,0.000020,-0.001742,-0.0903,0.1620,0.0003,-0.002811,0.000000,0.000549,-0.000006,-0.002036,-0.1876,0.3220,0.1496,-0.003068,0.000000,0.000000,0.570641,-0.579845,0.584447,-0.584447,0.585981,-0.572175
0.1005,0.016745,0.000284,0.000020,-0.001710,-0.0886,0.1590,0.0003,-0.002760,0.000000,0.000606,0.000127,-0.002100,-0.1952,0.5157,0.2517,-0.003068,0.000000,0.000000,0.567573,-0.576777,0.584447,-0.585981,0.585981,-0.567573
0.1172,0.016746,0.000279,0.000019,-0.001678,-0.0870,0.1560,0.0003,-0.002708,0.000000,0.000641,0.000152,-0.002106,-0.1444,0.5122,0.2946,-0.003068,0.000000,0.000000,0.567573,-0.576777,0.584447,-0.585981,0.585981,-0.566039
0.1340,0.016746,0.000274,0.000019,-0.001646,-0.0853,0.1531,0.0003,-0.002657,0.000000,0.000641,0.000152,-0.002106,-0.1444,0.5122,0.2946,-0.003068,0.000000,0.000000,0.567573,-0.576777,0.584447,-0.585981,0.585981,-0.566039
0.1507,0.016745,0.000269,0.000019,-0.001615,-0.0837,0.1501,0.0003,-0.002606,0.000000,0.000637,0.000149,-0.002105,-0.1497,0.5126,0.2902,-0.003068,0.000000,0.000000,0.567573,-0.576777,0.584447,-0.585981,0.585981,-0.566039
0.1675,0.016745,0.000263,0.000018,-0.001583,-0.0820,0.1472,0.0003,-0.002554,0.000000,0.000678,0.000188,-0.002118,-0.0992,0.5292,0.3441,-0.003068,0.000000,0.000000,0.567573,-0.576777,0.584447,-0.585981,0.585981,-0.564505
0.1844,0.016910,0.000258,0.000018,-0.001551,-0.0803,0.1442,0.0003,-0.002502,0.000000,0.000728,0.000168,-0.002105,-0.0654,0.4925,0.2851,-0.001534,0.000000,0.000000,0.567573,-0.578311,0.584447,-0.585981,0.585981,-0.564505
0.2014,0.016986,0.000253,0.000017,-0.001518,-0.0787,0.1412,0.0003,-0.002450,0.000000,0.000728,0.000168,-0.002105,-0.0654,0.4925,0.2851,-0.001534,0.000000,0.000000,0.567573,-0.578311,0.584447,-0.585981,0.585981,-0.564505
0.2181,0.016772,0.000247,0.000017,-0.001486,-0.0770,0.1382,0.0003,-0.002399,0.000000,0.000728,0.000168,-0.002105,-0.0654,0.4925,0.2851,-0.001534,0.000000,0.000000,0.567573,-0.578311,0.584447,-0.585981,0.585981,-0.564505
0.2349,0.016778,0.000242,0.000017,-0.001455,-0.0754,0.1352,0.0003,-0.002347,0.000000,0.000728,0.000168,-0.002105,-0.0654,0.4925,0.2851,-0.001534,0.000000,0.000000,0.567573,-0.578311,0.584447,-0.585981,0.585981,-0.564505
0.2517,0.016759,0.000237,0.000016,-0.001423,-0.0737,0.1323,0.0003,-0.002296,0.000000,0.000728,0.000168,-0.002105,-0.0654,0.4925,0.2851,-0.001534,0.000000,0.000000,0.567573,-0.578311,0.584447,-0.585981,0.585981,-0.564505
0.2684,0.016752,0.000231,0.000016,-0.001391,-0.0721,0.1293,0.0003,-0.002244,0.000000,0.000669,0.000186,-0.002118,-0.1079,0.5313,0.3447,-0.001534,0.000000,0.000000,0.567573,-0.576777,0.584447,-0.585981,0.585981,-0.564505
0.2852,0.016751,0.000226,0.000016,-0.001359,-0.0704,0.1264,0.0003,-0.002193,0.000000,0.000675,0.000184,-0.002117,-0.1035,0.5273,0.3385,-0.003068,0.000000,0.000000,0.567573,-0.576777,0.584447,-0.585981,0.585981,-0.564505
0.3019,0.016744,0.000221,0.000015,-0.001327,-0.0688,0.1234,0.0003,-0.002142,0.000000,0.000675,0.000184,-0.002117,-0.1035,0.5273,0.3385,-0.003068,0.000000,0.000000,0.567573,-0.576777,0.584447,-0.585981,0.585981,-0.564505
0.3187,0.016759,0.000215,0.000015,-0.001295,-0.0671,0.1204,0.0003,-0.002090,0.000000,0.000675,0.000184,-0.002117,-0.1035,0.5273,0.3385,-0.003068,0.000000,0.000000,0.567573,-0.576777,0.584447,-0.585981,0.585981,-0.564505
0.3354,0.016744,0.000210,0.000015,-0.001263,-0.0655,0.1175,0.0003,-0.002039,0.000000,0.000675,0.000184,-0.002117,-0.1035,0.5273,0.3385,-0.003068,0.000000,0.000000,0.567573,-0.576777,0.584447,-0.585981,0.585981,-0.564505
0.3522,0.016758,0.000205,0.000014,-0.001232,-0.0638,0.1145,0.0003,-0.001987,0.000000,0.000675,0.000184,-0.002117,-0.1035,0.5273,0.3385,-0.003068,0.000000,0.000000,0.567573,-0.576777,0.584447,-0.585981,0.585981,-0.564505
0.3689,0.016749,0.000200,0.000014,-0.001200,-0.0622,0.1116,0.0003,-0.001936,0.000000,0.000675,0.000184,-0.002117,-0.1035,0.5273,0.3385,-0.001534,0.000000,0.000000,0.567573,-0.576777,0.584447,-0.585981,0.585981,-0.564505
0.3857,0.016752,0.000194,0.000013,-0.001168,-0.0605,0.1086,0.0003,-0.001885,0.000000,0.000675,0.000184,-0.002117,-0.1035,0.5273,0.3385,-0.001534,0.000000,0.000000,0.567573,-0.576777,0.584447,-0.585981,0.585981,-0.564505
0.4024,0.016742,0.000189,0.000013,-0.001136,-0.0589,0.1056,0.0002,-0.001833,0.000000,0.000675,0.000184,-0.002117,-0.1035,0.5273,0.3385,-0.001534,0.000000,0.000000,0.567573,-0.576777,0.584447,-0.585981,0.585981,-0.564505
0.4192,0.016755,0.000184,0.000013,-0.001104,-0.0572,0.1027,0.0002,-0.001782,0.000000,0.000675,0.000184,-0.002117,-0.1035,0.5273,0.3385,-0.003068,0.000000,0.000000,0.567573,-0.576777,0.584447,-0.585981,0.585981,-0.564505
0.4359,0.016747,0.000178,0.000012,-0.001072,-0.0556,0.0997,0.0002,-0.001731,0.000000,0.000675,0.000184,-0.002117,-0.1035,0.5273,0.3385,-0.003068,0.000000,0.000000,0.567573,-0.576777,0.584447,-0.585981,0.585981,-0.564505
0.4527,0.016752,0.000173,0.000012,-0.001041,-0.0539,0.0968,0.0002,-0.001679,0.000000,0.000675,0.000184,-0.002117,-0.1035,0.5273,0.3385,-0.003068,0.000000,0.000000,0.567573,-0.576777,0.584447,-0.585981,0.585981,-0.564505
0.4694,0.016744,0.000168,0.000012,-0.001009,-0.0523,0.0938,0.0002,-0.001628,0.000000,0.000675,0.000184,-0.002117,-0.1035,0.5273,0.3385,-0.003068,0.000000,0.000000,0.567573,-0.576777,0.584447,-0.585981,0.585981,-0.564505
0.4862,0.016750,0.000162,0.000011,-0.000977,-0.0506,0.0908,0.0002,-0.001576,0.000000,0.000675,0.000184,-0.002117,-0.1035,0.5273,0.3385,-0.003068,0.000000,0.000000,0.567573,-0.576777,0.584447,-0.585981,0.585981,-0.564505
0.5029,0.016747,0.000157,0.000011,-0.000945,-0.0490,0.0879,0.0002,-0.001525,0.000000,0.000675,0.000184,-0.002117,-0.1035,0.5273,0.3385,-0.001534,0.000000,0.000000,0.567573,-0.576777,0.584447,-0.585981,0.585981,-0.564505
0.5197,0.016757,0.000152,0.000011,-0.000913,-0.0473,0.0849,0.0002,-0.001474,0.000000,0.000675,0.000184,-0.002117,-0.1035,0.5273,0.3385,-0.003068,0.000000,0.000000,0.567573,-0.576777,0.584447,-0.585981,0.585981,-0.564505
0.5364,0.016755,0.000147,0.000010,-0.000881,-0.0457,0.0820,0.0002,-0.001422,0.000000,0.000675,0.000184,-0.002117,-0.1035,0.5273,0.3385,-0.003068,0.000000,0.000000,0.567573,-0.576777,0.584447,-0.585981,0.585981,-0.564505
0.5532,0.016756,0.000141,0.000010,-0.000849,-0.0440,0.0790,0.0002,-0.001371,0.000000,0.000675,0.000184,-0.002117,-0.1035,0.5273,0.3385,-0.003068,0.000000,0.000000,0.567573,-0.576777,0.584447,-0.585981,0.585981,-0.564505
0.5700,0.016777,0.000136,0.000009,-0.000818,-0.0424,0.0760,0.0002,-0.001319,0.000000,0.000675,0.000184,-0.002117,-0.1035,0.5273,0.3385,-0.003068,0.000000,0.000000,0.567573,-0.576777,0.584447,-0.585981,0.585981,-0.564505
0.5872,0.017233,0.000131,0.000009,-0.000785,-0.0407,0.0730,0.0002,-0.001266,0.000000,0.000675,0.000184,-0.002117,-0.1035,0.5273,0.3385,-0.003068,0.000000,0.000000,0.567573,-0.576777,0.584447,-0.585981,0.585981,-0.564505
0.6039,0.016746,0.000125,0.000009,-0.000753,-0.0390,0.0700,0.0002,-0.001215,0.000000,0.000728,0.000169,-0.002105,-0.0649,0.4927,0.2857,-0.003068,0.000000,0.000000,0.567573,-0.578311,0.584447,-0.585981,0.585981,-0.564505
0.6207,0.016756,0.000120,0.000008,-0.000721,-0.0374,0.0671,0.0002,-0.001164,0.000000,0.000722,0.000170,-0.002106,-0.0690,0.4963,0.2912,-0.003068,0.000000,0.000000,0.567573,-0.578311,0.584447,-0.585981,0.585981,-0.564505
0.6375,0.016746,0.000115,0.000008,-0.000689,-0.0357,0.0641,0.0002,-0.001112,0.000000,0.000722,0.000170,-0.002106,-0.0690,0.4963,0.2912,-0.003068,0.000000,0.000000,0.567573,-0.578311,0.584447,-0.585981,0.585981,-0.564505
0.6542,0.016766,0.000109,0.000008,-0.000657,-0.0341,0.0611,0.0002,-0.001061,0.000000,0.000669,0.000186,-0.002118,-0.1076,0.5309,0.3440,-0.003068,0.000000,0.000000,0.567573,-0.576777,0.584447,-0.585981,0.585981,-0.564505
0.6710,0.016780,0.000104,0.000007,-0.000626,-0.0324,0.0582,0.0002,-0.001009,0.000000,0.000675,0.000184,-0.002117,-0.1036,0.5273,0.3385,-0.003068,0.000000,0.000000,0.567573,-0.576777,0.584447,-0.585981,0.585981,-0.564505
0.6879,0.016869,0.000099,0.000007,-0.000593,-0.0307,0.0552,0.0001,-0.000958,0.000000,0.000675,0.000184,-0.002117,-0.1036,0.5273,0.3385,-0.003068,0.000000,0.000000,0.567573,-0.576777,0.584447,-0.585981,0.585981,-0.564505
0.7046,0.016747,0.000093,0.000006,-0.000562,-0.0291,0.0522,0.0001,-0.000906,0.000000,0.000675,0.000184,-0.002117,-0.1036,0.5273,0.3385,-0.003068,0.000000,0.000000,0.567573,-0.576777,0.584447,-0.585981,0.585981,-0.564505
0.7214,0.016758,0.000088,0.000006,-0.000530,-0.0274,0.0493,0.0001,-0.000855,0.000000,0.000675,0.000184,-0.002117,-0.1036,0.5273,0.3385,-0.003068,0.000000,0.000000,0.567573,-0.576777,0.584447,-0.585981,0.585981,-0.564505
0.7381,0.016746,0.000083,0.000006,-0.000498,-0.0258,0.0463,0.0001,-0.000803,0.000000,0.000675,0.000184,-0.002117,-0.1036,0.5273,0.3385,-0.003068,0.000000,0.000000,0.567573,-0.576777,0.584447,-0.585981,0.585981,-0.564505
0.7549,0.016767,0.000077,0.000005,-0.000466,-0.0241,0.0433,0.0001,-0.000752,0.000000,0.000675,0.000184,-0.002117,-0.1036,0.5273,0.3385,-0.003068,0.000000,0.000000,0.567573,-0.576777,0.584447,-0.585981,0.585981,-0.564505
0.7716,0.016745,0.000072,0.000005,-0.000434,-0.0225,0.0404,0.0001,-0.000701,0.000000,0.000675,0.000184,-0.002117,-0.1036,0.5273,0.3385,-0.003068,0.000000,0.000000,0.567573,-0.576777,0.584447,-0.585981,0.585981,-0.564505
0.7884,0.016749,0.000067,0.000005,-0.000402,-0.0208,0.0374,0.0001,-0.000649,0.000000,0.000675,0.000184,-0.002117,-0.1036,0.5273,0.3385,-0.003068,0.000000,0.000000,0.567573,-0.576777,0.584447,-0.585981,0.585981,-0.564505
0.8051,0.016745,0.000062,0.000004,-0.000371,-0.0192,0.0345,0.0001,-0.000598,0.000000,0.000675,0.000184,-0.002117,-0.1036,0.5273,0.3385,-0.003068,0.000000,0.000000,0.567573,-0.576777,0.584447,-0.585981,0.585981,-0.564505
0.8219,0.016755,0.000056,0.000004,-0.000339,-0.0175,0.0315,0.0001,-0.000546,0.000000,0.000675,0.000184,-0.002117,-0.1036,0.5273,0.3385,-0.003068,0.000000,0.000000,0.567573,-0.576777,0.584447,-0.585981,0.585981,-0.564505
0.8386,0.016751,0.000051,0.000004,-0.000307,-0.0159,0.0285,0.0001,-0.000495,0.000000,0.000675,0.000184,-0.002117,-0.1036,0.5273,0.3385,-0.003068,0.000000,0.000000,0.567573,-0.576777,0.584447,-0.585981,0.585981,-0.564505
0.8554,0.016750,0.000046,0.000003,-0.000275,-0.0142,0.0256,0.0001,-0.000444,0.000000,0.000675,0.000184,-0.002117,-0.1036,0.5273,0.3385,-0.003068,0.000000,0.000000,0.567573,-0.576777,0.584447,-0.585981,0.585981,-0.564505
0.8721,0.016740,0.000040,0.000003,-0.000243,-0.0126,0.0226,0.0001,-0.000392,0.000000,0.000675,0.000184,-0.002117,-0.1036,0.5273,0.3385,-0.003068,0.000000,0.000000,0.567573,-0.576777,0.584447,-0.585981,0.585981,-0.564505
0.8889,0.016753,0.000035,0.000002,-0.000211,-0.0109,0.0196,0.0001,-0.000341,0.000000,0.000675,0.000184,-0.002117,-0.1036,0.5273,0.3385,-0.003068,0.000000,0.000000,0.567573,-0.576777,0.584447,-0.585981,0.585981,-0.564505
0.9056,0.016745,0.000030,0.000002,-0.000179,-0.0093,0.0167,0.0000,-0.000290,0.000000,0.000728,0.000169,-0.002105,-0.0649,0.4927,0.2857,-0.003068,0.000000,0.000000,0.567573,-0.578311,0.584447,-0.585981,0.585981,-0.564505
0.9224,0.016749,0.000025,0.000002,-0.000148,-0.0076,0.0137,0.0000,-0.000238,0.000000,0.000669,0.000186,-0.002118,-0.1080,0.5313,0.3446,-0.003068,0.000000,0.000000,0.567573,-0.576777,0.584447,-0.585981,0.585981,-0.564505
0.9391,0.016764,0.000019,0.000001,-0.000116,-0.0060,0.0108,0.0000,-0.000187,0.000000,0.000729,0.000169,-0.002105,-0.0644,0.4923,0.2850,-0.003068,0.000000,0.000000,0.567573,-0.578311,0.584447,-0.585981,0.585981,-0.564505
0.9559,0.016755,0.000014,0.000001,-0.000084,-0.0043,0.0078,0.0000,-0.000135,0.000000,0.000669,0.000186,-0.002118,-0.1080,0.5314,0.3447,-0.003068,0.000000,0.000000,0.567573,-0.576777,0.584447,-0.585981,0.585981,-0.564505
0.9726,0.016749,0.000009,0.000001,-0.000052,-0.0027,0.0048,0.0000,-0.000084,0.000000,0.000675,0.000184,-0.002117,-0.1035,0.5273,0.3385,-0.003068,0.000000,0.000000,0.567573,-0.576777,0.584447,-0.585981,0.585981,-0.564505
0.9894,0.016753,0.000003,0.000000,-0.000020,-0.0010,0.0019,0.0000,-0.000033,0.000000,0.000675,0.000184,-0.002117,-0.1035,0.5273,0.3385,-0.003068,0.000000,0.000000,0.567573,-0.576777,0.584447,-0.585981,0.585981,-0.564505
1.0061,0.016741,0.000000,0.000000,0.000008,0.0040,0.0000,0.0027,0.000403,-0.000403,0.000675,0.000184,-0.002117,-0.1035,0.5273,0.3385,-0.003068,0.000000,0.000000,0.567573,-0.576777,0.584447,-0.585981,0.585981,-0.564505
1.0229,0.016748,0.000000,0.000000,0.000029,0.0149,0.0000,0.0101,0.001505,-0.001505,0.000675,0.000184,-0.002117,-0.1035,0.5273,0.3385,-0.003068,0.000000,0.000000,0.567573,-0.576777,0.584447,-0.585981,0.585981,-0.564505
1.0396,0.016745,0.000000,0.000000,0.000050,0.0259,0.0000,0.0174,0.002605,-0.002605,0.000675,0.000184,-0.002117,-0.1035,0.5273,0.3385,-0.003068,0.000000,0.000000,0.567573,-0.576777,0.584447,-0.585981,0.585981,-0.564505
1.0564,0.016756,0.000000,0.000000,0.000071,0.0368,0.0000,0.0248,0.003703,-0.003703,0.000661,0.000239,-0.002105,-0.0940,0.5790,0.2853,-0.001534,-0.001534,0.000000,0.567573,-0.576777,0.584447,-0.587515,0.585981,-0.564505
1.0733,0.016912,0.000000,0.000000,0.000092,0.0479,0.0000,0.0322,0.004807,-0.004807,0.000676,0.000179,-0.002118,-0.1050,0.5224,0.3447,-0.001534,-0.001534,0.000000,0.567573,-0.576777,0.584447,-0.585981,0.585981,-0.564505
1.0900,0.016760,0.000000,0.000000,0.000113,0.0588,0.0000,0.0396,0.005897,-0.005897,0.000676,0.000179,-0.002118,-0.1050,0.5224,0.3447,-0.001534,-0.001534,0.000000,0.567573,-0.576777,0.584447,-0.585981,0.585981,-0.564505
1.1068,0.016740,0.000000,0.000000,0.000134,0.0697,0.0000,0.0470,0.006979,-0.006979,0.000728,0.000169,-0.002105,-0.0648,0.4932,0.2850,-0.001534,-0.001534,0.000000,0.567573,-0.578311,0.584447,-0.585981,0.585981,-0.564505
1.1236,0.016841,0.000000,0.000000,0.000155,0.0806,0.0000,0.0543,0.008061,-0.008061,0.000722,0.000170,-0.002106,-0.0690,0.4963,0.2913,0.001534,-0.001534,0.000000,0.567573,-0.578311,0.584447,-0.585981,0.585981,-0.564505
1.1404,0.016751,0.000000,0.000000,0.000176,0.0915,0.0000,0.0617,0.009129,-0.009129,0.000669,0.000186,-0.002118,-0.1076,0.5310,0.3440,0.003068,-0.003068,0.000000,0.567573,-0.576777,0.584447,-0.585981,0.585981,-0.564505
1.1571,0.016755,0.000000,0.000000,0.000197,0.1024,0.0000,0.0691,0.010189,-0.010189,0.000728,0.000169,-0.002105,-0.0645,0.4923,0.2851,0.003068,-0.004602,0.000000,0.567573,-0.578311,0.584447,-0.585981,0.585981,-0.564505
1.1742,0.017068,0.000000,0.000000,0.000218,0.1135,0.0000,0.0765,0.011257,-0.011257,0.000628,0.000225,-0.002068,-0.0591,0.5146,0.2375,0.006136,-0.004602,0.000000,0.569107,-0.578311,0.584447,-0.587515,0.585981,-0.566039
1.1910,0.016750,0.000000,0.000000,0.000239,0.1243,0.0000,0.0839,0.012295,-0.012295,0.000628,0.000225,-0.002068,-0.0591,0.5146,0.2375,0.006136,-0.004602,0.000000,0.569107,-0.578311,0.584447,-0.587515,0.585981,-0.566039
1.2077,0.016747,0.000000,0.000000,0.000260,0.1351,0.0000,0.0912,0.013320,-0.013320,0.000598,0.000258,-0.002060,-0.0098,0.4961,0.2961,0.009204,-0.004602,0.000000,0.570641,-0.578311,0.584447,-0.587515,0.585981,-0.566039
1.2244,0.016746,0.000000,0.000000,0.000281,0.1458,0.0000,0.0986,0.014331,-0.014331,0.000601,0.000255,-0.002061,-0.0149,0.4980,0.2900,0.009204,-0.009204,0.000000,0.570641,-0.578311,0.584447,-0.587515,0.585981,-0.566039
1.2412,0.016750,0.000000,0.000000,0.000302,0.1566,0.0000,0.1059,0.015329,-0.015329,0.000601,0.000255,-0.002061,-0.0149,0.4980,0.2900,0.007670,-0.010738,0.000000,0.570641,-0.578311,0.584447,-0.587515,0.585981,-0.566039
1.2579,0.016749,0.000000,0.000000,0.000323,0.1673,0.0000,0.1132,0.016311,-0.016311,0.000560,0.000216,-0.002048,-0.0643,0.4811,0.2371,0.009204,-0.010738,0.000000,0.570641,-0.578311,0.584447,-0.587515,0.585981,-0.567573
1.2748,0.016813,0.000000,0.000000,0.000344,0.1780,0.0000,0.1206,0.017281,-0.017281,0.000560,0.000216,-0.002048,-0.0643,0.4811,0.2371,0.009204,-0.010738,0.000000,0.570641,-0.578311,0.584447,-0.587515,0.585981,-0.567573
1.2916,0.016795,0.000000,0.000000,0.000364,0.1887,0.0000,0.1279,0.018232,-0.018232,0.000560,0.000216,-0.002048,-0.0643,0.4811,0.2371,0.009204,-0.010738,0.000000,0.570641,-0.578311,0.584447,-0.587515,0.585981,-0.567573
1.3083,0.016788,0.000000,0.000000,0.000385,0.1994,0.0000,0.1352,0.019165,-0.019165,0.000560,0.000216,-0.002048,-0.0643,0.4811,0.2371,0.009204,-0.010738,0.000000,0.570641,-0.578311,0.584447,-0.587515,0.585981,-0.567573
1.3251,0.016759,0.000000,0.000000,0.000406,0.2099,0.0000,0.1425,0.020077,-0.020077,0.000560,0.000216,-0.002048,-0.0643,0.4811,0.2371,0.009204,-0.010738,0.000000,0.570641,-0.578311,0.584447,-0.587515,0.585981,-0.567573
1.3419,0.016752,0.000000,0.000000,0.000426,0.2205,0.0000,0.1498,0.020968,-0.020968,0.000551,0.000166,-0.002036,-0.0694,0.5339,0.2963,0.013806,-0.013806,0.000000,0.570641,-0.578311,0.585981,-0.587515,0.585981,-0.567573
1.3586,0.016767,0.000000,0.000000,0.000447,0.2310,0.0000,0.1571,0.021840,-0.021840,0.000565,0.000226,-0.002050,-0.0586,0.4774,0.2364,0.016874,-0.013806,0.000000,0.570641,-0.578311,0.584447,-0.587515,0.585981,-0.567573
1.3754,0.016744,0.000000,0.000000,0.000467,0.2415,0.0000,0.1643,0.022688,-0.022688,0.000565,0.000226,-0.002050,-0.0586,0.4774,0.2364,0.016874,-0.013806,0.000000,0.570641,-0.578311,0.584447,-0.587515,0.585981,-0.567573
1.3921,0.016730,0.000000,0.000000,0.000488,0.2519,0.0000,0.1716,0.023513,-0.023513,0.000564,0.000219,-0.002049,-0.0598,0.4833,0.2427,0.013806,-0.016874,0.000000,0.570641,-0.578311,0.584447,-0.587515,0.585981,-0.567573
1.4088,0.016747,0.000000,0.000000,0.000508,0.2622,0.0000,0.1788,0.024316,-0.024316,0.000564,0.000219,-0.002049,-0.0598,0.4833,0.2427,0.013806,-0.016874,0.000000,0.570641,-0.578311,0.584447,-0.587515,0.585981,-0.567573
1.4256,0.016753,0.000000,0.000000,0.000528,0.2725,0.0000,0.1861,0.025094,-0.025094,0.000551,0.000165,-0.002036,-0.0698,0.5337,0.2958,0.019942,-0.018408,0.000000,0.570641,-0.578311,0.585981,-0.587515,0.585981,-0.567573
1.4423,0.016745,0.000000,0.000000,0.000549,0.2828,0.0000,0.1933,0.025848,-0.025848,0.000511,0.000210,-0.002025,-0.0190,0.5122,0.3439,0.024544,-0.019942,0.000000,0.572175,-0.578311,0.585981,-0.587515,0.585981,-0.567573
1.4591,0.016790,0.000000,0.000000,0.000569,0.2930,0.0000,0.2006,0.026577,-0.026577,0.000511,0.000210,-0.002025,-0.0190,0.5122,0.3439,0.024544,-0.019942,0.000000,0.572175,-0.578311,0.585981,-0.587515,0.585981,-0.567573
1.4759,0.016742,0.000000,0.000000,0.000589,0.3032,0.0000,0.2078,0.027278,-0.027278,0.000516,0.000205,-0.002026,-0.0243,0.5144,0.3389,0.024544,-0.021476,0.000000,0.572175,-0.578311,0.585981,-0.587515,0.585981,-0.567573
1.4926,0.016755,0.000000,0.000000,0.000609,0.3133,0.0000,0.2150,0.027952,-0.027952,0.000516,0.000205,-0.002026,-0.0243,0.5144,0.3389,0.023010,-0.024544,0.000000,0.572175,-0.578311,0.585981,-0.587515,0.585981,-0.567573
1.5094,0.016745,0.000000,0.000000,0.000629,0.3233,0.0000,0.2222,0.028598,-0.028598,0.000421,0.000338,-0.001989,0.0860,0.5331,0.3931,0.024544,-0.024544,0.000000,0.575243,-0.578311,0.585981,-0.589049,0.585981,-0.567573
1.5261,0.016749,0.000000,0.000000,0.000649,0.3333,0.0000,0.2293,0.029216,-0.029216,0.000336,0.000457,-0.001956,0.1841,0.5503,0.4413,0.024544,-0.026078,0.000000,0.578311,-0.578311,0.585981,-0.590583,0.585981,-0.567573
1.5429,0.016743,0.000000,0.000000,0.000669,0.3432,0.0000,0.2365,0.029804,-0.029804,0.000290,0.000538,-0.001935,0.2338,0.5838,0.4363,0.026078,-0.029146,0.000000,0.579845,-0.578311,0.585981,-0.592117,0.585981,-0.567573
1.5596,0.016766,0.000000,0.000000,0.000689,0.3531,0.0000,0.2437,0.030363,-0.030363,0.000290,0.000538,-0.001935,0.2338,0.5838,0.4363,0.026078,-0.029146,0.000000,0.582913,-0.578311,0.585981,-0.592117,0.585981,-0.567573
1.5764,0.016746,0.000000,0.000000,0.000709,0.3629,0.0000,0.2508,0.030891,-0.030891,0.000213,0.000608,-0.001913,0.3279,0.5485,0.5447,0.026078,-0.029146,0.000000,0.582913,-0.578311,0.585981,-0.592117,0.585981,-0.567573
1.5931,0.016753,0.000000,0.000000,0.000728,0.3726,0.0000,0.2579,0.031389,-0.031389,0.000139,0.000678,-0.001891,0.4172,0.5207,0.6413,0.030680,-0.029146,0.000000,0.585981,-0.578311,0.585981,-0.592117,0.585981,-0.567573
1.6099,0.016749,0.000000,0.000000,0.000748,0.3822,0.0000,0.2650,0.031856,-0.031856,0.000105,0.000710,-0.001882,0.4574,0.5080,0.6852,0.030680,-0.029146,0.000000,0.587515,-0.578311,0.585981,-0.592117,0.585981,-0.567573
1.6266,0.016758,0.000000,0.000000,0.000767,0.3918,0.0000,0.2721,0.032290,-0.032290,-0.000055,0.000785,-0.001834,0.5516,0.4452,0.7892,0.027612,-0.029146,0.000000,0.592117,-0.578311,0.585981,-0.592117,0.585981,-0.569107
1.6434,0.016753,0.000000,0.000000,0.000787,0.4013,0.0000,0.2792,0.032693,-0.032693,-0.000081,0.000894,-0.001829,0.6903,0.4383,0.9403,0.029146,-0.030680,0.000000,0.595185,-0.578311,0.585981,-0.592117,0.585981,-0.567573
1.6602,0.016782,0.000000,0.000000,0.000806,0.4108,0.0000,0.2863,0.033064,-0.033064,-0.000081,0.000894,-0.001829,0.6903,0.4383,0.9403,0.029146,-0.030680,0.000000,0.595185,-0.578311,0.585981,-0.592117,0.585981,-0.567573
1.6769,0.016751,0.000000,0.000000,0.000825,0.4201,0.0000,0.2933,0.033400,-0.033400,-0.000078,0.000883,-0.001829,0.6758,0.4391,0.9245,0.032214,-0.030680,0.000000,0.595185,-0.578311,0.585981,-0.592117,0.585981,-0.567573
1.6937,0.016754,0.000000,0.000000,0.000844,0.4294,0.0000,0.3004,0.033704,-0.033704,-0.000079,0.000884,-0.001829,0.6778,0.4390,0.9267,0.032214,-0.030680,0.000000,0.595185,-0.578311,0.585981,-0.592117,0.585981,-0.567573
1.7104,0.016757,0.000000,0.000000,0.000863,0.4386,0.0000,0.3074,0.033974,-0.033974,-0.000025,0.000868,-0.001817,0.7165,0.4038,0.8722,0.030680,-0.032214,0.000000,0.595185,-0.579845,0.585981,-0.592117,0.585981,-0.567573
1.7272,0.016753,0.000000,0.000000,0.000882,0.4477,0.0000,0.3144,0.034210,-0.034210,0.000023,0.000853,-0.001805,0.7518,0.3722,0.8241,0.029146,-0.032214,0.000000,0.595185,-0.581379,0.585981,-0.592117,0.585981,-0.567573
1.7439,0.016744,0.000000,0.000000,0.000901,0.4568,0.0000,0.3214,0.034412,-0.034412,0.000072,0.000839,-0.001794,0.7874,0.3402,0.7753,0.032214,-0.032214,0.000000,0.595185,-0.582913,0.585981,-0.592117,0.585981,-0.567573
1.7607,0.016759,0.000000,0.000000,0.000920,0.4657,0.0000,0.3284,0.034580,-0.034580,0.000072,0.000839,-0.001794,0.7874,0.3402,0.7753,0.032214,-0.032214,0.000000,0.595185,-0.582913,0.585981,-0.592117,0.585981,-0.567573
1.7774,0.016747,0.000000,0.000000,0.000939,0.4746,0.0000,0.3353,0.034713,-0.034713,0.000174,0.000808,-0.001770,0.8621,0.2730,0.6725,0.035282,-0.033748,0.000000,0.595185,-0.585981,0.585981,-0.592117,0.585981,-0.567573
1.7942,0.016746,0.000000,0.000000,0.000957,0.4833,0.0000,0.3422,0.034812,-0.034812,0.000163,0.000811,-0.001772,0.8542,0.2801,0.6832,0.033748,-0.033748,0.000000,0.595185,-0.585981,0.585981,-0.592117,0.585981,-0.567573
1.8109,0.016746,0.000000,0.000000,0.000976,0.4920,0.0000,0.3491,0.034875,-0.034875,0.000272,0.000778,-0.001747,0.9332,0.2089,0.5740,0.029146,-0.033748,0.000000,0.595185,-0.589049,0.585981,-0.592117,0.585981,-0.567573
1.8277,0.016752,0.000000,0.000000,0.000994,0.5006,0.0000,0.3560,0.034905,-0.034905,0.000301,0.000821,-0.001725,0.9742,0.2321,0.4777,0.033748,-0.033748,0.000000,0.595185,-0.590583,0.585981,-0.593651,0.585981,-0.567573
1.8444,0.016745,0.000000,0.000000,0.001012,0.5091,0.0000,0.3629,0.034899,-0.034899,0.000339,0.000856,-0.001703,1.0192,0.2454,0.3799,0.036816,-0.033748,0.000000,0.595185,-0.592117,0.585981,-0.595185,0.585981,-0.567573
1.8612,0.016757,0.000000,0.000000,0.001030,0.5175,0.0000,0.3698,0.034859,-0.034859,0.000339,0.000856,-0.001703,1.0192,0.2454,0.3799,0.036816,-0.033748,0.000000,0.595185,-0.592117,0.585981,-0.595185,0.585981,-0.567573
1.8779,0.016750,0.000000,0.000000,0.001048,0.5258,0.0000,0.3766,0.034783,-0.034783,0.000335,0.000852,-0.001705,1.0145,0.2440,0.3901,0.033748,-0.033748,0.000000,0.595185,-0.592117,0.585981,-0.595185,0.585981,-0.567573
1.8947,0.016758,0.000000,0.000000,0.001066,0.5340,0.0000,0.3834,0.034673,-0.034673,0.000322,0.000908,-0.001693,1.0253,0.2951,0.3355,0.029146,-0.033748,0.000000,0.595185,-0.592117,0.585981,-0.596719,0.585981,-0.567573
1.9115,0.016774,0.000000,0.000000,0.001084,0.5421,0.0000,0.3902,0.034529,-0.034529,0.000351,0.001029,-0.001659,1.0060,0.3573,0.2873,0.032214,-0.033748,0.000000,0.595185,-0.592117,0.585981,-0.599786,0.587515,-0.567573
1.9282,0.016707,0.000000,0.000000,0.001101,0.5501,0.0000,0.3970,0.034350,-0.034350,0.000348,0.001016,-0.001663,1.0080,0.3507,0.2923,0.035282,-0.033748,0.000000,0.595185,-0.592117,0.585981,-0.599786,0.587515,-0.567573
1.9449,0.016754,0.000000,0.000000,0.001119,0.5580,0.0000,0.4037,0.034137,-0.034137,0.000444,0.001104,-0.001627,0.9401,0.3339,0.3450,0.033748,-0.033748,0.000000,0.595185,-0.592117,0.585981,-0.601320,0.590583,-0.567573
1.9617,0.016760,0.000000,0.000000,0.001136,0.5658,0.0000,0.4105,0.033890,-0.033890,0.000444,0.001104,-0.001627,0.9401,0.3339,0.3450,0.033748,-0.033748,0.000000,0.595185,-0.592117,0.585981,-0.601320,0.590583,-0.567573
1.9784,0.016748,0.000000,0.000000,0.001154,0.5734,0.0000,0.4172,0.033609,-0.033609,0.000421,0.001150,-0.001619,0.9576,0.3864,0.2858,0.032214,-0.033748,0.000000,0.595185,-0.592117,0.585981,-0.602854,0.590583,-0.567573
1.9952,0.016753,0.000000,0.000000,0.001171,0.5810,0.0000,0.4239,0.033295,-0.033295,0.000410,0.001201,-0.001608,0.9661,0.4316,0.2381,0.030680,-0.033748,0.000000,0.595185,-0.592117,0.585981,-0.604388,0.590583,-0.567573
2.0119,0.016748,0.000000,0.000000,0.001188,0.5885,0.0000,0.4305,0.032947,-0.032947,0.000398,0.001252,-0.001597,0.9756,0.4776,0.1892,0.033748,-0.033748,0.000000,0.595185,-0.592117,0.585981,-0.605922,0.590583,-0.567573
2.0287,0.016758,0.000000,0.000000,0.001205,0.5958,0.0000,0.4372,0.032567,-0.032567,0.000399,0.001246,-0.001598,0.9746,0.4728,0.1943,0.035282,-0.033748,0.000000,0.595185,-0.592117,0.585981,-0.605922,0.590583,-0.567573
2.0454,0.016749,0.000000,0.000000,0.001221,0.6031,0.0000,0.4438,0.032154,-0.032154,0.000399,0.001246,-0.001598,0.9746,0.4728,0.1943,0.027612,-0.033748,0.000000,0.595185,-0.592117,0.585981,-0.605922,0.590583,-0.567573
2.0622,0.016757,0.000000,0.000000,0.001238,0.6102,0.0000,0.4504,0.031709,-0.031709,0.000399,0.001246,-0.001598,0.9746,0.4728,0.1943,0.027612,-0.033748,0.000000,0.595185,-0.592117,0.585981,-0.605922,0.590583,-0.567573
2.0789,0.016752,0.000000,0.000000,0.001254,0.6173,0.0000,0.4569,0.031232,-0.031232,0.000399,0.001246,-0.001598,0.9746,0.4728,0.1943,0.029146,-0.033748,0.000000,0.595185,-0.592117,0.585981,-0.605922,0.590583,-0.567573
2.0957,0.016761,0.000000,0.000000,0.001271,0.6242,0.0000,0.4635,0.030724,-0.030724,0.000399,0.001246,-0.001598,0.9746,0.4728,0.1943,0.035282,-0.033748,0.000000,0.595185,-0.592117,0.585981,-0.605922,0.590583,-0.567573
2.1125,0.016750,0.000000,0.000000,0.001287,0.6309,0.0000,0.4700,0.030186,-0.030186,0.000358,0.001286,-0.001586,1.0245,0.4580,0.2479,0.033748,-0.032214,0.000000,0.596719,-0.592117,0.585981,-0.605922,0.590583,-0.567573
2.1292,0.016759,0.000000,0.000000,0.001303,0.6376,0.0000,0.4765,0.029617,-0.029617,0.000320,0.001321,-0.001576,1.0690,0.4443,0.2965,0.027612,-0.032214,0.000000,0.598253,-0.592117,0.585981,-0.605922,0.590583,-0.567573
2.1460,0.016812,0.000000,0.000000,0.001319,0.6442,0.0000,0.4830,0.029017,-0.029017,0.000241,0.001396,-0.001554,1.1636,0.4154,0.3999,0.027612,-0.030680,0.000000,0.601320,-0.592117,0.585981,-0.605922,0.590583,-0.567573
2.1628,0.016753,0.000000,0.000000,0.001335,0.6506,0.0000,0.4894,0.028390,-0.028390,0.000241,0.001396,-0.001554,1.1636,0.4154,0.3999,0.027612,-0.030680,0.000000,0.601320,-0.592117,0.585981,-0.605922,0.590583,-0.567573
2.1795,0.016750,0.000000,0.000000,0.001350,0.6569,0.0000,0.4958,0.027734,-0.027734,0.000165,0.001466,-0.001533,1.2529,0.3884,0.4976,0.032214,-0.030680,0.000000,0.604388,-0.592117,0.585981,-0.605922,0.590583,-0.567573
2.1963,0.016752,0.000000,0.000000,0.001366,0.6631,0.0000,0.5022,0.027051,-0.027051,0.000089,0.001537,-0.001512,1.3426,0.3613,0.5960,0.030680,-0.030680,0.000000,0.607456,-0.592117,0.585981,-0.605922,0.590583,-0.567573
2.2130,0.016743,0.000000,0.000000,0.001381,0.6692,0.0000,0.5086,0.026342,-0.026342,-0.000027,0.001569,-0.001478,1.3824,0.3166,0.6407,0.027612,-0.029146,0.000000,0.610524,-0.592117,0.585981,-0.605922,0.590583,-0.569107
2.2298,0.016775,0.000000,0.000000,0.001396,0.6751,0.0000,0.5149,0.025604,-0.025604,-0.000099,0.001645,-0.001459,1.4769,0.2917,0.7449,0.024544,-0.029146,0.000000,0.613592,-0.592117,0.585981,-0.605922,0.590583,-0.569107
2.2470,0.017232,0.000000,0.000000,0.001412,0.6811,0.0000,0.5214,0.024820,-0.024820,-0.000256,0.001638,-0.001412,1.4662,0.2288,0.7354,0.024544,-0.029146,0.000000,0.616660,-0.592117,0.585981,-0.605922,0.590583,-0.572175
2.2638,0.016754,0.000000,0.000000,0.001426,0.6868,0.0000,0.5277,0.024033,-0.024033,-0.000256,0.001638,-0.001412,1.4662,0.2288,0.7354,0.024544,-0.029146,0.000000,0.616660,-0.592117,0.585981,-0.605922,0.590583,-0.572175
2.2805,0.016742,0.000000,0.000000,0.001441,0.6923,0.0000,0.5339,0.023222,-0.023222,-0.000281,0.001678,-0.001406,1.5166,0.2206,0.7909,0.027612,-0.027612,0.000000,0.618194,-0.592117,0.585981,-0.605922,0.590583,-0.572175
2.2973,0.016750,0.000000,0.000000,0.001456,0.6977,0.0000,0.5401,0.022388,-0.022388,-0.000305,0.001579,-0.001367,1.4510,0.1498,0.6230,0.024544,-0.027612,0.000000,0.618194,-0.593651,0.585981,-0.605922,0.590583,-0.575243
2.3140,0.016746,0.000000,0.000000,0.001470,0.7030,0.0000,0.5463,0.021532,-0.021532,-0.000343,0.001551,-0.001358,1.4082,0.1393,0.5866,0.021476,-0.026078,0.000000,0.618194,-0.593651,0.585981,-0.605922,0.590583,-0.576777
2.3308,0.016750,0.000000,0.000000,0.001484,0.7082,0.0000,0.5525,0.020654,-0.020654,-0.000313,0.001521,-0.001309,1.4902,0.0367,0.4821,0.021476,-0.021476,0.000000,0.619728,-0.596719,0.585981,-0.605922,0.590583,-0.578311
2.3476,0.016777,0.000000,0.000000,0.001498,0.7132,0.0000,0.5586,0.019754,-0.019754,-0.000313,0.001521,-0.001309,1.4902,0.0367,0.4821,0.021476,-0.021476,0.000000,0.619728,-0.596719,0.585981,-0.605922,0.590583,-0.578311
2.3643,0.016769,0.000000,0.000000,0.001512,0.7181,0.0000,0.5647,0.018834,-0.018834,-0.000313,0.001521,-0.001309,1.4902,0.0367,0.4821,0.021476,-0.021476,0.000000,0.619728,-0.596719,0.585981,-0.605922,0.590583,-0.578311
2.3811,0.016748,0.000000,0.000000,0.001526,0.7229,0.0000,0.5708,0.017897,-0.017897,-0.000313,0.001521,-0.001309,1.4902,0.0367,0.4821,0.021476,-0.021476,0.000000,0.619728,-0.596719,0.585981,-0.605922,0.590583,-0.578311
2.3978,0.016748,0.000000,0.000000,0.001539,0.7275,0.0000,0.5768,0.016942,-0.016942,-0.000017,0.001458,-0.001213,1.6366,-0.0669,-0.0509,0.021476,-0.021476,0.000000,0.618194,-0.605922,0.585981,-0.608990,0.590583,-0.579845
2.4146,0.016746,0.000000,0.000000,0.001553,0.7320,0.0000,0.5828,0.015971,-0.015971,-0.000034,0.001409,-0.001198,1.6095,-0.1090,-0.1039,0.021476,-0.021476,0.000000,0.618194,-0.607456,0.585981,-0.608990,0.590583,-0.581379
2.4315,0.016899,0.000000,0.000000,0.001566,0.7364,0.0000,0.5888,0.014974,-0.014974,-0.000034,0.001409,-0.001198,1.6095,-0.1090,-0.1039,0.021476,-0.021476,0.000000,0.618194,-0.607456,0.585981,-0.608990,0.590583,-0.581379
2.4482,0.016746,0.000000,0.000000,0.001579,0.7406,0.0000,0.5947,0.013971,-0.013971,-0.000005,0.001510,-0.001164,1.6722,-0.0393,-0.2608,0.021476,-0.021476,0.000000,0.618194,-0.608990,0.585981,-0.612058,0.590583,-0.581379
2.4650,0.016750,0.000000,0.000000,0.001592,0.7446,0.0000,0.6007,0.012955,-0.012955,0.000032,0.001539,-0.001144,1.7147,-0.0318,-0.3531,0.018408,-0.018408,0.000000,0.618194,-0.610524,0.585981,-0.613592,0.590583,-0.581379
2.4817,0.016744,0.000000,0.000000,0.001604,0.7486,0.0000,0.6065,0.011925,-0.011925,0.000028,0.001536,-0.001146,1.7102,-0.0326,-0.3435,0.010738,-0.013806,0.000000,0.618194,-0.610524,0.585981,-0.613592,0.590583,-0.581379
2.4985,0.016757,0.000000,0.000000,0.001617,0.7524,0.0000,0.6124,0.010883,-0.010883,-0.000011,0.001497,-0.001133,1.6614,-0.0500,-0.3985,0.010738,-0.013806,0.000000,0.618194,-0.610524,0.585981,-0.613592,0.590583,-0.582913
2.5152,0.016743,0.000000,0.000000,0.001629,0.7560,0.0000,0.6182,0.009831,-0.009831,0.000033,0.001540,-0.001148,1.7158,-0.0308,-0.3388,0.016874,-0.015340,0.000000,0.618194,-0.610524,0.585981,-0.613592,0.590583,-0.581379
2.5320,0.016753,0.000000,0.000000,0.001641,0.7595,0.0000,0.6240,0.008769,-0.008769,0.000033,0.001540,-0.001148,1.7158,-0.0308,-0.3388,0.013806,-0.013806,0.000000,0.618194,-0.610524,0.585981,-0.613592,0.590583,-0.581379
2.5487,0.016747,0.000000,0.000000,0.001653,0.7629,0.0000,0.6297,0.007698,-0.007698,0.000028,0.001536,-0.001146,1.7101,-0.0328,-0.3450,0.013806,-0.013806,0.000000,0.618194,-0.610524,0.585981,-0.613592,0.590583,-0.581379
2.5655,0.016754,0.000000,0.000000,0.001665,0.7661,0.0000,0.6354,0.006619,-0.006619,0.000003,0.001428,-0.001119,1.6900,0.0709,-0.2350,0.004602,-0.010738,0.000000,0.618194,-0.610524,0.589049,-0.613592,0.590583,-0.581379
2.5822,0.016743,0.000000,0.000000,0.001677,0.7692,0.0000,0.6411,0.005534,-0.005534,-0.000061,0.001292,-0.001083,1.6219,0.1458,-0.1912,0.006136,-0.009204,0.000000,0.618194,-0.610524,0.592117,-0.613592,0.590583,-0.582913
2.5990,0.016758,0.000000,0.000000,0.001688,0.7721,0.0000,0.6467,0.004443,-0.004443,-0.000026,0.001181,-0.001048,1.6463,0.2056,-0.1411,0.012272,-0.009204,0.000000,0.618194,-0.612058,0.595185,-0.613592,0.590583,-0.582913
2.6157,0.016743,0.000000,0.000000,0.001699,0.7749,0.0000,0.6523,0.003348,-0.003348,-0.000001,0.001067,-0.001013,1.6611,0.2669,-0.0916,0.010738,-0.009204,0.000000,0.618194,-0.613592,0.598253,-0.613592,0.590583,-0.582913
2.6325,0.016753,0.000000,0.000000,0.001710,0.7776,0.0000,0.6579,0.002250,-0.002250,-0.000001,0.001067,-0.001013,1.6611,0.2669,-0.0916,0.010738,-0.009204,0.000000,0.618194,-0.613592,0.598253,-0.613592,0.590583,-0.582913
2.6492,0.016745,0.000000,0.000000,0.001721,0.7801,0.0000,0.6634,0.001149,-0.001149,0.000012,0.000899,-0.000965,1.6665,0.3792,0.0130,0.001534,-0.007670,0.000000,0.618194,-0.615126,0.602854,-0.613592,0.590583,-0.582913
2.6659,0.016744,0.000000,0.000000,0.001732,0.7824,0.0000,0.6689,0.000048,-0.000048,-0.000029,0.000752,-0.000932,1.6344,0.5207,0.1671,-0.001534,-0.004602,0.000000,0.618194,-0.615126,0.607456,-0.613592,0.590583,-0.582913
2.6827,0.016744,0.000000,0.000000,0.001742,0.7846,0.0000,0.6743,-0.001054,0.001054,-0.000050,0.000658,-0.000910,1.6166,0.6077,0.2612,0.004602,-0.003068,0.000000,0.618194,-0.615126,0.610524,-0.613592,0.590583,-0.582913
2.6994,0.016745,0.000000,0.000000,0.001752,0.7867,0.0000,0.6798,-0.002154,0.002154,-0.000074,0.000559,-0.000887,1.5972,0.7002,0.3617,0.004602,-0.003068,0.000000,0.618194,-0.615126,0.613592,-0.613592,0.590583,-0.582913
2.7162,0.016744,0.000000,0.000000,0.001762,0.7886,0.0000,0.6852,-0.003253,0.003253,-0.000084,0.000514,-0.000877,1.5886,0.7412,0.4063,0.000000,-0.001534,0.000000,0.618194,-0.615126,0.615126,-0.613592,0.590583,-0.582913
2.7329,0.016746,0.000000,0.000000,0.001772,0.7904,0.0000,0.6905,-0.004348,0.004348,-0.000084,0.000514,-0.000877,1.5886,0.7412,0.4063,0.000000,-0.001534,0.000000,0.618194,-0.615126,0.615126,-0.613592,0.590583,-0.582913
2.7497,0.016747,0.000000,0.000000,0.001782,0.7920,0.0000,0.6958,-0.005439,0.005439,-0.000151,0.000560,-0.000842,1.6387,0.8227,0.4579,-0.004602,-0.001534,0.000000,0.619728,-0.615126,0.616660,-0.615126,0.590583,-0.582913
2.7664,0.016746,0.000000,0.000000,0.001791,0.7935,0.0000,0.7011,-0.006524,0.006524,-0.000287,0.000809,-0.000800,1.8900,0.8209,0.6727,0.000000,0.000000,0.000000,0.625864,-0.615126,0.616660,-0.616660,0.590583,-0.581379
2.7832,0.016768,0.000000,0.000000,0.001801,0.7948,0.0000,0.7063,-0.007605,0.007605,-0.000258,0.000759,-0.000779,1.7749,0.7698,0.6490,-0.001534,0.003068,0.000000,0.625864,-0.615126,0.616660,-0.616660,0.592117,-0.582913
2.7999,0.016750,0.000000,0.000000,0.001810,0.7960,0.0000,0.7115,-0.008676,0.008676,-0.000207,0.000779,-0.000769,1.7479,0.7411,0.7047,-0.006136,0.004602,0.000000,0.625864,-0.615126,0.616660,-0.616660,0.593651,-0.582913
2.8167,0.016748,0.000000,0.000000,0.001818,0.7970,0.0000,0.7167,-0.009739,0.009739,-0.000207,0.000779,-0.000769,1.7479,0.7411,0.7047,-0.009204,0.004602,0.000000,0.625864,-0.615126,0.616660,-0.616660,0.596719,-0.582913
2.8334,0.016741,0.000000,0.000000,0.001827,0.7979,0.0000,0.7218,-0.010792,0.010792,-0.000103,0.000808,-0.000746,1.6729,0.6758,0.8055,-0.009204,0.004602,0.000000,0.625864,-0.615126,0.616660,-0.616660,0.596719,-0.582913
2.8502,0.016743,0.000000,0.000000,0.001836,0.7986,0.0000,0.7269,-0.011834,0.011834,-0.000102,0.000860,-0.000724,1.6908,0.6336,0.9033,-0.006136,0.006136,0.000000,0.627398,-0.615126,0.616660,-0.616660,0.598253,-0.582913
2.8669,0.016746,0.000000,0.000000,0.001844,0.7992,0.0000,0.7319,-0.012865,0.012865,-0.000147,0.000973,-0.000717,1.8365,0.6257,1.0573,-0.003068,0.007670,0.000000,0.630466,-0.615126,0.616660,-0.616660,0.598253,-0.581379
2.8837,0.016747,0.000000,0.000000,0.001852,0.7996,0.0000,0.7369,-0.013882,0.013882,-0.000225,0.000961,-0.000693,1.8203,0.5943,1.0419,-0.007670,0.010738,0.000000,0.632000,-0.615126,0.616660,-0.616660,0.598253,-0.582913
2.9004,0.016740,0.000000,0.000000,0.001860,0.7999,0.0000,0.7419,-0.014886,0.014886,-0.000259,0.001002,-0.000685,1.8707,0.5828,1.0985,-0.016874,0.010738,0.000000,0.633534,-0.615126,0.616660,-0.616660,0.598253,-0.582913
2.9173,0.016920,0.000000,0.000000,0.001867,0.8000,0.0000,0.7468,-0.015885,0.015885,-0.000259,0.001002,-0.000685,1.8707,0.5828,1.0985,-0.016874,0.010738,0.000000,0.633534,-0.615126,0.616660,-0.616660,0.598253,-0.582913
2.9341,0.016744,0.000000,0.000000,0.001875,0.8000,0.0000,0.7517,-0.016858,0.016858,-0.000256,0.000998,-0.000685,1.8655,0.5840,1.0926,-0.016874,0.010738,0.000000,0.633534,-0.615126,0.616660,-0.616660,0.598253,-0.582913
2.9508,0.016756,0.000000,0.000000,0.001882,0.7998,0.0000,0.7565,-0.017815,0.017815,-0.000256,0.000998,-0.000685,1.8655,0.5840,1.0926,-0.010738,0.012272,0.000000,0.633534,-0.615126,0.616660,-0.616660,0.598253,-0.582913
2.9676,0.016743,0.000000,0.000000,0.001889,0.7995,0.0000,0.7613,-0.018753,0.018753,-0.000216,0.001038,-0.000699,1.9159,0.6016,1.1475,-0.012272,0.013806,0.000000,0.633534,-0.615126,0.616660,-0.616660,0.598253,-0.581379
2.9843,0.016747,0.000000,0.000000,0.001896,0.7990,0.0000,0.7661,-0.019673,0.019673,-0.000260,0.000994,-0.000684,1.8608,0.5820,1.0875,-0.018408,0.015340,0.000000,0.633534,-0.615126,0.616660,-0.616660,0.598253,-0.582913
3.0011,0.016749,0.000000,0.000000,0.001903,0.7984,0.0000,0.7708,-0.020574,0.020574,-0.000260,0.000994,-0.000684,1.8608,0.5820,1.0875,-0.023010,0.016874,0.000000,0.633534,-0.615126,0.616660,-0.616660,0.598253,-0.582913
3.0178,0.016750,0.000000,0.000000,0.001909,0.7976,0.0000,0.7755,-0.021454,0.021454,-0.000255,0.000999,-0.000686,1.8665,0.5841,1.0937,-0.023010,0.016874,0.000000,0.633534,-0.615126,0.616660,-0.616660,0.598253,-0.582913
3.0346,0.016797,0.000000,0.000000,0.001915,0.7967,0.0000,0.7801,-0.022314,0.022314,-0.000216,0.001038,-0.000699,1.9158,0.6016,1.1474,-0.019942,0.016874,0.000000,0.633534,-0.615126,0.616660,-0.616660,0.598253,-0.581379
3.0514,0.016763,0.000000,0.000000,0.001921,0.7956,0.0000,0.7847,-0.023151,0.023151,-0.000096,0.001008,-0.000647,1.8223,0.4790,1.1395,-0.015340,0.016874,0.000000,0.633534,-0.616660,0.616660,-0.616660,0.601320,-0.582913
3.0681,0.016744,0.000000,0.000000,0.001927,0.7944,0.0000,0.7893,-0.023964,0.023964,-0.000109,0.001012,-0.000652,1.8321,0.4918,1.1403,-0.019942,0.018408,0.000000,0.633534,-0.616660,0.616660,-0.616660,0.601320,-0.582913
3.0848,0.016733,0.000000,0.000000,0.001932,0.7930,0.0000,0.7938,-0.024753,0.024753,-0.000107,0.001011,-0.000652,1.8307,0.4900,1.1402,-0.027612,0.021476,0.000000,0.633534,-0.616660,0.616660,-0.616660,0.601320,-0.582913
3.1016,0.016752,0.000000,0.000000,0.001938,0.7915,0.0000,0.7982,-0.025517,0.025517,0.000001,0.001010,-0.000627,1.8315,0.4215,1.1387,-0.026078,0.023010,0.000000,0.633534,-0.618194,0.616660,-0.616660,0.602854,-0.582913
3.1184,0.016759,0.000000,0.000000,0.001943,0.7898,0.0000,0.8026,-0.026257,0.026257,0.000001,0.001010,-0.000627,1.8315,0.4215,1.1387,-0.026078,0.023010,0.000000,0.633534,-0.618194,0.616660,-0.616660,0.602854,-0.582913
3.1351,0.016746,0.000000,0.000000,0.001948,0.7880,0.0000,0.8070,-0.026970,0.026970,-0.000010,0.001010,-0.000630,1.8314,0.4287,1.1389,-0.019942,0.023010,0.000000,0.633534,-0.618194,0.616660,-0.616660,0.602854,-0.582913
3.1519,0.016760,0.000000,0.000000,0.001952,0.7861,0.0000,0.8113,-0.027656,0.027656,0.000046,0.001026,-0.000618,1.7929,0.3940,1.1924,-0.024544,0.023010,0.000000,0.633534,-0.618194,0.616660,-0.616660,0.604388,-0.582913
3.1686,0.016750,0.000000,0.000000,0.001957,0.7840,0.0000,0.8156,-0.028315,0.028315,-0.000014,0.001041,-0.000631,1.7581,0.4328,1.2418,-0.030680,0.023010,0.000000,0.633534,-0.616660,0.616660,-0.616660,0.604388,-0.582913
3.1854,0.016761,0.000000,0.000000,0.001961,0.7817,0.0000,0.8199,-0.028946,0.028946,-0.000008,0.001039,-0.000630,1.7617,0.4288,1.2367,-0.029146,0.024544,0.000000,0.633534,-0.616660,0.616660,-0.616660,0.604388,-0.582913
3.2022,0.016809,0.000000,0.000000,0.001965,0.7793,0.0000,0.8241,-0.029549,0.029549,0.000046,0.001023,-0.000618,1.8002,0.3940,1.1822,-0.024544,0.024544,0.000000,0.633534,-0.618194,0.616660,-0.616660,0.604388,-0.582913
3.2189,0.016760,0.000000,0.000000,0.001969,0.7768,0.0000,0.8282,-0.030121,0.030121,0.000046,0.001023,-0.000618,1.8002,0.3940,1.1822,-0.024544,0.024544,0.000000,0.633534,-0.618194,0.616660,-0.616660,0.604388,-0.582913
3.2357,0.016746,0.000000,0.000000,0.001972,0.7741,0.0000,0.8323,-0.030663,0.030663,0.000040,0.001024,-0.000619,1.7961,0.3976,1.1879,-0.026078,0.024544,0.000000,0.633534,-0.618194,0.616660,-0.616660,0.604388,-0.582913
3.2524,0.016762,0.000000,0.000000,0.001976,0.7712,0.0000,0.8364,-0.031175,0.031175,0.000040,0.001024,-0.000619,1.7961,0.3976,1.1879,-0.030680,0.026078,0.000000,0.633534,-0.618194,0.616660,-0.616660,0.604388,-0.582913
3.2692,0.016746,0.000000,0.000000,0.001979,0.7682,0.0000,0.8404,-0.031655,0.031655,0.000040,0.001024,-0.000619,1.7961,0.3976,1.1879,-0.030680,0.027612,0.000000,0.633534,-0.618194,0.616660,-0.616660,0.604388,-0.582913
3.2860,0.016762,0.000000,0.000000,0.001982,0.7651,0.0000,0.8444,-0.032104,0.032104,-0.000013,0.001041,-0.000631,1.7577,0.4324,1.2423,-0.027612,0.029146,0.000000,0.633534,-0.616660,0.616660,-0.616660,0.604388,-0.582913
3.3027,0.016753,0.000000,0.000000,0.001985,0.7618,0.0000,0.8483,-0.032520,0.032520,0.000046,0.001022,-0.000617,1.8006,0.3936,1.1816,-0.027612,0.029146,0.000000,0.633534,-0.618194,0.616660,-0.616660,0.604388,-0.582913
3.3195,0.016762,0.000000,0.000000,0.001987,0.7584,0.0000,0.8522,-0.032905,0.032905,0.000046,0.001022,-0.000617,1.8006,0.3936,1.1816,-0.027612,0.029146,0.000000,0.633534,-0.618194,0.616660,-0.616660,0.604388,-0.582913
3.3362,0.016749,0.000000,0.000000,0.001989,0.7549,0.0000,0.8560,-0.033256,0.033256,-0.000014,0.001041,-0.000632,1.7573,0.4328,1.2430,-0.032214,0.029146,0.000000,0.633534,-0.616660,0.616660,-0.616660,0.604388,-0.582913
3.3530,0.016787,0.000000,0.000000,0.001991,0.7512,0.0000,0.8598,-0.033575,0.033575,-0.000008,0.001039,-0.000630,1.7618,0.4287,1.2366,-0.033748,0.029146,0.000000,0.633534,-0.616660,0.616660,-0.616660,0.604388,-0.582913
3.3698,0.016765,0.000000,0.000000,0.001993,0.7473,0.0000,0.8636,-0.033860,0.033860,0.000046,0.001023,-0.000618,1.8002,0.3940,1.1822,-0.032214,0.030680,0.000000,0.633534,-0.618194,0.616660,-0.616660,0.604388,-0.582913
3.3865,0.016751,0.000000,0.000000,0.001995,0.7434,0.0000,0.8672,-0.034111,0.034111,0.000040,0.001024,-0.000619,1.7961,0.3976,1.1879,-0.029146,0.032214,0.000000,0.633534,-0.618194,0.616660,-0.616660,0.604388,-0.582913
3.4034,0.016854,0.000000,0.000000,0.001996,0.7392,0.0000,0.8709,-0.034329,0.034329,0.000040,0.001024,-0.000619,1.7961,0.3976,1.1879,-0.029146,0.032214,0.000000,0.633534,-0.618194,0.616660,-0.616660,0.604388,-0.582913
3.4202,0.016827,0.000000,0.000000,0.001997,0.7349,0.0000,0.8745,-0.034512,0.034512,0.000040,0.001024,-0.000619,1.7961,0.3976,1.1879,-0.029146,0.032214,0.000000,0.633534,-0.618194,0.616660,-0.616660,0.604388,-0.582913
3.4370,0.016752,0.000000,0.000000,0.001998,0.7306,0.0000,0.8781,-0.034660,0.034660,0.000040,0.001024,-0.000619,1.7961,0.3976,1.1879,-0.029146,0.032214,0.000000,0.633534,-0.618194,0.616660,-0.616660,0.604388,-0.582913
3.4537,0.016748,0.000000,0.000000,0.001999,0.7260,0.0000,0.8816,-0.034774,0.034774,-0.000013,0.001041,-0.000631,1.7577,0.4324,1.2423,-0.033748,0.032214,0.000000,0.633534,-0.616660,0.616660,-0.616660,0.604388,-0.582913
3.4705,0.016815,0.000000,0.000000,0.002000,0.7213,0.0000,0.8850,-0.034853,0.034853,0.000046,0.001022,-0.000617,1.8006,0.3936,1.1816,-0.029146,0.032214,0.000000,0.633534,-0.618194,0.616660,-0.616660,0.604388,-0.582913
3.4873,0.016751,0.000000,0.000000,0.002000,0.7165,0.0000,0.8884,-0.034897,0.034897,0.000040,0.001024,-0.000619,1.7961,0.3976,1.1880,-0.033748,0.032214,0.000000,0.633534,-0.618194,0.616660,-0.616660,0.604388,-0.582913
3.5040,0.016753,0.000000,0.000000,0.002000,0.7116,0.0000,0.8918,-0.034906,0.034906,-0.000013,0.001041,-0.000631,1.7577,0.4324,1.2423,-0.039884,0.032214,0.000000,0.633534,-0.616660,0.616660,-0.616660,0.604388,-0.582913
3.5208,0.016752,0.000000,0.000000,0.002000,0.7065,0.0000,0.8951,-0.034880,0.034880,-0.000013,0.001041,-0.000631,1.7577,0.4324,1.2423,-0.039884,0.032214,0.000000,0.633534,-0.616660,0.616660,-0.616660,0.604388,-0.582913
3.5375,0.016748,0.000000,0.000000,0.001999,0.7013,0.0000,0.8984,-0.034819,0.034819,0.000059,0.001077,-0.000630,1.8113,0.3432,1.1263,-0.038350,0.033748,0.000000,0.633534,-0.618194,0.615126,-0.616660,0.604388,-0.582913
3.5543,0.016754,0.000000,0.000000,0.001999,0.6960,0.0000,0.9016,-0.034724,0.034724,0.000039,0.001019,-0.000618,1.7950,0.4029,1.1937,-0.033748,0.032214,0.000000,0.633534,-0.618194,0.616660,-0.616660,0.604388,-0.582913
3.5711,0.016824,0.000000,0.000000,0.001998,0.6905,0.0000,0.9048,-0.034594,0.034594,0.000041,0.001025,-0.000619,1.7967,0.3967,1.1867,-0.032214,0.032214,0.000000,0.633534,-0.618194,0.616660,-0.616660,0.604388,-0.582913
3.5878,0.016750,0.000000,0.000000,0.001997,0.6849,0.0000,0.9079,-0.034429,0.034429,-0.000013,0.001041,-0.000631,1.7577,0.4325,1.2424,-0.035282,0.032214,0.000000,0.633534,-0.616660,0.616660,-0.616660,0.604388,-0.582913
3.6048,0.016947,0.000000,0.000000,0.001996,0.6791,0.0000,0.9110,-0.034228,0.034228,-0.000008,0.001039,-0.000630,1.7617,0.4288,1.2366,-0.038350,0.032214,0.000000,0.633534,-0.616660,0.616660,-0.616660,0.604388,-0.582913
3.6215,0.016752,0.000000,0.000000,0.001994,0.6733,0.0000,0.9140,-0.033994,0.033994,-0.000008,0.001039,-0.000630,1.7617,0.4288,1.2366,-0.038350,0.032214,0.000000,0.633534,-0.616660,0.616660,-0.616660,0.604388,-0.582913
3.6383,0.016746,0.000000,0.000000,0.001992,0.6673,0.0000,0.9170,-0.033727,0.033727,0.000046,0.001023,-0.000618,1.8002,0.3940,1.1822,-0.035282,0.032214,0.000000,0.633534,-0.618194,0.616660,-0.616660,0.604388,-0.582913
3.6550,0.016756,0.000000,0.000000,0.001991,0.6612,0.0000,0.9199,-0.033426,0.033426,0.000040,0.001024,-0.000619,1.7961,0.3976,1.1879,-0.030680,0.032214,0.000000,0.633534,-0.618194,0.616660,-0.616660,0.604388,-0.582913
3.6718,0.016745,0.000000,0.000000,0.001988,0.6550,0.0000,0.9227,-0.033092,0.033092,-0.000013,0.001041,-0.000631,1.7577,0.4324,1.2423,-0.033748,0.032214,0.000000,0.633534,-0.616660,0.616660,-0.616660,0.604388,-0.582913
3.6885,0.016749,0.000000,0.000000,0.001986,0.6487,0.0000,0.9255,-0.032725,0.032725,0.000046,0.001022,-0.000617,1.8006,0.3936,1.1816,-0.038350,0.033748,0.000000,0.633534,-0.618194,0.616660,-0.616660,0.604388,-0.582913
3.7053,0.016752,0.000000,0.000000,0.001983,0.6422,0.0000,0.9283,-0.032325,0.032325,0.000046,0.001022,-0.000617,1.8006,0.3936,1.1816,-0.032214,0.032214,0.000000,0.633534,-0.618194,0.616660,-0.616660,0.604388,-0.582913
3.7220,0.016747,0.000000,0.000000,0.001981,0.6356,0.0000,0.9310,-0.031894,0.031894,0.000040,0.001024,-0.000619,1.7961,0.3976,1.1880,-0.032214,0.032214,0.000000,0.633534,-0.618194,0.616660,-0.616660,0.604388,-0.582913
3.7388,0.016748,0.000000,0.000000,0.001978,0.6289,0.0000,0.9337,-0.031430,0.031430,0.000040,0.001024,-0.000619,1.7961,0.3976,1.1880,-0.027612,0.032214,0.000000,0.633534,-0.618194,0.616660,-0.616660,0.604388,-0.582913
3.7555,0.016746,0.000000,0.000000,0.001974,0.6221,0.0000,0.9363,-0.030935,0.030935,0.000040,0.001024,-0.000619,1.7961,0.3976,1.1880,-0.030680,0.032214,0.000000,0.633534,-0.618194,0.616660,-0.616660,0.604388,-0.582913
3.7723,0.016746,0.000000,0.000000,0.001971,0.6151,0.0000,0.9389,-0.030409,0.030409,0.000040,0.001024,-0.000619,1.7961,0.3976,1.1880,-0.038350,0.032214,0.000000,0.633534,-0.618194,0.616660,-0.616660,0.604388,-0.582913
3.7890,0.016753,0.000000,0.000000,0.001967,0.6081,0.0000,0.9414,-0.029853,0.029853,0.000040,0.001024,-0.000619,1.7961,0.3976,1.1880,-0.036816,0.030680,0.000000,0.633534,-0.618194,0.616660,-0.616660,0.604388,-0.582913
3.8058,0.016752,0.000000,0.000000,0.001963,0.6009,0.0000,0.9438,-0.029267,0.029267,0.000040,0.001024,-0.000619,1.7961,0.3976,1.1880,-0.029146,0.030680,0.000000,0.633534,-0.618194,0.616660,-0.616660,0.604388,-0.582913
3.8225,0.016744,0.000000,0.000000,0.001959,0.5936,0.0000,0.9462,-0.028652,0.028652,0.000040,0.001024,-0.000619,1.7961,0.3976,1.1880,-0.029146,0.030680,0.000000,0.633534,-0.618194,0.616660,-0.616660,0.604388,-0.582913
3.8393,0.016808,0.000000,0.000000,0.001955,0.5862,0.0000,0.9486,-0.028006,0.028006,0.000040,0.001024,-0.000619,1.7961,0.3976,1.1880,-0.026078,0.029146,0.000000,0.633534,-0.618194,0.616660,-0.616660,0.604388,-0.582913
3.8561,0.016749,0.000000,0.000000,0.001950,0.5787,0.0000,0.9509,-0.027334,0.027334,-0.000013,0.001041,-0.000631,1.7577,0.4324,1.2423,-0.029146,0.029146,0.000000,0.633534,-0.616660,0.616660,-0.616660,0.604388,-0.582913
3.8729,0.016767,0.000000,0.000000,0.001945,0.5711,0.0000,0.9532,-0.026635,0.026635,0.000046,0.001022,-0.000617,1.8006,0.3936,1.1816,-0.032214,0.027612,0.000000,0.633534,-0.618194,0.616660,-0.616660,0.604388,-0.582913
3.8896,0.016745,0.000000,0.000000,0.001940,0.5634,0.0000,0.9554,-0.025909,0.025909,-0.000014,0.001041,-0.000632,1.7573,0.4328,1.2430,-0.027612,0.027612,0.000000,0.633534,-0.616660,0.616660,-0.616660,0.604388,-0.582913
3.9063,0.016753,0.000000,0.000000,0.001935,0.5556,0.0000,0.9575,-0.025158,0.025158,-0.000014,0.001041,-0.000632,1.7573,0.4328,1.2430,-0.027612,0.027612,0.000000,0.633534,-0.616660,0.616660,-0.616660,0.604388,-0.582913
3.9231,0.016761,0.000000,0.000000,0.001930,0.5476,0.0000,0.9596,-0.024381,0.024381,0.000047,0.001022,-0.000617,1.8006,0.3935,1.1816,-0.023010,0.026078,0.000000,0.633534,-0.618194,0.616660,-0.616660,0.604388,-0.582913
3.9399,0.016753,0.000000,0.000000,0.001924,0.5396,0.0000,0.9617,-0.023580,0.023580,0.000040,0.001024,-0.000619,1.7961,0.3976,1.1880,-0.027612,0.026078,0.000000,0.633534,-0.618194,0.616660,-0.616660,0.604388,-0.582913
3.9566,0.016745,0.000000,0.000000,0.001918,0.5315,0.0000,0.9637,-0.022756,0.022756,0.000040,0.001024,-0.000619,1.7961,0.3976,1.1880,-0.027612,0.024544,0.000000,0.633534,-0.618194,0.616660,-0.616660,0.604388,-0.582913
3.9744,0.017776,0.000000,0.000000,0.001912,0.5227,0.0000,0.9657,-0.021857,0.021857,0.000040,0.001024,-0.000619,1.7961,0.3976,1.1880,-0.026078,0.024544,0.000000,0.633534,-0.618194,0.616660,-0.616660,0.604388,-0.582913
3.9911,0.016724,0.000000,0.000000,0.001906,0.5144,0.0000,0.9676,-0.020988,0.020988,0.000040,0.001024,-0.000619,1.7961,0.3976,1.1880,-0.021476,0.023010,0.000000,0.633534,-0.618194,0.616660,-0.616660,0.604388,-0.582913
4.0079,0.016754,0.000000,0.000000,0.001899,0.5060,0.0000,0.9694,-0.020097,0.020097,0.000040,0.001024,-0.000619,1.7961,0.3976,1.1880,-0.021476,0.023010,0.000000,0.633534,-0.618194,0.616660,-0.616660,0.604388,-0.582913
4.0246,0.016764,0.000000,0.000000,0.001892,0.4974,0.0000,0.9712,-0.019185,0.019185,-0.000013,0.001041,-0.000631,1.7577,0.4324,1.2423,-0.027612,0.023010,0.000000,0.633534,-0.616660,0.616660,-0.616660,0.604388,-0.582913
4.0414,0.016743,0.000000,0.000000,0.001885,0.4888,0.0000,0.9729,-0.018255,0.018255,0.000046,0.001022,-0.000617,1.8006,0.3936,1.1816,-0.026078,0.023010,0.000000,0.633534,-0.618194,0.616660,-0.616660,0.604388,-0.582913
4.0581,0.016753,0.000000,0.000000,0.001878,0.4801,0.0000,0.9746,-0.017307,0.017307,0.000040,0.001024,-0.000619,1.7961,0.3976,1.1880,-0.023010,0.023010,0.000000,0.633534,-0.618194,0.616660,-0.616660,0.604388,-0.582913
4.0749,0.016747,0.000000,0.000000,0.001871,0.4713,0.0000,0.9762,-0.016341,0.016341,0.000040,0.001024,-0.000619,1.7961,0.3976,1.1880,-0.019942,0.021476,0.000000,0.633534,-0.618194,0.616660,-0.616660,0.604388,-0.582913
4.0916,0.016758,0.000000,0.000000,0.001863,0.4624,0.0000,0.9778,-0.015359,0.015359,0.000040,0.001024,-0.000619,1.7961,0.3976,1.1880,-0.019942,0.021476,0.000000,0.633534,-0.618194,0.616660,-0.616660,0.604388,-0.582913
4.1084,0.016744,0.000000,0.000000,0.001856,0.4534,0.0000,0.9793,-0.014362,0.014362,0.000040,0.001024,-0.000619,1.7961,0.3976,1.1880,-0.019942,0.021476,0.000000,0.633534,-0.618194,0.616660,-0.616660,0.604388,-0.582913
4.1251,0.016756,0.000000,0.000000,0.001848,0.4444,0.0000,0.9808,-0.013350,0.013350,0.000040,0.001024,-0.000619,1.7961,0.3976,1.1880,-0.018408,0.018408,0.000000,0.633534,-0.618194,0.616660,-0.616660,0.604388,-0.582913
4.1419,0.016741,0.000000,0.000000,0.001840,0.4352,0.0000,0.9822,-0.012326,0.012326,0.000040,0.001024,-0.000619,1.7961,0.3976,1.1880,-0.018408,0.013806,0.000000,0.633534,-0.618194,0.616660,-0.616660,0.604388,-0.582913
4.1586,0.016757,0.000000,0.000000,0.001831,0.4260,0.0000,0.9836,-0.011289,0.011289,-0.000013,0.001041,-0.000631,1.7577,0.4324,1.2423,-0.016874,0.013806,0.000000,0.633534,-0.616660,0.616660,-0.616660,0.604388,-0.582913
4.1754,0.016743,0.000000,0.000000,0.001823,0.4167,0.0000,0.9849,-0.010241,0.010241,0.000046,0.001022,-0.000617,1.8006,0.3936,1.1816,-0.015340,0.013806,0.000000,0.633534,-0.618194,0.616660,-0.616660,0.604388,-0.582913
4.1922,0.016789,0.000000,0.000000,0.001814,0.4073,0.0000,0.9861,-0.009180,0.009180,0.000046,0.001022,-0.000617,1.8006,0.3936,1.1816,-0.015340,0.013806,0.000000,0.633534,-0.618194,0.616660,-0.616660,0.604388,-0.582913
4.2089,0.016740,0.000000,0.000000,0.001805,0.3979,0.0000,0.9873,-0.008113,0.008113,0.000040,0.001024,-0.000619,1.7961,0.3976,1.1880,-0.015340,0.013806,0.000000,0.633534,-0.618194,0.616660,-0.616660,0.604388,-0.582913
4.2257,0.016758,0.000000,0.000000,0.001796,0.3883,0.0000,0.9885,-0.007036,0.007036,0.000040,0.001024,-0.000619,1.7961,0.3976,1.1880,-0.013806,0.010738,0.000000,0.633534,-0.618194,0.616660,-0.616660,0.604388,-0.582913
4.2424,0.016744,0.000000,0.000000,0.001786,0.3787,0.0000,0.9895,-0.005954,0.005954,0.000040,0.001024,-0.000619,1.7961,0.3976,1.1880,-0.013806,0.009204,0.000000,0.633534,-0.618194,0.616660,-0.616660,0.604388,-0.582913
4.2591,0.016751,0.000000,0.000000,0.001777,0.3690,0.0000,0.9906,-0.004865,0.004865,0.000040,0.001024,-0.000619,1.7961,0.3976,1.1880,-0.013806,0.009204,0.000000,0.633534,-0.618194,0.616660,-0.616660,0.604388,-0.582913
4.2759,0.016745,0.000000,0.000000,0.001767,0.3593,0.0000,0.9916,-0.003772,0.003772,0.000040,0.001024,-0.000619,1.7961,0.3976,1.1880,-0.013806,0.007670,0.000000,0.633534,-0.618194,0.616660,-0.616660,0.604388,-0.582913
4.2927,0.016765,0.000000,0.000000,0.001757,0.3495,0.0000,0.9925,-0.002674,0.002674,0.000040,0.001024,-0.000619,1.7961,0.3976,1.1880,-0.013806,0.007670,0.000000,0.633534,-0.618194,0.616660,-0.616660,0.604388,-0.582913
4.3094,0.016742,0.000000,0.000000,0.001747,0.3396,0.0000,0.9934,-0.001574,0.001574,0.000040,0.001024,-0.000619,1.7961,0.3976,1.1880,-0.013806,0.007670,0.000000,0.633534,-0.618194,0.616660,-0.616660,0.604388,-0.582913
4.3262,0.016751,0.000000,0.000000,0.001737,0.3297,0.0000,0.9942,-0.000473,0.000473,0.000040,0.001024,-0.000619,1.7961,0.3976,1.1880,-0.012272,0.007670,0.000000,0.633534,-0.618194,0.616660,-0.616660,0.604388,-0.582913
4.3429,0.016754,0.000000,0.000000,0.001726,0.3197,0.0000,0.9950,0.000630,-0.000630,0.000040,0.001024,-0.000619,1.7961,0.3976,1.1880,-0.007670,0.006136,0.000000,0.633534,-0.618194,0.616660,-0.616660,0.604388,-0.582913
4.3597,0.016771,0.000000,0.000000,0.001715,0.3096,0.0000,0.9957,0.001733,-0.001733,0.000040,0.001024,-0.000619,1.7961,0.3976,1.1880,-0.001534,0.006136,0.000000,0.633534,-0.618194,0.616660,-0.616660,0.604388,-0.582913
4.3764,0.016745,0.000000,0.000000,0.001704,0.2995,0.0000,0.9963,0.002832,-0.002832,0.000040,0.001024,-0.000619,1.7961,0.3976,1.1880,0.001534,0.003068,0.000000,0.633534,-0.618194,0.616660,-0.616660,0.604388,-0.582913
4.3932,0.016766,0.000000,0.000000,0.001693,0.2893,0.0000,0.9969,0.003930,-0.003930,0.000040,0.001024,-0.000619,1.7961,0.3976,1.1880,-0.001534,0.000000,0.000000,0.633534,-0.618194,0.616660,-0.616660,0.604388,-0.582913
4.4099,0.016743,0.000000,0.000000,0.001682,0.2791,0.0000,0.9975,0.005022,-0.005022,0.000040,0.001024,-0.000619,1.7961,0.3976,1.1880,-0.001534,0.000000,0.000000,0.633534,-0.618194,0.616660,-0.616660,0.604388,-0.582913
4.4267,0.016754,0.000000,0.000000,0.001670,0.2688,0.0000,0.9980,0.006111,-0.006111,-0.000013,0.001041,-0.000631,1.7577,0.4324,1.2423,-0.003068,-0.003068,0.000000,0.633534,-0.616660,0.616660,-0.616660,0.604388,-0.582913
4.4435,0.016853,0.000000,0.000000,0.001659,0.2584,0.0000,0.9984,0.007199,-0.007199,0.000046,0.001022,-0.000617,1.8006,0.3936,1.1816,0.000000,-0.003068,0.000000,0.633534,-0.618194,0.616660,-0.616660,0.604388,-0.582913
4.4602,0.016675,0.000000,0.000000,0.001647,0.2480,0.0000,0.9988,0.008269,-0.008269,0.000046,0.001022,-0.000617,1.8006,0.3936,1.1816,0.000000,-0.003068,0.000000,0.633534,-0.618194,0.616660,-0.616660,0.604388,-0.582913
4.4774,0.017200,0.000000,0.000000,0.001635,0.2373,0.0000,0.9991,0.009364,-0.009364,0.000046,0.001022,-0.000617,1.8006,0.3936,1.1816,0.000000,-0.003068,0.000000,0.633534,-0.618194,0.616660,-0.616660,0.604388,-0.582913
4.4942,0.016763,0.000000,0.000000,0.001622,0.2268,0.0000,0.9994,0.010422,-0.010422,0.000046,0.001022,-0.000617,1.8006,0.3936,1.1816,0.000000,-0.003068,0.000000,0.633534,-0.618194,0.616660,-0.616660,0.604388,-0.582913
4.5109,0.016752,0.000000,0.000000,0.001610,0.2163,0.0000,0.9996,0.011468,-0.011468,0.000040,0.001024,-0.000619,1.7961,0.3976,1.1880,0.003068,-0.004602,0.000000,0.633534,-0.618194,0.616660,-0.616660,0.604388,-0.582913
4.5277,0.016753,0.000000,0.000000,0.001597,0.2058,0.0000,0.9998,0.012503,-0.012503,0.000040,0.001024,-0.000619,1.7961,0.3976,1.1880,0.007670,-0.004602,0.000000,0.633534,-0.618194,0.616660,-0.616660,0.604388,-0.582913
4.5444,0.016749,0.000000,0.000000,0.001585,0.1952,0.0000,0.9999,0.013526,-0.013526,0.000040,0.001024,-0.000619,1.7961,0.3976,1.1880,0.007670,-0.006136,0.000000,0.633534,-0.618194,0.616660,-0.616660,0.604388,-0.582913
