t,loop_dt,cmd_x,cmd_y,cmd_z,cmd_roll,cmd_pitch,cmd_yaw,cmd_ant_l,cmd_ant_r,pres_x,pres_y,pres_z,pres_roll,pres_pitch,pres_yaw,pres_ant_l,pres_ant_r,pres_j0,pres_j1,pres_j2,pres_j3,pres_j4,pres_j5,pres_j6
0.0000,0.000001,0.000590,0.000505,-0.002097,0.9462,0.5033,0.1509,0.000000,0.000000,0.000590,0.000505,-0.002097,0.9462,0.5033,0.1509,0.000000,0.000000,0.000000,0.578311,-0.587515,0.582913,-0.587515,0.575243,-0.556835
0.0168,0.016756,0.000580,0.000497,-0.002062,0.9304,0.4949,0.1483,0.000000,0.000000,0.000596,0.000503,-0.002096,0.9507,0.4992,0.1447,-0.004602,0.000000,0.000000,0.578311,-0.587515,0.582913,-0.587515,0.575243,-0.556835
0.0339,0.017127,0.000570,0.000488,-0.002026,0.9142,0.4863,0.1457,0.000000,0.000000,0.000596,0.000503,-0.002096,0.9507,0.4992,0.1447,0.000000,0.000000,0.000000,0.578311,-0.587515,0.582913,-0.587515,0.575243,-0.556835
0.0506,0.016744,0.000560,0.000480,-0.001991,0.8983,0.4779,0.1431,0.000000,0.000000,0.000596,0.000503,-0.002096,0.9507,0.4992,0.1447,0.000000,0.000000,0.000000,0.578311,-0.587515,0.582913,-0.587515,0.575243,-0.556835
0.0674,0.016756,0.000550,0.000471,-0.001956,0.8824,0.4694,0.1405,0.000000,0.000000,0.000596,0.000503,-0.002096,0.9507,0.4992,0.1447,0.004602,0.000000,0.000000,0.578311,-0.587515,0.582913,-0.587515,0.575243,-0.556835
0.0841,0.016746,0.000541,0.000463,-0.001921,0.8666,0.4610,0.1379,0.000000,0.000000,0.000637,0.000465,-0.002108,0.9004,0.5156,0.0916,0.000000,0.000000,0.000000,0.576777,-0.587515,0.582913,-0.587515,0.575243,-0.556835
0.1010,0.016847,0.000531,0.000454,-0.001886,0.8506,0.4526,0.1353,0.000000,0.000000,0.000864,0.000571,-0.002296,0.8017,0.8362,0.3644,0.001534,0.000000,0.000000,0.569107,-0.581379,0.582913,-0.587515,0.575243,-0.547631
0.1177,0.016749,0.000521,0.000446,-0.001850,0.8348,0.4442,0.1327,0.000000,0.000000,0.000934,0.000582,-0.002278,0.9010,0.7849,0.3357,0.004602,0.000000,0.000000,0.569107,-0.582913,0.582913,-0.587515,0.575243,-0.546097
0.1345,0.016752,0.000511,0.000437,-0.001815,0.8189,0.4358,0.1301,0.000000,0.000000,0.000874,0.000597,-0.002292,0.8517,0.8255,0.3925,-0.003068,0.000000,0.000000,0.569107,-0.581379,0.582913,-0.587515,0.575243,-0.546097
0.1514,0.016923,0.000501,0.000429,-0.001780,0.8029,0.4273,0.1275,0.000000,0.000000,0.000874,0.000597,-0.002292,0.8517,0.8255,0.3925,-0.003068,0.000000,0.000000,0.569107,-0.581379,0.582913,-0.587515,0.575243,-0.546097
0.1682,0.016754,0.000491,0.000420,-0.001745,0.7871,0.4188,0.1250,0.000000,0.000000,0.001015,0.000579,-0.002304,0.8960,0.8190,0.3325,-0.003068,0.000000,0.000000,0.567573,-0.582913,0.582913,-0.587515,0.575243,-0.544563
0.1849,0.016746,0.000481,0.000412,-0.001710,0.7712,0.4104,0.1224,0.000000,0.000000,0.000919,0.000581,-0.002277,0.8911,0.7867,0.3391,0.003068,0.000000,0.000000,0.569107,-0.582913,0.582913,-0.587515,0.575243,-0.546097
0.2017,0.016788,0.000471,0.000403,-0.001674,0.7553,0.4020,0.1198,0.000000,0.000000,0.000929,0.000581,-0.002280,0.8916,0.7901,0.3384,0.004602,0.000000,0.000000,0.569107,-0.582913,0.582913,-0.587515,0.575243,-0.546097
0.2184,0.016750,0.000461,0.000395,-0.001639,0.7395,0.3936,0.1172,0.000000,0.000000,0.000927,0.000581,-0.002280,0.8915,0.7896,0.3385,-0.001534,0.000000,0.000000,0.569107,-0.582913,0.582913,-0.587515,0.575243,-0.546097
0.2352,0.016768,0.000451,0.000386,-0.001604,0.7236,0.3851,0.1147,0.000000,0.000000,0.000874,0.000597,-0.002292,0.8527,0.8250,0.3922,-0.003068,0.000000,0.000000,0.569107,-0.581379,0.582913,-0.587515,0.575243,-0.546097
0.2520,0.016744,0.000442,0.000378,-0.001569,0.7077,0.3767,0.1121,0.000000,0.000000,0.000874,0.000597,-0.002292,0.8527,0.8250,0.3922,-0.003068,0.000000,0.000000,0.569107,-0.581379,0.582913,-0.587515,0.575243,-0.546097
0.2687,0.016757,0.000432,0.000370,-0.001534,0.6919,0.3683,0.1095,0.000000,0.000000,0.000933,0.000580,-0.002279,0.8956,0.7861,0.3329,0.003068,0.000000,0.000000,0.569107,-0.582913,0.582913,-0.587515,0.575243,-0.546097
0.2855,0.016746,0.000422,0.000361,-0.001499,0.6760,0.3599,0.1070,0.000000,0.000000,0.000927,0.000581,-0.002280,0.8911,0.7902,0.3390,0.003068,0.000000,0.000000,0.569107,-0.582913,0.582913,-0.587515,0.575243,-0.546097
0.3029,0.017458,0.000411,0.000352,-0.001462,0.6595,0.3511,0.1043,0.000000,0.000000,0.000927,0.000581,-0.002280,0.8911,0.7902,0.3390,-0.004602,0.000000,0.000000,0.569107,-0.582913,0.582913,-0.587515,0.575243,-0.546097
0.3197,0.016799,0.000402,0.000344,-0.001427,0.6436,0.3427,0.1018,0.000000,0.000000,0.000927,0.000581,-0.002280,0.8911,0.7902,0.3390,-0.004602,0.000000,0.000000,0.569107,-0.582913,0.582913,-0.587515,0.575243,-0.546097
0.3365,0.016786,0.000392,0.000335,-0.001392,0.6277,0.3342,0.0992,0.000000,0.000000,0.000927,0.000581,-0.002280,0.8911,0.7902,0.3390,-0.004602,0.000000,0.000000,0.569107,-0.582913,0.582913,-0.587515,0.575243,-0.546097
0.3545,0.017984,0.000381,0.000326,-0.001354,0.6107,0.3252,0.0965,0.000000,0.000000,0.000927,0.000581,-0.002280,0.8911,0.7902,0.3390,-0.004602,0.000000,0.000000,0.569107,-0.582913,0.582913,-0.587515,0.575243,-0.546097
0.3712,0.016756,0.000371,0.000318,-0.001319,0.5948,0.3168,0.0939,0.000000,0.000000,0.000927,0.000581,-0.002280,0.8911,0.7902,0.3390,-0.004602,0.000000,0.000000,0.569107,-0.582913,0.582913,-0.587515,0.575243,-0.546097
0.3880,0.016746,0.000361,0.000309,-0.001284,0.5790,0.3083,0.0914,0.000000,0.000000,0.000927,0.000581,-0.002280,0.8911,0.7902,0.3390,0.004602,0.000000,0.000000,0.569107,-0.582913,0.582913,-0.587515,0.575243,-0.546097
0.4047,0.016755,0.000351,0.000301,-0.001248,0.5631,0.2999,0.0888,0.000000,0.000000,0.000927,0.000581,-0.002280,0.8911,0.7902,0.3390,-0.004602,0.000000,0.000000,0.569107,-0.582913,0.582913,-0.587515,0.575243,-0.546097
0.4215,0.016747,0.000341,0.000292,-0.001213,0.5473,0.2915,0.0863,0.000000,0.000000,0.000927,0.000581,-0.002280,0.8911,0.7902,0.3390,-0.003068,0.000000,0.000000,0.569107,-0.582913,0.582913,-0.587515,0.575243,-0.546097
0.4382,0.016746,0.000332,0.000284,-0.001178,0.5314,0.2831,0.0838,0.000000,0.000000,0.000927,0.000581,-0.002280,0.8911,0.7902,0.3390,0.004602,0.000000,0.000000,0.569107,-0.582913,0.582913,-0.587515,0.575243,-0.546097
0.4550,0.016755,0.000322,0.000275,-0.001143,0.5156,0.2746,0.0812,0.000000,0.000000,0.000927,0.000581,-0.002280,0.8911,0.7902,0.3390,0.003068,0.000000,0.000000,0.569107,-0.582913,0.582913,-0.587515,0.575243,-0.546097
0.4719,0.016931,0.000312,0.000267,-0.001108,0.4996,0.2661,0.0787,0.000000,0.000000,0.000927,0.000581,-0.002280,0.8911,0.7902,0.3390,-0.003068,0.000000,0.000000,0.569107,-0.582913,0.582913,-0.587515,0.575243,-0.546097
0.4887,0.016743,0.000302,0.000258,-0.001072,0.4837,0.2577,0.0761,0.000000,0.000000,0.000927,0.000581,-0.002280,0.8911,0.7902,0.3390,-0.003068,0.000000,0.000000,0.569107,-0.582913,0.582913,-0.587515,0.575243,-0.546097
0.5054,0.016754,0.000292,0.000250,-0.001037,0.4679,0.2493,0.0736,0.000000,0.000000,0.000874,0.000597,-0.002292,0.8528,0.8250,0.3921,-0.003068,0.000000,0.000000,0.569107,-0.581379,0.582913,-0.587515,0.575243,-0.546097
0.5222,0.016742,0.000282,0.000241,-0.001002,0.4520,0.2408,0.0711,0.000000,0.000000,0.000933,0.000580,-0.002279,0.8956,0.7861,0.3329,0.004602,0.000000,0.000000,0.569107,-0.582913,0.582913,-0.587515,0.575243,-0.546097
0.5389,0.016764,0.000272,0.000233,-0.000967,0.4362,0.2324,0.0686,0.000000,0.000000,0.000927,0.000581,-0.002280,0.8911,0.7902,0.3390,0.003068,0.000000,0.000000,0.569107,-0.582913,0.582913,-0.587515,0.575243,-0.546097
0.5560,0.017071,0.000262,0.000224,-0.000931,0.4200,0.2238,0.0660,0.000000,0.000000,0.000927,0.000581,-0.002280,0.8911,0.7902,0.3390,-0.004602,0.000000,0.000000,0.569107,-0.582913,0.582913,-0.587515,0.575243,-0.546097
0.5732,0.017183,0.000252,0.000216,-0.000895,0.4037,0.2151,0.0634,0.000000,0.000000,0.000927,0.000581,-0.002280,0.8911,0.7902,0.3390,0.004602,0.000000,0.000000,0.569107,-0.582913,0.582913,-0.587515,0.575243,-0.546097
0.5899,0.016742,0.000242,0.000207,-0.000860,0.3879,0.2067,0.0609,0.000000,0.000000,0.000927,0.000581,-0.002280,0.8911,0.7902,0.3390,0.004602,0.000000,0.000000,0.569107,-0.582913,0.582913,-0.587515,0.575243,-0.546097
0.6067,0.016755,0.000232,0.000199,-0.000825,0.3721,0.1983,0.0584,0.000000,0.000000,0.000927,0.000581,-0.002280,0.8911,0.7902,0.3390,0.004602,0.000000,0.000000,0.569107,-0.582913,0.582913,-0.587515,0.575243,-0.546097
0.6234,0.016742,0.000222,0.000190,-0.000790,0.3562,0.1898,0.0559,0.000000,0.000000,0.000927,0.000581,-0.002280,0.8911,0.7902,0.3390,-0.004602,0.000000,0.000000,0.569107,-0.582913,0.582913,-0.587515,0.575243,-0.546097
0.6402,0.016763,0.000212,0.000182,-0.000755,0.3404,0.1814,0.0534,0.000000,0.000000,0.000968,0.000620,-0.002293,0.9419,0.8069,0.3917,-0.001534,0.000000,0.000000,0.569107,-0.582913,0.582913,-0.587515,0.575243,-0.544563
0.6569,0.016750,0.000203,0.000173,-0.000720,0.3245,0.1730,0.0508,0.000000,0.000000,0.000924,0.000577,-0.002278,0.8863,0.7880,0.3329,0.004602,0.000000,0.000000,0.569107,-0.582913,0.582913,-0.587515,0.575243,-0.546097
0.6737,0.016768,0.000193,0.000165,-0.000684,0.3086,0.1645,0.0483,0.000000,0.000000,0.000924,0.000577,-0.002278,0.8863,0.7880,0.3329,0.003068,0.000000,0.000000,0.569107,-0.582913,0.582913,-0.587515,0.575243,-0.546097
0.6904,0.016740,0.000183,0.000156,-0.000649,0.2928,0.1561,0.0458,0.000000,0.000000,0.000928,0.000582,-0.002280,0.8921,0.7900,0.3390,0.003068,0.000000,0.000000,0.569107,-0.582913,0.582913,-0.587515,0.575243,-0.546097
0.7072,0.016747,0.000173,0.000148,-0.000614,0.2770,0.1477,0.0433,0.000000,0.000000,0.000928,0.000582,-0.002280,0.8921,0.7900,0.3390,-0.004602,0.000000,0.000000,0.569107,-0.582913,0.582913,-0.587515,0.575243,-0.546097
0.7239,0.016740,0.000163,0.000140,-0.000579,0.2611,0.1392,0.0408,0.000000,0.000000,0.000874,0.000597,-0.002292,0.8526,0.8250,0.3921,-0.001534,0.000000,0.000000,0.569107,-0.581379,0.582913,-0.587515,0.575243,-0.546097
0.7407,0.016752,0.000153,0.000131,-0.000544,0.2453,0.1308,0.0383,0.000000,0.000000,0.000933,0.000580,-0.002279,0.8956,0.7861,0.3329,0.004602,0.000000,0.000000,0.569107,-0.582913,0.582913,-0.587515,0.575243,-0.546097
0.7574,0.016739,0.000143,0.000123,-0.000509,0.2294,0.1223,0.0359,0.000000,0.000000,0.000927,0.000581,-0.002280,0.8911,0.7902,0.3390,0.003068,0.000000,0.000000,0.569107,-0.582913,0.582913,-0.587515,0.575243,-0.546097
0.7742,0.016752,0.000133,0.000114,-0.000474,0.2136,0.1139,0.0334,0.000000,0.000000,0.000927,0.000581,-0.002280,0.8911,0.7902,0.3390,0.003068,0.000000,0.000000,0.569107,-0.582913,0.582913,-0.587515,0.575243,-0.546097
0.7909,0.016739,0.000123,0.000106,-0.000439,0.1978,0.1055,0.0309,0.000000,0.000000,0.000927,0.000581,-0.002280,0.8911,0.7902,0.3390,-0.004602,0.000000,0.000000,0.569107,-0.582913,0.582913,-0.587515,0.575243,-0.546097
0.8076,0.016747,0.000114,0.000097,-0.000403,0.1819,0.0970,0.0284,0.000000,0.000000,0.000887,0.000620,-0.002267,0.9416,0.7739,0.3921,-0.001534,0.000000,0.000000,0.570641,-0.582913,0.582913,-0.587515,0.575243,-0.546097
0.8244,0.016741,0.000104,0.000089,-0.000368,0.1661,0.0886,0.0259,0.000000,0.000000,0.000891,0.000616,-0.002269,0.9363,0.7756,0.3865,0.004602,0.000000,0.000000,0.570641,-0.582913,0.582913,-0.587515,0.575243,-0.546097
0.8411,0.016750,0.000094,0.000080,-0.000333,0.1502,0.0801,0.0234,0.000000,0.000000,0.000891,0.000616,-0.002269,0.9363,0.7756,0.3865,0.001534,0.000000,0.000000,0.570641,-0.582913,0.582913,-0.587515,0.575243,-0.546097
0.8579,0.016738,0.000084,0.000072,-0.000298,0.1344,0.0717,0.0209,0.000000,0.000000,0.000932,0.000578,-0.002281,0.8869,0.7912,0.3335,-0.004602,0.000000,0.000000,0.569107,-0.582913,0.582913,-0.587515,0.575243,-0.546097
0.8746,0.016760,0.000074,0.000063,-0.000263,0.1186,0.0632,0.0185,0.000000,0.000000,0.000932,0.000578,-0.002281,0.8869,0.7912,0.3335,-0.004602,0.000000,0.000000,0.569107,-0.582913,0.582913,-0.587515,0.575243,-0.546097
0.8914,0.016737,0.000064,0.000055,-0.000228,0.1027,0.0548,0.0160,0.000000,0.000000,0.000886,0.000620,-0.002267,0.9420,0.7738,0.3926,-0.001534,0.000000,0.000000,0.570641,-0.582913,0.582913,-0.587515,0.575243,-0.546097
0.9081,0.016757,0.000054,0.000046,-0.000193,0.0869,0.0463,0.0135,0.000000,0.000000,0.000891,0.000616,-0.002269,0.9363,0.7757,0.3865,0.004602,0.000000,0.000000,0.570641,-0.582913,0.582913,-0.587515,0.575243,-0.546097
0.9249,0.016741,0.000044,0.000038,-0.000158,0.0710,0.0379,0.0111,0.000000,0.000000,0.000891,0.000616,-0.002269,0.9363,0.7757,0.3865,0.001534,0.000000,0.000000,0.570641,-0.582913,0.582913,-0.587515,0.575243,-0.546097
0.9416,0.016752,0.000034,0.000029,-0.000122,0.0552,0.0295,0.0086,0.000000,0.000000,0.000891,0.000616,-0.002269,0.9363,0.7757,0.3865,-0.004602,0.000000,0.000000,0.570641,-0.582913,0.582913,-0.587515,0.575243,-0.546097
0.9584,0.016747,0.000025,0.000021,-0.000087,0.0394,0.0210,0.0061,0.000000,0.000000,0.000891,0.000616,-0.002269,0.9363,0.7757,0.3865,0.000000,0.000000,0.000000,0.570641,-0.582913,0.582913,-0.587515,0.575243,-0.546097
0.9751,0.016759,0.000015,0.000013,-0.000052,0.0235,0.0125,0.0037,0.000000,0.000000,0.000891,0.000616,-0.002269,0.9363,0.7757,0.3865,0.000000,0.000000,0.000000,0.570641,-0.582913,0.582913,-0.587515,0.575243,-0.546097
0.9919,0.016739,0.000005,0.000004,-0.000017,0.0077,0.0041,0.0012,0.000000,0.000000,0.000891,0.000616,-0.002269,0.9363,0.7757,0.3865,0.004602,0.000000,0.000000,0.570641,-0.582913,0.582913,-0.587515,0.575243,-0.546097
1.0086,0.016751,0.000000,0.000000,0.000027,0.0000,0.0000,0.0000,0.000945,-0.000945,0.000891,0.000616,-0.002269,0.9363,0.7757,0.3865,0.000000,0.000000,0.000000,0.570641,-0.582913,0.582913,-0.587515,0.575243,-0.546097
1.0254,0.016740,0.000000,0.000000,0.000080,0.0000,0.0000,0.0000,0.002778,-0.002778,0.000891,0.000616,-0.002269,0.9363,0.7757,0.3865,-0.004602,0.000000,0.000000,0.570641,-0.582913,0.582913,-0.587515,0.575243,-0.546097
1.0421,0.016757,0.000000,0.000000,0.000132,0.0000,0.0000,0.0000,0.004605,-0.004605,0.000891,0.000616,-0.002269,0.9363,0.7757,0.3865,0.000000,0.000000,0.000000,0.570641,-0.582913,0.582913,-0.587515,0.575243,-0.546097
1.0590,0.016917,0.000000,0.000000,0.000185,0.0000,0.0000,0.0000,0.006437,-0.006437,0.000891,0.000616,-0.002269,0.9363,0.7757,0.3865,0.004602,-0.001534,0.000000,0.570641,-0.582913,0.582913,-0.587515,0.575243,-0.546097
1.0758,0.016759,0.000000,0.000000,0.000238,0.0000,0.0000,0.0000,0.008233,-0.008233,0.000891,0.000616,-0.002269,0.9363,0.7757,0.3865,0.004602,-0.001534,0.000000,0.570641,-0.582913,0.582913,-0.587515,0.575243,-0.546097
1.0925,0.016746,0.000000,0.000000,0.000291,0.0000,0.0000,0.0000,0.010006,-0.010006,0.000891,0.000616,-0.002269,0.9363,0.7757,0.3865,0.000000,-0.001534,0.000000,0.570641,-0.582913,0.582913,-0.587515,0.575243,-0.546097
1.1093,0.016758,0.000000,0.000000,0.000343,0.0000,0.0000,0.0000,0.011752,-0.011752,0.000810,0.000539,-0.002242,0.8363,0.7411,0.2804,0.000000,-0.003068,0.000000,0.570641,-0.582913,0.582913,-0.587515,0.575243,-0.549165
1.1260,0.016747,0.000000,0.000000,0.000396,0.0000,0.0000,0.0000,0.013464,-0.013464,0.000779,0.000509,-0.002232,0.7966,0.7276,0.2381,0.004602,-0.004602,0.000000,0.570641,-0.582913,0.582913,-0.587515,0.575243,-0.550699
1.1428,0.016750,0.000000,0.000000,0.000448,0.0000,0.0000,0.0000,0.015139,-0.015139,0.000741,0.000551,-0.002220,0.8507,0.7131,0.2962,0.010738,-0.007670,0.000000,0.572175,-0.582913,0.582913,-0.587515,0.575243,-0.550699
1.1596,0.016759,0.000000,0.000000,0.000500,0.0000,0.0000,0.0000,0.016774,-0.016774,0.000741,0.000551,-0.002220,0.8507,0.7131,0.2962,0.010738,-0.012272,0.000000,0.572175,-0.584447,0.582913,-0.587515,0.575243,-0.553767
1.1763,0.016752,0.000000,0.000000,0.000553,0.0000,0.0000,0.0000,0.018361,-0.018361,0.000718,0.000453,-0.002183,0.7836,0.6453,0.1295,0.010738,-0.012272,0.000000,0.572175,-0.584447,0.582913,-0.587515,0.575243,-0.553767
1.1931,0.016744,0.000000,0.000000,0.000605,0.0000,0.0000,0.0000,0.019896,-0.019896,0.000640,0.000386,-0.002161,0.6905,0.6185,0.0399,0.007670,-0.012272,0.000000,0.572175,-0.584447,0.582913,-0.587515,0.575243,-0.556835
1.2098,0.016749,0.000000,0.000000,0.000657,0.0000,0.0000,0.0000,0.021377,-0.021377,0.000474,0.000371,-0.002100,0.6105,0.6056,-0.1112,0.010738,-0.012272,0.000000,0.573709,-0.584447,0.582913,-0.589049,0.575243,-0.561437
1.2266,0.016751,0.000000,0.000000,0.000709,0.0000,0.0000,0.0000,0.022799,-0.022799,0.000356,0.000467,-0.002056,0.6792,0.6087,-0.0952,0.018408,-0.013806,0.000000,0.576777,-0.584447,0.582913,-0.590583,0.575243,-0.562971
1.2433,0.016744,0.000000,0.000000,0.000761,0.0000,0.0000,0.0000,0.024157,-0.024157,0.000192,0.000512,-0.001999,0.6826,0.5932,-0.1502,0.018408,-0.016874,0.000000,0.579845,-0.584447,0.582913,-0.592117,0.575243,-0.566039
1.2601,0.016756,0.000000,0.000000,0.000813,0.0000,0.0000,0.0000,0.025450,-0.025450,0.000046,0.000508,-0.001955,0.6825,0.5288,-0.1441,0.016874,-0.019942,0.000000,0.582913,-0.584447,0.582913,-0.592117,0.575243,-0.569107
1.2768,0.016742,0.000000,0.000000,0.000865,0.0000,0.0000,0.0000,0.026670,-0.026670,0.000046,0.000508,-0.001955,0.6825,0.5288,-0.1441,0.016874,-0.019942,0.000000,0.582913,-0.584447,0.582913,-0.592117,0.575243,-0.569107
1.2935,0.016752,0.000000,0.000000,0.000917,0.0000,0.0000,0.0000,0.027818,-0.027818,-0.000102,0.000508,-0.001910,0.6827,0.4696,-0.1445,0.016874,-0.019942,0.000000,0.585981,-0.584447,0.582913,-0.592117,0.575243,-0.572175
1.3103,0.016752,0.000000,0.000000,0.000969,0.0000,0.0000,0.0000,0.028889,-0.028889,-0.000251,0.000586,-0.001866,0.7820,0.4105,-0.0363,0.019942,-0.021476,0.000000,0.590583,-0.584447,0.582913,-0.592117,0.575243,-0.573709
1.3272,0.016855,0.000000,0.000000,0.001021,0.0000,0.0000,0.0000,0.029885,-0.029885,-0.000399,0.000578,-0.001821,0.7716,0.3507,-0.0472,0.026078,-0.024544,0.000000,0.593651,-0.584447,0.582913,-0.592117,0.575243,-0.576777
1.3439,0.016749,0.000000,0.000000,0.001072,0.0000,0.0000,0.0000,0.030793,-0.030793,-0.000466,0.000579,-0.001802,0.7727,0.3239,-0.0459,0.030680,-0.029146,0.000000,0.595185,-0.584447,0.582913,-0.592117,0.575243,-0.578311
1.3607,0.016758,0.000000,0.000000,0.001123,0.0000,0.0000,0.0000,0.031615,-0.031615,-0.000554,0.000635,-0.001768,0.7836,0.3445,-0.0994,0.029146,-0.030680,0.000000,0.596719,-0.584447,0.582913,-0.593651,0.575243,-0.579845
1.3775,0.016802,0.000000,0.000000,0.001175,0.0000,0.0000,0.0000,0.032352,-0.032352,-0.000554,0.000635,-0.001768,0.7836,0.3445,-0.0994,0.029146,-0.030680,0.000000,0.596719,-0.584447,0.582913,-0.593651,0.575243,-0.579845
1.3942,0.016769,0.000000,0.000000,0.001226,0.0000,0.0000,0.0000,0.032997,-0.032997,-0.000554,0.000635,-0.001768,0.7836,0.3445,-0.0994,0.029146,-0.030680,0.000000,0.596719,-0.584447,0.582913,-0.593651,0.575243,-0.579845
1.4110,0.016746,0.000000,0.000000,0.001277,0.0000,0.0000,0.0000,0.033550,-0.033550,-0.000554,0.000635,-0.001768,0.7836,0.3445,-0.0994,0.029146,-0.030680,0.000000,0.596719,-0.584447,0.582913,-0.593651,0.575243,-0.579845
1.4277,0.016706,0.000000,0.000000,0.001327,0.0000,0.0000,0.0000,0.034010,-0.034010,-0.000629,0.000992,-0.001565,0.7683,0.3093,-0.1485,0.033748,-0.032214,0.000000,0.602854,-0.585981,0.582913,-0.601320,0.581379,-0.584447
1.4444,0.016746,0.000000,0.000000,0.001378,0.0000,0.0000,0.0000,0.034376,-0.034376,-0.000567,0.001003,-0.001537,0.6526,0.2782,-0.1444,0.030680,-0.030680,0.000000,0.602854,-0.585981,0.582913,-0.602854,0.584447,-0.585981
1.4612,0.016744,0.000000,0.000000,0.001429,0.0000,0.0000,0.0000,0.034647,-0.034647,-0.000383,0.001144,-0.001466,0.6070,0.2454,-0.1460,0.026078,-0.030680,0.000000,0.602854,-0.587515,0.582913,-0.605922,0.589049,-0.585981
1.4781,0.016888,0.000000,0.000000,0.001479,0.0000,0.0000,0.0000,0.034824,-0.034824,-0.000253,0.001200,-0.001424,0.5826,0.1962,-0.1466,0.030680,-0.032214,0.000000,0.602854,-0.589049,0.582913,-0.607456,0.592117,-0.585981
1.4948,0.016744,0.000000,0.000000,0.001530,0.0000,0.0000,0.0000,0.034902,-0.034902,-0.000253,0.001200,-0.001424,0.5826,0.1962,-0.1466,0.030680,-0.032214,0.000000,0.602854,-0.589049,0.582913,-0.607456,0.592117,-0.585981
1.5116,0.016755,0.000000,0.000000,0.001580,0.0000,0.0000,0.0000,0.034884,-0.034884,-0.000185,0.001337,-0.001381,0.5281,0.2343,-0.1472,0.038350,-0.033748,0.000000,0.602854,-0.589049,0.582913,-0.610524,0.595185,-0.585981
1.5283,0.016746,0.000000,0.000000,0.001629,0.0000,0.0000,0.0000,0.034769,-0.034769,-0.000056,0.001449,-0.001326,0.5154,0.2280,-0.2019,0.035282,-0.033748,0.000000,0.602854,-0.590583,0.582913,-0.613592,0.598253,-0.585981
1.5451,0.016748,0.000000,0.000000,0.001679,0.0000,0.0000,0.0000,0.034558,-0.034558,0.000080,0.001509,-0.001284,0.4873,0.1758,-0.1966,0.027612,-0.033748,0.000000,0.602854,-0.592117,0.582913,-0.615126,0.601320,-0.585981
1.5618,0.016740,0.000000,0.000000,0.001729,0.0000,0.0000,0.0000,0.034251,-0.034251,0.000122,0.001505,-0.001214,0.4901,0.3156,-0.1980,0.030680,-0.033748,0.000000,0.602854,-0.593651,0.585981,-0.618194,0.602854,-0.585981
1.5788,0.017048,0.000000,0.000000,0.001779,0.0000,0.0000,0.0000,0.033841,-0.033841,0.000120,0.001523,-0.001160,0.4512,0.4706,-0.1446,0.038350,-0.033748,0.000000,0.602854,-0.593651,0.589049,-0.621262,0.604388,-0.585981
1.5956,0.016744,0.000000,0.000000,0.001828,0.0000,0.0000,0.0000,0.033345,-0.033345,0.000120,0.001523,-0.001160,0.4512,0.4706,-0.1446,0.038350,-0.033748,0.000000,0.602854,-0.593651,0.589049,-0.621262,0.604388,-0.585981
1.6123,0.016751,0.000000,0.000000,0.001877,0.0000,0.0000,0.0000,0.032755,-0.032755,0.000244,0.001341,-0.001089,0.4619,0.5037,-0.0418,0.035282,-0.033748,0.000000,0.602854,-0.596719,0.593651,-0.621262,0.605922,-0.585981
1.6291,0.016751,0.000000,0.000000,0.001925,0.0000,0.0000,0.0000,0.032075,-0.032075,0.000246,0.001290,-0.001046,0.4891,0.6176,-0.0526,0.027612,-0.033748,0.000000,0.602854,-0.598253,0.596719,-0.622796,0.605922,-0.585981
1.6458,0.016750,0.000000,0.000000,0.001974,0.0000,0.0000,0.0000,0.031307,-0.031307,0.000207,0.001209,-0.000976,0.5540,0.7587,0.0574,0.030680,-0.033748,0.000000,0.604388,-0.599786,0.601320,-0.624330,0.605922,-0.585981
1.6626,0.016750,0.000000,0.000000,0.002022,0.0000,0.0000,0.0000,0.030451,-0.030451,0.000226,0.001116,-0.000896,0.6533,0.8613,0.1012,0.035282,-0.033748,0.000000,0.605922,-0.602854,0.605922,-0.625864,0.605922,-0.585981
1.6795,0.016924,0.000000,0.000000,0.002070,0.0000,0.0000,0.0000,0.029501,-0.029501,0.000197,0.001175,-0.000807,0.8195,0.9518,0.0978,0.032214,-0.030680,0.000000,0.608990,-0.605922,0.608990,-0.628932,0.605922,-0.585981
1.6963,0.016754,0.000000,0.000000,0.002118,0.0000,0.0000,0.0000,0.028479,-0.028479,0.000197,0.001175,-0.000807,0.8195,0.9518,0.0978,0.032214,-0.030680,0.000000,0.608990,-0.605922,0.608990,-0.628932,0.605922,-0.585981
1.7130,0.016753,0.000000,0.000000,0.002166,0.0000,0.0000,0.0000,0.027378,-0.027378,0.000145,0.001011,-0.000716,0.8973,0.9768,0.2089,0.024544,-0.030680,0.000000,0.612058,-0.608990,0.613592,-0.628932,0.605922,-0.587515
1.7298,0.016746,0.000000,0.000000,0.002213,0.0000,0.0000,0.0000,0.026201,-0.026201,0.000109,0.001068,-0.000641,0.9382,0.9582,0.2522,0.027612,-0.030680,0.000000,0.615126,-0.610524,0.615126,-0.630466,0.607456,-0.589049
1.7465,0.016746,0.000000,0.000000,0.002260,0.0000,0.0000,0.0000,0.024952,-0.024952,0.000125,0.001087,-0.000551,1.0215,0.9092,0.2483,0.032214,-0.030680,0.000000,0.618194,-0.613592,0.616660,-0.632000,0.608990,-0.590583
1.7633,0.016748,0.000000,0.000000,0.002307,0.0000,0.0000,0.0000,0.023633,-0.023633,0.000025,0.001045,-0.000437,0.9624,0.7650,0.3580,0.029146,-0.029146,0.000000,0.622796,-0.615126,0.618194,-0.632000,0.612058,-0.595185
1.7802,0.016908,0.000000,0.000000,0.002354,0.0000,0.0000,0.0000,0.022236,-0.022236,0.000025,0.001045,-0.000437,0.9624,0.7650,0.3580,0.021476,-0.027612,0.000000,0.625864,-0.616660,0.621262,-0.632000,0.613592,-0.598253
1.7969,0.016751,0.000000,0.000000,0.002400,0.0000,0.0000,0.0000,0.020790,-0.020790,-0.000047,0.000939,-0.000350,0.9466,0.7477,0.4568,0.021476,-0.027612,0.000000,0.625864,-0.616660,0.621262,-0.632000,0.613592,-0.598253
1.8137,0.016748,0.000000,0.000000,0.002446,0.0000,0.0000,0.0000,0.019287,-0.019287,-0.000135,0.000928,-0.000248,0.8599,0.7650,0.2829,0.024544,-0.024544,0.000000,0.627398,-0.618194,0.622796,-0.635068,0.615126,-0.602854
1.8304,0.016746,0.000000,0.000000,0.002492,0.0000,0.0000,0.0000,0.017730,-0.017730,-0.000238,0.001025,-0.000199,0.9281,0.6668,0.4657,0.027612,-0.024544,0.000000,0.632000,-0.618194,0.622796,-0.635068,0.616660,-0.604388
1.8472,0.016743,0.000000,0.000000,0.002538,0.0000,0.0000,0.0000,0.016125,-0.016125,-0.000310,0.001048,-0.000143,0.8437,0.6442,0.3918,0.024544,-0.021476,0.000000,0.633534,-0.618194,0.622796,-0.636602,0.618194,-0.607456
1.8639,0.016744,0.000000,0.000000,0.002583,0.0000,0.0000,0.0000,0.014474,-0.014474,-0.000359,0.001078,-0.000076,0.7745,0.5146,0.5087,0.015340,-0.016874,0.000000,0.636602,-0.618194,0.622796,-0.636602,0.621262,-0.610524
1.8813,0.017443,0.000000,0.000000,0.002629,0.0000,0.0000,0.0000,0.012713,-0.012713,-0.000438,0.001075,-0.000059,0.7815,0.4960,0.4969,0.012272,-0.016874,0.000000,0.638136,-0.618194,0.622796,-0.636602,0.621262,-0.612058
1.8981,0.016752,0.000000,0.000000,0.002674,0.0000,0.0000,0.0000,0.010985,-0.010985,-0.000438,0.001075,-0.000059,0.7815,0.4960,0.4969,0.012272,-0.016874,0.000000,0.638136,-0.618194,0.622796,-0.636602,0.621262,-0.612058
1.9148,0.016743,0.000000,0.000000,0.002718,0.0000,0.0000,0.0000,0.009228,-0.009228,-0.000499,0.001052,-0.000012,0.6927,0.4149,0.4981,0.015340,-0.016874,0.000000,0.639670,-0.618194,0.622796,-0.636602,0.622796,-0.615126
1.9316,0.016747,0.000000,0.000000,0.002762,0.0000,0.0000,0.0000,0.007445,-0.007445,-0.000425,0.001126,0.000019,0.6735,0.3409,0.6620,0.016874,-0.013806,0.000000,0.641204,-0.618194,0.622796,-0.636602,0.625864,-0.615126
1.9483,0.016745,0.000000,0.000000,0.002806,0.0000,0.0000,0.0000,0.005641,-0.005641,-0.000419,0.001095,0.000040,0.5880,0.2978,0.6447,0.010738,-0.012272,0.000000,0.641204,-0.618194,0.622796,-0.636602,0.627398,-0.616660
1.9651,0.016753,0.000000,0.000000,0.002849,0.0000,0.0000,0.0000,0.003821,-0.003821,-0.000351,0.001026,0.000076,0.6251,0.2151,0.4822,0.003068,-0.010738,0.000000,0.641204,-0.621262,0.622796,-0.636602,0.627398,-0.618194
1.9818,0.016747,0.000000,0.000000,0.002893,0.0000,0.0000,0.0000,0.001992,-0.001992,-0.000399,0.000994,0.000085,0.5722,0.2067,0.4443,0.003068,-0.007670,0.000000,0.641204,-0.621262,0.622796,-0.636602,0.627398,-0.619728
1.9986,0.016749,0.000000,0.000000,0.002935,0.0000,0.0000,0.0000,0.000156,-0.000156,-0.000399,0.000994,0.000085,0.5722,0.2067,0.4443,0.003068,-0.007670,0.000000,0.641204,-0.621262,0.622796,-0.636602,0.627398,-0.619728
2.0153,0.016744,0.000000,0.000000,0.002978,0.0000,0.0000,0.0000,-0.001680,0.001680,-0.000421,0.001110,0.000107,0.5997,0.3081,0.3386,0.007670,-0.004602,0.000000,0.641204,-0.621262,0.622796,-0.639670,0.627398,-0.619728
2.0321,0.016749,0.000000,0.000000,0.003020,0.0000,0.0000,0.0000,-0.003511,0.003511,-0.000364,0.001114,0.000154,0.5588,0.2618,0.2397,0.004602,-0.004602,0.000000,0.641204,-0.622796,0.622796,-0.641204,0.628932,-0.621262
2.0488,0.016745,0.000000,0.000000,0.003062,0.0000,0.0000,0.0000,-0.005332,0.005332,-0.000342,0.001243,0.000221,0.5470,0.3310,0.0300,-0.003068,-0.004602,0.000000,0.641204,-0.624330,0.622796,-0.645806,0.630466,-0.622796
2.0656,0.016748,0.000000,0.000000,0.003103,0.0000,0.0000,0.0000,-0.007139,0.007139,-0.000192,0.001302,0.000262,0.5200,0.2711,0.0514,-0.003068,0.000000,0.000000,0.641204,-0.625864,0.622796,-0.647340,0.633534,-0.622796
2.0823,0.016744,0.000000,0.000000,0.003144,0.0000,0.0000,0.0000,-0.008926,0.008926,-0.000070,0.001392,0.000317,0.5822,0.2730,-0.1161,0.001534,0.004602,0.000000,0.641204,-0.628932,0.622796,-0.650408,0.635068,-0.622796
2.0991,0.016754,0.000000,0.000000,0.003185,0.0000,0.0000,0.0000,-0.010689,0.010689,-0.000070,0.001392,0.000317,0.5822,0.2730,-0.1161,0.001534,0.004602,0.000000,0.641204,-0.628932,0.622796,-0.650408,0.635068,-0.622796
2.1158,0.016742,0.000000,0.000000,0.003225,0.0000,0.0000,0.0000,-0.012421,0.012421,0.000014,0.001471,0.000346,0.5092,0.2552,-0.0442,0.001534,0.004602,0.000000,0.641204,-0.628932,0.622796,-0.651942,0.638136,-0.622796
2.1326,0.016750,0.000000,0.000000,0.003265,0.0000,0.0000,0.0000,-0.014120,0.014120,0.000034,0.001593,0.000377,0.4999,0.3229,-0.1073,-0.004602,0.004602,0.000000,0.641204,-0.628932,0.622796,-0.655010,0.639670,-0.622796
2.1493,0.016742,0.000000,0.000000,0.003305,0.0000,0.0000,0.0000,-0.015778,0.015778,0.000074,0.001653,0.000397,0.4730,0.3319,-0.1011,-0.010738,0.009204,0.000000,0.641204,-0.628932,0.622796,-0.656544,0.641204,-0.622796
2.1660,0.016746,0.000000,0.000000,0.003344,0.0000,0.0000,0.0000,-0.017394,0.017394,0.000069,0.001759,0.000429,0.4973,0.3323,-0.0469,-0.013806,0.012272,0.000000,0.642738,-0.628932,0.622796,-0.658078,0.642738,-0.622796
2.1828,0.016751,0.000000,0.000000,0.003383,0.0000,0.0000,0.0000,-0.018962,0.018962,-0.000029,0.001885,0.000459,0.6041,0.3526,0.0027,-0.012272,0.012272,0.000000,0.645806,-0.628932,0.622796,-0.659612,0.642738,-0.622796
2.1995,0.016751,0.000000,0.000000,0.003422,0.0000,0.0000,0.0000,-0.020477,0.020477,-0.000029,0.001885,0.000459,0.6041,0.3526,0.0027,-0.012272,0.012272,0.000000,0.645806,-0.628932,0.622796,-0.659612,0.642738,-0.622796
2.2163,0.016743,0.000000,0.000000,0.003460,0.0000,0.0000,0.0000,-0.021935,0.021935,-0.000088,0.002026,0.000489,0.6640,0.4350,-0.0578,-0.012272,0.013806,0.000000,0.647340,-0.628932,0.622796,-0.662680,0.642738,-0.622796
2.2330,0.016745,0.000000,0.000000,0.003498,0.0000,0.0000,0.0000,-0.023333,0.023333,-0.000181,0.002148,0.000519,0.7672,0.4470,0.0040,-0.016874,0.018408,0.000000,0.650408,-0.628932,0.622796,-0.664214,0.642738,-0.622796
2.2498,0.016749,0.000000,0.000000,0.003535,0.0000,0.0000,0.0000,-0.024666,0.024666,-0.000159,0.002272,0.000573,0.8648,0.3978,0.0530,-0.026078,0.018408,0.000000,0.653476,-0.630466,0.622796,-0.665748,0.644272,-0.622796
2.2665,0.016755,0.000000,0.000000,0.003572,0.0000,0.0000,0.0000,-0.025931,0.025931,-0.000137,0.002339,0.000613,0.9518,0.3060,0.1587,-0.024544,0.018408,0.000000,0.656544,-0.632000,0.622796,-0.665748,0.645806,-0.622796
2.2834,0.016814,0.000000,0.000000,0.003609,0.0000,0.0000,0.0000,-0.027129,0.027129,-0.000098,0.002228,0.000672,1.0460,0.3319,0.2033,-0.019942,0.021476,0.000000,0.658078,-0.635068,0.625864,-0.665748,0.645806,-0.622796
2.3001,0.016753,0.000000,0.000000,0.003645,0.0000,0.0000,0.0000,-0.028247,0.028247,-0.000098,0.002228,0.000672,1.0460,0.3319,0.2033,-0.019942,0.021476,0.000000,0.658078,-0.635068,0.625864,-0.665748,0.645806,-0.622796
2.3168,0.016744,0.000000,0.000000,0.003681,0.0000,0.0000,0.0000,-0.029286,0.029286,-0.000074,0.002226,0.000775,1.0738,0.4009,0.4750,-0.021476,0.024544,0.000000,0.661146,-0.636602,0.630466,-0.667282,0.648874,-0.622796
2.3336,0.016751,0.000000,0.000000,0.003716,0.0000,0.0000,0.0000,-0.030245,0.030245,-0.000117,0.002141,0.000838,1.1364,0.5452,0.5581,-0.029146,0.024544,0.000000,0.662680,-0.638136,0.635068,-0.668816,0.648874,-0.622796
2.3504,0.016755,0.000000,0.000000,0.003751,0.0000,0.0000,0.0000,-0.031120,0.031120,-0.000085,0.001990,0.000907,1.2222,0.5962,0.6613,-0.027612,0.023010,0.000000,0.664214,-0.641204,0.639670,-0.668816,0.648874,-0.622796
2.3671,0.016780,0.000000,0.000000,0.003786,0.0000,0.0000,0.0000,-0.031910,0.031910,0.000080,0.001862,0.001000,1.2674,0.6514,0.6510,-0.026078,0.026078,0.000000,0.664214,-0.645806,0.644272,-0.670350,0.650408,-0.622796
2.3840,0.016915,0.000000,0.000000,0.003820,0.0000,0.0000,0.0000,-0.032616,0.032616,0.000077,0.001772,0.001076,1.3660,0.7607,0.7092,-0.027612,0.029146,0.000000,0.665748,-0.648874,0.648874,-0.671884,0.650408,-0.622796
2.4008,0.016754,0.000000,0.000000,0.003854,0.0000,0.0000,0.0000,-0.033225,0.033225,0.000077,0.001772,0.001076,1.3660,0.7607,0.7092,-0.027612,0.029146,0.000000,0.665748,-0.648874,0.648874,-0.671884,0.650408,-0.622796
2.4176,0.016838,0.000000,0.000000,0.003888,0.0000,0.0000,0.0000,-0.033745,0.033745,0.000161,0.001750,0.001153,1.4313,0.7808,0.7593,-0.032214,0.032214,0.000000,0.667282,-0.651942,0.651942,-0.673418,0.651942,-0.622796
2.4345,0.016833,0.000000,0.000000,0.003921,0.0000,0.0000,0.0000,-0.034170,0.034170,0.000161,0.001750,0.001153,1.4313,0.7808,0.7593,-0.032214,0.032214,0.000000,0.667282,-0.651942,0.651942,-0.673418,0.651942,-0.622796
2.4512,0.016752,0.000000,0.000000,0.003953,0.0000,0.0000,0.0000,-0.034498,0.034498,0.000161,0.001750,0.001153,1.4313,0.7808,0.7593,-0.032214,0.032214,0.000000,0.667282,-0.651942,0.651942,-0.673418,0.651942,-0.622796
2.4680,0.016755,0.000000,0.000000,0.003985,0.0000,0.0000,0.0000,-0.034730,0.034730,0.000161,0.001750,0.001153,1.4313,0.7808,0.7593,-0.032214,0.032214,0.000000,0.667282,-0.651942,0.651942,-0.673418,0.651942,-0.622796
2.4847,0.016749,0.000000,0.000000,0.004017,0.0000,0.0000,0.0000,-0.034866,0.034866,0.000234,0.001758,0.001360,1.7110,0.9744,0.7579,-0.036816,0.032214,0.000000,0.671884,-0.659612,0.659612,-0.679553,0.653476,-0.622796
2.5015,0.016764,0.000000,0.000000,0.004048,0.0000,0.0000,0.0000,-0.034906,0.034906,0.000234,0.001758,0.001360,1.7110,0.9744,0.7579,-0.036816,0.032214,0.000000,0.673418,-0.659612,0.659612,-0.679553,0.653476,-0.624330
2.5182,0.016701,0.000000,0.000000,0.004078,0.0000,0.0000,0.0000,-0.034850,0.034850,0.000142,0.001757,0.001363,1.6811,0.9229,0.7587,-0.036816,0.032214,0.000000,0.673418,-0.659612,0.659612,-0.679553,0.653476,-0.624330
2.5354,0.017206,0.000000,0.000000,0.004109,0.0000,0.0000,0.0000,-0.034691,0.034691,0.000152,0.001758,0.001362,1.6842,0.9282,0.7586,-0.030680,0.032214,0.000000,0.673418,-0.659612,0.659612,-0.679553,0.653476,-0.624330
2.5521,0.016747,0.000000,0.000000,0.004139,0.0000,0.0000,0.0000,-0.034439,0.034439,0.000066,0.001758,0.001386,1.6833,0.8965,0.7593,-0.029146,0.032214,0.000000,0.674952,-0.659612,0.659612,-0.679553,0.653476,-0.625864
2.5689,0.016753,0.000000,0.000000,0.004168,0.0000,0.0000,0.0000,-0.034092,0.034092,0.000076,0.001790,0.001383,1.6076,0.9018,0.8697,-0.035282,0.032214,0.000000,0.674952,-0.658078,0.659612,-0.679553,0.655010,-0.625864
2.5856,0.016747,0.000000,0.000000,0.004197,0.0000,0.0000,0.0000,-0.033651,0.033651,0.000004,0.001845,0.001467,1.6248,0.8196,0.8033,-0.039884,0.033748,0.000000,0.678020,-0.659612,0.659612,-0.681087,0.656544,-0.628932
2.6024,0.016753,0.000000,0.000000,0.004226,0.0000,0.0000,0.0000,-0.033116,0.033116,-0.000115,0.001800,0.001495,1.5735,0.7795,0.7554,-0.038350,0.032214,0.000000,0.679553,-0.659612,0.659612,-0.681087,0.656544,-0.632000
2.6191,0.016743,0.000000,0.000000,0.004254,0.0000,0.0000,0.0000,-0.032490,0.032490,-0.000115,0.001800,0.001495,1.5735,0.7795,0.7554,-0.038350,0.032214,0.000000,0.679553,-0.659612,0.659612,-0.681087,0.656544,-0.632000
2.6359,0.016753,0.000000,0.000000,0.004281,0.0000,0.0000,0.0000,-0.031773,0.031773,-0.000272,0.001805,0.001540,1.5779,0.7213,0.7618,-0.033748,0.033748,0.000000,0.682621,-0.659612,0.659612,-0.681087,0.656544,-0.635068
2.6526,0.016744,0.000000,0.000000,0.004308,0.0000,0.0000,0.0000,-0.030969,0.030969,-0.000354,0.001863,0.001570,1.5881,0.7455,0.7065,-0.030680,0.032214,0.000000,0.684155,-0.659612,0.659612,-0.682621,0.656544,-0.636602
2.6694,0.016746,0.000000,0.000000,0.004334,0.0000,0.0000,0.0000,-0.030080,0.030080,-0.000430,0.001859,0.001627,1.5868,0.7084,0.5460,-0.030680,0.032214,0.000000,0.685689,-0.661146,0.659612,-0.684155,0.656544,-0.639670
2.6863,0.016897,0.000000,0.000000,0.004361,0.0000,0.0000,0.0000,-0.029098,0.029098,-0.000562,0.001877,0.001668,1.5495,0.7128,0.4522,-0.035282,0.030680,0.000000,0.687223,-0.661146,0.659612,-0.685689,0.656544,-0.642738
2.7039,0.017624,0.000000,0.000000,0.004387,0.0000,0.0000,0.0000,-0.027986,0.027986,-0.000591,0.001918,0.001747,1.6028,0.6917,0.1839,-0.030680,0.030680,0.000000,0.688757,-0.664214,0.659612,-0.688757,0.656544,-0.645806
2.7207,0.016756,0.000000,0.000000,0.004412,0.0000,0.0000,0.0000,-0.026850,0.026850,-0.000591,0.001918,0.001747,1.6028,0.6917,0.1839,-0.030680,0.030680,0.000000,0.688757,-0.664214,0.659612,-0.688757,0.656544,-0.645806
2.7374,0.016759,0.000000,0.000000,0.004437,0.0000,0.0000,0.0000,-0.025638,0.025638,-0.000562,0.001880,0.001787,1.6720,0.5925,0.1004,-0.026078,0.030680,0.000000,0.690291,-0.667282,0.659612,-0.688757,0.656544,-0.647340
2.7542,0.016742,0.000000,0.000000,0.004461,0.0000,0.0000,0.0000,-0.024358,0.024358,-0.000565,0.001885,0.001819,1.6653,0.5995,-0.0584,-0.027612,0.029146,0.000000,0.690291,-0.668816,0.659612,-0.690291,0.656544,-0.648874
2.7709,0.016747,0.000000,0.000000,0.004484,0.0000,0.0000,0.0000,-0.023009,0.023009,-0.000512,0.001949,0.001862,1.8003,0.5635,-0.1534,-0.030680,0.027612,0.000000,0.691825,-0.671884,0.659612,-0.691825,0.656544,-0.648874
2.7877,0.016750,0.000000,0.000000,0.004507,0.0000,0.0000,0.0000,-0.021596,0.021596,-0.000519,0.002024,0.001891,1.8832,0.5669,-0.1989,-0.027612,0.024544,0.000000,0.693359,-0.673418,0.659612,-0.693359,0.656544,-0.648874
2.8044,0.016762,0.000000,0.000000,0.004530,0.0000,0.0000,0.0000,-0.020123,0.020123,-0.000519,0.002016,0.001888,1.8745,0.5666,-0.1942,-0.023010,0.023010,0.000000,0.693359,-0.673418,0.659612,-0.693359,0.656544,-0.648874
2.8212,0.016738,0.000000,0.000000,0.004552,0.0000,0.0000,0.0000,-0.018596,0.018596,-0.000519,0.002016,0.001888,1.8745,0.5666,-0.1942,-0.023010,0.023010,0.000000,0.693359,-0.673418,0.659612,-0.693359,0.656544,-0.648874
2.8379,0.016752,0.000000,0.000000,0.004574,0.0000,0.0000,0.0000,-0.017017,0.017017,-0.000532,0.002076,0.001899,1.8870,0.6152,-0.2503,-0.019942,0.021476,0.000000,0.693359,-0.673418,0.659612,-0.694893,0.656544,-0.648874
2.8547,0.016744,0.000000,0.000000,0.004595,0.0000,0.0000,0.0000,-0.015390,0.015390,-0.000531,0.002069,0.001898,1.8857,0.6101,-0.2444,-0.023010,0.023010,0.000000,0.693359,-0.673418,0.659612,-0.694893,0.656544,-0.648874
2.8717,0.017004,0.000000,0.000000,0.004615,0.0000,0.0000,0.0000,-0.013696,0.013696,-0.000476,0.002053,0.001910,1.9228,0.5756,-0.3014,-0.026078,0.021476,0.000000,0.693359,-0.674952,0.659612,-0.694893,0.656544,-0.648874
2.8888,0.017111,0.000000,0.000000,0.004636,0.0000,0.0000,0.0000,-0.011951,0.011951,-0.000426,0.002037,0.001921,1.9558,0.5441,-0.3518,-0.021476,0.021476,0.000000,0.693359,-0.676486,0.659612,-0.694893,0.656544,-0.648874
2.9057,0.016968,0.000000,0.000000,0.004655,0.0000,0.0000,0.0000,-0.010186,0.010186,-0.000431,0.002039,0.001920,1.9524,0.5474,-0.3466,-0.013806,0.016874,0.000000,0.693359,-0.676486,0.659612,-0.694893,0.656544,-0.648874
2.9225,0.016743,0.000000,0.000000,0.004674,0.0000,0.0000,0.0000,-0.008417,0.008417,-0.000431,0.002039,0.001920,1.9524,0.5474,-0.3466,-0.013806,0.016874,0.000000,0.693359,-0.676486,0.659612,-0.694893,0.656544,-0.648874
2.9392,0.016751,0.000000,0.000000,0.004693,0.0000,0.0000,0.0000,-0.006623,0.006623,-0.000431,0.002039,0.001920,1.9524,0.5474,-0.3466,-0.013806,0.010738,0.000000,0.693359,-0.676486,0.659612,-0.694893,0.656544,-0.648874
2.9560,0.016744,0.000000,0.000000,0.004711,0.0000,0.0000,0.0000,-0.004812,0.004812,-0.000431,0.002039,0.001920,1.9524,0.5474,-0.3466,-0.013806,0.009204,0.000000,0.693359,-0.676486,0.659612,-0.694893,0.656544,-0.648874
2.9727,0.016749,0.000000,0.000000,0.004728,0.0000,0.0000,0.0000,-0.002987,0.002987,-0.000375,0.002022,0.001933,1.9896,0.5120,-0.4036,-0.013806,0.010738,0.000000,0.693359,-0.678020,0.659612,-0.694893,0.656544,-0.648874
2.9895,0.016742,0.000000,0.000000,0.004745,0.0000,0.0000,0.0000,-0.001154,0.001154,-0.000339,0.001951,0.001957,2.0116,0.5310,-0.3977,-0.012272,0.009204,0.000000,0.693359,-0.679553,0.661146,-0.694893,0.656544,-0.648874
3.0062,0.016755,0.000000,0.000000,0.004761,0.0000,0.0000,0.0000,0.000683,-0.000683,-0.000313,0.001829,0.001993,2.0245,0.5946,-0.3417,-0.006136,0.007670,0.000000,0.693359,-0.681087,0.664214,-0.694893,0.656544,-0.648874
3.0230,0.016739,0.000000,0.000000,0.004777,0.0000,0.0000,0.0000,0.002516,-0.002516,-0.000313,0.001829,0.001993,2.0245,0.5946,-0.3417,-0.006136,0.007670,0.000000,0.693359,-0.681087,0.664214,-0.694893,0.656544,-0.648874
3.0397,0.016751,0.000000,0.000000,0.004792,0.0000,0.0000,0.0000,0.004344,-0.004344,-0.000342,0.001730,0.002016,2.0015,0.6883,-0.2344,0.001534,0.006136,0.000000,0.693359,-0.681087,0.667282,-0.694893,0.656544,-0.648874
3.0565,0.016743,0.000000,0.000000,0.004807,0.0000,0.0000,0.0000,0.006159,-0.006159,-0.000339,0.001740,0.002013,2.0039,0.6785,-0.2456,0.001534,0.003068,0.000000,0.693359,-0.681087,0.667282,-0.694893,0.656544,-0.648874
3.0732,0.016752,0.000000,0.000000,0.004821,0.0000,0.0000,0.0000,0.007958,-0.007958,-0.000339,0.001739,0.002014,2.0035,0.6798,-0.2441,-0.004602,-0.001534,0.000000,0.693359,-0.681087,0.667282,-0.694893,0.656544,-0.648874
3.0900,0.016743,0.000000,0.000000,0.004835,0.0000,0.0000,0.0000,0.009734,-0.009734,-0.000339,0.001739,0.002014,2.0035,0.6798,-0.2441,-0.003068,-0.004602,0.000000,0.693359,-0.681087,0.667282,-0.694893,0.656544,-0.648874
3.1068,0.016859,0.000000,0.000000,0.004848,0.0000,0.0000,0.0000,0.011495,-0.011495,-0.000338,0.001772,0.002013,1.9281,0.6810,-0.1334,0.007670,-0.006136,0.000000,0.693359,-0.679553,0.667282,-0.694893,0.658078,-0.648874
3.1236,0.016754,0.000000,0.000000,0.004861,0.0000,0.0000,0.0000,0.013213,-0.013213,-0.000338,0.001772,0.002013,1.9281,0.6810,-0.1334,0.007670,-0.006136,0.000000,0.693359,-0.679553,0.667282,-0.694893,0.658078,-0.648874
3.1403,0.016745,0.000000,0.000000,0.004873,0.0000,0.0000,0.0000,0.014893,-0.014893,-0.000114,0.001799,0.002062,1.8571,0.5462,-0.0368,0.007670,-0.007670,0.000000,0.693359,-0.681087,0.667282,-0.694893,0.662680,-0.648874
3.1571,0.016741,0.000000,0.000000,0.004884,0.0000,0.0000,0.0000,0.016532,-0.016532,-0.000025,0.001828,0.002080,1.7879,0.4939,0.0631,0.007670,-0.010738,0.000000,0.693359,-0.681087,0.667282,-0.694893,0.665748,-0.648874
3.1739,0.016803,0.000000,0.000000,0.004895,0.0000,0.0000,0.0000,0.018132,-0.018132,0.000065,0.001914,0.002113,1.7298,0.4817,0.1072,0.007670,-0.010738,0.000000,0.693359,-0.681087,0.667282,-0.696427,0.668816,-0.648874
3.1906,0.016755,0.000000,0.000000,0.004906,0.0000,0.0000,0.0000,0.019676,-0.019676,0.000067,0.002077,0.002165,1.7674,0.4382,0.2702,0.010738,-0.010738,0.000000,0.696427,-0.681087,0.667282,-0.697961,0.671884,-0.648874
3.2074,0.016739,0.000000,0.000000,0.004916,0.0000,0.0000,0.0000,0.021164,-0.021164,0.000221,0.002248,0.002238,1.7566,0.3926,0.3074,0.016874,-0.013806,0.000000,0.697961,-0.682621,0.667282,-0.701029,0.676486,-0.648874
3.2241,0.016739,0.000000,0.000000,0.004925,0.0000,0.0000,0.0000,0.022594,-0.022594,0.000221,0.002248,0.002238,1.7566,0.3926,0.3074,0.016874,-0.013806,0.000000,0.697961,-0.682621,0.667282,-0.701029,0.676486,-0.648874
3.2409,0.016779,0.000000,0.000000,0.004934,0.0000,0.0000,0.0000,0.023964,-0.023964,0.000259,0.002328,0.002310,1.8158,0.3682,0.4714,0.018408,-0.016874,0.000000,0.701029,-0.684155,0.668816,-0.702563,0.679553,-0.648874
3.2576,0.016752,0.000000,0.000000,0.004942,0.0000,0.0000,0.0000,0.025266,-0.025266,0.000367,0.002434,0.002359,1.8299,0.3053,0.5093,0.016874,-0.016874,0.000000,0.702563,-0.685689,0.668816,-0.704097,0.682621,-0.648874
3.2744,0.016749,0.000000,0.000000,0.004950,0.0000,0.0000,0.0000,0.026498,-0.026498,0.000370,0.002467,0.002435,1.8764,0.4275,0.5623,0.016874,-0.016874,0.000000,0.704097,-0.687223,0.671884,-0.707165,0.684155,-0.648874
3.2911,0.016742,0.000000,0.000000,0.004957,0.0000,0.0000,0.0000,0.027656,-0.027656,0.000314,0.002483,0.002486,1.8339,0.4498,0.6138,0.018408,-0.018408,0.000000,0.705631,-0.687223,0.673418,-0.708699,0.685689,-0.650408
3.3079,0.016773,0.000000,0.000000,0.004964,0.0000,0.0000,0.0000,0.028740,-0.028740,0.000250,0.002411,0.002554,1.8645,0.5295,0.6101,0.021476,-0.021476,0.000000,0.707165,-0.688757,0.676486,-0.710233,0.685689,-0.651942
3.3246,0.016738,0.000000,0.000000,0.004970,0.0000,0.0000,0.0000,0.029741,-0.029741,0.000250,0.002411,0.002554,1.8645,0.5295,0.6101,0.021476,-0.021476,0.000000,0.707165,-0.688757,0.676486,-0.710233,0.685689,-0.651942
3.3414,0.016756,0.000000,0.000000,0.004975,0.0000,0.0000,0.0000,0.030661,-0.030661,0.000245,0.002248,0.002599,1.8284,0.5674,0.6115,0.029146,-0.024544,0.000000,0.707165,-0.690291,0.679553,-0.710233,0.685689,-0.653476
3.3581,0.016741,0.000000,0.000000,0.004980,0.0000,0.0000,0.0000,0.031496,-0.031496,0.000164,0.002171,0.002644,1.7734,0.6935,0.6130,0.030680,-0.029146,0.000000,0.707165,-0.690291,0.682621,-0.711767,0.685689,-0.655010
3.3749,0.016768,0.000000,0.000000,0.004985,0.0000,0.0000,0.0000,0.032245,-0.032245,0.000187,0.002121,0.002665,1.7674,0.6278,0.5001,0.026078,-0.030680,0.000000,0.707165,-0.691825,0.682621,-0.711767,0.685689,-0.656544
3.3916,0.016745,0.000000,0.000000,0.004988,0.0000,0.0000,0.0000,0.032903,-0.032903,0.000057,0.002087,0.002700,1.7193,0.5872,0.4565,0.026078,-0.029146,0.000000,0.708699,-0.691825,0.682621,-0.711767,0.685689,-0.659612
3.4084,0.016777,0.000000,0.000000,0.004992,0.0000,0.0000,0.0000,0.033471,-0.033471,0.000057,0.002087,0.002700,1.7193,0.5872,0.4565,0.026078,-0.029146,0.000000,0.708699,-0.691825,0.682621,-0.711767,0.685689,-0.659612
3.4251,0.016740,0.000000,0.000000,0.004994,0.0000,0.0000,0.0000,0.033946,-0.033946,0.000071,0.002090,0.002697,1.7243,0.5914,0.4611,0.029146,-0.030680,0.000000,0.708699,-0.691825,0.682621,-0.711767,0.685689,-0.659612
3.4419,0.016745,0.000000,0.000000,0.004997,0.0000,0.0000,0.0000,0.034327,-0.034327,0.000169,0.002032,0.002698,1.7124,0.5690,0.3471,0.033748,-0.032214,0.000000,0.707165,-0.693359,0.682621,-0.711767,0.685689,-0.659612
3.4586,0.016746,0.000000,0.000000,0.004998,0.0000,0.0000,0.0000,0.034612,-0.034612,0.000117,0.001997,0.002711,1.6653,0.5544,0.3029,0.032214,-0.032214,0.000000,0.707165,-0.693359,0.682621,-0.711767,0.685689,-0.661146
3.4754,0.016752,0.000000,0.000000,0.004999,0.0000,0.0000,0.0000,0.034802,-0.034802,0.000081,0.001960,0.002723,1.6219,0.5389,0.2514,0.029146,-0.032214,0.000000,0.707165,-0.693359,0.682621,-0.711767,0.685689,-0.662680
3.4922,0.016846,0.000000,0.000000,0.005000,0.0000,0.0000,0.0000,0.034896,-0.034896,0.000081,0.001960,0.002723,1.6219,0.5389,0.2514,0.029146,-0.032214,0.000000,0.707165,-0.693359,0.682621,-0.711767,0.685689,-0.662680
3.5090,0.016745,0.000000,0.000000,0.005000,0.0000,0.0000,0.0000,0.034893,-0.034893,0.000081,0.001960,0.002723,1.6219,0.5389,0.2514,0.029146,-0.032214,0.000000,0.707165,-0.693359,0.682621,-0.711767,0.685689,-0.662680
3.5258,0.016834,0.000000,0.000000,0.004999,0.0000,0.0000,0.0000,0.034792,-0.034792,0.000001,0.001883,0.002748,1.5300,0.5067,0.1444,0.033748,-0.033748,0.000000,0.707165,-0.693359,0.682621,-0.711767,0.685689,-0.665748
3.5426,0.016759,0.000000,0.000000,0.004998,0.0000,0.0000,0.0000,0.034595,-0.034595,0.000010,0.001891,0.002745,1.5397,0.5101,0.1556,0.029146,-0.033748,0.000000,0.707165,-0.693359,0.682621,-0.711767,0.685689,-0.665748
3.5593,0.016756,0.000000,0.000000,0.004997,0.0000,0.0000,0.0000,0.034302,-0.034302,0.000010,0.001891,0.002745,1.5397,0.5101,0.1556,0.029146,-0.033748,0.000000,0.707165,-0.693359,0.682621,-0.711767,0.685689,-0.665748
3.5761,0.016754,0.000000,0.000000,0.004994,0.0000,0.0000,0.0000,0.033914,-0.033914,0.000009,0.001890,0.002746,1.5383,0.5096,0.1540,0.030680,-0.033748,0.000000,0.707165,-0.693359,0.682621,-0.711767,0.685689,-0.665748
3.5928,0.016745,0.000000,0.000000,0.004991,0.0000,0.0000,0.0000,0.033433,-0.033433,0.000009,0.001890,0.002746,1.5383,0.5096,0.1540,0.038350,-0.033748,0.000000,0.707165,-0.693359,0.682621,-0.711767,0.685689,-0.665748
3.6096,0.016743,0.000000,0.000000,0.004988,0.0000,0.0000,0.0000,0.032859,-0.032859,0.000009,0.001890,0.002746,1.5383,0.5096,0.1540,0.035282,-0.033748,0.000000,0.707165,-0.693359,0.682621,-0.711767,0.685689,-0.665748
3.6263,0.016748,0.000000,0.000000,0.004984,0.0000,0.0000,0.0000,0.032194,-0.032194,0.000009,0.001890,0.002746,1.5383,0.5096,0.1540,0.027612,-0.033748,0.000000,0.707165,-0.693359,0.682621,-0.711767,0.685689,-0.665748
3.6431,0.016805,0.000000,0.000000,0.004980,0.0000,0.0000,0.0000,0.031437,-0.031437,0.000009,0.001890,0.002746,1.5383,0.5096,0.1540,0.029146,-0.033748,0.000000,0.707165,-0.693359,0.682621,-0.711767,0.685689,-0.665748
3.6599,0.016749,0.000000,0.000000,0.004975,0.0000,0.0000,0.0000,0.030595,-0.030595,0.000009,0.001890,0.002746,1.5383,0.5096,0.1540,0.029146,-0.033748,0.000000,0.707165,-0.693359,0.682621,-0.711767,0.685689,-0.665748
3.6766,0.016759,0.000000,0.000000,0.004969,0.0000,0.0000,0.0000,0.029669,-0.029669,0.000009,0.001890,0.002746,1.5383,0.5096,0.1540,0.036816,-0.033748,0.000000,0.707165,-0.693359,0.682621,-0.711767,0.685689,-0.665748
3.6934,0.016754,0.000000,0.000000,0.004963,0.0000,0.0000,0.0000,0.028660,-0.028660,0.000009,0.001890,0.002746,1.5383,0.5096,0.1540,0.033748,-0.032214,0.000000,0.707165,-0.693359,0.682621,-0.711767,0.685689,-0.665748
3.7102,0.016771,0.000000,0.000000,0.004956,0.0000,0.0000,0.0000,0.027571,-0.027571,0.000009,0.001890,0.002746,1.5383,0.5096,0.1540,0.024544,-0.030680,0.000000,0.707165,-0.693359,0.682621,-0.711767,0.685689,-0.665748
3.7269,0.016755,0.000000,0.000000,0.004949,0.0000,0.0000,0.0000,0.026406,-0.026406,0.000009,0.001890,0.002746,1.5383,0.5096,0.1540,0.027612,-0.030680,0.000000,0.707165,-0.693359,0.682621,-0.711767,0.685689,-0.665748
3.7437,0.016762,0.000000,0.000000,0.004942,0.0000,0.0000,0.0000,0.025168,-0.025168,-0.000035,0.001931,0.002756,1.5869,0.4963,0.2113,0.032214,-0.029146,0.000000,0.708699,-0.693359,0.682621,-0.711767,0.685689,-0.665748
3.7604,0.016749,0.000000,0.000000,0.004933,0.0000,0.0000,0.0000,0.023861,-0.023861,-0.000035,0.001931,0.002756,1.5869,0.4963,0.2113,0.032214,-0.029146,0.000000,0.708699,-0.693359,0.682621,-0.711767,0.685689,-0.665748
3.7772,0.016754,0.000000,0.000000,0.004924,0.0000,0.0000,0.0000,0.022488,-0.022488,0.000014,0.001886,0.002745,1.5337,0.5112,0.1486,0.029146,-0.027612,0.000000,0.707165,-0.693359,0.682621,-0.711767,0.685689,-0.665748
3.7939,0.016740,0.000000,0.000000,0.004915,0.0000,0.0000,0.0000,0.021053,-0.021053,0.000009,0.001891,0.002746,1.5393,0.5096,0.1551,0.021476,-0.026078,0.000000,0.707165,-0.693359,0.682621,-0.711767,0.685689,-0.665748
3.8107,0.016743,0.000000,0.000000,0.004905,0.0000,0.0000,0.0000,0.019560,-0.019560,0.000009,0.001891,0.002746,1.5393,0.5096,0.1551,0.023010,-0.026078,0.000000,0.707165,-0.693359,0.682621,-0.711767,0.685689,-0.665748
3.8274,0.016749,0.000000,0.000000,0.004895,0.0000,0.0000,0.0000,0.018012,-0.018012,0.000009,0.001891,0.002746,1.5393,0.5096,0.1551,0.026078,-0.026078,0.000000,0.707165,-0.693359,0.682621,-0.711767,0.685689,-0.665748
3.8447,0.017254,0.000000,0.000000,0.004883,0.0000,0.0000,0.0000,0.016366,-0.016366,0.000023,0.001832,0.002735,1.5276,0.4614,0.2106,0.023010,-0.019942,0.000000,0.707165,-0.693359,0.682621,-0.710233,0.685689,-0.665748
3.8614,0.016740,0.000000,0.000000,0.004872,0.0000,0.0000,0.0000,0.014723,-0.014723,0.000023,0.001832,0.002735,1.5276,0.4614,0.2106,0.023010,-0.019942,0.000000,0.707165,-0.693359,0.682621,-0.710233,0.685689,-0.665748
3.8781,0.016739,0.000000,0.000000,0.004860,0.0000,0.0000,0.0000,0.013039,-0.013039,0.000008,0.001896,0.002747,1.5399,0.5148,0.1487,0.013806,-0.016874,0.000000,0.707165,-0.693359,0.682621,-0.711767,0.685689,-0.665748
3.8949,0.016773,0.000000,0.000000,0.004847,0.0000,0.0000,0.0000,0.011315,-0.011315,0.000009,0.001890,0.002746,1.5386,0.5092,0.1551,0.013806,-0.016874,0.000000,0.707165,-0.693359,0.682621,-0.711767,0.685689,-0.665748
3.9117,0.016779,0.000000,0.000000,0.004834,0.0000,0.0000,0.0000,0.009560,-0.009560,0.000009,0.001890,0.002746,1.5386,0.5092,0.1551,0.018408,-0.016874,0.000000,0.707165,-0.693359,0.682621,-0.711767,0.685689,-0.665748
3.9284,0.016746,0.000000,0.000000,0.004820,0.0000,0.0000,0.0000,0.007781,-0.007781,0.000009,0.001890,0.002746,1.5386,0.5092,0.1551,0.016874,-0.012272,0.000000,0.707165,-0.693359,0.682621,-0.711767,0.685689,-0.665748
3.9452,0.016756,0.000000,0.000000,0.004806,0.0000,0.0000,0.0000,0.005980,-0.005980,0.000009,0.001890,0.002746,1.5386,0.5092,0.1551,0.007670,-0.012272,0.000000,0.707165,-0.693359,0.682621,-0.711767,0.685689,-0.665748
3.9619,0.016740,0.000000,0.000000,0.004791,0.0000,0.0000,0.0000,0.004164,-0.004164,0.000009,0.001890,0.002746,1.5386,0.5092,0.1551,0.007670,-0.012272,0.000000,0.707165,-0.693359,0.682621,-0.711767,0.685689,-0.665748
3.9787,0.016749,0.000000,0.000000,0.004776,0.0000,0.0000,0.0000,0.002335,-0.002335,0.000009,0.001890,0.002746,1.5386,0.5092,0.1551,0.004602,-0.010738,0.000000,0.707165,-0.693359,0.682621,-0.711767,0.685689,-0.665748
3.9954,0.016750,0.000000,0.000000,0.004760,0.0000,0.0000,0.0000,0.000500,-0.000500,0.000009,0.001890,0.002746,1.5386,0.5092,0.1551,0.007670,-0.009204,0.000000,0.707165,-0.693359,0.682621,-0.711767,0.685689,-0.665748
4.0122,0.016758,0.000000,0.000000,0.004743,0.0000,0.0000,0.0000,-0.001337,0.001337,0.000009,0.001890,0.002746,1.5386,0.5092,0.1551,0.009204,-0.007670,0.000000,0.707165,-0.693359,0.682621,-0.711767,0.685689,-0.665748
4.0290,0.016771,0.000000,0.000000,0.004726,0.0000,0.0000,0.0000,-0.003172,0.003172,0.000009,0.001890,0.002746,1.5386,0.5092,0.1551,0.001534,-0.004602,0.000000,0.707165,-0.693359,0.682621,-0.711767,0.685689,-0.665748
4.0457,0.016768,0.000000,0.000000,0.004709,0.0000,0.0000,0.0000,-0.004998,0.004998,0.000009,0.001890,0.002746,1.5386,0.5092,0.1551,0.001534,-0.004602,0.000000,0.707165,-0.693359,0.682621,-0.711767,0.685689,-0.665748
4.0625,0.016742,0.000000,0.000000,0.004691,0.0000,0.0000,0.0000,-0.006808,0.006808,0.000009,0.001890,0.002746,1.5386,0.5092,0.1551,-0.003068,-0.001534,0.000000,0.707165,-0.693359,0.682621,-0.711767,0.685689,-0.665748
4.0792,0.016752,0.000000,0.000000,0.004673,0.0000,0.0000,0.0000,-0.008599,0.008599,0.000009,0.001890,0.002746,1.5386,0.5092,0.1551,-0.003068,0.000000,0.000000,0.707165,-0.693359,0.682621,-0.711767,0.685689,-0.665748
4.0960,0.016750,0.000000,0.000000,0.004654,0.0000,0.0000,0.0000,-0.010367,0.010367,0.000009,0.001890,0.002746,1.5386,0.5092,0.1551,0.001534,-0.001534,0.000000,0.707165,-0.693359,0.682621,-0.711767,0.685689,-0.665748
4.1128,0.016773,0.000000,0.000000,0.004634,0.0000,0.0000,0.0000,-0.012108,0.012108,-0.000035,0.001931,0.002756,1.5868,0.4964,0.2112,-0.003068,0.004602,0.000000,0.708699,-0.693359,0.682621,-0.711767,0.685689,-0.665748
4.1295,0.016756,0.000000,0.000000,0.004614,0.0000,0.0000,0.0000,-0.013814,0.013814,0.000014,0.001886,0.002745,1.5337,0.5111,0.1486,-0.009204,0.009204,0.000000,0.707165,-0.693359,0.682621,-0.711767,0.685689,-0.665748
4.1464,0.016853,0.000000,0.000000,0.004593,0.0000,0.0000,0.0000,-0.015491,0.015491,0.000009,0.001891,0.002746,1.5393,0.5096,0.1551,-0.012272,0.009204,0.000000,0.707165,-0.693359,0.682621,-0.711767,0.685689,-0.665748
4.1631,0.016753,0.000000,0.000000,0.004572,0.0000,0.0000,0.0000,-0.017115,0.017115,0.000009,0.001891,0.002746,1.5393,0.5096,0.1551,-0.012272,0.009204,0.000000,0.707165,-0.693359,0.682621,-0.711767,0.685689,-0.665748
4.1799,0.016752,0.000000,0.000000,0.004551,0.0000,0.0000,0.0000,-0.018692,0.018692,0.000009,0.001891,0.002746,1.5393,0.5096,0.1551,-0.012272,0.009204,0.000000,0.707165,-0.693359,0.682621,-0.711767,0.685689,-0.665748
4.1966,0.016748,0.000000,0.000000,0.004529,0.0000,0.0000,0.0000,-0.020216,0.020216,0.000009,0.001891,0.002746,1.5393,0.5096,0.1551,-0.012272,0.013806,0.000000,0.707165,-0.693359,0.682621,-0.711767,0.685689,-0.665748
4.2134,0.016768,0.000000,0.000000,0.004506,0.0000,0.0000,0.0000,-0.021687,0.021687,0.000009,0.001891,0.002746,1.5393,0.5096,0.1551,-0.016874,0.015340,0.000000,0.707165,-0.693359,0.682621,-0.711767,0.685689,-0.665748
4.2301,0.016756,0.000000,0.000000,0.004483,0.0000,0.0000,0.0000,-0.023096,0.023096,0.000009,0.001891,0.002746,1.5393,0.5096,0.1551,-0.024544,0.016874,0.000000,0.707165,-0.693359,0.682621,-0.711767,0.685689,-0.665748
4.2469,0.016782,0.000000,0.000000,0.004459,0.0000,0.0000,0.0000,-0.024443,0.024443,0.000009,0.001891,0.002746,1.5393,0.5096,0.1551,-0.021476,0.016874,0.000000,0.707165,-0.693359,0.682621,-0.711767,0.685689,-0.665748
4.2637,0.016749,0.000000,0.000000,0.004435,0.0000,0.0000,0.0000,-0.025720,0.025720,0.000009,0.001891,0.002746,1.5393,0.5096,0.1551,-0.021476,0.016874,0.000000,0.707165,-0.693359,0.682621,-0.711767,0.685689,-0.665748
4.2804,0.016748,0.000000,0.000000,0.004411,0.0000,0.0000,0.0000,-0.026925,0.026925,0.000009,0.001891,0.002746,1.5393,0.5096,0.1551,-0.018408,0.019942,0.000000,0.707165,-0.693359,0.682621,-0.711767,0.685689,-0.665748
4.2972,0.016747,0.000000,0.000000,0.004386,0.0000,0.0000,0.0000,-0.028056,0.028056,0.000009,0.001891,0.002746,1.5393,0.5096,0.1551,-0.019942,0.021476,0.000000,0.707165,-0.693359,0.682621,-0.711767,0.685689,-0.665748
4.3139,0.016759,0.000000,0.000000,0.004360,0.0000,0.0000,0.0000,-0.029110,0.029110,0.000023,0.001832,0.002735,1.5276,0.4614,0.2106,-0.029146,0.021476,0.000000,0.707165,-0.693359,0.682621,-0.710233,0.685689,-0.665748
4.3307,0.016747,0.000000,0.000000,0.004334,0.0000,0.0000,0.0000,-0.030083,0.030083,0.000008,0.001896,0.002747,1.5399,0.5148,0.1487,-0.027612,0.023010,0.000000,0.707165,-0.693359,0.682621,-0.711767,0.685689,-0.665748
4.3474,0.016766,0.000000,0.000000,0.004308,0.0000,0.0000,0.0000,-0.030973,0.030973,0.000008,0.001896,0.002747,1.5399,0.5148,0.1487,-0.023010,0.026078,0.000000,0.707165,-0.693359,0.682621,-0.711767,0.685689,-0.665748
4.3642,0.016751,0.000000,0.000000,0.004281,0.0000,0.0000,0.0000,-0.031777,0.031777,0.000009,0.001890,0.002746,1.5386,0.5092,0.1551,-0.023010,0.026078,0.000000,0.707165,-0.693359,0.682621,-0.711767,0.685689,-0.665748
4.3809,0.016754,0.000000,0.000000,0.004253,0.0000,0.0000,0.0000,-0.032493,0.032493,0.000009,0.001890,0.002746,1.5386,0.5092,0.1551,-0.026078,0.027612,0.000000,0.707165,-0.693359,0.682621,-0.711767,0.685689,-0.665748
4.3977,0.016750,0.000000,0.000000,0.004226,0.0000,0.0000,0.0000,-0.033119,0.033119,0.000009,0.001890,0.002746,1.5386,0.5092,0.1551,-0.032214,0.027612,0.000000,0.707165,-0.693359,0.682621,-0.711767,0.685689,-0.665748
4.4145,0.016763,0.000000,0.000000,0.004197,0.0000,0.0000,0.0000,-0.033654,0.033654,0.000009,0.001890,0.002746,1.5386,0.5092,0.1551,-0.033748,0.029146,0.000000,0.707165,-0.693359,0.682621,-0.711767,0.685689,-0.665748
4.4312,0.016727,0.000000,0.000000,0.004168,0.0000,0.0000,0.0000,-0.034094,0.034094,0.000009,0.001890,0.002746,1.5386,0.5092,0.1551,-0.030680,0.032214,0.000000,0.707165,-0.693359,0.682621,-0.711767,0.685689,-0.665748
4.4479,0.016766,0.000000,0.000000,0.004139,0.0000,0.0000,0.0000,-0.034441,0.034441,0.000009,0.001890,0.002746,1.5386,0.5092,0.1551,-0.030680,0.032214,0.000000,0.707165,-0.693359,0.682621,-0.711767,0.685689,-0.665748
4.4647,0.016760,0.000000,0.000000,0.004109,0.0000,0.0000,0.0000,-0.034692,0.034692,0.000009,0.001890,0.002746,1.5386,0.5092,0.1551,-0.029146,0.032214,0.000000,0.707165,-0.693359,0.682621,-0.711767,0.685689,-0.665748
4.4815,0.016755,0.000000,0.000000,0.004079,0.0000,0.0000,0.0000,-0.034847,0.034847,0.000023,0.001832,0.002735,1.5276,0.4614,0.2106,-0.033748,0.032214,0.000000,0.707165,-0.693359,0.682621,-0.710233,0.685689,-0.665748
4.4984,0.016918,0.000000,0.000000,0.004048,0.0000,0.0000,0.0000,-0.034906,0.034906,0.000021,0.001838,0.002736,1.5288,0.4664,0.2048,-0.036816,0.032214,0.000000,0.707165,-0.693359,0.682621,-0.710233,0.685689,-0.665748
4.5154,0.016978,0.000000,0.000000,0.004017,0.0000,0.0000,0.0000,-0.034866,0.034866,0.000008,0.001896,0.002747,1.5398,0.5143,0.1493,-0.033748,0.032214,0.000000,0.707165,-0.693359,0.682621,-0.711767,0.685689,-0.665748
4.5347,0.019334,0.000000,0.000000,0.003980,0.0000,0.0000,0.0000,-0.034699,0.034699,0.000008,0.001896,0.002747,1.5398,0.5143,0.1493,-0.033748,0.032214,0.000000,0.707165,-0.693359,0.682621,-0.711767,0.685689,-0.665748
4.5515,0.016846,0.000000,0.000000,0.003948,0.0000,0.0000,0.0000,-0.034450,0.034450,0.000008,0.001896,0.002747,1.5398,0.5143,0.1493,-0.033748,0.032214,0.000000,0.707165,-0.693359,0.682621,-0.711767,0.685689,-0.665748
4.5683,0.016773,0.000000,0.000000,0.003915,0.0000,0.0000,0.0000,-0.034106,0.034106,0.000008,0.001896,0.002747,1.5398,0.5143,0.1493,-0.033748,0.032214,0.000000,0.707165,-0.693359,0.682621,-0.711767,0.685689,-0.665748
4.5851,0.016749,0.000000,0.000000,0.003882,0.0000,0.0000,0.0000,-0.033668,0.033668,0.000009,0.001890,0.002746,1.5386,0.5093,0.1551,-0.039884,0.032214,0.000000,0.707165,-0.693359,0.682621,-0.711767,0.685689,-0.665748
