t,loop_dt,cmd_x,cmd_y,cmd_z,cmd_roll,cmd_pitch,cmd_yaw,cmd_ant_l,cmd_ant_r,pres_x,pres_y,pres_z,pres_roll,pres_pitch,pres_yaw,pres_ant_l,pres_ant_r,pres_j0,pres_j1,pres_j2,pres_j3,pres_j4,pres_j5,pres_j6
0.0000,0.000001,-0.000217,0.001388,-0.002610,0.5878,-0.1404,-0.2887,-0.001534,0.000000,-0.000217,0.001388,-0.002610,0.5878,-0.1404,-0.2887,-0.001534,0.000000,0.000000,0.578311,-0.562971,0.549165,-0.579845,0.567573,-0.561437
0.0168,0.016753,-0.000214,0.001365,-0.002566,0.5779,-0.1381,-0.2838,-0.001508,0.000000,-0.000217,0.001388,-0.002610,0.5878,-0.1404,-0.2887,-0.001534,0.000000,0.000000,0.578311,-0.562971,0.549165,-0.579845,0.567573,-0.561437
0.0335,0.016765,-0.000210,0.001341,-0.002523,0.5681,-0.1358,-0.2790,-0.001483,0.000000,-0.000217,0.001388,-0.002610,0.5878,-0.1404,-0.2887,-0.001534,0.000000,0.000000,0.578311,-0.562971,0.549165,-0.579845,0.567573,-0.561437
0.0503,0.016742,-0.000206,0.001318,-0.002479,0.5582,-0.1335,-0.2742,-0.001457,0.000000,-0.000217,0.001388,-0.002610,0.5878,-0.1404,-0.2887,-0.001534,0.000000,0.000000,0.578311,-0.562971,0.549165,-0.579845,0.567573,-0.561437
0.0670,0.016752,-0.000203,0.001295,-0.002435,0.5484,-0.1311,-0.2693,-0.001431,0.000000,-0.000217,0.001388,-0.002610,0.5878,-0.1404,-0.2887,-0.001534,0.000000,0.000000,0.578311,-0.562971,0.549165,-0.579845,0.567573,-0.561437
0.0838,0.016750,-0.000199,0.001272,-0.002391,0.5385,-0.1288,-0.2645,-0.001405,0.000000,-0.000149,0.001443,-0.002661,0.5979,-0.0547,-0.1829,-0.001534,0.000000,0.000000,0.576777,-0.561437,0.549165,-0.579845,0.567573,-0.558369
0.1005,0.016759,-0.000195,0.001248,-0.002348,0.5287,-0.1265,-0.2596,-0.001380,0.000000,0.000114,0.001452,-0.002767,0.5560,0.1052,-0.1417,-0.001534,0.000000,0.000000,0.570641,-0.559903,0.549165,-0.579845,0.567573,-0.552233
0.1173,0.016746,-0.000192,0.001225,-0.002304,0.5188,-0.1241,-0.2548,-0.001354,0.000000,0.000168,0.001450,-0.002782,0.5599,0.1219,-0.1463,-0.001534,0.000000,0.000000,0.569107,-0.559903,0.549165,-0.579845,0.567573,-0.550699
0.1340,0.016763,-0.000188,0.001202,-0.002260,0.5090,-0.1218,-0.2499,-0.001328,0.000000,0.000168,0.001450,-0.002782,0.5599,0.1219,-0.1463,-0.001534,0.000000,0.000000,0.569107,-0.559903,0.549165,-0.579845,0.567573,-0.550699
0.1508,0.016742,-0.000185,0.001179,-0.002217,0.4991,-0.1195,-0.2451,-0.001303,0.000000,0.000162,0.001450,-0.002780,0.5595,0.1201,-0.1458,-0.001534,0.000000,0.000000,0.569107,-0.559903,0.549165,-0.579845,0.567573,-0.550699
0.1675,0.016751,-0.000181,0.001155,-0.002173,0.4893,-0.1171,-0.2402,-0.001277,0.000000,0.000162,0.001450,-0.002780,0.5595,0.1201,-0.1458,-0.003068,0.000000,0.000000,0.569107,-0.559903,0.549165,-0.579845,0.567573,-0.550699
0.1842,0.016700,-0.000177,0.001132,-0.002129,0.4794,-0.1148,-0.2354,-0.001251,0.000000,0.000162,0.001450,-0.002780,0.5595,0.1201,-0.1458,-0.003068,0.000000,0.000000,0.569107,-0.559903,0.549165,-0.579845,0.567573,-0.550699
0.2010,0.016740,-0.000174,0.001109,-0.002086,0.4696,-0.1125,-0.2306,-0.001226,0.000000,0.000162,0.001450,-0.002780,0.5595,0.1201,-0.1458,-0.003068,0.000000,0.000000,0.569107,-0.559903,0.549165,-0.579845,0.567573,-0.550699
0.2177,0.016742,-0.000170,0.001086,-0.002042,0.4598,-0.1101,-0.2257,-0.001200,0.000000,0.000162,0.001450,-0.002780,0.5595,0.1201,-0.1458,-0.003068,0.000000,0.000000,0.569107,-0.559903,0.549165,-0.579845,0.567573,-0.550699
0.2345,0.016749,-0.000166,0.001062,-0.001998,0.4499,-0.1078,-0.2209,-0.001174,0.000000,0.000162,0.001450,-0.002780,0.5595,0.1201,-0.1458,-0.003068,0.000000,0.000000,0.569107,-0.559903,0.549165,-0.579845,0.567573,-0.550699
0.2512,0.016738,-0.000163,0.001039,-0.001954,0.4401,-0.1055,-0.2161,-0.001149,0.000000,0.000162,0.001450,-0.002780,0.5595,0.1201,-0.1458,-0.003068,0.000000,0.000000,0.569107,-0.559903,0.549165,-0.579845,0.567573,-0.550699
0.2679,0.016745,-0.000159,0.001016,-0.001911,0.4302,-0.1031,-0.2112,-0.001123,0.000000,0.000162,0.001450,-0.002780,0.5595,0.1201,-0.1458,-0.003068,0.000000,0.000000,0.569107,-0.559903,0.549165,-0.579845,0.567573,-0.550699
0.2847,0.016746,-0.000155,0.000993,-0.001867,0.4204,-0.1008,-0.2064,-0.001097,0.000000,0.000162,0.001450,-0.002780,0.5595,0.1201,-0.1458,-0.003068,0.000000,0.000000,0.569107,-0.559903,0.549165,-0.579845,0.567573,-0.550699
0.3014,0.016759,-0.000152,0.000970,-0.001823,0.4105,-0.0984,-0.2015,-0.001072,0.000000,0.000162,0.001450,-0.002780,0.5595,0.1201,-0.1458,-0.003068,0.000000,0.000000,0.569107,-0.559903,0.549165,-0.579845,0.567573,-0.550699
0.3182,0.016744,-0.000148,0.000946,-0.001780,0.4007,-0.0961,-0.1967,-0.001046,0.000000,0.000162,0.001450,-0.002780,0.5595,0.1201,-0.1458,-0.003068,0.000000,0.000000,0.569107,-0.559903,0.549165,-0.579845,0.567573,-0.550699
0.3349,0.016763,-0.000145,0.000923,-0.001736,0.3908,-0.0937,-0.1918,-0.001020,0.000000,0.000162,0.001450,-0.002780,0.5595,0.1201,-0.1458,-0.003068,0.000000,0.000000,0.569107,-0.559903,0.549165,-0.579845,0.567573,-0.550699
0.3517,0.016739,-0.000141,0.000900,-0.001692,0.3810,-0.0914,-0.1870,-0.000995,0.000000,0.000162,0.001450,-0.002780,0.5595,0.1201,-0.1458,-0.003068,0.000000,0.000000,0.569107,-0.559903,0.549165,-0.579845,0.567573,-0.550699
0.3684,0.016740,-0.000137,0.000877,-0.001648,0.3712,-0.0891,-0.1822,-0.000969,0.000000,0.000162,0.001450,-0.002780,0.5595,0.1201,-0.1458,-0.003068,0.000000,0.000000,0.569107,-0.559903,0.549165,-0.579845,0.567573,-0.550699
0.3852,0.016742,-0.000134,0.000853,-0.001605,0.3613,-0.0867,-0.1773,-0.000943,0.000000,0.000162,0.001450,-0.002780,0.5595,0.1201,-0.1458,-0.003068,0.000000,0.000000,0.569107,-0.559903,0.549165,-0.579845,0.567573,-0.550699
0.4019,0.016755,-0.000130,0.000830,-0.001561,0.3515,-0.0844,-0.1725,-0.000917,0.000000,0.000162,0.001450,-0.002780,0.5595,0.1201,-0.1458,-0.003068,0.000000,0.000000,0.569107,-0.559903,0.549165,-0.579845,0.567573,-0.550699
0.4187,0.016751,-0.000126,0.000807,-0.001517,0.3416,-0.0820,-0.1677,-0.000892,0.000000,0.000162,0.001450,-0.002780,0.5595,0.1201,-0.1458,-0.003068,0.000000,0.000000,0.569107,-0.559903,0.549165,-0.579845,0.567573,-0.550699
0.4354,0.016764,-0.000123,0.000784,-0.001474,0.3318,-0.0797,-0.1628,-0.000866,0.000000,0.000162,0.001450,-0.002780,0.5595,0.1201,-0.1458,-0.003068,0.000000,0.000000,0.569107,-0.559903,0.549165,-0.579845,0.567573,-0.550699
0.4522,0.016743,-0.000119,0.000760,-0.001430,0.3219,-0.0773,-0.1580,-0.000840,0.000000,0.000162,0.001450,-0.002780,0.5595,0.1201,-0.1458,-0.003068,0.000000,0.000000,0.569107,-0.559903,0.549165,-0.579845,0.567573,-0.550699
0.4689,0.016747,-0.000115,0.000737,-0.001386,0.3121,-0.0750,-0.1532,-0.000815,0.000000,0.000162,0.001450,-0.002780,0.5595,0.1201,-0.1458,-0.003068,0.000000,0.000000,0.569107,-0.559903,0.549165,-0.579845,0.567573,-0.550699
0.4857,0.016750,-0.000112,0.000714,-0.001342,0.3022,-0.0726,-0.1483,-0.000789,0.000000,0.000162,0.001450,-0.002780,0.5595,0.1201,-0.1458,-0.003068,0.000000,0.000000,0.569107,-0.559903,0.549165,-0.579845,0.567573,-0.550699
0.5024,0.016746,-0.000108,0.000691,-0.001299,0.2924,-0.0703,-0.1435,-0.000763,0.000000,0.000162,0.001450,-0.002780,0.5595,0.1201,-0.1458,-0.003068,0.000000,0.000000,0.569107,-0.559903,0.549165,-0.579845,0.567573,-0.550699
0.5192,0.016781,-0.000104,0.000667,-0.001255,0.2825,-0.0679,-0.1386,-0.000738,0.000000,0.000162,0.001450,-0.002780,0.5595,0.1201,-0.1458,-0.003068,0.000000,0.000000,0.569107,-0.559903,0.549165,-0.579845,0.567573,-0.550699
0.5360,0.016783,-0.000101,0.000644,-0.001211,0.2727,-0.0655,-0.1338,-0.000712,0.000000,0.000162,0.001450,-0.002780,0.5595,0.1201,-0.1458,-0.003068,0.000000,0.000000,0.569107,-0.559903,0.549165,-0.579845,0.567573,-0.550699
0.5528,0.016800,-0.000097,0.000621,-0.001167,0.2628,-0.0632,-0.1289,-0.000686,0.000000,0.000162,0.001450,-0.002780,0.5595,0.1201,-0.1458,-0.003068,0.000000,0.000000,0.569107,-0.559903,0.549165,-0.579845,0.567573,-0.550699
0.5695,0.016751,-0.000094,0.000597,-0.001124,0.2529,-0.0608,-0.1241,-0.000660,0.000000,0.000162,0.001450,-0.002780,0.5595,0.1201,-0.1458,-0.003068,0.000000,0.000000,0.569107,-0.559903,0.549165,-0.579845,0.567573,-0.550699
0.5863,0.016742,-0.000090,0.000574,-0.001080,0.2431,-0.0585,-0.1193,-0.000635,0.000000,0.000162,0.001450,-0.002780,0.5595,0.1201,-0.1458,-0.003068,0.000000,0.000000,0.569107,-0.559903,0.549165,-0.579845,0.567573,-0.550699
0.6030,0.016750,-0.000086,0.000551,-0.001036,0.2333,-0.0561,-0.1144,-0.000609,0.000000,0.000162,0.001450,-0.002780,0.5595,0.1201,-0.1458,-0.003068,0.000000,0.000000,0.569107,-0.559903,0.549165,-0.579845,0.567573,-0.550699
0.6198,0.016746,-0.000083,0.000528,-0.000992,0.2234,-0.0538,-0.1096,-0.000583,0.000000,0.000162,0.001450,-0.002780,0.5595,0.1201,-0.1458,-0.003068,0.000000,0.000000,0.569107,-0.559903,0.549165,-0.579845,0.567573,-0.550699
0.6365,0.016752,-0.000079,0.000504,-0.000949,0.2136,-0.0514,-0.1048,-0.000558,0.000000,0.000162,0.001450,-0.002780,0.5595,0.1201,-0.1458,-0.003068,0.000000,0.000000,0.569107,-0.559903,0.549165,-0.579845,0.567573,-0.550699
0.6544,0.017835,-0.000075,0.000480,-0.000902,0.2031,-0.0489,-0.0996,-0.000530,0.000000,0.000162,0.001450,-0.002780,0.5595,0.1201,-0.1458,-0.003068,0.000000,0.000000,0.569107,-0.559903,0.549165,-0.579845,0.567573,-0.550699
0.6711,0.016764,-0.000071,0.000456,-0.000858,0.1932,-0.0465,-0.0948,-0.000504,0.000000,0.000162,0.001450,-0.002780,0.5595,0.1201,-0.1458,-0.003068,0.000000,0.000000,0.569107,-0.559903,0.549165,-0.579845,0.567573,-0.550699
0.6879,0.016742,-0.000068,0.000433,-0.000815,0.1834,-0.0442,-0.0900,-0.000479,0.000000,0.000162,0.001450,-0.002780,0.5595,0.1201,-0.1458,-0.003068,0.000000,0.000000,0.569107,-0.559903,0.549165,-0.579845,0.567573,-0.550699
0.7046,0.016751,-0.000064,0.000410,-0.000771,0.1736,-0.0418,-0.0851,-0.000453,0.000000,0.000162,0.001450,-0.002780,0.5595,0.1201,-0.1458,-0.003068,0.000000,0.000000,0.569107,-0.559903,0.549165,-0.579845,0.567573,-0.550699
0.7214,0.016743,-0.000061,0.000387,-0.000727,0.1637,-0.0394,-0.0803,-0.000427,0.000000,0.000162,0.001450,-0.002780,0.5595,0.1201,-0.1458,-0.003068,0.000000,0.000000,0.569107,-0.559903,0.549165,-0.579845,0.567573,-0.550699
0.7381,0.016756,-0.000057,0.000363,-0.000684,0.1539,-0.0371,-0.0755,-0.000402,0.000000,0.000162,0.001450,-0.002780,0.5595,0.1201,-0.1458,-0.003068,0.000000,0.000000,0.569107,-0.559903,0.549165,-0.579845,0.567573,-0.550699
0.7549,0.016822,-0.000053,0.000340,-0.000640,0.1440,-0.0347,-0.0706,-0.000376,0.000000,0.000123,0.001412,-0.002767,0.5099,0.1027,-0.1990,-0.003068,0.000000,0.000000,0.569107,-0.559903,0.549165,-0.579845,0.567573,-0.552233
0.7717,0.016752,-0.000050,0.000317,-0.000596,0.1341,-0.0323,-0.0658,-0.000350,0.000000,0.000123,0.001412,-0.002767,0.5099,0.1027,-0.1990,-0.003068,0.000000,0.000000,0.569107,-0.559903,0.549165,-0.579845,0.567573,-0.552233
0.7884,0.016747,-0.000046,0.000294,-0.000552,0.1243,-0.0300,-0.0610,-0.000325,0.000000,0.000086,0.001455,-0.002757,0.5651,0.0888,-0.1401,-0.003068,0.000000,0.000000,0.570641,-0.559903,0.549165,-0.579845,0.567573,-0.552233
0.8052,0.016750,-0.000042,0.000270,-0.000508,0.1145,-0.0276,-0.0561,-0.000299,0.000000,0.000090,0.001450,-0.002758,0.5594,0.0903,-0.1462,-0.003068,0.000000,0.000000,0.570641,-0.559903,0.549165,-0.579845,0.567573,-0.552233
0.8219,0.016743,-0.000039,0.000247,-0.000465,0.1046,-0.0252,-0.0513,-0.000273,0.000000,0.000090,0.001450,-0.002758,0.5594,0.0903,-0.1462,-0.003068,0.000000,0.000000,0.570641,-0.559903,0.549165,-0.579845,0.567573,-0.552233
0.8387,0.016751,-0.000035,0.000224,-0.000421,0.0948,-0.0229,-0.0465,-0.000247,0.000000,0.000090,0.001450,-0.002758,0.5594,0.0903,-0.1462,-0.003068,0.000000,0.000000,0.570641,-0.559903,0.549165,-0.579845,0.567573,-0.552233
0.8554,0.016746,-0.000031,0.000201,-0.000377,0.0849,-0.0205,-0.0417,-0.000222,0.000000,0.000090,0.001450,-0.002758,0.5594,0.0903,-0.1462,-0.003068,0.000000,0.000000,0.570641,-0.559903,0.549165,-0.579845,0.567573,-0.552233
0.8722,0.016753,-0.000028,0.000177,-0.000334,0.0751,-0.0181,-0.0368,-0.000196,0.000000,0.000090,0.001450,-0.002758,0.5594,0.0903,-0.1462,-0.003068,0.000000,0.000000,0.570641,-0.559903,0.549165,-0.579845,0.567573,-0.552233
0.8889,0.016740,-0.000024,0.000154,-0.000290,0.0653,-0.0158,-0.0320,-0.000170,0.000000,0.000090,0.001450,-0.002758,0.5594,0.0903,-0.1462,-0.003068,0.000000,0.000000,0.570641,-0.559903,0.549165,-0.579845,0.567573,-0.552233
0.9057,0.016749,-0.000020,0.000131,-0.000246,0.0554,-0.0134,-0.0272,-0.000145,0.000000,0.000090,0.001450,-0.002758,0.5594,0.0903,-0.1462,-0.003068,0.000000,0.000000,0.570641,-0.559903,0.549165,-0.579845,0.567573,-0.552233
0.9224,0.016746,-0.000017,0.000108,-0.000202,0.0456,-0.0110,-0.0223,-0.000119,0.000000,0.000090,0.001450,-0.002758,0.5594,0.0903,-0.1462,-0.003068,0.000000,0.000000,0.570641,-0.559903,0.549165,-0.579845,0.567573,-0.552233
0.9392,0.016752,-0.000013,0.000084,-0.000159,0.0357,-0.0086,-0.0175,-0.000093,0.000000,0.000049,0.001413,-0.002744,0.5104,0.0725,-0.1987,-0.003068,0.000000,0.000000,0.570641,-0.559903,0.549165,-0.579845,0.567573,-0.553767
0.9559,0.016741,-0.000010,0.000061,-0.000115,0.0259,-0.0063,-0.0127,-0.000068,0.000000,0.000094,0.001455,-0.002759,0.5651,0.0920,-0.1401,-0.003068,0.000000,0.000000,0.570641,-0.559903,0.549165,-0.579845,0.567573,-0.552233
0.9727,0.016748,-0.000006,0.000038,-0.000071,0.0161,-0.0039,-0.0079,-0.000042,0.000000,0.000094,0.001455,-0.002759,0.5651,0.0920,-0.1401,-0.003068,0.000000,0.000000,0.570641,-0.559903,0.549165,-0.579845,0.567573,-0.552233
0.9894,0.016746,-0.000002,0.000015,-0.000028,0.0062,-0.0015,-0.0031,-0.000016,0.000000,0.000049,0.001412,-0.002744,0.5098,0.0723,-0.1993,-0.003068,0.000000,0.000000,0.570641,-0.559903,0.549165,-0.579845,0.567573,-0.553767
1.0062,0.016751,0.000000,0.000000,0.000019,0.0000,0.0000,0.0000,0.000810,-0.000810,0.000054,0.001417,-0.002746,0.5156,0.0744,-0.1931,-0.003068,0.000000,0.000000,0.570641,-0.559903,0.549165,-0.579845,0.567573,-0.553767
1.0229,0.016742,0.000000,0.000000,0.000072,0.0000,0.0000,0.0000,0.003013,-0.003013,0.000054,0.001417,-0.002746,0.5156,0.0744,-0.1931,-0.003068,0.000000,0.000000,0.570641,-0.559903,0.549165,-0.579845,0.567573,-0.553767
1.0396,0.016744,0.000000,0.000000,0.000125,0.0000,0.0000,0.0000,0.005216,-0.005216,0.000054,0.001417,-0.002746,0.5156,0.0744,-0.1931,-0.003068,0.000000,0.000000,0.570641,-0.559903,0.549165,-0.579845,0.567573,-0.553767
1.0564,0.016761,0.000000,0.000000,0.000177,0.0000,0.0000,0.0000,0.007419,-0.007419,0.000054,0.001417,-0.002746,0.5156,0.0744,-0.1931,-0.001534,-0.001534,0.000000,0.570641,-0.559903,0.549165,-0.579845,0.567573,-0.553767
1.0731,0.016733,0.000000,0.000000,0.000230,0.0000,0.0000,0.0000,0.009617,-0.009617,0.000054,0.001417,-0.002746,0.5156,0.0744,-0.1931,-0.001534,-0.001534,0.000000,0.570641,-0.559903,0.549165,-0.579845,0.567573,-0.553767
1.0899,0.016750,0.000000,0.000000,0.000282,0.0000,0.0000,0.0000,0.011815,-0.011815,0.000160,0.001384,-0.002720,0.5928,0.0030,-0.3005,0.001534,-0.001534,0.000000,0.570641,-0.562971,0.549165,-0.579845,0.567573,-0.553767
1.1066,0.016743,0.000000,0.000000,0.000335,0.0000,0.0000,0.0000,0.014008,-0.014008,0.000149,0.001387,-0.002723,0.5846,0.0105,-0.2893,0.003068,-0.003068,0.000000,0.570641,-0.562971,0.549165,-0.579845,0.567573,-0.553767
1.1234,0.016757,0.000000,0.000000,0.000387,0.0000,0.0000,0.0000,0.016201,-0.016201,0.000150,0.001387,-0.002723,0.5858,0.0094,-0.2909,0.003068,-0.004602,0.000000,0.570641,-0.562971,0.549165,-0.579845,0.567573,-0.553767
1.1401,0.016748,0.000000,0.000000,0.000440,0.0000,0.0000,0.0000,0.018388,-0.018388,0.000150,0.001387,-0.002723,0.5858,0.0094,-0.2909,0.007670,-0.007670,0.000000,0.570641,-0.562971,0.549165,-0.579845,0.567573,-0.553767
1.1569,0.016746,0.000000,0.000000,0.000492,0.0000,0.0000,0.0000,0.020570,-0.020570,0.000109,0.001426,-0.002711,0.6355,-0.0060,-0.2370,0.013806,-0.013806,0.000000,0.572175,-0.562971,0.549165,-0.579845,0.567573,-0.553767
1.1736,0.016740,0.000000,0.000000,0.000544,0.0000,0.0000,0.0000,0.022746,-0.022746,0.000109,0.001426,-0.002711,0.6355,-0.0060,-0.2370,0.013806,-0.013806,0.000000,0.572175,-0.562971,0.549165,-0.579845,0.567573,-0.553767
1.1904,0.016748,0.000000,0.000000,0.000597,0.0000,0.0000,0.0000,0.024917,-0.024917,0.000113,0.001422,-0.002712,0.6303,-0.0043,-0.2426,0.016874,-0.016874,0.000000,0.572175,-0.562971,0.549165,-0.579845,0.567573,-0.553767
1.2071,0.016745,0.000000,0.000000,0.000649,0.0000,0.0000,0.0000,0.027082,-0.027082,0.000113,0.001422,-0.002712,0.6303,-0.0043,-0.2426,0.013806,-0.016874,0.000000,0.572175,-0.562971,0.549165,-0.579845,0.567573,-0.553767
1.2239,0.016750,0.000000,0.000000,0.000701,0.0000,0.0000,0.0000,0.029241,-0.029241,-0.000022,0.001439,-0.002663,0.5924,-0.0046,-0.3483,0.013806,-0.016874,0.000000,0.573709,-0.562971,0.549165,-0.581379,0.567573,-0.556835
1.2409,0.017028,0.000000,0.000000,0.000754,0.0000,0.0000,0.0000,0.031429,-0.031429,-0.000130,0.001476,-0.002631,0.6471,-0.0537,-0.2836,0.018408,-0.019942,0.000000,0.576777,-0.562971,0.549165,-0.581379,0.567573,-0.558369
1.2577,0.016760,0.000000,0.000000,0.000806,0.0000,0.0000,0.0000,0.033573,-0.033573,-0.000130,0.001476,-0.002631,0.6471,-0.0537,-0.2836,0.018408,-0.019942,0.000000,0.576777,-0.562971,0.549165,-0.581379,0.567573,-0.558369
1.2744,0.016745,0.000000,0.000000,0.000858,0.0000,0.0000,0.0000,0.035708,-0.035708,-0.000267,0.001513,-0.002536,0.6926,0.0029,-0.3970,0.026078,-0.021476,0.000000,0.579845,-0.564505,0.550699,-0.584447,0.567573,-0.561437
1.2911,0.016744,0.000000,0.000000,0.000910,0.0000,0.0000,0.0000,0.037834,-0.037834,-0.000360,0.001480,-0.002422,0.7677,0.0649,-0.4921,0.032214,-0.027612,0.000000,0.582913,-0.567573,0.553767,-0.587515,0.567573,-0.564505
1.3079,0.016742,0.000000,0.000000,0.000961,0.0000,0.0000,0.0000,0.039950,-0.039950,-0.000488,0.001581,-0.002200,0.8207,0.0627,-0.3219,0.032214,-0.032214,0.000000,0.590583,-0.570641,0.558369,-0.592117,0.572175,-0.569107
1.3246,0.016746,0.000000,0.000000,0.001013,0.0000,0.0000,0.0000,0.042056,-0.042056,-0.000610,0.001481,-0.002024,0.7555,0.0644,-0.3401,0.029146,-0.035282,0.000000,0.595185,-0.573709,0.562971,-0.595185,0.575243,-0.575243
1.3414,0.016785,0.000000,0.000000,0.001064,0.0000,0.0000,0.0000,0.044157,-0.044157,-0.000569,0.001292,-0.001815,0.6797,0.1335,-0.2317,0.035282,-0.036816,0.000000,0.598253,-0.578311,0.570641,-0.598253,0.579845,-0.579845
1.3582,0.016753,0.000000,0.000000,0.001116,0.0000,0.0000,0.0000,0.046243,-0.046243,-0.000569,0.001292,-0.001815,0.6797,0.1335,-0.2317,0.035282,-0.036816,0.000000,0.598253,-0.578311,0.570641,-0.598253,0.579845,-0.579845
1.3749,0.016751,0.000000,0.000000,0.001167,0.0000,0.0000,0.0000,0.048317,-0.048317,-0.000506,0.001228,-0.001662,0.7540,0.2117,-0.1356,0.042951,-0.039884,0.000000,0.601320,-0.582913,0.576777,-0.601320,0.582913,-0.581379
1.3917,0.016740,0.000000,0.000000,0.001218,0.0000,0.0000,0.0000,0.050378,-0.050378,-0.000365,0.001165,-0.001515,0.7726,0.1527,0.0155,0.042951,-0.041417,0.000000,0.604388,-0.587515,0.581379,-0.602854,0.587515,-0.582913
1.4084,0.016746,0.000000,0.000000,0.001269,0.0000,0.0000,0.0000,0.052427,-0.052427,-0.000202,0.001117,-0.001443,0.7591,0.1739,0.0531,0.038350,-0.042951,0.000000,0.604388,-0.590583,0.584447,-0.604388,0.590583,-0.582913
1.4251,0.016739,0.000000,0.000000,0.001320,0.0000,0.0000,0.0000,0.054462,-0.054462,-0.000150,0.001068,-0.001388,0.7496,0.2558,0.1031,0.038350,-0.044485,0.000000,0.604388,-0.592117,0.587515,-0.605922,0.592117,-0.582913
1.4420,0.016818,0.000000,0.000000,0.001371,0.0000,0.0000,0.0000,0.056493,-0.056493,-0.000115,0.001003,-0.001331,0.7785,0.2650,0.2602,0.044485,-0.046019,0.000000,0.605922,-0.593651,0.590583,-0.605922,0.593651,-0.582913
1.4587,0.016746,0.000000,0.000000,0.001421,0.0000,0.0000,0.0000,0.058501,-0.058501,-0.000115,0.001003,-0.001331,0.7785,0.2650,0.2602,0.044485,-0.046019,0.000000,0.605922,-0.593651,0.590583,-0.605922,0.593651,-0.582913
1.4755,0.016742,0.000000,0.000000,0.001472,0.0000,0.0000,0.0000,0.060494,-0.060494,-0.000036,0.000900,-0.001287,0.7540,0.2970,0.3519,0.052155,-0.049087,0.000000,0.605922,-0.595185,0.593651,-0.605922,0.595185,-0.582913
1.4922,0.016742,0.000000,0.000000,0.001522,0.0000,0.0000,0.0000,0.062472,-0.062472,0.000038,0.000911,-0.001205,0.7564,0.3277,0.5048,0.056757,-0.052155,0.000000,0.607456,-0.596719,0.596719,-0.607456,0.598253,-0.582913
1.5089,0.016751,0.000000,0.000000,0.001572,0.0000,0.0000,0.0000,0.064435,-0.064435,0.000112,0.000768,-0.001163,0.8128,0.3560,0.4893,0.056757,-0.056757,0.000000,0.607456,-0.599786,0.599786,-0.607456,0.598253,-0.582913
1.5257,0.016744,0.000000,0.000000,0.001622,0.0000,0.0000,0.0000,0.066382,-0.066382,0.000078,0.000784,-0.001143,0.8069,0.4547,0.4914,0.053689,-0.058291,0.000000,0.607456,-0.599786,0.601320,-0.608990,0.598253,-0.582913
1.5425,0.016841,0.000000,0.000000,0.001672,0.0000,0.0000,0.0000,0.068323,-0.068323,0.000123,0.000743,-0.001157,0.7582,0.4598,0.4368,0.058291,-0.061359,0.000000,0.605922,-0.599786,0.601320,-0.608990,0.598253,-0.582913
1.5593,0.016746,0.000000,0.000000,0.001721,0.0000,0.0000,0.0000,0.070237,-0.070237,0.000123,0.000743,-0.001157,0.7582,0.4598,0.4368,0.058291,-0.061359,0.000000,0.605922,-0.599786,0.601320,-0.608990,0.598253,-0.582913
1.5761,0.016799,0.000000,0.000000,0.001771,0.0000,0.0000,0.0000,0.072138,-0.072138,0.000173,0.000763,-0.001143,0.7245,0.4251,0.4962,0.065961,-0.064427,0.000000,0.605922,-0.599786,0.601320,-0.608990,0.599786,-0.582913
1.5929,0.016820,0.000000,0.000000,0.001820,0.0000,0.0000,0.0000,0.074024,-0.074024,0.000173,0.000763,-0.001143,0.7245,0.4251,0.4962,0.065961,-0.064427,0.000000,0.605922,-0.599786,0.601320,-0.608990,0.599786,-0.582913
1.6096,0.016747,0.000000,0.000000,0.001869,0.0000,0.0000,0.0000,0.075884,-0.075884,0.000173,0.000763,-0.001143,0.7245,0.4251,0.4962,0.065961,-0.064427,0.000000,0.605922,-0.599786,0.601320,-0.608990,0.599786,-0.582913
1.6264,0.016745,0.000000,0.000000,0.001917,0.0000,0.0000,0.0000,0.077724,-0.077724,0.000087,0.000937,-0.001011,0.5931,0.3962,0.4359,0.064427,-0.067495,0.000000,0.608990,-0.599786,0.601320,-0.613592,0.604388,-0.587515
1.6431,0.016743,0.000000,0.000000,0.001966,0.0000,0.0000,0.0000,0.079544,-0.079544,0.000068,0.000935,-0.000988,0.5679,0.3327,0.4966,0.070563,-0.067495,0.000000,0.610524,-0.599786,0.601320,-0.613592,0.605922,-0.589049
1.6599,0.016756,0.000000,0.000000,0.002014,0.0000,0.0000,0.0000,0.081347,-0.081347,0.000016,0.000952,-0.000966,0.5316,0.3728,0.3818,0.069029,-0.067495,0.000000,0.610524,-0.599786,0.601320,-0.615126,0.605922,-0.590583
1.6767,0.016782,0.000000,0.000000,0.002062,0.0000,0.0000,0.0000,0.083131,-0.083131,-0.000075,0.001006,-0.000932,0.5460,0.3867,0.3398,0.067495,-0.070563,0.000000,0.612058,-0.599786,0.601320,-0.616660,0.605922,-0.592117
1.6936,0.016964,0.000000,0.000000,0.002111,0.0000,0.0000,0.0000,0.084914,-0.084914,-0.000075,0.001006,-0.000932,0.5460,0.3867,0.3398,0.067495,-0.070563,0.000000,0.612058,-0.599786,0.601320,-0.616660,0.605922,-0.592117
1.7104,0.016741,0.000000,0.000000,0.002158,0.0000,0.0000,0.0000,0.086652,-0.086652,-0.000215,0.001073,-0.000875,0.5167,0.4366,0.1815,0.070563,-0.073631,0.000000,0.613592,-0.599786,0.601320,-0.619728,0.605922,-0.595185
1.7271,0.016751,0.000000,0.000000,0.002206,0.0000,0.0000,0.0000,0.088370,-0.088370,-0.000379,0.001123,-0.000820,0.5309,0.4167,0.1443,0.081301,-0.076699,0.000000,0.616660,-0.599786,0.601320,-0.621262,0.605922,-0.598253
1.7439,0.016745,0.000000,0.000000,0.002253,0.0000,0.0000,0.0000,0.090065,-0.090065,-0.000445,0.001150,-0.000765,0.4524,0.3856,0.0936,0.087437,-0.076699,0.000000,0.618194,-0.599786,0.601320,-0.622796,0.607456,-0.601320
1.7606,0.016753,0.000000,0.000000,0.002300,0.0000,0.0000,0.0000,0.091738,-0.091738,-0.000315,0.001124,-0.000684,0.3727,0.2669,-0.0647,0.084369,-0.078233,0.000000,0.618194,-0.602854,0.601320,-0.624330,0.610524,-0.604388
1.7774,0.016743,0.000000,0.000000,0.002346,0.0000,0.0000,0.0000,0.093388,-0.093388,-0.000194,0.001127,-0.000618,0.3803,0.1089,-0.0480,0.082835,-0.081301,0.000000,0.619728,-0.605922,0.601320,-0.624330,0.613592,-0.605922
1.7941,0.016754,0.000000,0.000000,0.002393,0.0000,0.0000,0.0000,0.095015,-0.095015,-0.000194,0.001127,-0.000618,0.3803,0.1089,-0.0480,0.082835,-0.081301,0.000000,0.619728,-0.605922,0.601320,-0.624330,0.613592,-0.605922
1.8109,0.016741,0.000000,0.000000,0.002439,0.0000,0.0000,0.0000,0.096617,-0.096617,-0.000277,0.001294,-0.000505,0.4118,0.0430,-0.0494,0.092039,-0.084369,0.000000,0.624330,-0.607456,0.601320,-0.627398,0.616660,-0.608990
1.8276,0.016756,0.000000,0.000000,0.002484,0.0000,0.0000,0.0000,0.098197,-0.098197,-0.000241,0.001310,-0.000432,0.3314,-0.0520,-0.1037,0.093573,-0.088971,0.000000,0.625864,-0.608990,0.601320,-0.628932,0.619728,-0.612058
1.8444,0.016742,0.000000,0.000000,0.002530,0.0000,0.0000,0.0000,0.099751,-0.099751,-0.000150,0.001443,-0.000368,0.4486,-0.0612,-0.2074,0.085903,-0.092039,0.000000,0.627398,-0.612058,0.601320,-0.632000,0.621262,-0.612058
1.8611,0.016753,0.000000,0.000000,0.002575,0.0000,0.0000,0.0000,0.101281,-0.101281,-0.000105,0.001525,-0.000290,0.4956,-0.0920,-0.0328,0.088971,-0.093573,0.000000,0.630466,-0.613592,0.602854,-0.633534,0.624330,-0.612058
1.8779,0.016743,0.000000,0.000000,0.002620,0.0000,0.0000,0.0000,0.102785,-0.102785,-0.000056,0.001613,-0.000215,0.5501,-0.1200,0.1130,0.101243,-0.096641,0.000000,0.633534,-0.615126,0.604388,-0.635068,0.627398,-0.612058
1.8946,0.016762,0.000000,0.000000,0.002665,0.0000,0.0000,0.0000,0.104265,-0.104265,-0.000056,0.001613,-0.000215,0.5501,-0.1200,0.1130,0.101243,-0.096641,0.000000,0.633534,-0.615126,0.604388,-0.635068,0.627398,-0.612058
1.9114,0.016743,0.000000,0.000000,0.002709,0.0000,0.0000,0.0000,0.105718,-0.105718,-0.000130,0.001612,-0.000150,0.6708,-0.0298,0.2073,0.102777,-0.099709,0.000000,0.636602,-0.616660,0.607456,-0.636602,0.627398,-0.612058
1.9281,0.016753,0.000000,0.000000,0.002753,0.0000,0.0000,0.0000,0.107145,-0.107145,-0.000095,0.001598,-0.000083,0.6964,0.0291,0.3068,0.096641,-0.101243,0.000000,0.638136,-0.618194,0.610524,-0.638136,0.628932,-0.612058
1.9451,0.016989,0.000000,0.000000,0.002798,0.0000,0.0000,0.0000,0.108564,-0.108564,-0.000084,0.001529,-0.000004,0.7213,0.1420,0.4610,0.098175,-0.102777,0.000000,0.639670,-0.619728,0.615126,-0.639670,0.630466,-0.612058
1.9618,0.016740,0.000000,0.000000,0.002841,0.0000,0.0000,0.0000,0.109936,-0.109936,-0.000015,0.001450,0.000087,0.7846,0.2135,0.5549,0.102777,-0.101243,0.000000,0.641204,-0.622796,0.619728,-0.641204,0.632000,-0.612058
1.9786,0.016744,0.000000,0.000000,0.002884,0.0000,0.0000,0.0000,0.111281,-0.111281,0.000047,0.001371,0.000176,0.8440,0.2890,0.6554,0.107379,-0.102777,0.000000,0.642738,-0.625864,0.624330,-0.642738,0.633534,-0.612058
1.9953,0.016762,0.000000,0.000000,0.002927,0.0000,0.0000,0.0000,0.112599,-0.112599,0.000047,0.001371,0.000176,0.8440,0.2890,0.6554,0.107379,-0.102777,0.000000,0.642738,-0.625864,0.624330,-0.642738,0.633534,-0.612058
2.0121,0.016739,0.000000,0.000000,0.002970,0.0000,0.0000,0.0000,0.113887,-0.113887,0.000137,0.001292,0.000240,0.9037,0.2631,0.7551,0.107379,-0.102777,0.000000,0.644272,-0.628932,0.627398,-0.642738,0.635068,-0.612058
2.0288,0.016755,0.000000,0.000000,0.003012,0.0000,0.0000,0.0000,0.115149,-0.115149,0.000143,0.001229,0.000283,0.9252,0.3815,0.7454,0.107379,-0.104311,0.000000,0.644272,-0.630466,0.630466,-0.644272,0.635068,-0.612058
2.0456,0.016752,0.000000,0.000000,0.003054,0.0000,0.0000,0.0000,0.116381,-0.116381,0.000058,0.001236,0.000303,0.9225,0.3373,0.7469,0.107379,-0.105845,0.000000,0.645806,-0.630466,0.630466,-0.644272,0.635068,-0.613592
2.0623,0.016758,0.000000,0.000000,0.003095,0.0000,0.0000,0.0000,0.117585,-0.117585,0.000012,0.001220,0.000362,0.9607,0.3754,0.6927,0.113515,-0.108913,0.000000,0.647340,-0.632000,0.632000,-0.645806,0.635068,-0.615126
2.0793,0.016907,0.000000,0.000000,0.003137,0.0000,0.0000,0.0000,0.118770,-0.118770,-0.000011,0.001191,0.000417,1.0331,0.4723,0.7545,0.118117,-0.115049,0.000000,0.648874,-0.633534,0.635068,-0.647340,0.635068,-0.615126
2.0960,0.016753,0.000000,0.000000,0.003177,0.0000,0.0000,0.0000,0.119914,-0.119914,-0.000011,0.001191,0.000417,1.0331,0.4723,0.7545,0.118117,-0.115049,0.000000,0.648874,-0.633534,0.635068,-0.647340,0.635068,-0.615126
2.1128,0.016743,0.000000,0.000000,0.003218,0.0000,0.0000,0.0000,0.121028,-0.121028,-0.000008,0.001082,0.000449,1.0038,0.4601,0.6935,0.116583,-0.118117,0.000000,0.648874,-0.635068,0.636602,-0.647340,0.635068,-0.616660
2.1295,0.016756,0.000000,0.000000,0.003258,0.0000,0.0000,0.0000,0.122112,-0.122112,-0.000035,0.000998,0.000484,0.9468,0.3922,0.5347,0.111981,-0.118117,0.000000,0.648874,-0.636602,0.636602,-0.647340,0.635068,-0.619728
2.1463,0.016744,0.000000,0.000000,0.003298,0.0000,0.0000,0.0000,0.123165,-0.123165,-0.000213,0.000951,0.000541,0.9411,0.3860,0.6076,0.116583,-0.119651,0.000000,0.651942,-0.636602,0.638136,-0.647340,0.635068,-0.622796
2.1630,0.016763,0.000000,0.000000,0.003337,0.0000,0.0000,0.0000,0.124189,-0.124189,-0.000195,0.000956,0.000535,0.9417,0.3866,0.6000,0.122718,-0.121184,0.000000,0.651942,-0.636602,0.638136,-0.647340,0.635068,-0.622796
2.1801,0.017076,0.000000,0.000000,0.003377,0.0000,0.0000,0.0000,0.125200,-0.125200,-0.000239,0.000996,0.000547,0.9902,0.3718,0.6563,0.121184,-0.122718,0.000000,0.653476,-0.636602,0.638136,-0.647340,0.635068,-0.622796
2.1968,0.016749,0.000000,0.000000,0.003415,0.0000,0.0000,0.0000,0.126160,-0.126160,-0.000239,0.000996,0.000547,0.9902,0.3718,0.6563,0.121184,-0.122718,0.000000,0.653476,-0.636602,0.638136,-0.647340,0.635068,-0.622796
2.2136,0.016742,0.000000,0.000000,0.003454,0.0000,0.0000,0.0000,0.127088,-0.127088,-0.000277,0.001032,0.000557,1.0337,0.3586,0.7060,0.119651,-0.122718,0.000000,0.655010,-0.636602,0.638136,-0.647340,0.635068,-0.622796
2.2303,0.016747,0.000000,0.000000,0.003492,0.0000,0.0000,0.0000,0.127985,-0.127985,-0.000316,0.001068,0.000567,1.0777,0.3454,0.7563,0.125786,-0.124252,0.000000,0.656544,-0.636602,0.638136,-0.647340,0.635068,-0.622796
2.2471,0.016741,0.000000,0.000000,0.003529,0.0000,0.0000,0.0000,0.128850,-0.128850,-0.000326,0.001121,0.000578,1.0841,0.3969,0.6962,0.124252,-0.125786,0.000000,0.656544,-0.636602,0.638136,-0.648874,0.635068,-0.622796
2.2638,0.016751,0.000000,0.000000,0.003566,0.0000,0.0000,0.0000,0.129683,-0.129683,-0.000381,0.001212,0.000599,1.1430,0.4270,0.7032,0.119651,-0.127320,0.000000,0.658078,-0.636602,0.638136,-0.650408,0.635068,-0.622796
2.2806,0.016779,0.000000,0.000000,0.003603,0.0000,0.0000,0.0000,0.130485,-0.130485,-0.000389,0.001260,0.000608,1.1479,0.4739,0.6476,0.124252,-0.127320,0.000000,0.658078,-0.636602,0.638136,-0.651942,0.635068,-0.622796
2.2973,0.016743,0.000000,0.000000,0.003639,0.0000,0.0000,0.0000,0.131253,-0.131253,-0.000389,0.001260,0.000608,1.1479,0.4739,0.6476,0.124252,-0.127320,0.000000,0.658078,-0.636602,0.638136,-0.651942,0.635068,-0.622796
2.3141,0.016743,0.000000,0.000000,0.003675,0.0000,0.0000,0.0000,0.131988,-0.131988,-0.000401,0.001312,0.000619,1.1585,0.5189,0.5985,0.130388,-0.128854,0.000000,0.658078,-0.636602,0.638136,-0.653476,0.635068,-0.622796
2.3308,0.016750,0.000000,0.000000,0.003710,0.0000,0.0000,0.0000,0.132691,-0.132691,-0.000359,0.001492,0.000675,1.1512,0.5325,0.6584,0.128854,-0.128854,0.000000,0.659612,-0.636602,0.638136,-0.656544,0.638136,-0.622796
2.3476,0.016749,0.000000,0.000000,0.003746,0.0000,0.0000,0.0000,0.133360,-0.133360,-0.000309,0.001603,0.000715,1.1348,0.4998,0.7621,0.125786,-0.128854,0.000000,0.661146,-0.636602,0.638136,-0.658078,0.641204,-0.622796
2.3643,0.016731,0.000000,0.000000,0.003780,0.0000,0.0000,0.0000,0.133996,-0.133996,-0.000273,0.001777,0.000768,1.1305,0.5222,0.8062,0.130388,-0.130388,0.000000,0.662680,-0.636602,0.638136,-0.661146,0.644272,-0.622796
2.3811,0.016754,0.000000,0.000000,0.003814,0.0000,0.0000,0.0000,0.134599,-0.134599,-0.000220,0.001808,0.000811,1.0163,0.4856,0.8009,0.134990,-0.130388,0.000000,0.662680,-0.636602,0.638136,-0.662680,0.647340,-0.624330
2.3978,0.016755,0.000000,0.000000,0.003848,0.0000,0.0000,0.0000,0.135168,-0.135168,-0.000220,0.001808,0.000811,1.0163,0.4856,0.8009,0.134990,-0.130388,0.000000,0.662680,-0.636602,0.638136,-0.662680,0.647340,-0.624330
2.4146,0.016741,0.000000,0.000000,0.003882,0.0000,0.0000,0.0000,0.135704,-0.135704,-0.000225,0.001952,0.000876,0.9734,0.4910,0.8013,0.131922,-0.130388,0.000000,0.664214,-0.636602,0.638136,-0.665748,0.650408,-0.625864
2.4313,0.016745,0.000000,0.000000,0.003915,0.0000,0.0000,0.0000,0.136205,-0.136205,-0.000098,0.002043,0.000903,0.8747,0.5375,0.7447,0.125786,-0.130388,0.000000,0.662680,-0.636602,0.638136,-0.668816,0.653476,-0.625864
2.4481,0.016748,0.000000,0.000000,0.003947,0.0000,0.0000,0.0000,0.136673,-0.136673,-0.000054,0.002083,0.000948,0.7707,0.4985,0.7502,0.130388,-0.131922,0.000000,0.662680,-0.636602,0.638136,-0.670350,0.656544,-0.627398
2.4648,0.016752,0.000000,0.000000,0.003979,0.0000,0.0000,0.0000,0.137107,-0.137107,-0.000030,0.002209,0.000976,0.7651,0.5686,0.6936,0.136524,-0.131922,0.000000,0.662680,-0.636602,0.638136,-0.673418,0.658078,-0.627398
2.4816,0.016746,0.000000,0.000000,0.004011,0.0000,0.0000,0.0000,0.137507,-0.137507,-0.000131,0.002255,0.001045,0.7768,0.5755,0.4786,0.134990,-0.133456,0.000000,0.664214,-0.638136,0.638136,-0.676486,0.658078,-0.630466
2.4983,0.016757,0.000000,0.000000,0.004042,0.0000,0.0000,0.0000,0.137872,-0.137872,-0.000131,0.002255,0.001045,0.7768,0.5755,0.4786,0.134990,-0.133456,0.000000,0.664214,-0.638136,0.638136,-0.676486,0.658078,-0.630466
2.5151,0.016742,0.000000,0.000000,0.004073,0.0000,0.0000,0.0000,0.138203,-0.138203,-0.000108,0.002275,0.001098,0.8625,0.5213,0.3356,0.131922,-0.134990,0.000000,0.665748,-0.641204,0.638136,-0.678020,0.658078,-0.632000
2.5318,0.016744,0.000000,0.000000,0.004103,0.0000,0.0000,0.0000,0.138500,-0.138500,-0.000196,0.002356,0.001186,0.9517,0.4913,0.1297,0.138058,-0.136524,0.000000,0.668816,-0.644272,0.638136,-0.681087,0.658078,-0.635068
2.5485,0.016742,0.000000,0.000000,0.004133,0.0000,0.0000,0.0000,0.138762,-0.138762,-0.000133,0.002300,0.001263,1.0559,0.4559,-0.0147,0.141126,-0.138058,0.000000,0.670350,-0.648874,0.639670,-0.682621,0.658078,-0.636602
2.5653,0.016749,0.000000,0.000000,0.004162,0.0000,0.0000,0.0000,0.138990,-0.138990,-0.000225,0.002131,0.001427,1.1748,0.4245,-0.1093,0.138058,-0.139592,0.000000,0.674952,-0.655010,0.644272,-0.684155,0.658078,-0.641204
2.5822,0.016895,0.000000,0.000000,0.004191,0.0000,0.0000,0.0000,0.139184,-0.139184,-0.000314,0.002062,0.001520,1.2275,0.4445,-0.1541,0.138058,-0.139592,0.000000,0.678020,-0.658078,0.647340,-0.685689,0.658078,-0.644272
2.5989,0.016754,0.000000,0.000000,0.004220,0.0000,0.0000,0.0000,0.139342,-0.139342,-0.000314,0.002062,0.001520,1.2275,0.4445,-0.1541,0.138058,-0.139592,0.000000,0.678020,-0.658078,0.647340,-0.685689,0.658078,-0.644272
2.6157,0.016774,0.000000,0.000000,0.004248,0.0000,0.0000,0.0000,0.139465,-0.139465,-0.000348,0.001964,0.001596,1.3239,0.4276,-0.0927,0.141126,-0.139592,0.000000,0.681087,-0.661146,0.650408,-0.685689,0.658078,-0.645806
2.6325,0.016778,0.000000,0.000000,0.004275,0.0000,0.0000,0.0000,0.139554,-0.139554,-0.000348,0.001964,0.001596,1.3239,0.4276,-0.0927,0.141126,-0.139592,0.000000,0.681087,-0.661146,0.650408,-0.685689,0.658078,-0.645806
2.6493,0.016794,0.000000,0.000000,0.004303,0.0000,0.0000,0.0000,0.139608,-0.139608,-0.000348,0.001964,0.001596,1.3239,0.4276,-0.0927,0.141126,-0.139592,0.000000,0.681087,-0.661146,0.650408,-0.685689,0.658078,-0.645806
2.6660,0.016747,0.000000,0.000000,0.004329,0.0000,0.0000,0.0000,0.139626,-0.139626,-0.000348,0.001964,0.001596,1.3239,0.4276,-0.0927,0.141126,-0.139592,0.000000,0.681087,-0.661146,0.650408,-0.685689,0.658078,-0.645806
2.6828,0.016744,0.000000,0.000000,0.004355,0.0000,0.0000,0.0000,0.139610,-0.139610,-0.000177,0.001506,0.001873,1.5466,0.4901,-0.0421,0.139592,-0.141126,0.000000,0.685689,-0.673418,0.662680,-0.687223,0.659612,-0.648874
2.6995,0.016753,0.000000,0.000000,0.004381,0.0000,0.0000,0.0000,0.139559,-0.139559,-0.000208,0.001498,0.001857,1.5123,0.5335,0.0089,0.138058,-0.141126,0.000000,0.685689,-0.673418,0.664214,-0.687223,0.659612,-0.648874
2.7164,0.016852,0.000000,0.000000,0.004406,0.0000,0.0000,0.0000,0.139473,-0.139473,-0.000176,0.001483,0.001859,1.5535,0.5958,0.1157,0.138058,-0.141126,0.000000,0.685689,-0.673418,0.665748,-0.687223,0.659612,-0.647340
2.7331,0.016752,0.000000,0.000000,0.004431,0.0000,0.0000,0.0000,0.139352,-0.139352,-0.000176,0.001483,0.001859,1.5535,0.5958,0.1157,0.138058,-0.141126,0.000000,0.685689,-0.673418,0.665748,-0.687223,0.659612,-0.647340
2.7499,0.016721,0.000000,0.000000,0.004455,0.0000,0.0000,0.0000,0.139197,-0.139197,-0.000178,0.001404,0.001896,1.4516,0.5889,0.1602,0.138058,-0.141126,0.000000,0.685689,-0.673418,0.667282,-0.687223,0.661146,-0.648874
2.7666,0.016748,0.000000,0.000000,0.004478,0.0000,0.0000,0.0000,0.139007,-0.139007,-0.000178,0.001412,0.001892,1.4623,0.5896,0.1555,0.138058,-0.141126,0.000000,0.685689,-0.673418,0.667282,-0.687223,0.661146,-0.648874
2.7834,0.016747,0.000000,0.000000,0.004502,0.0000,0.0000,0.0000,0.138783,-0.138783,-0.000178,0.001411,0.001893,1.4608,0.5895,0.1562,0.138058,-0.141126,0.000000,0.685689,-0.673418,0.667282,-0.687223,0.661146,-0.648874
2.8001,0.016736,0.000000,0.000000,0.004524,0.0000,0.0000,0.0000,0.138524,-0.138524,-0.000122,0.001428,0.001905,1.4231,0.5562,0.2110,0.138058,-0.141126,0.000000,0.685689,-0.673418,0.667282,-0.687223,0.662680,-0.648874
2.8169,0.016808,0.000000,0.000000,0.004546,0.0000,0.0000,0.0000,0.138229,-0.138229,-0.000071,0.001442,0.001915,1.3889,0.5263,0.2604,0.138058,-0.141126,0.000000,0.685689,-0.673418,0.667282,-0.687223,0.664214,-0.648874
2.8336,0.016748,0.000000,0.000000,0.004568,0.0000,0.0000,0.0000,0.137901,-0.137901,-0.000071,0.001442,0.001915,1.3889,0.5263,0.2604,0.138058,-0.141126,0.000000,0.685689,-0.673418,0.667282,-0.687223,0.664214,-0.648874
2.8504,0.016744,0.000000,0.000000,0.004589,0.0000,0.0000,0.0000,0.137538,-0.137538,-0.000066,0.001578,0.001971,1.4993,0.4821,0.3111,0.138058,-0.141126,0.000000,0.688757,-0.674952,0.667282,-0.688757,0.665748,-0.648874
2.8671,0.016751,0.000000,0.000000,0.004610,0.0000,0.0000,0.0000,0.137141,-0.137141,-0.000010,0.001547,0.001977,1.5250,0.4518,0.2495,0.138058,-0.141126,0.000000,0.688757,-0.676486,0.667282,-0.688757,0.665748,-0.648874
2.8839,0.016746,0.000000,0.000000,0.004630,0.0000,0.0000,0.0000,0.136711,-0.136711,-0.000032,0.001689,0.001986,1.6302,0.5069,0.3124,0.138058,-0.141126,0.000000,0.690291,-0.676486,0.667282,-0.690291,0.665748,-0.647340
2.9006,0.016752,0.000000,0.000000,0.004650,0.0000,0.0000,0.0000,0.136245,-0.136245,-0.000072,0.001749,0.002031,1.5919,0.4861,0.3060,0.136524,-0.139592,0.000000,0.691825,-0.676486,0.667282,-0.691825,0.667282,-0.648874
2.9175,0.016878,0.000000,0.000000,0.004669,0.0000,0.0000,0.0000,0.135742,-0.135742,-0.000014,0.001840,0.002072,1.6543,0.4552,0.3062,0.136524,-0.139592,0.000000,0.693359,-0.678020,0.667282,-0.693359,0.668816,-0.648874
2.9343,0.016747,0.000000,0.000000,0.004687,0.0000,0.0000,0.0000,0.135209,-0.135209,-0.000014,0.001840,0.002072,1.6543,0.4552,0.3062,0.136524,-0.139592,0.000000,0.693359,-0.678020,0.667282,-0.693359,0.668816,-0.648874
2.9510,0.016739,0.000000,0.000000,0.004705,0.0000,0.0000,0.0000,0.134643,-0.134643,0.000092,0.001830,0.002092,1.6467,0.3901,0.3050,0.136524,-0.139592,0.000000,0.693359,-0.679553,0.667282,-0.693359,0.670350,-0.648874
2.9678,0.016750,0.000000,0.000000,0.004723,0.0000,0.0000,0.0000,0.134042,-0.134042,0.000124,0.001905,0.002112,1.6205,0.4126,0.3046,0.134990,-0.138058,0.000000,0.693359,-0.679553,0.667282,-0.694893,0.671884,-0.648874
2.9845,0.016742,0.000000,0.000000,0.004740,0.0000,0.0000,0.0000,0.133409,-0.133409,0.000121,0.001897,0.002110,1.6233,0.4103,0.3047,0.134990,-0.138058,0.000000,0.693359,-0.679553,0.667282,-0.694893,0.671884,-0.648874
3.0012,0.016730,0.000000,0.000000,0.004756,0.0000,0.0000,0.0000,0.132743,-0.132743,0.000121,0.001897,0.002110,1.6233,0.4103,0.3047,0.133456,-0.136524,0.000000,0.693359,-0.679553,0.667282,-0.694893,0.671884,-0.648874
3.0180,0.016760,0.000000,0.000000,0.004772,0.0000,0.0000,0.0000,0.132042,-0.132042,0.000121,0.001897,0.002110,1.6233,0.4103,0.3047,0.131922,-0.136524,0.000000,0.693359,-0.679553,0.667282,-0.694893,0.671884,-0.648874
3.0347,0.016757,0.000000,0.000000,0.004788,0.0000,0.0000,0.0000,0.131309,-0.131309,0.000121,0.001897,0.002110,1.6233,0.4103,0.3047,0.131922,-0.136524,0.000000,0.693359,-0.679553,0.667282,-0.694893,0.671884,-0.648874
3.0517,0.016934,0.000000,0.000000,0.004803,0.0000,0.0000,0.0000,0.130535,-0.130535,0.000178,0.001914,0.002122,1.5850,0.3774,0.3600,0.131922,-0.134990,0.000000,0.693359,-0.679553,0.667282,-0.694893,0.673418,-0.648874
3.0684,0.016748,0.000000,0.000000,0.004817,0.0000,0.0000,0.0000,0.129736,-0.129736,0.000185,0.001969,0.002143,1.5995,0.3342,0.4659,0.131922,-0.134990,0.000000,0.694893,-0.679553,0.667282,-0.694893,0.674952,-0.648874
3.0852,0.016751,0.000000,0.000000,0.004831,0.0000,0.0000,0.0000,0.128905,-0.128905,0.000140,0.002004,0.002151,1.6463,0.3252,0.5113,0.131922,-0.134990,0.000000,0.696427,-0.679553,0.667282,-0.694893,0.674952,-0.648874
3.1019,0.016747,0.000000,0.000000,0.004844,0.0000,0.0000,0.0000,0.128042,-0.128042,0.000114,0.002097,0.002183,1.7001,0.2664,0.6748,0.131922,-0.133456,0.000000,0.699495,-0.679553,0.667282,-0.694893,0.676486,-0.648874
3.1189,0.017008,0.000000,0.000000,0.004857,0.0000,0.0000,0.0000,0.127133,-0.127133,0.000173,0.002104,0.002191,1.6567,0.2397,0.7132,0.130388,-0.131922,0.000000,0.699495,-0.679553,0.667282,-0.694893,0.678020,-0.648874
3.1357,0.016750,0.000000,0.000000,0.004870,0.0000,0.0000,0.0000,0.126206,-0.126206,0.000173,0.002104,0.002191,1.6567,0.2397,0.7132,0.130388,-0.131922,0.000000,0.699495,-0.679553,0.667282,-0.694893,0.678020,-0.648874
3.1524,0.016743,0.000000,0.000000,0.004881,0.0000,0.0000,0.0000,0.125248,-0.125248,0.000180,0.002160,0.002213,1.6718,0.1963,0.8212,0.128854,-0.131922,0.000000,0.701029,-0.679553,0.667282,-0.694893,0.679553,-0.648874
3.1692,0.016751,0.000000,0.000000,0.004892,0.0000,0.0000,0.0000,0.124258,-0.124258,0.000179,0.002154,0.002210,1.6702,0.2009,0.8099,0.127320,-0.130388,0.000000,0.701029,-0.679553,0.667282,-0.694893,0.679553,-0.648874
3.1859,0.016740,0.000000,0.000000,0.004903,0.0000,0.0000,0.0000,0.123238,-0.123238,0.000136,0.002195,0.002221,1.7185,0.1873,0.8676,0.125786,-0.130388,0.000000,0.702563,-0.679553,0.667282,-0.694893,0.679553,-0.648874
3.2027,0.016758,0.000000,0.000000,0.004913,0.0000,0.0000,0.0000,0.122186,-0.122186,0.000140,0.002191,0.002220,1.7135,0.1887,0.8615,0.124252,-0.128854,0.000000,0.702563,-0.679553,0.667282,-0.694893,0.679553,-0.648874
3.2198,0.017124,0.000000,0.000000,0.004923,0.0000,0.0000,0.0000,0.121079,-0.121079,0.000096,0.002232,0.002231,1.7621,0.1755,0.9187,0.124252,-0.127320,0.000000,0.704097,-0.679553,0.667282,-0.694893,0.679553,-0.648874
3.2365,0.016751,0.000000,0.000000,0.004932,0.0000,0.0000,0.0000,0.119966,-0.119966,0.000096,0.002232,0.002231,1.7621,0.1755,0.9187,0.124252,-0.127320,0.000000,0.704097,-0.679553,0.667282,-0.694893,0.679553,-0.648874
3.2533,0.016744,0.000000,0.000000,0.004940,0.0000,0.0000,0.0000,0.118824,-0.118824,0.000100,0.002228,0.002230,1.7571,0.1769,0.9127,0.122718,-0.125786,0.000000,0.704097,-0.679553,0.667282,-0.694893,0.679553,-0.648874
3.2700,0.016744,0.000000,0.000000,0.004948,0.0000,0.0000,0.0000,0.117652,-0.117652,0.000100,0.002228,0.002230,1.7571,0.1769,0.9127,0.121184,-0.124252,0.000000,0.704097,-0.679553,0.667282,-0.694893,0.679553,-0.648874
3.2868,0.016807,0.000000,0.000000,0.004955,0.0000,0.0000,0.0000,0.116447,-0.116447,0.000100,0.002228,0.002230,1.7571,0.1769,0.9127,0.119651,-0.124252,0.000000,0.704097,-0.679553,0.667282,-0.694893,0.679553,-0.648874
3.3036,0.016795,0.000000,0.000000,0.004962,0.0000,0.0000,0.0000,0.115213,-0.115213,0.000100,0.002228,0.002230,1.7571,0.1769,0.9127,0.118117,-0.124252,0.000000,0.704097,-0.679553,0.667282,-0.694893,0.679553,-0.648874
3.3204,0.016745,0.000000,0.000000,0.004968,0.0000,0.0000,0.0000,0.113953,-0.113953,0.000100,0.002228,0.002230,1.7571,0.1769,0.9127,0.118117,-0.122718,0.000000,0.704097,-0.679553,0.667282,-0.694893,0.679553,-0.648874
3.3371,0.016760,0.000000,0.000000,0.004974,0.0000,0.0000,0.0000,0.112665,-0.112665,0.000100,0.002228,0.002230,1.7571,0.1769,0.9127,0.118117,-0.122718,0.000000,0.704097,-0.679553,0.667282,-0.694893,0.679553,-0.648874
3.3539,0.016747,0.000000,0.000000,0.004979,0.0000,0.0000,0.0000,0.111349,-0.111349,0.000056,0.002269,0.002240,1.8057,0.1637,0.9699,0.116583,-0.122718,0.000000,0.705631,-0.679553,0.667282,-0.694893,0.679553,-0.648874
3.3706,0.016746,0.000000,0.000000,0.004983,0.0000,0.0000,0.0000,0.110006,-0.110006,0.000047,0.002323,0.002250,1.8115,0.2142,0.9082,0.116583,-0.122718,0.000000,0.705631,-0.679553,0.667282,-0.696427,0.679553,-0.648874
3.3874,0.016747,0.000000,0.000000,0.004987,0.0000,0.0000,0.0000,0.108635,-0.108635,0.000004,0.002358,0.002259,1.8590,0.1960,0.9712,0.115049,-0.122718,0.000000,0.707165,-0.679553,0.667282,-0.696427,0.679553,-0.648874
3.4041,0.016764,0.000000,0.000000,0.004991,0.0000,0.0000,0.0000,0.107235,-0.107235,0.000008,0.002355,0.002258,1.8540,0.1979,0.9646,0.113515,-0.122718,0.000000,0.707165,-0.679553,0.667282,-0.696427,0.679553,-0.648874
3.4209,0.016764,0.000000,0.000000,0.004994,0.0000,0.0000,0.0000,0.105809,-0.105809,0.000008,0.002355,0.002258,1.8540,0.1979,0.9646,0.113515,-0.122718,0.000000,0.707165,-0.679553,0.667282,-0.696427,0.679553,-0.648874
3.4377,0.016747,0.000000,0.000000,0.004996,0.0000,0.0000,0.0000,0.104358,-0.104358,-0.000006,0.002413,0.002269,1.8655,0.2467,0.9096,0.110447,-0.121184,0.000000,0.707165,-0.679553,0.667282,-0.697961,0.679553,-0.648874
3.4544,0.016745,0.000000,0.000000,0.004998,0.0000,0.0000,0.0000,0.102881,-0.102881,-0.000005,0.002407,0.002267,1.8643,0.2416,0.9153,0.107379,-0.115049,0.000000,0.707165,-0.679553,0.667282,-0.697961,0.679553,-0.648874
3.4711,0.016746,0.000000,0.000000,0.004999,0.0000,0.0000,0.0000,0.101379,-0.101379,-0.000005,0.002407,0.002267,1.8643,0.2416,0.9153,0.104311,-0.113515,0.000000,0.707165,-0.679553,0.667282,-0.697961,0.679553,-0.648874
3.4879,0.016760,0.000000,0.000000,0.005000,0.0000,0.0000,0.0000,0.099850,-0.099850,-0.000005,0.002407,0.002267,1.8643,0.2416,0.9153,0.101243,-0.107379,0.000000,0.707165,-0.679553,0.667282,-0.697961,0.679553,-0.648874
3.5047,0.016761,0.000000,0.000000,0.005000,0.0000,0.0000,0.0000,0.098296,-0.098296,-0.000005,0.002407,0.002267,1.8643,0.2416,0.9153,0.101243,-0.102777,0.000000,0.707165,-0.679553,0.667282,-0.697961,0.679553,-0.648874
3.5214,0.016759,0.000000,0.000000,0.005000,0.0000,0.0000,0.0000,0.096717,-0.096717,-0.000005,0.002407,0.002267,1.8643,0.2416,0.9153,0.101243,-0.102777,0.000000,0.707165,-0.679553,0.667282,-0.697961,0.679553,-0.648874
3.5382,0.016753,0.000000,0.000000,0.004999,0.0000,0.0000,0.0000,0.095115,-0.095115,-0.000019,0.002466,0.002278,1.8754,0.2911,0.8590,0.102777,-0.102777,0.000000,0.707165,-0.679553,0.667282,-0.699495,0.679553,-0.648874
3.5549,0.016743,0.000000,0.000000,0.004997,0.0000,0.0000,0.0000,0.093490,-0.093490,-0.000018,0.002460,0.002277,1.8743,0.2859,0.8649,0.099709,-0.102777,0.000000,0.707165,-0.679553,0.667282,-0.699495,0.679553,-0.648874
3.5717,0.016744,0.000000,0.000000,0.004995,0.0000,0.0000,0.0000,0.091842,-0.091842,-0.000032,0.002519,0.002287,1.8854,0.3353,0.8085,0.093573,-0.098175,0.000000,0.707165,-0.679553,0.667282,-0.701029,0.679553,-0.648874
3.5884,0.016745,0.000000,0.000000,0.004992,0.0000,0.0000,0.0000,0.090171,-0.090171,-0.000044,0.002571,0.002297,1.8953,0.3790,0.7586,0.093573,-0.096641,0.000000,0.707165,-0.679553,0.667282,-0.702563,0.679553,-0.648874
3.6052,0.016749,0.000000,0.000000,0.004989,0.0000,0.0000,0.0000,0.088477,-0.088477,-0.000043,0.002566,0.002296,1.8943,0.3744,0.7638,0.092039,-0.095107,0.000000,0.707165,-0.679553,0.667282,-0.702563,0.679553,-0.648874
3.6219,0.016748,0.000000,0.000000,0.004985,0.0000,0.0000,0.0000,0.086761,-0.086761,-0.000043,0.002566,0.002296,1.8943,0.3744,0.7638,0.092039,-0.095107,0.000000,0.707165,-0.679553,0.667282,-0.702563,0.679553,-0.648874
3.6387,0.016744,0.000000,0.000000,0.004981,0.0000,0.0000,0.0000,0.085024,-0.085024,-0.000043,0.002566,0.002296,1.8943,0.3744,0.7638,0.085903,-0.092039,0.000000,0.707165,-0.679553,0.667282,-0.702563,0.679553,-0.648874
3.6554,0.016742,0.000000,0.000000,0.004976,0.0000,0.0000,0.0000,0.083266,-0.083266,-0.000043,0.002566,0.002296,1.8943,0.3744,0.7638,0.087437,-0.088971,0.000000,0.707165,-0.679553,0.667282,-0.702563,0.679553,-0.648874
3.6722,0.016807,0.000000,0.000000,0.004971,0.0000,0.0000,0.0000,0.081480,-0.081480,-0.000043,0.002566,0.002296,1.8943,0.3744,0.7638,0.090505,-0.088971,0.000000,0.707165,-0.679553,0.667282,-0.702563,0.679553,-0.648874
3.6890,0.016821,0.000000,0.000000,0.004965,0.0000,0.0000,0.0000,0.079672,-0.079672,-0.000043,0.002566,0.002296,1.8943,0.3744,0.7638,0.090505,-0.088971,0.000000,0.707165,-0.679553,0.667282,-0.702563,0.679553,-0.648874
3.7058,0.016758,0.000000,0.000000,0.004958,0.0000,0.0000,0.0000,0.077851,-0.077851,-0.000043,0.002566,0.002296,1.8943,0.3744,0.7638,0.090505,-0.088971,0.000000,0.707165,-0.679553,0.667282,-0.702563,0.679553,-0.648874
3.7225,0.016754,0.000000,0.000000,0.004951,0.0000,0.0000,0.0000,0.076012,-0.076012,-0.000043,0.002566,0.002296,1.8943,0.3744,0.7638,0.081301,-0.082835,0.000000,0.707165,-0.679553,0.667282,-0.702563,0.679553,-0.648874
3.7393,0.016750,0.000000,0.000000,0.004944,0.0000,0.0000,0.0000,0.074153,-0.074153,-0.000043,0.002566,0.002296,1.8943,0.3744,0.7638,0.082835,-0.082835,0.000000,0.707165,-0.679553,0.667282,-0.702563,0.679553,-0.648874
3.7560,0.016750,0.000000,0.000000,0.004935,0.0000,0.0000,0.0000,0.072276,-0.072276,-0.000043,0.002566,0.002296,1.8943,0.3744,0.7638,0.082835,-0.079767,0.000000,0.707165,-0.679553,0.667282,-0.702563,0.679553,-0.648874
3.7728,0.016739,0.000000,0.000000,0.004927,0.0000,0.0000,0.0000,0.070383,-0.070383,-0.000043,0.002566,0.002296,1.8943,0.3744,0.7638,0.082835,-0.079767,0.000000,0.707165,-0.679553,0.667282,-0.702563,0.679553,-0.648874
3.7895,0.016749,0.000000,0.000000,0.004917,0.0000,0.0000,0.0000,0.068470,-0.068470,-0.000043,0.002566,0.002296,1.8943,0.3744,0.7638,0.076699,-0.073631,0.000000,0.707165,-0.679553,0.667282,-0.702563,0.679553,-0.648874
3.8063,0.016742,0.000000,0.000000,0.004908,0.0000,0.0000,0.0000,0.066542,-0.066542,-0.000043,0.002566,0.002296,1.8943,0.3744,0.7638,0.070563,-0.073631,0.000000,0.707165,-0.679553,0.667282,-0.702563,0.679553,-0.648874
3.8230,0.016713,0.000000,0.000000,0.004897,0.0000,0.0000,0.0000,0.064600,-0.064600,-0.000043,0.002566,0.002296,1.8943,0.3744,0.7638,0.069029,-0.075165,0.000000,0.707165,-0.679553,0.667282,-0.702563,0.679553,-0.648874
3.8397,0.016750,0.000000,0.000000,0.004887,0.0000,0.0000,0.0000,0.062638,-0.062638,-0.000043,0.002566,0.002296,1.8943,0.3744,0.7638,0.070563,-0.070563,0.000000,0.707165,-0.679553,0.667282,-0.702563,0.679553,-0.648874
3.8565,0.016753,0.000000,0.000000,0.004875,0.0000,0.0000,0.0000,0.060660,-0.060660,-0.000043,0.002566,0.002296,1.8943,0.3744,0.7638,0.070563,-0.070563,0.000000,0.707165,-0.679553,0.667282,-0.702563,0.679553,-0.648874
3.8732,0.016745,0.000000,0.000000,0.004863,0.0000,0.0000,0.0000,0.058668,-0.058668,-0.000043,0.002566,0.002296,1.8943,0.3744,0.7638,0.065961,-0.065961,0.000000,0.707165,-0.679553,0.667282,-0.702563,0.679553,-0.648874
3.8900,0.016742,0.000000,0.000000,0.004851,0.0000,0.0000,0.0000,0.056661,-0.056661,-0.000043,0.002566,0.002296,1.8943,0.3744,0.7638,0.059825,-0.065961,0.000000,0.707165,-0.679553,0.667282,-0.702563,0.679553,-0.648874
3.9067,0.016745,0.000000,0.000000,0.004838,0.0000,0.0000,0.0000,0.054641,-0.054641,-0.000043,0.002566,0.002296,1.8943,0.3744,0.7638,0.061359,-0.065961,0.000000,0.707165,-0.679553,0.667282,-0.702563,0.679553,-0.648874
3.9235,0.016750,0.000000,0.000000,0.004824,0.0000,0.0000,0.0000,0.052605,-0.052605,-0.000043,0.002566,0.002296,1.8943,0.3744,0.7638,0.062893,-0.061359,0.000000,0.707165,-0.679553,0.667282,-0.702563,0.679553,-0.648874
3.9404,0.016913,0.000000,0.000000,0.004810,0.0000,0.0000,0.0000,0.050537,-0.050537,-0.000043,0.002566,0.002296,1.8943,0.3744,0.7638,0.058291,-0.055223,0.000000,0.707165,-0.679553,0.667282,-0.702563,0.679553,-0.648874
3.9571,0.016743,0.000000,0.000000,0.004795,0.0000,0.0000,0.0000,0.048477,-0.048477,-0.000043,0.002566,0.002296,1.8943,0.3744,0.7638,0.058291,-0.055223,0.000000,0.707165,-0.679553,0.667282,-0.702563,0.679553,-0.648874
3.9739,0.016738,0.000000,0.000000,0.004780,0.0000,0.0000,0.0000,0.046405,-0.046405,-0.000043,0.002566,0.002296,1.8943,0.3744,0.7638,0.052155,-0.052155,0.000000,0.707165,-0.679553,0.667282,-0.702563,0.679553,-0.648874
3.9906,0.016743,0.000000,0.000000,0.004764,0.0000,0.0000,0.0000,0.044322,-0.044322,-0.000043,0.002566,0.002296,1.8943,0.3744,0.7638,0.050621,-0.052155,0.000000,0.707165,-0.679553,0.667282,-0.702563,0.679553,-0.648874
4.0073,0.016745,0.000000,0.000000,0.004748,0.0000,0.0000,0.0000,0.042227,-0.042227,-0.000043,0.002566,0.002296,1.8943,0.3744,0.7638,0.050621,-0.050621,0.000000,0.707165,-0.679553,0.667282,-0.702563,0.679553,-0.648874
4.0241,0.016753,0.000000,0.000000,0.004731,0.0000,0.0000,0.0000,0.040120,-0.040120,-0.000043,0.002566,0.002296,1.8943,0.3744,0.7638,0.046019,-0.046019,0.000000,0.707165,-0.679553,0.667282,-0.702563,0.679553,-0.648874
4.0408,0.016749,0.000000,0.000000,0.004714,0.0000,0.0000,0.0000,0.038004,-0.038004,-0.000043,0.002566,0.002296,1.8943,0.3744,0.7638,0.038350,-0.044485,0.000000,0.707165,-0.679553,0.667282,-0.702563,0.679553,-0.648874
4.0576,0.016743,0.000000,0.000000,0.004696,0.0000,0.0000,0.0000,0.035879,-0.035879,-0.000043,0.002566,0.002296,1.8943,0.3744,0.7638,0.038350,-0.044485,0.000000,0.707165,-0.679553,0.667282,-0.702563,0.679553,-0.648874
4.0743,0.016749,0.000000,0.000000,0.004678,0.0000,0.0000,0.0000,0.033745,-0.033745,-0.000043,0.002566,0.002296,1.8943,0.3744,0.7638,0.039884,-0.042951,0.000000,0.707165,-0.679553,0.667282,-0.702563,0.679553,-0.648874
4.0911,0.016740,0.000000,0.000000,0.004659,0.0000,0.0000,0.0000,0.031603,-0.031603,-0.000043,0.002566,0.002296,1.8943,0.3744,0.7638,0.044485,-0.041417,0.000000,0.707165,-0.679553,0.667282,-0.702563,0.679553,-0.648874
4.1078,0.016749,0.000000,0.000000,0.004640,0.0000,0.0000,0.0000,0.029453,-0.029453,-0.000043,0.002566,0.002296,1.8943,0.3744,0.7638,0.039884,-0.038350,0.000000,0.707165,-0.679553,0.667282,-0.702563,0.679553,-0.648874
4.1245,0.016721,0.000000,0.000000,0.004620,0.0000,0.0000,0.0000,0.027298,-0.027298,-0.000043,0.002566,0.002296,1.8943,0.3744,0.7638,0.030680,-0.038350,0.000000,0.707165,-0.679553,0.667282,-0.702563,0.679553,-0.648874
4.1413,0.016746,0.000000,0.000000,0.004600,0.0000,0.0000,0.0000,0.025134,-0.025134,-0.000043,0.002566,0.002296,1.8943,0.3744,0.7638,0.027612,-0.035282,0.000000,0.707165,-0.679553,0.667282,-0.702563,0.679553,-0.648874
4.1580,0.016748,0.000000,0.000000,0.004579,0.0000,0.0000,0.0000,0.022963,-0.022963,-0.000043,0.002566,0.002296,1.8943,0.3744,0.7638,0.027612,-0.035282,0.000000,0.707165,-0.679553,0.667282,-0.702563,0.679553,-0.648874
4.1748,0.016745,0.000000,0.000000,0.004557,0.0000,0.0000,0.0000,0.020786,-0.020786,-0.000043,0.002566,0.002296,1.8943,0.3744,0.7638,0.029146,-0.030680,0.000000,0.707165,-0.679553,0.667282,-0.702563,0.679553,-0.648874
4.1915,0.016743,0.000000,0.000000,0.004535,0.0000,0.0000,0.0000,0.018605,-0.018605,-0.000043,0.002566,0.002296,1.8943,0.3744,0.7638,0.032214,-0.027612,0.000000,0.707165,-0.679553,0.667282,-0.702563,0.679553,-0.648874
4.2083,0.016741,0.000000,0.000000,0.004513,0.0000,0.0000,0.0000,0.016419,-0.016419,-0.000043,0.002566,0.002296,1.8943,0.3744,0.7638,0.027612,-0.026078,0.000000,0.707165,-0.679553,0.667282,-0.702563,0.679553,-0.648874
4.2253,0.017078,0.000000,0.000000,0.004490,0.0000,0.0000,0.0000,0.014186,-0.014186,-0.000043,0.002566,0.002296,1.8943,0.3744,0.7638,0.021476,-0.024544,0.000000,0.707165,-0.679553,0.667282,-0.702563,0.679553,-0.648874
4.2422,0.016830,0.000000,0.000000,0.004466,0.0000,0.0000,0.0000,0.011981,-0.011981,0.000012,0.002549,0.002308,1.9314,0.3394,0.7067,0.015340,-0.016874,0.000000,0.707165,-0.681087,0.667282,-0.702563,0.679553,-0.648874
4.2589,0.016755,0.000000,0.000000,0.004442,0.0000,0.0000,0.0000,0.009782,-0.009782,0.000012,0.002549,0.002308,1.9314,0.3394,0.7067,0.015340,-0.016874,0.000000,0.707165,-0.681087,0.667282,-0.702563,0.679553,-0.648874
4.2757,0.016741,0.000000,0.000000,0.004418,0.0000,0.0000,0.0000,0.007584,-0.007584,-0.000049,0.002568,0.002294,1.8906,0.3785,0.7692,0.012272,-0.013806,0.000000,0.707165,-0.679553,0.667282,-0.702563,0.679553,-0.648874
4.2924,0.016744,0.000000,0.000000,0.004393,0.0000,0.0000,0.0000,0.005383,-0.005383,-0.000043,0.002566,0.002296,1.8948,0.3744,0.7627,0.013806,-0.016874,0.000000,0.707165,-0.679553,0.667282,-0.702563,0.679553,-0.648874
4.3092,0.016761,0.000000,0.000000,0.004368,0.0000,0.0000,0.0000,0.003178,-0.003178,-0.000043,0.002566,0.002296,1.8948,0.3744,0.7627,0.015340,-0.013806,0.000000,0.707165,-0.679553,0.667282,-0.702563,0.679553,-0.648874
4.3261,0.016922,0.000000,0.000000,0.004341,0.0000,0.0000,0.0000,0.000952,-0.000952,-0.000043,0.002566,0.002296,1.8948,0.3744,0.7627,0.009204,-0.007670,0.000000,0.707165,-0.679553,0.667282,-0.702563,0.679553,-0.648874
4.3429,0.016752,0.000000,0.000000,0.004315,0.0000,0.0000,0.0000,-0.001253,0.001253,-0.000043,0.002566,0.002296,1.8948,0.3744,0.7627,-0.001534,-0.006136,0.000000,0.707165,-0.679553,0.667282,-0.702563,0.679553,-0.648874
4.3596,0.016747,0.000000,0.000000,0.004288,0.0000,0.0000,0.0000,-0.003456,0.003456,-0.000043,0.002566,0.002296,1.8948,0.3744,0.7627,-0.001534,-0.006136,0.000000,0.707165,-0.679553,0.667282,-0.702563,0.679553,-0.648874
4.3763,0.016741,0.000000,0.000000,0.004261,0.0000,0.0000,0.0000,-0.005658,0.005658,-0.000043,0.002566,0.002296,1.8948,0.3744,0.7627,0.006136,-0.004602,0.000000,0.707165,-0.679553,0.667282,-0.702563,0.679553,-0.648874
4.3931,0.016745,0.000000,0.000000,0.004233,0.0000,0.0000,0.0000,-0.007859,0.007859,-0.000043,0.002566,0.002296,1.8948,0.3744,0.7627,0.001534,-0.001534,0.000000,0.707165,-0.679553,0.667282,-0.702563,0.679553,-0.648874
4.4098,0.016743,0.000000,0.000000,0.004205,0.0000,0.0000,0.0000,-0.010058,0.010058,-0.000043,0.002566,0.002296,1.8948,0.3744,0.7627,-0.006136,0.004602,0.000000,0.707165,-0.679553,0.667282,-0.702563,0.679553,-0.648874
4.4266,0.016741,0.000000,0.000000,0.004176,0.0000,0.0000,0.0000,-0.012254,0.012254,-0.000043,0.002566,0.002296,1.8948,0.3744,0.7627,-0.009204,0.007670,0.000000,0.707165,-0.679553,0.667282,-0.702563,0.679553,-0.648874
4.4435,0.016910,0.000000,0.000000,0.004147,0.0000,0.0000,0.0000,-0.014469,0.014469,-0.000043,0.002566,0.002296,1.8948,0.3744,0.7627,-0.006136,0.007670,0.000000,0.707165,-0.679553,0.667282,-0.702563,0.679553,-0.648874
4.4602,0.016752,0.000000,0.000000,0.004117,0.0000,0.0000,0.0000,-0.016660,0.016660,-0.000043,0.002566,0.002296,1.8948,0.3744,0.7627,-0.006136,0.007670,0.000000,0.707165,-0.679553,0.667282,-0.702563,0.679553,-0.648874
4.4770,0.016740,0.000000,0.000000,0.004087,0.0000,0.0000,0.0000,-0.018845,0.018845,-0.000043,0.002566,0.002296,1.8948,0.3744,0.7627,-0.009204,0.007670,0.000000,0.707165,-0.679553,0.667282,-0.702563,0.679553,-0.648874
4.4937,0.016755,0.000000,0.000000,0.004057,0.0000,0.0000,0.0000,-0.021027,0.021027,-0.000043,0.002566,0.002296,1.8948,0.3744,0.7627,-0.013806,0.012272,0.000000,0.707165,-0.679553,0.667282,-0.702563,0.679553,-0.648874
4.5105,0.016740,0.000000,0.000000,0.004026,0.0000,0.0000,0.0000,-0.023202,0.023202,-0.000043,0.002566,0.002296,1.8948,0.3744,0.7627,-0.019942,0.016874,0.000000,0.707165,-0.679553,0.667282,-0.702563,0.679553,-0.648874
4.5272,0.016747,0.000000,0.000000,0.003994,0.0000,0.0000,0.0000,-0.025372,0.025372,-0.000043,0.002566,0.002296,1.8948,0.3744,0.7627,-0.019942,0.016874,0.000000,0.707165,-0.679553,0.667282,-0.702563,0.679553,-0.648874
4.5440,0.016756,0.000000,0.000000,0.003962,0.0000,0.0000,0.0000,-0.027537,0.027537,-0.000043,0.002566,0.002296,1.8948,0.3744,0.7627,-0.019942,0.016874,0.000000,0.707165,-0.679553,0.667282,-0.702563,0.679553,-0.648874
