t,loop_dt,cmd_x,cmd_y,cmd_z,cmd_roll,cmd_pitch,cmd_yaw,cmd_ant_l,cmd_ant_r,pres_x,pres_y,pres_z,pres_roll,pres_pitch,pres_yaw,pres_ant_l,pres_ant_r,pres_j0,pres_j1,pres_j2,pres_j3,pres_j4,pres_j5,pres_j6
0.0000,0.000001,-0.000066,0.000860,-0.002332,0.3301,0.2325,0.1938,-0.003068,0.000000,-0.000066,0.000860,-0.002332,0.3301,0.2325,0.1938,-0.003068,0.000000,0.000000,0.578311,-0.567573,0.567573,-0.582913,0.575243,-0.564505
0.0167,0.016749,-0.000065,0.000845,-0.002293,0.3246,0.2287,0.1905,-0.003017,0.000000,-0.000066,0.000860,-0.002332,0.3301,0.2325,0.1938,0.004602,0.000000,0.000000,0.578311,-0.567573,0.567573,-0.582913,0.575243,-0.564505
0.0335,0.016745,-0.000064,0.000831,-0.002254,0.3191,0.2248,0.1873,-0.002965,0.000000,-0.000066,0.000860,-0.002332,0.3301,0.2325,0.1938,0.004602,0.000000,0.000000,0.578311,-0.567573,0.567573,-0.582913,0.575243,-0.564505
0.0502,0.016743,-0.000063,0.000817,-0.002215,0.3135,0.2209,0.1840,-0.002914,0.000000,-0.000066,0.000860,-0.002332,0.3301,0.2325,0.1938,0.003068,0.000000,0.000000,0.578311,-0.567573,0.567573,-0.582913,0.575243,-0.564505
0.0670,0.016746,-0.000062,0.000802,-0.002176,0.3080,0.2170,0.1808,-0.002862,0.000000,-0.000078,0.000914,-0.002358,0.3411,0.2847,0.3000,-0.004602,0.000000,0.000000,0.578311,-0.566039,0.567573,-0.582913,0.575243,-0.562971
0.0837,0.016745,-0.000060,0.000788,-0.002137,0.3025,0.2131,0.1775,-0.002811,0.000000,0.000141,0.000939,-0.002480,0.2615,0.4826,0.3942,-0.003068,0.000000,0.000000,0.572175,-0.562971,0.567573,-0.582913,0.575243,-0.556835
0.1005,0.016740,-0.000059,0.000774,-0.002098,0.2969,0.2092,0.1743,-0.002760,0.000000,0.000240,0.000897,-0.002504,0.2199,0.5111,0.3305,0.004602,0.000000,0.000000,0.569107,-0.562971,0.567573,-0.582913,0.575243,-0.555301
0.1172,0.016747,-0.000058,0.000759,-0.002059,0.2914,0.2054,0.1710,-0.002708,0.000000,0.000240,0.000897,-0.002504,0.2199,0.5111,0.3305,0.003068,0.000000,0.000000,0.569107,-0.562971,0.567573,-0.582913,0.575243,-0.553767
0.1340,0.016740,-0.000057,0.000745,-0.002020,0.2859,0.2015,0.1678,-0.002657,0.000000,0.000270,0.000940,-0.002515,0.2741,0.5255,0.3905,0.003068,0.000000,0.000000,0.569107,-0.562971,0.567573,-0.582913,0.575243,-0.553767
0.1507,0.016742,-0.000056,0.000730,-0.001981,0.2803,0.1976,0.1645,-0.002606,0.000000,0.000267,0.000936,-0.002514,0.2685,0.5240,0.3842,-0.006136,0.000000,0.000000,0.569107,-0.562971,0.567573,-0.582913,0.575243,-0.553767
0.1674,0.016745,-0.000055,0.000716,-0.001942,0.2748,0.1937,0.1613,-0.002554,0.000000,0.000267,0.000936,-0.002514,0.2685,0.5240,0.3842,-0.003068,0.000000,0.000000,0.569107,-0.562971,0.567573,-0.582913,0.575243,-0.553767
0.1842,0.016748,-0.000054,0.000702,-0.001903,0.2693,0.1898,0.1580,-0.002503,0.000000,0.000267,0.000936,-0.002514,0.2685,0.5240,0.3842,0.003068,0.000000,0.000000,0.569107,-0.562971,0.567573,-0.582913,0.575243,-0.553767
0.2009,0.016748,-0.000053,0.000687,-0.001864,0.2637,0.1859,0.1548,-0.002451,0.000000,0.000267,0.000936,-0.002514,0.2685,0.5240,0.3842,0.003068,0.000000,0.000000,0.569107,-0.562971,0.567573,-0.582913,0.575243,-0.553767
0.2177,0.016748,-0.000052,0.000673,-0.001825,0.2582,0.1820,0.1515,-0.002400,0.000000,0.000227,0.000898,-0.002501,0.2192,0.5068,0.3316,-0.003068,0.000000,0.000000,0.569107,-0.562971,0.567573,-0.582913,0.575243,-0.555301
0.2344,0.016741,-0.000050,0.000658,-0.001786,0.2527,0.1781,0.1483,-0.002349,0.000000,0.000227,0.000898,-0.002501,0.2192,0.5068,0.3316,-0.003068,0.000000,0.000000,0.569107,-0.562971,0.567573,-0.582913,0.575243,-0.555301
0.2512,0.016744,-0.000049,0.000644,-0.001747,0.2471,0.1743,0.1450,-0.002297,0.000000,0.000272,0.000940,-0.002515,0.2742,0.5260,0.3904,-0.004602,0.000000,0.000000,0.569107,-0.562971,0.567573,-0.582913,0.575243,-0.553767
0.2679,0.016747,-0.000048,0.000630,-0.001707,0.2416,0.1704,0.1418,-0.002246,0.000000,0.000267,0.000936,-0.002514,0.2685,0.5240,0.3842,-0.001534,0.000000,0.000000,0.569107,-0.562971,0.567573,-0.582913,0.575243,-0.553767
0.2847,0.016812,-0.000047,0.000615,-0.001668,0.2361,0.1665,0.1385,-0.002194,0.000000,0.000267,0.000936,-0.002514,0.2685,0.5240,0.3842,0.001534,0.000000,0.000000,0.569107,-0.562971,0.567573,-0.582913,0.575243,-0.553767
0.3015,0.016744,-0.000046,0.000601,-0.001629,0.2305,0.1626,0.1352,-0.002143,0.000000,0.000267,0.000936,-0.002514,0.2685,0.5240,0.3842,-0.003068,0.000000,0.000000,0.569107,-0.562971,0.567573,-0.582913,0.575243,-0.553767
0.3182,0.016751,-0.000045,0.000586,-0.001590,0.2250,0.1587,0.1320,-0.002092,0.000000,0.000267,0.000936,-0.002514,0.2685,0.5240,0.3842,-0.004602,0.000000,0.000000,0.569107,-0.562971,0.567573,-0.582913,0.575243,-0.553767
0.3350,0.016741,-0.000044,0.000572,-0.001551,0.2195,0.1548,0.1287,-0.002040,0.000000,0.000267,0.000936,-0.002514,0.2685,0.5240,0.3842,-0.004602,0.000000,0.000000,0.569107,-0.562971,0.567573,-0.582913,0.575243,-0.553767
0.3517,0.016759,-0.000043,0.000557,-0.001512,0.2139,0.1509,0.1255,-0.001989,0.000000,0.000267,0.000936,-0.002514,0.2685,0.5240,0.3842,0.001534,0.000000,0.000000,0.569107,-0.562971,0.567573,-0.582913,0.575243,-0.553767
0.3685,0.016745,-0.000042,0.000543,-0.001473,0.2084,0.1470,0.1222,-0.001938,0.000000,0.000267,0.000936,-0.002514,0.2685,0.5240,0.3842,0.004602,0.000000,0.000000,0.569107,-0.562971,0.567573,-0.582913,0.575243,-0.553767
0.3852,0.016749,-0.000041,0.000529,-0.001434,0.2029,0.1431,0.1190,-0.001886,0.000000,0.000267,0.000936,-0.002514,0.2685,0.5240,0.3842,-0.003068,0.000000,0.000000,0.569107,-0.562971,0.567573,-0.582913,0.575243,-0.553767
0.4020,0.016750,-0.000039,0.000514,-0.001395,0.1973,0.1392,0.1157,-0.001835,0.000000,0.000267,0.000936,-0.002514,0.2685,0.5240,0.3842,-0.004602,0.000000,0.000000,0.569107,-0.562971,0.567573,-0.582913,0.575243,-0.553767
0.4187,0.016755,-0.000038,0.000500,-0.001356,0.1918,0.1353,0.1125,-0.001783,0.000000,0.000267,0.000936,-0.002514,0.2685,0.5240,0.3842,-0.001534,0.000000,0.000000,0.569107,-0.562971,0.567573,-0.582913,0.575243,-0.553767
0.4355,0.016743,-0.000037,0.000485,-0.001317,0.1863,0.1314,0.1093,-0.001732,0.000000,0.000267,0.000936,-0.002514,0.2685,0.5240,0.3842,-0.001534,0.000000,0.000000,0.569107,-0.562971,0.567573,-0.582913,0.575243,-0.553767
0.4523,0.016857,-0.000036,0.000471,-0.001277,0.1807,0.1275,0.1060,-0.001680,0.000000,0.000267,0.000936,-0.002514,0.2685,0.5240,0.3842,0.004602,0.000000,0.000000,0.569107,-0.562971,0.567573,-0.582913,0.575243,-0.553767
0.4695,0.017195,-0.000035,0.000456,-0.001237,0.1750,0.1235,0.1026,-0.001627,0.000000,0.000267,0.000936,-0.002514,0.2685,0.5240,0.3842,0.004602,0.000000,0.000000,0.569107,-0.562971,0.567573,-0.582913,0.575243,-0.553767
0.4863,0.016741,-0.000034,0.000442,-0.001198,0.1695,0.1196,0.0994,-0.001576,0.000000,0.000267,0.000936,-0.002514,0.2685,0.5240,0.3842,0.004602,0.000000,0.000000,0.569107,-0.562971,0.567573,-0.582913,0.575243,-0.553767
0.5030,0.016741,-0.000033,0.000427,-0.001159,0.1640,0.1157,0.0962,-0.001525,0.000000,0.000267,0.000936,-0.002514,0.2685,0.5240,0.3842,-0.004602,0.000000,0.000000,0.569107,-0.562971,0.567573,-0.582913,0.575243,-0.553767
0.5198,0.016752,-0.000032,0.000413,-0.001120,0.1585,0.1118,0.0929,-0.001473,0.000000,0.000267,0.000936,-0.002514,0.2685,0.5240,0.3842,-0.001534,0.000000,0.000000,0.569107,-0.562971,0.567573,-0.582913,0.575243,-0.553767
0.5365,0.016747,-0.000031,0.000399,-0.001081,0.1529,0.1079,0.0897,-0.001422,0.000000,0.000267,0.000936,-0.002514,0.2685,0.5240,0.3842,0.004602,0.000000,0.000000,0.569107,-0.562971,0.567573,-0.582913,0.575243,-0.553767
0.5533,0.016760,-0.000029,0.000384,-0.001042,0.1474,0.1040,0.0864,-0.001371,0.000000,0.000267,0.000936,-0.002514,0.2685,0.5240,0.3842,0.000000,0.000000,0.000000,0.569107,-0.562971,0.567573,-0.582913,0.575243,-0.553767
0.5700,0.016746,-0.000028,0.000370,-0.001003,0.1419,0.1001,0.0832,-0.001319,0.000000,0.000267,0.000936,-0.002514,0.2685,0.5240,0.3842,0.000000,0.000000,0.000000,0.569107,-0.562971,0.567573,-0.582913,0.575243,-0.553767
0.5868,0.016754,-0.000027,0.000355,-0.000964,0.1363,0.0963,0.0799,-0.001268,0.000000,0.000267,0.000936,-0.002514,0.2685,0.5240,0.3842,-0.006136,0.000000,0.000000,0.569107,-0.562971,0.567573,-0.582913,0.575243,-0.553767
0.6035,0.016744,-0.000026,0.000341,-0.000925,0.1308,0.0924,0.0767,-0.001216,0.000000,0.000267,0.000936,-0.002514,0.2685,0.5240,0.3842,0.003068,0.000000,0.000000,0.569107,-0.562971,0.567573,-0.582913,0.575243,-0.553767
0.6203,0.016763,-0.000025,0.000327,-0.000886,0.1253,0.0885,0.0734,-0.001165,0.000000,0.000267,0.000936,-0.002514,0.2685,0.5240,0.3842,0.000000,0.000000,0.000000,0.569107,-0.562971,0.567573,-0.582913,0.575243,-0.553767
0.6370,0.016744,-0.000024,0.000312,-0.000847,0.1198,0.0846,0.0702,-0.001114,0.000000,0.000227,0.000898,-0.002501,0.2192,0.5068,0.3316,-0.006136,0.000000,0.000000,0.569107,-0.562971,0.567573,-0.582913,0.575243,-0.555301
0.6538,0.016757,-0.000023,0.000298,-0.000808,0.1142,0.0807,0.0670,-0.001062,0.000000,0.000227,0.000898,-0.002501,0.2192,0.5068,0.3316,-0.006136,0.000000,0.000000,0.569107,-0.562971,0.567573,-0.582913,0.575243,-0.555301
0.6705,0.016748,-0.000022,0.000283,-0.000768,0.1087,0.0768,0.0637,-0.001011,0.000000,0.000231,0.000902,-0.002502,0.2243,0.5086,0.3371,-0.001534,0.000000,0.000000,0.569107,-0.562971,0.567573,-0.582913,0.575243,-0.555301
0.6873,0.016758,-0.000021,0.000269,-0.000729,0.1032,0.0729,0.0605,-0.000959,0.000000,0.000231,0.000902,-0.002502,0.2243,0.5086,0.3371,-0.001534,0.000000,0.000000,0.569107,-0.562971,0.567573,-0.582913,0.575243,-0.555301
0.7040,0.016746,-0.000020,0.000255,-0.000690,0.0976,0.0690,0.0572,-0.000908,0.000000,0.000231,0.000902,-0.002502,0.2243,0.5086,0.3371,0.000000,0.000000,0.000000,0.569107,-0.562971,0.567573,-0.582913,0.575243,-0.555301
0.7210,0.016993,-0.000018,0.000240,-0.000651,0.0920,0.0650,0.0539,-0.000856,0.000000,0.000231,0.000902,-0.002502,0.2243,0.5086,0.3371,-0.006136,0.000000,0.000000,0.569107,-0.562971,0.567573,-0.582913,0.575243,-0.555301
0.7378,0.016746,-0.000017,0.000225,-0.000612,0.0865,0.0611,0.0507,-0.000805,0.000000,0.000231,0.000902,-0.002502,0.2243,0.5086,0.3371,-0.003068,0.000000,0.000000,0.569107,-0.562971,0.567573,-0.582913,0.575243,-0.555301
0.7545,0.016759,-0.000016,0.000211,-0.000573,0.0810,0.0572,0.0475,-0.000753,0.000000,0.000231,0.000902,-0.002502,0.2243,0.5086,0.3371,-0.003068,0.000000,0.000000,0.569107,-0.562971,0.567573,-0.582913,0.575243,-0.555301
0.7713,0.016744,-0.000015,0.000197,-0.000533,0.0755,0.0533,0.0442,-0.000702,0.000000,0.000231,0.000902,-0.002502,0.2243,0.5086,0.3371,0.004602,0.000000,0.000000,0.569107,-0.562971,0.567573,-0.582913,0.575243,-0.555301
0.7880,0.016755,-0.000014,0.000182,-0.000494,0.0699,0.0494,0.0410,-0.000650,0.000000,0.000190,0.000940,-0.002490,0.2736,0.4926,0.3901,0.000000,0.000000,0.000000,0.570641,-0.562971,0.567573,-0.582913,0.575243,-0.555301
0.8048,0.016750,-0.000013,0.000168,-0.000455,0.0644,0.0455,0.0377,-0.000599,0.000000,0.000154,0.000898,-0.002478,0.2186,0.4768,0.3312,-0.006136,0.000000,0.000000,0.570641,-0.562971,0.567573,-0.582913,0.575243,-0.556835
0.8215,0.016757,-0.000012,0.000153,-0.000416,0.0589,0.0416,0.0345,-0.000548,0.000000,0.000158,0.000902,-0.002480,0.2244,0.4785,0.3374,-0.003068,0.000000,0.000000,0.570641,-0.562971,0.567573,-0.582913,0.575243,-0.556835
0.8383,0.016745,-0.000011,0.000139,-0.000377,0.0533,0.0377,0.0313,-0.000496,0.000000,0.000158,0.000902,-0.002480,0.2244,0.4785,0.3374,0.004602,0.000000,0.000000,0.570641,-0.562971,0.567573,-0.582913,0.575243,-0.556835
0.8550,0.016756,-0.000010,0.000125,-0.000338,0.0478,0.0338,0.0280,-0.000445,0.000000,0.000158,0.000902,-0.002480,0.2244,0.4785,0.3374,0.004602,0.000000,0.000000,0.570641,-0.562971,0.567573,-0.582913,0.575243,-0.556835
0.8718,0.016746,-0.000008,0.000110,-0.000299,0.0423,0.0299,0.0248,-0.000393,0.000000,0.000158,0.000902,-0.002480,0.2244,0.4785,0.3374,0.001534,0.000000,0.000000,0.570641,-0.562971,0.567573,-0.582913,0.575243,-0.556835
0.8885,0.016757,-0.000007,0.000096,-0.000260,0.0368,0.0260,0.0215,-0.000342,0.000000,0.000158,0.000902,-0.002480,0.2244,0.4785,0.3374,-0.006136,0.000000,0.000000,0.570641,-0.562971,0.567573,-0.582913,0.575243,-0.556835
0.9053,0.016743,-0.000006,0.000081,-0.000221,0.0312,0.0221,0.0183,-0.000291,0.000000,0.000158,0.000902,-0.002480,0.2244,0.4785,0.3374,-0.003068,0.000000,0.000000,0.570641,-0.562971,0.567573,-0.582913,0.575243,-0.556835
0.9220,0.016748,-0.000005,0.000067,-0.000182,0.0257,0.0182,0.0151,-0.000239,0.000000,0.000158,0.000902,-0.002480,0.2244,0.4785,0.3374,0.004602,0.000000,0.000000,0.570641,-0.562971,0.567573,-0.582913,0.575243,-0.556835
0.9388,0.016751,-0.000004,0.000053,-0.000143,0.0202,0.0143,0.0118,-0.000188,0.000000,0.000158,0.000902,-0.002480,0.2244,0.4785,0.3374,0.001534,0.000000,0.000000,0.570641,-0.562971,0.567573,-0.582913,0.575243,-0.556835
0.9555,0.016759,-0.000003,0.000038,-0.000104,0.0147,0.0104,0.0086,-0.000136,0.000000,0.000158,0.000902,-0.002480,0.2244,0.4785,0.3374,0.001534,0.000000,0.000000,0.570641,-0.562971,0.567573,-0.582913,0.575243,-0.556835
0.9723,0.016747,-0.000002,0.000024,-0.000065,0.0091,0.0065,0.0054,-0.000085,0.000000,0.000158,0.000902,-0.002480,0.2244,0.4785,0.3374,-0.006136,0.000000,0.000000,0.570641,-0.562971,0.567573,-0.582913,0.575243,-0.556835
0.9890,0.016710,-0.000001,0.000009,-0.000026,0.0036,0.0026,0.0021,-0.000034,0.000000,0.000158,0.000902,-0.002480,0.2244,0.4785,0.3374,-0.003068,0.000000,0.000000,0.570641,-0.562971,0.567573,-0.582913,0.575243,-0.556835
1.0057,0.016756,0.000000,0.000000,0.000018,0.0000,0.0000,0.0000,0.002520,-0.002520,0.000158,0.000902,-0.002480,0.2244,0.4785,0.3374,0.004602,0.000000,0.000000,0.570641,-0.562971,0.567573,-0.582913,0.575243,-0.556835
1.0225,0.016747,0.000000,0.000000,0.000071,0.0000,0.0000,0.0000,0.009858,-0.009858,0.000158,0.000902,-0.002480,0.2244,0.4785,0.3374,0.001534,0.000000,0.000000,0.570641,-0.562971,0.567573,-0.582913,0.575243,-0.556835
1.0392,0.016749,0.000000,0.000000,0.000123,0.0000,0.0000,0.0000,0.017169,-0.017169,0.000158,0.000902,-0.002480,0.2244,0.4785,0.3374,-0.006136,-0.001534,0.000000,0.570641,-0.562971,0.567573,-0.582913,0.575243,-0.556835
1.0560,0.016750,0.000000,0.000000,0.000176,0.0000,0.0000,0.0000,0.024434,-0.024434,0.000158,0.000902,-0.002480,0.2244,0.4785,0.3374,-0.006136,-0.001534,0.000000,0.570641,-0.562971,0.567573,-0.582913,0.575243,-0.556835
1.0727,0.016745,0.000000,0.000000,0.000228,0.0000,0.0000,0.0000,0.031628,-0.031628,0.000158,0.000902,-0.002480,0.2244,0.4785,0.3374,0.000000,-0.001534,0.000000,0.570641,-0.562971,0.567573,-0.582913,0.575243,-0.556835
1.0895,0.016751,0.000000,0.000000,0.000281,0.0000,0.0000,0.0000,0.038738,-0.038738,0.000116,0.000940,-0.002467,0.2736,0.4625,0.3904,0.010738,-0.004602,0.000000,0.572175,-0.562971,0.567573,-0.582913,0.575243,-0.556835
1.1062,0.016742,0.000000,0.000000,0.000333,0.0000,0.0000,0.0000,0.045737,-0.045737,0.000162,0.000898,-0.002481,0.2186,0.4800,0.3312,0.021476,-0.013806,0.000000,0.570641,-0.562971,0.567573,-0.582913,0.575243,-0.556835
1.1231,0.016842,0.000000,0.000000,0.000386,0.0000,0.0000,0.0000,0.052650,-0.052650,0.000157,0.000902,-0.002479,0.2244,0.4782,0.3374,0.026078,-0.023010,0.000000,0.570641,-0.562971,0.567573,-0.582913,0.575243,-0.556835
1.1398,0.016750,0.000000,0.000000,0.000439,0.0000,0.0000,0.0000,0.059379,-0.059379,0.000157,0.000902,-0.002479,0.2244,0.4782,0.3374,0.026078,-0.023010,0.000000,0.570641,-0.562971,0.567573,-0.582913,0.575243,-0.556835
1.1566,0.016754,0.000000,0.000000,0.000491,0.0000,0.0000,0.0000,0.065945,-0.065945,0.000170,0.000925,-0.002455,0.3129,0.4272,0.3371,0.036816,-0.035282,0.000000,0.572175,-0.564505,0.567573,-0.582913,0.575243,-0.556835
1.1733,0.016745,0.000000,0.000000,0.000543,0.0000,0.0000,0.0000,0.072325,-0.072325,0.000209,0.000883,-0.002469,0.2538,0.4483,0.2836,0.050621,-0.047553,0.000000,0.570641,-0.564505,0.567573,-0.582913,0.575243,-0.556835
1.1901,0.016746,0.000000,0.000000,0.000596,0.0000,0.0000,0.0000,0.078506,-0.078506,0.000218,0.000911,-0.002443,0.3490,0.3949,0.2895,0.056757,-0.055223,0.000000,0.572175,-0.566039,0.567573,-0.582913,0.575243,-0.556835
1.2068,0.016746,0.000000,0.000000,0.000648,0.0000,0.0000,0.0000,0.084469,-0.084469,0.000270,0.000892,-0.002433,0.3782,0.3652,0.2355,0.056757,-0.061359,0.000000,0.572175,-0.567573,0.567573,-0.582913,0.575243,-0.556835
1.2236,0.016754,0.000000,0.000000,0.000700,0.0000,0.0000,0.0000,0.090201,-0.090201,0.000252,0.000949,-0.002423,0.3855,0.4193,0.1876,0.059825,-0.067495,0.000000,0.572175,-0.567573,0.567573,-0.584447,0.575243,-0.556835
1.2403,0.016752,0.000000,0.000000,0.000752,0.0000,0.0000,0.0000,0.095683,-0.095683,0.000252,0.000949,-0.002423,0.3855,0.4193,0.1876,0.059825,-0.067495,0.000000,0.572175,-0.567573,0.567573,-0.584447,0.575243,-0.556835
1.2570,0.016710,0.000000,0.000000,0.000804,0.0000,0.0000,0.0000,0.100887,-0.100887,0.000279,0.000988,-0.002375,0.5627,0.3113,0.1930,0.072097,-0.075165,0.000000,0.575243,-0.570641,0.567573,-0.584447,0.575243,-0.556835
1.2738,0.016748,0.000000,0.000000,0.000856,0.0000,0.0000,0.0000,0.105823,-0.105823,0.000235,0.001023,-0.002368,0.5940,0.3069,0.2461,0.088971,-0.079767,0.000000,0.576777,-0.570641,0.567573,-0.584447,0.575243,-0.556835
1.2906,0.016813,0.000000,0.000000,0.000908,0.0000,0.0000,0.0000,0.110485,-0.110485,0.000144,0.001152,-0.002333,0.7009,0.3271,0.2944,0.093573,-0.084369,0.000000,0.579845,-0.570641,0.567573,-0.585981,0.575243,-0.556835
1.3073,0.016750,0.000000,0.000000,0.000960,0.0000,0.0000,0.0000,0.114823,-0.114823,-0.000063,0.001233,-0.002263,0.7500,0.2941,0.2904,0.093573,-0.093573,0.000000,0.584447,-0.570641,0.567573,-0.587515,0.575243,-0.559903
1.3241,0.016770,0.000000,0.000000,0.001011,0.0000,0.0000,0.0000,0.118847,-0.118847,-0.000313,0.001336,-0.002136,0.7660,0.3021,0.3458,0.099709,-0.102777,0.000000,0.590583,-0.570641,0.569107,-0.590583,0.576777,-0.564505
1.3409,0.016743,0.000000,0.000000,0.001063,0.0000,0.0000,0.0000,0.122535,-0.122535,-0.000313,0.001336,-0.002136,0.7660,0.3021,0.3458,0.099709,-0.102777,0.000000,0.590583,-0.570641,0.569107,-0.590583,0.576777,-0.564505
1.3576,0.016750,0.000000,0.000000,0.001114,0.0000,0.0000,0.0000,0.125887,-0.125887,-0.000423,0.001453,-0.002028,0.7459,0.3053,0.4480,0.110447,-0.110447,0.000000,0.595185,-0.570641,0.570641,-0.593651,0.579845,-0.567573
1.3744,0.016748,0.000000,0.000000,0.001165,0.0000,0.0000,0.0000,0.128889,-0.128889,-0.000506,0.001420,-0.001928,0.6583,0.3250,0.5989,0.119651,-0.116583,0.000000,0.598253,-0.570641,0.573709,-0.595185,0.582913,-0.570641
1.3911,0.016748,0.000000,0.000000,0.001216,0.0000,0.0000,0.0000,0.131534,-0.131534,-0.000645,0.001529,-0.001805,0.5610,0.3755,0.5297,0.119651,-0.119651,0.000000,0.601320,-0.570641,0.575243,-0.599786,0.585981,-0.575243
1.4079,0.016755,0.000000,0.000000,0.001267,0.0000,0.0000,0.0000,0.133817,-0.133817,-0.000725,0.001419,-0.001669,0.3816,0.3902,0.7524,0.118117,-0.124252,0.000000,0.604388,-0.570641,0.579845,-0.601320,0.590583,-0.579845
1.4247,0.016893,0.000000,0.000000,0.001319,0.0000,0.0000,0.0000,0.135743,-0.135743,-0.000771,0.001449,-0.001548,0.3610,0.4239,0.7838,0.125786,-0.130388,0.000000,0.607456,-0.572175,0.582913,-0.604388,0.593651,-0.582913
1.4415,0.016745,0.000000,0.000000,0.001369,0.0000,0.0000,0.0000,0.137274,-0.137274,-0.000771,0.001449,-0.001548,0.3610,0.4239,0.7838,0.125786,-0.130388,0.000000,0.607456,-0.572175,0.582913,-0.604388,0.593651,-0.582913
1.4583,0.016759,0.000000,0.000000,0.001420,0.0000,0.0000,0.0000,0.138427,-0.138427,-0.000713,0.001353,-0.001435,0.3032,0.3845,0.7813,0.134990,-0.131922,0.000000,0.608990,-0.575243,0.585981,-0.605922,0.596719,-0.585981
1.4750,0.016743,0.000000,0.000000,0.001470,0.0000,0.0000,0.0000,0.139196,-0.139196,-0.000624,0.001309,-0.001334,0.2987,0.3705,0.8365,0.133456,-0.133456,0.000000,0.610524,-0.578311,0.589049,-0.607456,0.599786,-0.587515
1.4918,0.016800,0.000000,0.000000,0.001521,0.0000,0.0000,0.0000,0.139580,-0.139580,-0.000469,0.001204,-0.001244,0.2780,0.4374,0.9395,0.130388,-0.133456,0.000000,0.610524,-0.581379,0.593651,-0.608990,0.602854,-0.587515
1.5086,0.016776,0.000000,0.000000,0.001571,0.0000,0.0000,0.0000,0.139576,-0.139576,-0.000469,0.001204,-0.001244,0.2780,0.4374,0.9395,0.130388,-0.133456,0.000000,0.610524,-0.581379,0.593651,-0.608990,0.602854,-0.587515
1.5254,0.016809,0.000000,0.000000,0.001621,0.0000,0.0000,0.0000,0.139183,-0.139183,-0.000469,0.001204,-0.001244,0.2780,0.4374,0.9395,0.130388,-0.133456,0.000000,0.610524,-0.581379,0.593651,-0.608990,0.602854,-0.587515
1.5422,0.016834,0.000000,0.000000,0.001671,0.0000,0.0000,0.0000,0.138400,-0.138400,-0.000469,0.001204,-0.001244,0.2780,0.4374,0.9395,0.130388,-0.133456,0.000000,0.610524,-0.581379,0.593651,-0.608990,0.602854,-0.587515
1.5590,0.016762,0.000000,0.000000,0.001720,0.0000,0.0000,0.0000,0.137237,-0.137237,-0.000469,0.001204,-0.001244,0.2780,0.4374,0.9395,0.130388,-0.133456,0.000000,0.610524,-0.581379,0.593651,-0.608990,0.602854,-0.587515
1.5757,0.016744,0.000000,0.000000,0.001769,0.0000,0.0000,0.0000,0.135694,-0.135694,-0.000171,0.000735,-0.000962,0.4413,0.6028,0.6614,0.136524,-0.141126,0.000000,0.610524,-0.595185,0.605922,-0.613592,0.604388,-0.590583
1.5925,0.016751,0.000000,0.000000,0.001819,0.0000,0.0000,0.0000,0.133776,-0.133776,-0.000094,0.000752,-0.000967,0.5021,0.5155,0.5824,0.139592,-0.141126,0.000000,0.610524,-0.598253,0.605922,-0.613592,0.604388,-0.590583
1.6092,0.016741,0.000000,0.000000,0.001867,0.0000,0.0000,0.0000,0.131488,-0.131488,0.000006,0.000718,-0.000941,0.5737,0.4545,0.4823,0.139592,-0.141126,0.000000,0.610524,-0.601320,0.605922,-0.613592,0.604388,-0.590583
1.6262,0.017028,0.000000,0.000000,0.001917,0.0000,0.0000,0.0000,0.128789,-0.128789,0.000050,0.000705,-0.000931,0.6050,0.4258,0.4385,0.138058,-0.139592,0.000000,0.610524,-0.602854,0.605922,-0.613592,0.604388,-0.590583
1.6430,0.016741,0.000000,0.000000,0.001965,0.0000,0.0000,0.0000,0.125775,-0.125775,0.000050,0.000705,-0.000931,0.6050,0.4258,0.4385,0.138058,-0.139592,0.000000,0.610524,-0.602854,0.605922,-0.613592,0.604388,-0.590583
1.6597,0.016749,0.000000,0.000000,0.002014,0.0000,0.0000,0.0000,0.122412,-0.122412,0.000154,0.000674,-0.000907,0.6793,0.3587,0.3344,0.131922,-0.136524,0.000000,0.610524,-0.605922,0.605922,-0.613592,0.604388,-0.590583
1.6765,0.016743,0.000000,0.000000,0.002062,0.0000,0.0000,0.0000,0.118712,-0.118712,0.000102,0.000638,-0.000897,0.6220,0.3488,0.2911,0.130388,-0.131922,0.000000,0.610524,-0.605922,0.605922,-0.613592,0.604388,-0.592117
1.6932,0.016747,0.000000,0.000000,0.002110,0.0000,0.0000,0.0000,0.114682,-0.114682,0.000066,0.000682,-0.000849,0.6771,0.3330,0.1872,0.127320,-0.130388,0.000000,0.612058,-0.607456,0.605922,-0.615126,0.604388,-0.593651
1.7100,0.016751,0.000000,0.000000,0.002157,0.0000,0.0000,0.0000,0.110334,-0.110334,0.000029,0.000749,-0.000805,0.6430,0.3185,0.1981,0.121184,-0.128854,0.000000,0.613592,-0.607456,0.605922,-0.616660,0.605922,-0.595185
1.7267,0.016761,0.000000,0.000000,0.002205,0.0000,0.0000,0.0000,0.105678,-0.105678,0.000029,0.000749,-0.000805,0.6430,0.3185,0.1981,0.115049,-0.124252,0.000000,0.615126,-0.607456,0.605922,-0.618194,0.604388,-0.598253
1.7435,0.016740,0.000000,0.000000,0.002252,0.0000,0.0000,0.0000,0.100735,-0.100735,-0.000159,0.000743,-0.000773,0.6468,0.3553,0.0346,0.115049,-0.124252,0.000000,0.615126,-0.607456,0.605922,-0.618194,0.604388,-0.598253
1.7602,0.016757,0.000000,0.000000,0.002299,0.0000,0.0000,0.0000,0.095508,-0.095508,-0.000290,0.000817,-0.000679,0.6186,0.4043,0.0520,0.115049,-0.119651,0.000000,0.618194,-0.607456,0.607456,-0.621262,0.605922,-0.601320
1.7770,0.016749,0.000000,0.000000,0.002345,0.0000,0.0000,0.0000,0.090019,-0.090019,-0.000385,0.000810,-0.000604,0.6223,0.4665,-0.1128,0.111981,-0.115049,0.000000,0.619728,-0.608990,0.608990,-0.624330,0.605922,-0.604388
1.7937,0.016743,0.000000,0.000000,0.002391,0.0000,0.0000,0.0000,0.084282,-0.084282,-0.000596,0.000907,-0.000540,0.6826,0.4297,-0.0948,0.107379,-0.111981,0.000000,0.624330,-0.608990,0.608990,-0.625864,0.605922,-0.607456
1.8105,0.016750,0.000000,0.000000,0.002438,0.0000,0.0000,0.0000,0.078311,-0.078311,-0.000683,0.000787,-0.000461,0.6554,0.5015,-0.1508,0.101243,-0.104311,0.000000,0.625864,-0.610524,0.612058,-0.627398,0.605922,-0.610524
1.8273,0.016785,0.000000,0.000000,0.002483,0.0000,0.0000,0.0000,0.072109,-0.072109,-0.000683,0.000787,-0.000461,0.6554,0.5015,-0.1508,0.101243,-0.104311,0.000000,0.625864,-0.610524,0.612058,-0.627398,0.605922,-0.610524
1.8440,0.016746,0.000000,0.000000,0.002529,0.0000,0.0000,0.0000,0.065722,-0.065722,-0.000730,0.000753,-0.000372,0.7740,0.5283,-0.1437,0.090505,-0.092039,0.000000,0.628932,-0.613592,0.615126,-0.628932,0.605922,-0.612058
1.8607,0.016745,0.000000,0.000000,0.002574,0.0000,0.0000,0.0000,0.059153,-0.059153,-0.000823,0.000781,-0.000309,0.8495,0.5438,-0.1434,0.081301,-0.082835,0.000000,0.632000,-0.615126,0.616660,-0.630466,0.605922,-0.613592
1.8775,0.016750,0.000000,0.000000,0.002619,0.0000,0.0000,0.0000,0.052419,-0.052419,-0.000772,0.000707,-0.000217,0.8687,0.5581,-0.1433,0.078233,-0.076699,0.000000,0.633534,-0.618194,0.619728,-0.632000,0.607456,-0.615126
1.8943,0.016760,0.000000,0.000000,0.002664,0.0000,0.0000,0.0000,0.045535,-0.045535,-0.000724,0.000699,-0.000103,0.9034,0.5229,-0.0340,0.075165,-0.075165,0.000000,0.636602,-0.621262,0.622796,-0.633534,0.610524,-0.616660
1.9110,0.016752,0.000000,0.000000,0.002708,0.0000,0.0000,0.0000,0.038529,-0.038529,-0.000647,0.000812,-0.000030,0.9204,0.5592,0.0089,0.067495,-0.069029,0.000000,0.638136,-0.622796,0.624330,-0.636602,0.613592,-0.616660
1.9278,0.016778,0.000000,0.000000,0.002752,0.0000,0.0000,0.0000,0.031405,-0.031405,-0.000647,0.000812,-0.000030,0.9204,0.5592,0.0089,0.067495,-0.069029,0.000000,0.638136,-0.622796,0.624330,-0.636602,0.613592,-0.616660
1.9445,0.016749,0.000000,0.000000,0.002796,0.0000,0.0000,0.0000,0.024206,-0.024206,-0.000574,0.000816,0.000024,0.8789,0.4206,0.0581,0.053689,-0.058291,0.000000,0.639670,-0.624330,0.624330,-0.636602,0.616660,-0.618194
1.9613,0.016748,0.000000,0.000000,0.002840,0.0000,0.0000,0.0000,0.016940,-0.016940,-0.000391,0.000942,0.000067,0.8646,0.2326,0.1609,0.039884,-0.044485,0.000000,0.641204,-0.625864,0.622796,-0.636602,0.621262,-0.618194
1.9780,0.016749,0.000000,0.000000,0.002883,0.0000,0.0000,0.0000,0.009628,-0.009628,-0.000327,0.000961,0.000111,0.7889,0.2853,0.2593,0.035282,-0.033748,0.000000,0.641204,-0.625864,0.624330,-0.638136,0.624330,-0.618194
1.9948,0.016762,0.000000,0.000000,0.002926,0.0000,0.0000,0.0000,0.002282,-0.002282,-0.000278,0.001008,0.000155,0.6815,0.2454,0.2484,0.035282,-0.032214,0.000000,0.641204,-0.625864,0.624330,-0.639670,0.627398,-0.619728
2.0115,0.016750,0.000000,0.000000,0.002968,0.0000,0.0000,0.0000,-0.005064,0.005064,-0.000270,0.001171,0.000173,0.7248,0.2002,0.2494,0.029146,-0.030680,0.000000,0.642738,-0.625864,0.622796,-0.641204,0.628932,-0.619728
2.0283,0.016795,0.000000,0.000000,0.003010,0.0000,0.0000,0.0000,-0.012416,0.012416,-0.000270,0.001171,0.000173,0.7248,0.2002,0.2494,0.016874,-0.021476,0.000000,0.644272,-0.625864,0.622796,-0.644272,0.633534,-0.619728
2.0451,0.016752,0.000000,0.000000,0.003052,0.0000,0.0000,0.0000,-0.019714,0.019714,-0.000175,0.001355,0.000241,0.6752,0.1891,0.3587,0.016874,-0.021476,0.000000,0.644272,-0.625864,0.622796,-0.644272,0.633534,-0.619728
2.0618,0.016751,0.000000,0.000000,0.003094,0.0000,0.0000,0.0000,-0.026958,0.026958,-0.000143,0.001408,0.000257,0.6528,0.2067,0.3470,0.003068,-0.004602,0.000000,0.644272,-0.625864,0.622796,-0.645806,0.635068,-0.619728
2.0786,0.016750,0.000000,0.000000,0.003135,0.0000,0.0000,0.0000,-0.034126,0.034126,-0.000147,0.001515,0.000290,0.6765,0.2066,0.4033,-0.010738,0.007670,0.000000,0.645806,-0.625864,0.622796,-0.647340,0.636602,-0.619728
2.0954,0.016757,0.000000,0.000000,0.003176,0.0000,0.0000,0.0000,-0.041203,0.041203,-0.000131,0.001578,0.000334,0.6465,0.3237,0.3971,-0.013806,0.013806,0.000000,0.645806,-0.625864,0.624330,-0.650408,0.638136,-0.619728
2.1121,0.016746,0.000000,0.000000,0.003216,0.0000,0.0000,0.0000,-0.048162,0.048162,-0.000078,0.001700,0.000376,0.6326,0.2800,0.5077,-0.010738,0.013806,0.000000,0.647340,-0.625864,0.624330,-0.651942,0.641204,-0.619728
2.1288,0.016744,0.000000,0.000000,0.003256,0.0000,0.0000,0.0000,-0.054986,0.054986,-0.000078,0.001700,0.000376,0.6326,0.2800,0.5077,-0.019942,0.021476,0.000000,0.647340,-0.625864,0.622796,-0.653476,0.642738,-0.619728
2.1464,0.017533,0.000000,0.000000,0.003298,0.0000,0.0000,0.0000,-0.061968,0.061968,-0.000029,0.001816,0.000381,0.6172,0.2505,0.4409,-0.019942,0.021476,0.000000,0.647340,-0.625864,0.622796,-0.653476,0.642738,-0.619728
2.1631,0.016741,0.000000,0.000000,0.003337,0.0000,0.0000,0.0000,-0.068460,0.068460,0.000007,0.001812,0.000441,0.7442,0.2687,0.3931,-0.038350,0.036816,0.000000,0.648874,-0.628932,0.624330,-0.655010,0.642738,-0.619728
2.1799,0.016749,0.000000,0.000000,0.003376,0.0000,0.0000,0.0000,-0.074766,0.074766,-0.000037,0.001758,0.000472,0.7204,0.4178,0.4531,-0.052155,0.050621,0.000000,0.648874,-0.628932,0.627398,-0.656544,0.642738,-0.619728
2.1966,0.016747,0.000000,0.000000,0.003415,0.0000,0.0000,0.0000,-0.080864,0.080864,-0.000072,0.001710,0.000506,0.7123,0.5529,0.5020,-0.056757,0.053689,0.000000,0.648874,-0.628932,0.630466,-0.658078,0.642738,-0.619728
2.2134,0.016746,0.000000,0.000000,0.003453,0.0000,0.0000,0.0000,-0.086737,0.086737,-0.000190,0.001581,0.000602,0.6044,0.6573,0.6076,-0.055223,0.053689,0.000000,0.650408,-0.628932,0.635068,-0.659612,0.644272,-0.622796
2.2301,0.016773,0.000000,0.000000,0.003491,0.0000,0.0000,0.0000,-0.092380,0.092380,-0.000190,0.001581,0.000602,0.6044,0.6573,0.6076,-0.055223,0.053689,0.000000,0.650408,-0.628932,0.635068,-0.659612,0.644272,-0.622796
2.2469,0.016741,0.000000,0.000000,0.003529,0.0000,0.0000,0.0000,-0.097756,0.097756,-0.000150,0.001580,0.000664,0.6536,0.7134,0.7074,-0.061359,0.065961,0.000000,0.651942,-0.630466,0.638136,-0.661146,0.645806,-0.622796
2.2636,0.016746,0.000000,0.000000,0.003566,0.0000,0.0000,0.0000,-0.102863,0.102863,-0.000168,0.001493,0.000780,0.7137,0.7576,0.8091,-0.078233,0.082835,0.000000,0.655010,-0.633534,0.642738,-0.662680,0.647340,-0.624330
2.2804,0.016744,0.000000,0.000000,0.003602,0.0000,0.0000,0.0000,-0.107686,0.107686,-0.000068,0.001447,0.000878,0.6965,0.7337,0.8545,-0.092039,0.087437,0.000000,0.656544,-0.636602,0.645806,-0.664214,0.650408,-0.625864
2.2971,0.016747,0.000000,0.000000,0.003639,0.0000,0.0000,0.0000,-0.112210,0.112210,-0.000204,0.001477,0.000926,0.7847,0.8572,1.0172,-0.093573,0.087437,0.000000,0.659612,-0.636602,0.648874,-0.665748,0.650408,-0.625864
2.3139,0.016744,0.000000,0.000000,0.003674,0.0000,0.0000,0.0000,-0.116424,0.116424,-0.000344,0.001484,0.000981,0.8998,0.8964,0.9472,-0.092039,0.096641,0.000000,0.662680,-0.638136,0.650408,-0.667282,0.648874,-0.627398
2.3306,0.016765,0.000000,0.000000,0.003710,0.0000,0.0000,0.0000,-0.120320,0.120320,-0.000344,0.001484,0.000981,0.8998,0.8964,0.9472,-0.092039,0.096641,0.000000,0.662680,-0.638136,0.650408,-0.667282,0.648874,-0.627398
2.3474,0.016743,0.000000,0.000000,0.003745,0.0000,0.0000,0.0000,-0.123878,0.123878,-0.000273,0.001386,0.001025,0.8280,0.8561,0.9546,-0.102777,0.108913,0.000000,0.662680,-0.639670,0.651942,-0.667282,0.650408,-0.628932
2.3641,0.016743,0.000000,0.000000,0.003780,0.0000,0.0000,0.0000,-0.127094,0.127094,-0.000293,0.001341,0.001070,0.8249,0.9075,0.8437,-0.118117,0.111981,0.000000,0.662680,-0.641204,0.653476,-0.668816,0.650408,-0.630466
2.3808,0.016742,0.000000,0.000000,0.003814,0.0000,0.0000,0.0000,-0.129958,0.129958,-0.000236,0.001330,0.001078,0.8635,0.8670,0.8001,-0.119651,0.113515,0.000000,0.662680,-0.642738,0.653476,-0.668816,0.650408,-0.630466
2.3976,0.016759,0.000000,0.000000,0.003848,0.0000,0.0000,0.0000,-0.132464,0.132464,-0.000187,0.001314,0.001090,0.8977,0.8362,0.7495,-0.119651,0.122718,0.000000,0.662680,-0.644272,0.653476,-0.668816,0.650408,-0.630466
2.4144,0.016745,0.000000,0.000000,0.003881,0.0000,0.0000,0.0000,-0.134602,0.134602,-0.000192,0.001316,0.001089,0.8941,0.8394,0.7547,-0.125786,0.125786,0.000000,0.662680,-0.644272,0.653476,-0.668816,0.650408,-0.630466
2.4311,0.016753,0.000000,0.000000,0.003914,0.0000,0.0000,0.0000,-0.136369,0.136369,-0.000192,0.001316,0.001089,0.8941,0.8394,0.7547,-0.125786,0.125786,0.000000,0.662680,-0.644272,0.653476,-0.668816,0.650408,-0.630466
2.4478,0.016746,0.000000,0.000000,0.003947,0.0000,0.0000,0.0000,-0.137757,0.137757,-0.000095,0.001372,0.001125,0.9055,0.8201,0.6984,-0.134990,0.125786,0.000000,0.662680,-0.645806,0.653476,-0.670350,0.651942,-0.630466
2.4646,0.016753,0.000000,0.000000,0.003979,0.0000,0.0000,0.0000,-0.138764,0.138764,-0.000008,0.001391,0.001193,0.9909,0.8035,0.7048,-0.134990,0.130388,0.000000,0.664214,-0.648874,0.655010,-0.671884,0.653476,-0.630466
2.4813,0.016741,0.000000,0.000000,0.004010,0.0000,0.0000,0.0000,-0.139387,0.139387,0.000080,0.001446,0.001257,0.9925,0.7884,0.8151,-0.131922,0.131922,0.000000,0.665748,-0.650408,0.656544,-0.673418,0.656544,-0.630466
2.4981,0.016754,0.000000,0.000000,0.004042,0.0000,0.0000,0.0000,-0.139624,0.139624,0.000001,0.001482,0.001285,1.0409,0.8751,0.8600,-0.136524,0.133456,0.000000,0.667282,-0.650408,0.658078,-0.674952,0.656544,-0.630466
2.5148,0.016750,0.000000,0.000000,0.004072,0.0000,0.0000,0.0000,-0.139474,0.139474,-0.000060,0.001520,0.001317,1.0844,0.9512,0.9119,-0.141126,0.134990,0.000000,0.668816,-0.650408,0.659612,-0.676486,0.656544,-0.630466
2.5316,0.016755,0.000000,0.000000,0.004103,0.0000,0.0000,0.0000,-0.138939,0.138939,-0.000060,0.001520,0.001317,1.0844,0.9512,0.9119,-0.141126,0.134990,0.000000,0.668816,-0.650408,0.659612,-0.676486,0.656544,-0.630466
2.5484,0.016750,0.000000,0.000000,0.004132,0.0000,0.0000,0.0000,-0.138019,0.138019,-0.000069,0.001655,0.001359,1.1881,0.9932,0.7962,-0.142660,0.141126,0.000000,0.670350,-0.651942,0.659612,-0.679553,0.656544,-0.630466
2.5652,0.016858,0.000000,0.000000,0.004162,0.0000,0.0000,0.0000,-0.136707,0.136707,-0.000111,0.001682,0.001366,1.2258,0.9748,0.8644,-0.141126,0.139592,0.000000,0.671884,-0.651942,0.659612,-0.679553,0.656544,-0.630466
2.5837,0.018507,0.000000,0.000000,0.004194,0.0000,0.0000,0.0000,-0.134825,0.134825,-0.000111,0.001682,0.001366,1.2258,0.9748,0.8644,-0.141126,0.139592,0.000000,0.671884,-0.651942,0.659612,-0.679553,0.656544,-0.630466
2.6005,0.016745,0.000000,0.000000,0.004222,0.0000,0.0000,0.0000,-0.132730,0.132730,-0.000111,0.001682,0.001366,1.2258,0.9748,0.8644,-0.141126,0.139592,0.000000,0.671884,-0.651942,0.659612,-0.679553,0.656544,-0.630466
2.6172,0.016745,0.000000,0.000000,0.004250,0.0000,0.0000,0.0000,-0.130267,0.130267,-0.000237,0.001915,0.001431,1.3885,0.9377,1.0816,-0.139592,0.138058,0.000000,0.678020,-0.651942,0.659612,-0.681087,0.658078,-0.630466
2.6340,0.016743,0.000000,0.000000,0.004278,0.0000,0.0000,0.0000,-0.127445,0.127445,-0.000225,0.001859,0.001425,1.4474,0.9396,0.9485,-0.139592,0.136524,0.000000,0.678020,-0.653476,0.659612,-0.681087,0.656544,-0.630466
2.6507,0.016750,0.000000,0.000000,0.004305,0.0000,0.0000,0.0000,-0.124268,0.124268,-0.000115,0.001864,0.001450,1.4411,0.8709,0.9616,-0.139592,0.136524,0.000000,0.678020,-0.655010,0.659612,-0.681087,0.658078,-0.630466
2.6674,0.016744,0.000000,0.000000,0.004331,0.0000,0.0000,0.0000,-0.120749,0.120749,-0.000184,0.001962,0.001469,1.5012,0.9139,0.9611,-0.134990,0.133456,0.000000,0.679553,-0.655010,0.659612,-0.682621,0.658078,-0.630466
2.6842,0.016767,0.000000,0.000000,0.004357,0.0000,0.0000,0.0000,-0.116890,0.116890,-0.000184,0.001962,0.001469,1.5012,0.9139,0.9611,-0.134990,0.133456,0.000000,0.679553,-0.655010,0.659612,-0.682621,0.658078,-0.630466
2.7010,0.016745,0.000000,0.000000,0.004383,0.0000,0.0000,0.0000,-0.112713,0.112713,-0.000068,0.002032,0.001525,1.5919,0.8413,0.9054,-0.130388,0.128854,0.000000,0.681087,-0.658078,0.659612,-0.684155,0.659612,-0.630466
2.7177,0.016757,0.000000,0.000000,0.004408,0.0000,0.0000,0.0000,-0.108220,0.108220,0.000073,0.002065,0.001567,1.6306,0.7942,0.7989,-0.125786,0.124252,0.000000,0.681087,-0.661146,0.659612,-0.685689,0.661146,-0.630466
2.7345,0.016748,0.000000,0.000000,0.004433,0.0000,0.0000,0.0000,-0.103431,0.103431,0.000099,0.002217,0.001618,1.6963,0.8156,0.7543,-0.124252,0.121184,0.000000,0.682621,-0.662680,0.659612,-0.688757,0.662680,-0.630466
2.7512,0.016759,0.000000,0.000000,0.004457,0.0000,0.0000,0.0000,-0.098351,0.098351,0.000175,0.002264,0.001671,1.8232,0.6826,0.8145,-0.121184,0.119651,0.000000,0.685689,-0.665748,0.659612,-0.688757,0.664214,-0.630466
2.7680,0.016748,0.000000,0.000000,0.004480,0.0000,0.0000,0.0000,-0.093003,0.093003,0.000221,0.002324,0.001711,1.9439,0.6614,0.6968,-0.118117,0.115049,0.000000,0.687223,-0.668816,0.659612,-0.690291,0.664214,-0.630466
2.7847,0.016761,0.000000,0.000000,0.004504,0.0000,0.0000,0.0000,-0.087393,0.087393,0.000221,0.002324,0.001711,1.9439,0.6614,0.6968,-0.118117,0.115049,0.000000,0.687223,-0.668816,0.659612,-0.690291,0.664214,-0.630466
2.8015,0.016748,0.000000,0.000000,0.004526,0.0000,0.0000,0.0000,-0.081545,0.081545,0.000270,0.002415,0.001752,1.9898,0.6309,0.7086,-0.111981,0.110447,0.000000,0.688757,-0.670350,0.659612,-0.691825,0.665748,-0.630466
2.8183,0.016803,0.000000,0.000000,0.004548,0.0000,0.0000,0.0000,-0.075451,0.075451,0.000219,0.002528,0.001791,2.1300,0.6213,0.7083,-0.102777,0.102777,0.000000,0.691825,-0.671884,0.659612,-0.693359,0.665748,-0.630466
2.8350,0.016750,0.000000,0.000000,0.004570,0.0000,0.0000,0.0000,-0.069167,0.069167,0.000322,0.002573,0.001821,2.1252,0.6027,0.6515,-0.093573,0.093573,0.000000,0.691825,-0.673418,0.659612,-0.694893,0.667282,-0.630466
2.8518,0.016760,0.000000,0.000000,0.004591,0.0000,0.0000,0.0000,-0.062688,0.062688,0.000267,0.002610,0.001829,2.1743,0.5917,0.7138,-0.090505,0.085903,0.000000,0.693359,-0.673418,0.659612,-0.694893,0.667282,-0.630466
2.8685,0.016741,0.000000,0.000000,0.004612,0.0000,0.0000,0.0000,-0.056043,0.056043,0.000329,0.002621,0.001839,2.1311,0.5600,0.7623,-0.081301,0.078233,0.000000,0.693359,-0.673418,0.659612,-0.694893,0.668816,-0.630466
2.8853,0.016759,0.000000,0.000000,0.004632,0.0000,0.0000,0.0000,-0.049235,0.049235,0.000329,0.002621,0.001839,2.1311,0.5600,0.7623,-0.081301,0.078233,0.000000,0.693359,-0.673418,0.659612,-0.694893,0.668816,-0.630466
2.9020,0.016743,0.000000,0.000000,0.004651,0.0000,0.0000,0.0000,-0.042297,0.042297,0.000378,0.002603,0.001850,2.1726,0.5276,0.7008,-0.072097,0.070563,0.000000,0.693359,-0.674952,0.659612,-0.694893,0.668816,-0.630466
2.9188,0.016753,0.000000,0.000000,0.004670,0.0000,0.0000,0.0000,-0.035239,0.035239,0.000373,0.002605,0.001849,2.1683,0.5310,0.7072,-0.064427,0.062893,0.000000,0.693359,-0.674952,0.659612,-0.694893,0.668816,-0.630466
2.9355,0.016746,0.000000,0.000000,0.004689,0.0000,0.0000,0.0000,-0.028085,0.028085,0.000486,0.002603,0.001873,2.1677,0.4621,0.7051,-0.055223,0.058291,0.000000,0.693359,-0.676486,0.659612,-0.694893,0.670350,-0.630466
2.9522,0.016715,0.000000,0.000000,0.004707,0.0000,0.0000,0.0000,-0.020868,0.020868,0.000586,0.002602,0.001894,2.1667,0.4007,0.7039,-0.046019,0.050621,0.000000,0.693359,-0.678020,0.659612,-0.694893,0.671884,-0.630466
2.9690,0.016752,0.000000,0.000000,0.004724,0.0000,0.0000,0.0000,-0.013577,0.013577,0.000631,0.002585,0.001904,2.2036,0.3714,0.6475,-0.036816,0.041417,0.000000,0.693359,-0.679553,0.659612,-0.694893,0.671884,-0.630466
2.9858,0.016754,0.000000,0.000000,0.004741,0.0000,0.0000,0.0000,-0.006247,0.006247,0.000631,0.002585,0.001904,2.2036,0.3714,0.6475,-0.036816,0.041417,0.000000,0.693359,-0.679553,0.659612,-0.694893,0.671884,-0.630466
3.0025,0.016740,0.000000,0.000000,0.004758,0.0000,0.0000,0.0000,0.001094,-0.001094,0.000586,0.002546,0.001917,2.1507,0.3566,0.5979,-0.027612,0.032214,0.000000,0.693359,-0.679553,0.659612,-0.694893,0.671884,-0.632000
3.0192,0.016752,0.000000,0.000000,0.004774,0.0000,0.0000,0.0000,0.008437,-0.008437,0.000465,0.002511,0.001953,2.1070,0.3097,0.5485,-0.019942,0.024544,0.000000,0.694893,-0.679553,0.659612,-0.694893,0.671884,-0.635068
3.0360,0.016741,0.000000,0.000000,0.004789,0.0000,0.0000,0.0000,0.015752,-0.015752,0.000297,0.002380,0.002015,2.0032,0.2986,0.4999,-0.016874,0.015340,0.000000,0.696427,-0.679553,0.661146,-0.694893,0.671884,-0.639670
3.0527,0.016751,0.000000,0.000000,0.004804,0.0000,0.0000,0.0000,0.023028,-0.023028,0.000187,0.002321,0.002082,2.0397,0.2530,0.5066,-0.012272,0.004602,0.000000,0.699495,-0.681087,0.662680,-0.694893,0.671884,-0.642738
3.0695,0.016789,0.000000,0.000000,0.004818,0.0000,0.0000,0.0000,0.030256,-0.030256,0.000187,0.002321,0.002082,2.0397,0.2530,0.5066,0.000000,-0.004602,0.000000,0.701029,-0.679553,0.665748,-0.694893,0.671884,-0.647340
3.0863,0.016754,0.000000,0.000000,0.004832,0.0000,0.0000,0.0000,0.037385,-0.037385,-0.000051,0.002153,0.002140,1.8801,0.3273,0.5650,0.000000,-0.004602,0.000000,0.701029,-0.679553,0.665748,-0.694893,0.671884,-0.647340
3.1030,0.016747,0.000000,0.000000,0.004845,0.0000,0.0000,0.0000,0.044408,-0.044408,-0.000251,0.002076,0.002208,1.8366,0.2905,0.5612,0.013806,-0.015340,0.000000,0.704097,-0.679553,0.667282,-0.694893,0.671884,-0.651942
3.1198,0.016753,0.000000,0.000000,0.004858,0.0000,0.0000,0.0000,0.051311,-0.051311,-0.000400,0.002085,0.002248,1.8403,0.2329,0.5631,0.024544,-0.023010,0.000000,0.707165,-0.679553,0.667282,-0.694893,0.671884,-0.655010
3.1365,0.016751,0.000000,0.000000,0.004870,0.0000,0.0000,0.0000,0.058070,-0.058070,-0.000470,0.002085,0.002267,1.8395,0.2082,0.5636,0.029146,-0.030680,0.000000,0.708699,-0.679553,0.667282,-0.694893,0.671884,-0.656544
3.1533,0.016758,0.000000,0.000000,0.004882,0.0000,0.0000,0.0000,0.064671,-0.064671,-0.000504,0.002044,0.002278,1.7913,0.1934,0.5077,0.030680,-0.036816,0.000000,0.708699,-0.679553,0.667282,-0.694893,0.671884,-0.658078
3.1700,0.016750,0.000000,0.000000,0.004893,0.0000,0.0000,0.0000,0.071091,-0.071091,-0.000556,0.002066,0.002300,1.7595,0.2265,0.4019,0.039884,-0.047553,0.000000,0.708699,-0.679553,0.667282,-0.696427,0.671884,-0.659612
3.1868,0.016751,0.000000,0.000000,0.004903,0.0000,0.0000,0.0000,0.077314,-0.077314,-0.000556,0.002066,0.002300,1.7595,0.2265,0.4019,0.039884,-0.047553,0.000000,0.708699,-0.679553,0.667282,-0.696427,0.671884,-0.659612
3.2035,0.016742,0.000000,0.000000,0.004914,0.0000,0.0000,0.0000,0.083319,-0.083319,-0.000592,0.002024,0.002311,1.7146,0.2057,0.3569,0.053689,-0.055223,0.000000,0.708699,-0.679553,0.667282,-0.696427,0.671884,-0.661146
3.2203,0.016760,0.000000,0.000000,0.004923,0.0000,0.0000,0.0000,0.089100,-0.089100,-0.000602,0.002087,0.002320,1.7308,0.2567,0.3059,0.067495,-0.064427,0.000000,0.708699,-0.679553,0.667282,-0.697961,0.671884,-0.661146
3.2370,0.016748,0.000000,0.000000,0.004932,0.0000,0.0000,0.0000,0.094631,-0.094631,-0.000643,0.002040,0.002332,1.6810,0.2341,0.2552,0.070563,-0.070563,0.000000,0.708699,-0.679553,0.667282,-0.697961,0.671884,-0.662680
3.2538,0.016752,0.000000,0.000000,0.004940,0.0000,0.0000,0.0000,0.099900,-0.099900,-0.000652,0.002103,0.002341,1.6978,0.2851,0.2047,0.069029,-0.075165,0.000000,0.708699,-0.679553,0.667282,-0.699495,0.671884,-0.662680
3.2706,0.016763,0.000000,0.000000,0.004948,0.0000,0.0000,0.0000,0.104896,-0.104896,-0.000651,0.002096,0.002340,1.6961,0.2798,0.2099,0.078233,-0.078233,0.000000,0.708699,-0.679553,0.667282,-0.699495,0.671884,-0.662680
3.2873,0.016759,0.000000,0.000000,0.004955,0.0000,0.0000,0.0000,0.109601,-0.109601,-0.000651,0.002096,0.002340,1.6961,0.2798,0.2099,0.078233,-0.078233,0.000000,0.708699,-0.679553,0.667282,-0.699495,0.671884,-0.662680
3.3041,0.016744,0.000000,0.000000,0.004962,0.0000,0.0000,0.0000,0.113997,-0.113997,-0.000665,0.002155,0.002351,1.7079,0.3290,0.1536,0.095107,-0.082835,0.000000,0.708699,-0.679553,0.667282,-0.701029,0.671884,-0.662680
3.3208,0.016754,0.000000,0.000000,0.004968,0.0000,0.0000,0.0000,0.118081,-0.118081,-0.000664,0.002149,0.002350,1.7066,0.3238,0.1594,0.102777,-0.092039,0.000000,0.708699,-0.679553,0.667282,-0.701029,0.671884,-0.662680
3.3376,0.016752,0.000000,0.000000,0.004974,0.0000,0.0000,0.0000,0.121837,-0.121837,-0.000678,0.002208,0.002360,1.7184,0.3729,0.1030,0.101243,-0.102777,0.000000,0.708699,-0.679553,0.667282,-0.702563,0.671884,-0.662680
3.3543,0.016755,0.000000,0.000000,0.004979,0.0000,0.0000,0.0000,0.125257,-0.125257,-0.000633,0.002161,0.002349,1.6691,0.3813,0.0522,0.099709,-0.108913,0.000000,0.707165,-0.679553,0.667282,-0.702563,0.671884,-0.662680
3.3711,0.016796,0.000000,0.000000,0.004984,0.0000,0.0000,0.0000,0.128336,-0.128336,-0.000681,0.002207,0.002360,1.7223,0.3669,0.1141,0.108913,-0.116583,0.000000,0.708699,-0.679553,0.667282,-0.702563,0.671884,-0.662680
3.3879,0.016755,0.000000,0.000000,0.004988,0.0000,0.0000,0.0000,0.131052,-0.131052,-0.000681,0.002207,0.002360,1.7223,0.3669,0.1141,0.108913,-0.116583,0.000000,0.708699,-0.679553,0.667282,-0.702563,0.671884,-0.662680
3.4046,0.016746,0.000000,0.000000,0.004991,0.0000,0.0000,0.0000,0.133404,-0.133404,-0.000621,0.002185,0.002372,1.7537,0.3333,0.0512,0.124252,-0.124252,0.000000,0.708699,-0.681087,0.667282,-0.702563,0.671884,-0.662680
3.4214,0.016749,0.000000,0.000000,0.004994,0.0000,0.0000,0.0000,0.135387,-0.135387,-0.000683,0.002205,0.002358,1.7135,0.3719,0.1142,0.128854,-0.125786,0.000000,0.708699,-0.679553,0.667282,-0.702563,0.671884,-0.662680
3.4381,0.016750,0.000000,0.000000,0.004996,0.0000,0.0000,0.0000,0.136996,-0.136996,-0.000676,0.002202,0.002359,1.7177,0.3679,0.1077,0.124252,-0.127320,0.000000,0.708699,-0.679553,0.667282,-0.702563,0.671884,-0.662680
3.4549,0.016755,0.000000,0.000000,0.004998,0.0000,0.0000,0.0000,0.138225,-0.138225,-0.000633,0.002162,0.002349,1.6692,0.3818,0.0517,0.124252,-0.128854,0.000000,0.707165,-0.679553,0.667282,-0.702563,0.671884,-0.662680
3.4718,0.016947,0.000000,0.000000,0.004999,0.0000,0.0000,0.0000,0.139079,-0.139079,-0.000681,0.002207,0.002360,1.7223,0.3668,0.1142,0.131922,-0.133456,0.000000,0.708699,-0.679553,0.667282,-0.702563,0.671884,-0.662680
3.4886,0.016750,0.000000,0.000000,0.005000,0.0000,0.0000,0.0000,0.139536,-0.139536,-0.000681,0.002207,0.002360,1.7223,0.3668,0.1142,0.131922,-0.133456,0.000000,0.708699,-0.679553,0.667282,-0.702563,0.671884,-0.662680
3.5053,0.016741,0.000000,0.000000,0.005000,0.0000,0.0000,0.0000,0.139607,-0.139607,-0.000621,0.002185,0.002372,1.7537,0.3333,0.0512,0.141126,-0.136524,0.000000,0.708699,-0.681087,0.667282,-0.702563,0.671884,-0.662680
3.5221,0.016747,0.000000,0.000000,0.005000,0.0000,0.0000,0.0000,0.139291,-0.139291,-0.000627,0.002187,0.002370,1.7504,0.3368,0.0577,0.141126,-0.141126,0.000000,0.708699,-0.681087,0.667282,-0.702563,0.671884,-0.662680
3.5388,0.016747,0.000000,0.000000,0.004999,0.0000,0.0000,0.0000,0.138590,-0.138590,-0.000627,0.002187,0.002370,1.7504,0.3368,0.0577,0.136524,-0.141126,0.000000,0.708699,-0.681087,0.667282,-0.702563,0.671884,-0.662680
3.5556,0.016750,0.000000,0.000000,0.004997,0.0000,0.0000,0.0000,0.137505,-0.137505,-0.000627,0.002187,0.002370,1.7504,0.3368,0.0577,0.138058,-0.141126,0.000000,0.708699,-0.681087,0.667282,-0.702563,0.671884,-0.662680
3.5726,0.017039,0.000000,0.000000,0.004995,0.0000,0.0000,0.0000,0.136011,-0.136011,-0.000584,0.002114,0.002396,1.7766,0.3514,0.0571,0.142660,-0.141126,0.000000,0.708699,-0.682621,0.668816,-0.702563,0.671884,-0.662680
3.5893,0.016755,0.000000,0.000000,0.004992,0.0000,0.0000,0.0000,0.134162,-0.134162,-0.000584,0.002114,0.002396,1.7766,0.3514,0.0571,0.142660,-0.141126,0.000000,0.708699,-0.682621,0.668816,-0.702563,0.671884,-0.662680
3.6062,0.016873,0.000000,0.000000,0.004989,0.0000,0.0000,0.0000,0.131924,-0.131924,-0.000533,0.002104,0.002406,1.8107,0.3148,0.0005,0.139592,-0.141126,0.000000,0.708699,-0.684155,0.668816,-0.702563,0.671884,-0.662680
3.6235,0.017269,0.000000,0.000000,0.004985,0.0000,0.0000,0.0000,0.129250,-0.129250,-0.000533,0.002104,0.002406,1.8107,0.3148,0.0005,0.139592,-0.141126,0.000000,0.708699,-0.684155,0.668816,-0.702563,0.671884,-0.662680
3.6402,0.016747,0.000000,0.000000,0.004981,0.0000,0.0000,0.0000,0.126294,-0.126294,-0.000533,0.002104,0.002406,1.8107,0.3148,0.0005,0.139592,-0.141126,0.000000,0.708699,-0.684155,0.668816,-0.702563,0.671884,-0.662680
3.6570,0.016747,0.000000,0.000000,0.004976,0.0000,0.0000,0.0000,0.122988,-0.122988,-0.000225,0.001680,0.002534,1.9248,0.3722,-0.1072,0.134990,-0.138058,0.000000,0.707165,-0.693359,0.676486,-0.702563,0.671884,-0.662680
3.6737,0.016745,0.000000,0.000000,0.004970,0.0000,0.0000,0.0000,0.119342,-0.119342,-0.000272,0.001635,0.002569,1.9757,0.4174,0.0176,0.134990,-0.138058,0.000000,0.708699,-0.694893,0.679553,-0.702563,0.671884,-0.662680
3.6904,0.016723,0.000000,0.000000,0.004964,0.0000,0.0000,0.0000,0.115371,-0.115371,-0.000294,0.001527,0.002591,1.9485,0.5120,0.1185,0.131922,-0.134990,0.000000,0.708699,-0.694893,0.682621,-0.702563,0.671884,-0.662680
3.7072,0.016745,0.000000,0.000000,0.004958,0.0000,0.0000,0.0000,0.111076,-0.111076,-0.000261,0.001441,0.002591,1.8925,0.5653,0.1082,0.124252,-0.127320,0.000000,0.707165,-0.694893,0.684155,-0.702563,0.671884,-0.662680
3.7240,0.016766,0.000000,0.000000,0.004951,0.0000,0.0000,0.0000,0.106468,-0.106468,-0.000261,0.001441,0.002591,1.8925,0.5653,0.1082,0.124252,-0.127320,0.000000,0.707165,-0.694893,0.684155,-0.702563,0.671884,-0.662680
3.7407,0.016745,0.000000,0.000000,0.004943,0.0000,0.0000,0.0000,0.101571,-0.101571,-0.000290,0.001337,0.002616,1.8765,0.6587,0.2232,0.115049,-0.121184,0.000000,0.707165,-0.694893,0.687223,-0.702563,0.671884,-0.662680
3.7575,0.016746,0.000000,0.000000,0.004935,0.0000,0.0000,0.0000,0.096392,-0.096392,-0.000289,0.001316,0.002649,1.9519,0.6499,0.2683,0.111981,-0.118117,0.000000,0.708699,-0.696427,0.688757,-0.702563,0.671884,-0.662680
3.7742,0.016743,0.000000,0.000000,0.004926,0.0000,0.0000,0.0000,0.090948,-0.090948,-0.000289,0.001318,0.002646,1.9440,0.6508,0.2636,0.111981,-0.116583,0.000000,0.708699,-0.696427,0.688757,-0.702563,0.671884,-0.662680
3.7909,0.016751,0.000000,0.000000,0.004917,0.0000,0.0000,0.0000,0.085250,-0.085250,-0.000189,0.001259,0.002648,1.9338,0.6300,0.1504,0.110447,-0.116583,0.000000,0.707165,-0.697961,0.688757,-0.702563,0.671884,-0.662680
3.8077,0.016744,0.000000,0.000000,0.004907,0.0000,0.0000,0.0000,0.079317,-0.079317,-0.000199,0.001266,0.002647,1.9349,0.6321,0.1622,0.101243,-0.111981,0.000000,0.707165,-0.697961,0.688757,-0.702563,0.671884,-0.662680
3.8245,0.016760,0.000000,0.000000,0.004896,0.0000,0.0000,0.0000,0.073160,-0.073160,-0.000199,0.001266,0.002647,1.9349,0.6321,0.1622,0.101243,-0.111981,0.000000,0.707165,-0.697961,0.688757,-0.702563,0.671884,-0.662680
3.8412,0.016740,0.000000,0.000000,0.004886,0.0000,0.0000,0.0000,0.066807,-0.066807,-0.000242,0.001306,0.002658,1.9826,0.6181,0.2178,0.088971,-0.099709,0.000000,0.708699,-0.697961,0.688757,-0.702563,0.671884,-0.662680
3.8579,0.016748,0.000000,0.000000,0.004874,0.0000,0.0000,0.0000,0.060267,-0.060267,-0.000238,0.001302,0.002657,1.9776,0.6196,0.2120,0.079767,-0.088971,0.000000,0.708699,-0.697961,0.688757,-0.702563,0.671884,-0.662680
3.8746,0.016695,0.000000,0.000000,0.004862,0.0000,0.0000,0.0000,0.053581,-0.053581,-0.000238,0.001302,0.002657,1.9776,0.6196,0.2120,0.076699,-0.076699,0.000000,0.708699,-0.697961,0.688757,-0.702563,0.671884,-0.662680
3.8914,0.016761,0.000000,0.000000,0.004850,0.0000,0.0000,0.0000,0.046721,-0.046721,-0.000238,0.001302,0.002657,1.9776,0.6196,0.2120,0.076699,-0.067495,0.000000,0.708699,-0.697961,0.688757,-0.702563,0.671884,-0.662680
3.9081,0.016739,0.000000,0.000000,0.004836,0.0000,0.0000,0.0000,0.039740,-0.039740,-0.000238,0.001302,0.002657,1.9776,0.6196,0.2120,0.067495,-0.059825,0.000000,0.708699,-0.697961,0.688757,-0.702563,0.671884,-0.662680
3.9249,0.016768,0.000000,0.000000,0.004823,0.0000,0.0000,0.0000,0.032637,-0.032637,-0.000238,0.001302,0.002657,1.9776,0.6196,0.2120,0.067495,-0.059825,0.000000,0.708699,-0.697961,0.688757,-0.702563,0.671884,-0.662680
3.9416,0.016743,0.000000,0.000000,0.004809,0.0000,0.0000,0.0000,0.025454,-0.025454,-0.000238,0.001302,0.002657,1.9776,0.6196,0.2120,0.052155,-0.053689,0.000000,0.708699,-0.697961,0.688757,-0.702563,0.671884,-0.662680
3.9584,0.016749,0.000000,0.000000,0.004794,0.0000,0.0000,0.0000,0.018199,-0.018199,-0.000238,0.001302,0.002657,1.9776,0.6196,0.2120,0.041417,-0.046019,0.000000,0.708699,-0.697961,0.688757,-0.702563,0.671884,-0.662680
3.9751,0.016741,0.000000,0.000000,0.004779,0.0000,0.0000,0.0000,0.010896,-0.010896,-0.000238,0.001302,0.002657,1.9776,0.6196,0.2120,0.035282,-0.038350,0.000000,0.708699,-0.697961,0.688757,-0.702563,0.671884,-0.662680
3.9919,0.016764,0.000000,0.000000,0.004763,0.0000,0.0000,0.0000,0.003553,-0.003553,-0.000194,0.001261,0.002646,1.9303,0.6332,0.1558,0.033748,-0.035282,0.000000,0.707165,-0.697961,0.688757,-0.702563,0.671884,-0.662680
4.0086,0.016741,0.000000,0.000000,0.004747,0.0000,0.0000,0.0000,-0.003789,0.003789,-0.000243,0.001306,0.002658,1.9831,0.6180,0.2184,0.024544,-0.027612,0.000000,0.708699,-0.697961,0.688757,-0.702563,0.671884,-0.662680
4.0254,0.016760,0.000000,0.000000,0.004730,0.0000,0.0000,0.0000,-0.011130,0.011130,-0.000243,0.001306,0.002658,1.9831,0.6180,0.2184,0.024544,-0.027612,0.000000,0.708699,-0.697961,0.688757,-0.702563,0.671884,-0.662680
4.0421,0.016747,0.000000,0.000000,0.004713,0.0000,0.0000,0.0000,-0.018434,0.018434,-0.000194,0.001261,0.002646,1.9297,0.6334,0.1551,0.010738,-0.013806,0.000000,0.707165,-0.697961,0.688757,-0.702563,0.671884,-0.662680
4.0589,0.016748,0.000000,0.000000,0.004695,0.0000,0.0000,0.0000,-0.025687,0.025687,-0.000199,0.001265,0.002648,1.9353,0.6318,0.1617,-0.003068,-0.001534,0.000000,0.707165,-0.697961,0.688757,-0.702563,0.671884,-0.662680
4.0756,0.016746,0.000000,0.000000,0.004677,0.0000,0.0000,0.0000,-0.032868,0.032868,-0.000243,0.001306,0.002658,1.9826,0.6181,0.2178,-0.006136,0.004602,0.000000,0.708699,-0.697961,0.688757,-0.702563,0.671884,-0.662680
4.0924,0.016761,0.000000,0.000000,0.004658,0.0000,0.0000,0.0000,-0.039965,0.039965,-0.000238,0.001302,0.002657,1.9776,0.6196,0.2120,-0.006136,0.007670,0.000000,0.708699,-0.697961,0.688757,-0.702563,0.671884,-0.662680
4.1093,0.016920,0.000000,0.000000,0.004638,0.0000,0.0000,0.0000,-0.047017,0.047017,-0.000194,0.001261,0.002646,1.9303,0.6332,0.1558,-0.015340,0.016874,0.000000,0.707165,-0.697961,0.688757,-0.702563,0.671884,-0.662680
4.1261,0.016765,0.000000,0.000000,0.004618,0.0000,0.0000,0.0000,-0.053873,0.053873,-0.000194,0.001261,0.002646,1.9303,0.6332,0.1558,-0.015340,0.016874,0.000000,0.707165,-0.697961,0.688757,-0.702563,0.671884,-0.662680
4.1428,0.016747,0.000000,0.000000,0.004598,0.0000,0.0000,0.0000,-0.060573,0.060573,-0.000199,0.001265,0.002648,1.9352,0.6318,0.1617,-0.032214,0.030680,0.000000,0.707165,-0.697961,0.688757,-0.702563,0.671884,-0.662680
4.1596,0.016753,0.000000,0.000000,0.004577,0.0000,0.0000,0.0000,-0.067107,0.067107,-0.000243,0.001306,0.002658,1.9826,0.6181,0.2178,-0.046019,0.044485,0.000000,0.708699,-0.697961,0.688757,-0.702563,0.671884,-0.662680
4.1763,0.016746,0.000000,0.000000,0.004555,0.0000,0.0000,0.0000,-0.073453,0.073453,-0.000238,0.001302,0.002657,1.9776,0.6196,0.2120,-0.047553,0.046019,0.000000,0.708699,-0.697961,0.688757,-0.702563,0.671884,-0.662680
4.1931,0.016760,0.000000,0.000000,0.004533,0.0000,0.0000,0.0000,-0.079600,0.079600,-0.000194,0.001261,0.002646,1.9303,0.6332,0.1558,-0.047553,0.046019,0.000000,0.707165,-0.697961,0.688757,-0.702563,0.671884,-0.662680
4.2098,0.016752,0.000000,0.000000,0.004511,0.0000,0.0000,0.0000,-0.085524,0.085524,-0.000243,0.001306,0.002658,1.9831,0.6180,0.2184,-0.056757,0.055223,0.000000,0.708699,-0.697961,0.688757,-0.702563,0.671884,-0.662680
4.2266,0.016756,0.000000,0.000000,0.004488,0.0000,0.0000,0.0000,-0.091213,0.091213,-0.000243,0.001306,0.002658,1.9831,0.6180,0.2184,-0.056757,0.055223,0.000000,0.708699,-0.697961,0.688757,-0.702563,0.671884,-0.662680
4.2433,0.016748,0.000000,0.000000,0.004464,0.0000,0.0000,0.0000,-0.096646,0.096646,-0.000194,0.001261,0.002646,1.9297,0.6334,0.1551,-0.070563,0.069029,0.000000,0.707165,-0.697961,0.688757,-0.702563,0.671884,-0.662680
4.2601,0.016752,0.000000,0.000000,0.004441,0.0000,0.0000,0.0000,-0.101813,0.101813,-0.000199,0.001265,0.002648,1.9353,0.6318,0.1617,-0.084369,0.082835,0.000000,0.707165,-0.697961,0.688757,-0.702563,0.671884,-0.662680
4.2768,0.016746,0.000000,0.000000,0.004416,0.0000,0.0000,0.0000,-0.106697,0.106697,-0.000199,0.001265,0.002648,1.9353,0.6318,0.1617,-0.084369,0.084369,0.000000,0.707165,-0.697961,0.688757,-0.702563,0.671884,-0.662680
4.2936,0.016754,0.000000,0.000000,0.004391,0.0000,0.0000,0.0000,-0.111287,0.111287,-0.000243,0.001306,0.002658,1.9826,0.6181,0.2178,-0.082835,0.085903,0.000000,0.708699,-0.697961,0.688757,-0.702563,0.671884,-0.662680
4.3104,0.016779,0.000000,0.000000,0.004366,0.0000,0.0000,0.0000,-0.115576,0.115576,-0.000238,0.001302,0.002657,1.9776,0.6196,0.2120,-0.093573,0.099709,0.000000,0.708699,-0.697961,0.688757,-0.702563,0.671884,-0.662680
4.3271,0.016760,0.000000,0.000000,0.004340,0.0000,0.0000,0.0000,-0.119539,0.119539,-0.000238,0.001302,0.002657,1.9776,0.6196,0.2120,-0.093573,0.099709,0.000000,0.708699,-0.697961,0.688757,-0.702563,0.671884,-0.662680
4.3439,0.016752,0.000000,0.000000,0.004313,0.0000,0.0000,0.0000,-0.123169,0.123169,-0.000194,0.001261,0.002646,1.9303,0.6332,0.1558,-0.108913,0.108913,0.000000,0.707165,-0.697961,0.688757,-0.702563,0.671884,-0.662680
4.3606,0.016751,0.000000,0.000000,0.004287,0.0000,0.0000,0.0000,-0.126457,0.126457,-0.000243,0.001306,0.002658,1.9831,0.6180,0.2184,-0.116583,0.108913,0.000000,0.708699,-0.697961,0.688757,-0.702563,0.671884,-0.662680
4.3774,0.016803,0.000000,0.000000,0.004259,0.0000,0.0000,0.0000,-0.129405,0.129405,-0.000238,0.001302,0.002657,1.9776,0.6196,0.2119,-0.115049,0.110447,0.000000,0.708699,-0.697961,0.688757,-0.702563,0.671884,-0.662680
4.3942,0.016759,0.000000,0.000000,0.004231,0.0000,0.0000,0.0000,-0.131985,0.131985,-0.000238,0.001302,0.002657,1.9776,0.6196,0.2119,-0.116583,0.121184,0.000000,0.708699,-0.697961,0.688757,-0.702563,0.671884,-0.662680
4.4111,0.016851,0.000000,0.000000,0.004203,0.0000,0.0000,0.0000,-0.134211,0.134211,-0.000194,0.001261,0.002646,1.9303,0.6332,0.1558,-0.128854,0.127320,0.000000,0.707165,-0.697961,0.688757,-0.702563,0.671884,-0.662680
4.4278,0.016758,0.000000,0.000000,0.004174,0.0000,0.0000,0.0000,-0.136051,0.136051,-0.000194,0.001261,0.002646,1.9303,0.6332,0.1558,-0.128854,0.127320,0.000000,0.707165,-0.697961,0.688757,-0.702563,0.671884,-0.662680
4.4446,0.016751,0.000000,0.000000,0.004145,0.0000,0.0000,0.0000,-0.137514,0.137514,-0.000199,0.001265,0.002648,1.9352,0.6318,0.1617,-0.134990,0.127320,0.000000,0.707165,-0.697961,0.688757,-0.702563,0.671884,-0.662680
4.4613,0.016747,0.000000,0.000000,0.004115,0.0000,0.0000,0.0000,-0.138596,0.138596,-0.000243,0.001306,0.002658,1.9826,0.6181,0.2178,-0.134990,0.127320,0.000000,0.708699,-0.697961,0.688757,-0.702563,0.671884,-0.662680
4.4781,0.016746,0.000000,0.000000,0.004085,0.0000,0.0000,0.0000,-0.139295,0.139295,-0.000238,0.001302,0.002657,1.9776,0.6196,0.2120,-0.133456,0.133456,0.000000,0.708699,-0.697961,0.688757,-0.702563,0.671884,-0.662680
4.4948,0.016753,0.000000,0.000000,0.004055,0.0000,0.0000,0.0000,-0.139608,0.139608,-0.000238,0.001302,0.002657,1.9776,0.6196,0.2120,-0.139592,0.134990,0.000000,0.708699,-0.697961,0.688757,-0.702563,0.671884,-0.662680
4.5116,0.016765,0.000000,0.000000,0.004024,0.0000,0.0000,0.0000,-0.139534,0.139534,-0.000194,0.001261,0.002646,1.9303,0.6332,0.1558,-0.139592,0.136524,0.000000,0.707165,-0.697961,0.688757,-0.702563,0.671884,-0.662680
4.5283,0.016757,0.000000,0.000000,0.003992,0.0000,0.0000,0.0000,-0.139074,0.139074,-0.000194,0.001261,0.002646,1.9303,0.6332,0.1558,-0.139592,0.136524,0.000000,0.707165,-0.697961,0.688757,-0.702563,0.671884,-0.662680
4.5451,0.016751,0.000000,0.000000,0.003960,0.0000,0.0000,0.0000,-0.138228,0.138228,-0.000243,0.001306,0.002658,1.9831,0.6180,0.2184,-0.139592,0.139592,0.000000,0.708699,-0.697961,0.688757,-0.702563,0.671884,-0.662680
4.5618,0.016750,0.000000,0.000000,0.003928,0.0000,0.0000,0.0000,-0.137000,0.137000,-0.000238,0.001302,0.002657,1.9776,0.6196,0.2119,-0.141126,0.138058,0.000000,0.708699,-0.697961,0.688757,-0.702563,0.671884,-0.662680
