t,loop_dt,cmd_x,cmd_y,cmd_z,cmd_roll,cmd_pitch,cmd_yaw,cmd_ant_l,cmd_ant_r,pres_x,pres_y,pres_z,pres_roll,pres_pitch,pres_yaw,pres_ant_l,pres_ant_r,pres_j0,pres_j1,pres_j2,pres_j3,pres_j4,pres_j5,pres_j6
0.0000,0.000001,-0.000143,0.001151,-0.002539,0.6565,0.0459,-0.0960,-0.007670,0.007670,-0.000143,0.001151,-0.002539,0.6565,0.0459,-0.0960,-0.007670,0.007670,0.000000,0.578311,-0.566039,0.556835,-0.579845,0.567573,-0.559903
0.0170,0.016955,-0.000140,0.001132,-0.002496,0.6453,0.0451,-0.0944,-0.007540,0.007540,-0.000143,0.001151,-0.002539,0.6565,0.0459,-0.0960,-0.012272,0.007670,0.000000,0.578311,-0.566039,0.556835,-0.579845,0.567573,-0.559903
0.0337,0.016760,-0.000138,0.001112,-0.002453,0.6343,0.0443,-0.0928,-0.007411,0.007411,-0.000143,0.001151,-0.002539,0.6565,0.0459,-0.0960,-0.012272,0.007670,0.000000,0.578311,-0.566039,0.556835,-0.579845,0.567573,-0.559903
0.0505,0.016769,-0.000136,0.001093,-0.002410,0.6233,0.0436,-0.0912,-0.007283,0.007283,-0.000143,0.001151,-0.002539,0.6565,0.0459,-0.0960,-0.006136,0.007670,0.000000,0.578311,-0.566039,0.556835,-0.579845,0.567573,-0.559903
0.0672,0.016741,-0.000133,0.001074,-0.002368,0.6123,0.0428,-0.0895,-0.007154,0.007154,-0.000143,0.001151,-0.002539,0.6565,0.0459,-0.0960,-0.006136,0.007670,0.000000,0.578311,-0.566039,0.556835,-0.579845,0.567573,-0.559903
0.0840,0.016756,-0.000131,0.001054,-0.002325,0.6013,0.0420,-0.0879,-0.007026,0.007026,-0.000087,0.001182,-0.002614,0.5772,0.1834,0.0097,-0.003068,0.007670,0.000000,0.575243,-0.562971,0.556835,-0.579845,0.567573,-0.556835
0.1007,0.016749,-0.000128,0.001035,-0.002283,0.5903,0.0412,-0.0863,-0.006897,0.006897,0.000137,0.001232,-0.002706,0.5953,0.3219,0.1043,-0.004602,0.007670,0.000000,0.570641,-0.561437,0.556835,-0.579845,0.567573,-0.550699
0.1175,0.016782,-0.000126,0.001016,-0.002240,0.5793,0.0405,-0.0847,-0.006769,0.006769,0.000195,0.001227,-0.002722,0.5933,0.3409,0.0942,-0.010738,0.007670,0.000000,0.569107,-0.561437,0.556835,-0.579845,0.567573,-0.549165
0.1343,0.016799,-0.000124,0.000997,-0.002198,0.5683,0.0397,-0.0831,-0.006640,0.006640,0.000195,0.001227,-0.002722,0.5933,0.3409,0.0942,-0.010738,0.007670,0.000000,0.569107,-0.561437,0.556835,-0.579845,0.567573,-0.549165
0.1512,0.016854,-0.000121,0.000977,-0.002155,0.5572,0.0389,-0.0815,-0.006510,0.006510,0.000195,0.001227,-0.002722,0.5933,0.3409,0.0942,-0.010738,0.007670,0.000000,0.569107,-0.561437,0.556835,-0.579845,0.567573,-0.549165
0.1679,0.016751,-0.000119,0.000958,-0.002112,0.5462,0.0381,-0.0799,-0.006382,0.006382,0.000189,0.001227,-0.002720,0.5935,0.3389,0.0952,-0.003068,0.007670,0.000000,0.569107,-0.561437,0.556835,-0.579845,0.567573,-0.549165
0.1847,0.016756,-0.000116,0.000939,-0.002070,0.5352,0.0373,-0.0783,-0.006253,0.006253,0.000189,0.001227,-0.002720,0.5935,0.3389,0.0952,-0.003068,0.007670,0.000000,0.569107,-0.561437,0.556835,-0.579845,0.567573,-0.549165
0.2014,0.016745,-0.000114,0.000919,-0.002027,0.5243,0.0366,-0.0767,-0.006125,0.006125,0.000189,0.001227,-0.002720,0.5935,0.3389,0.0952,-0.007670,0.007670,0.000000,0.569107,-0.561437,0.556835,-0.579845,0.567573,-0.549165
0.2182,0.016754,-0.000112,0.000900,-0.001985,0.5133,0.0358,-0.0751,-0.005997,0.005997,0.000149,0.001266,-0.002708,0.6434,0.3234,0.1486,-0.012272,0.007670,0.000000,0.570641,-0.561437,0.556835,-0.579845,0.567573,-0.549165
0.2349,0.016741,-0.000109,0.000881,-0.001942,0.5023,0.0350,-0.0735,-0.005868,0.005868,0.000194,0.001223,-0.002722,0.5883,0.3407,0.0895,-0.009204,0.007670,0.000000,0.569107,-0.561437,0.556835,-0.579845,0.567573,-0.549165
0.2522,0.017264,-0.000107,0.000861,-0.001898,0.4909,0.0342,-0.0718,-0.005736,0.005736,0.000189,0.001228,-0.002720,0.5940,0.3389,0.0957,0.001534,0.006136,0.000000,0.569107,-0.561437,0.556835,-0.579845,0.567573,-0.549165
0.2689,0.016748,-0.000104,0.000842,-0.001856,0.4799,0.0335,-0.0702,-0.005607,0.005607,0.000189,0.001228,-0.002720,0.5940,0.3389,0.0957,0.000000,0.007670,0.000000,0.569107,-0.561437,0.556835,-0.579845,0.567573,-0.549165
0.2857,0.016766,-0.000102,0.000822,-0.001813,0.4689,0.0327,-0.0686,-0.005479,0.005479,0.000189,0.001228,-0.002720,0.5940,0.3389,0.0957,0.000000,0.007670,0.000000,0.569107,-0.561437,0.556835,-0.579845,0.567573,-0.549165
0.3024,0.016747,-0.000100,0.000803,-0.001771,0.4579,0.0319,-0.0670,-0.005350,0.005350,0.000189,0.001228,-0.002720,0.5940,0.3389,0.0957,-0.010738,0.007670,0.000000,0.569107,-0.561437,0.556835,-0.579845,0.567573,-0.549165
0.3192,0.016752,-0.000097,0.000784,-0.001728,0.4469,0.0311,-0.0654,-0.005222,0.005222,0.000189,0.001228,-0.002720,0.5940,0.3389,0.0957,-0.009204,0.007670,0.000000,0.569107,-0.561437,0.556835,-0.579845,0.567573,-0.549165
0.3359,0.016748,-0.000095,0.000764,-0.001686,0.4360,0.0304,-0.0638,-0.005093,0.005093,0.000189,0.001228,-0.002720,0.5940,0.3389,0.0957,0.001534,0.007670,0.000000,0.569107,-0.561437,0.556835,-0.579845,0.567573,-0.549165
0.3528,0.016851,-0.000092,0.000745,-0.001643,0.4249,0.0296,-0.0622,-0.004964,0.004964,0.000189,0.001228,-0.002720,0.5940,0.3389,0.0957,0.001534,0.007670,0.000000,0.569107,-0.561437,0.556835,-0.579845,0.567573,-0.549165
0.3695,0.016744,-0.000090,0.000726,-0.001601,0.4139,0.0288,-0.0606,-0.004836,0.004836,0.000189,0.001228,-0.002720,0.5940,0.3389,0.0957,-0.006136,0.007670,0.000000,0.569107,-0.561437,0.556835,-0.579845,0.567573,-0.549165
0.3863,0.016764,-0.000088,0.000706,-0.001558,0.4029,0.0280,-0.0590,-0.004707,0.004707,0.000189,0.001228,-0.002720,0.5940,0.3389,0.0957,-0.006136,0.007670,0.000000,0.569107,-0.561437,0.556835,-0.579845,0.567573,-0.549165
0.4030,0.016746,-0.000085,0.000687,-0.001515,0.3919,0.0273,-0.0574,-0.004579,0.004579,0.000189,0.001228,-0.002720,0.5940,0.3389,0.0957,-0.009204,0.007670,0.000000,0.569107,-0.561437,0.556835,-0.579845,0.567573,-0.549165
0.4198,0.016756,-0.000083,0.000668,-0.001473,0.3809,0.0265,-0.0558,-0.004450,0.004450,0.000189,0.001228,-0.002720,0.5940,0.3389,0.0957,-0.004602,0.007670,0.000000,0.569107,-0.561437,0.556835,-0.579845,0.567573,-0.549165
0.4365,0.016743,-0.000081,0.000649,-0.001430,0.3699,0.0257,-0.0541,-0.004322,0.004322,0.000189,0.001228,-0.002720,0.5940,0.3389,0.0957,0.000000,0.007670,0.000000,0.569107,-0.561437,0.556835,-0.579845,0.567573,-0.549165
0.4533,0.016752,-0.000078,0.000629,-0.001388,0.3589,0.0250,-0.0525,-0.004193,0.004193,0.000189,0.001228,-0.002720,0.5940,0.3389,0.0957,-0.004602,0.006136,0.000000,0.569107,-0.561437,0.556835,-0.579845,0.567573,-0.549165
0.4700,0.016746,-0.000076,0.000610,-0.001345,0.3479,0.0242,-0.0509,-0.004065,0.004065,0.000189,0.001228,-0.002720,0.5940,0.3389,0.0957,-0.006136,0.006136,0.000000,0.569107,-0.561437,0.556835,-0.579845,0.567573,-0.549165
0.4868,0.016758,-0.000073,0.000591,-0.001303,0.3369,0.0234,-0.0493,-0.003936,0.003936,0.000189,0.001228,-0.002720,0.5940,0.3389,0.0957,-0.006136,0.006136,0.000000,0.569107,-0.561437,0.556835,-0.579845,0.567573,-0.549165
0.5035,0.016747,-0.000071,0.000571,-0.001260,0.3259,0.0227,-0.0477,-0.003808,0.003808,0.000189,0.001228,-0.002720,0.5940,0.3389,0.0957,-0.001534,0.006136,0.000000,0.569107,-0.561437,0.556835,-0.579845,0.567573,-0.549165
0.5203,0.016748,-0.000069,0.000552,-0.001218,0.3149,0.0219,-0.0461,-0.003679,0.003679,0.000189,0.001228,-0.002720,0.5940,0.3389,0.0957,0.001534,0.006136,0.000000,0.569107,-0.561437,0.556835,-0.579845,0.567573,-0.549165
0.5370,0.016743,-0.000066,0.000533,-0.001175,0.3039,0.0211,-0.0445,-0.003551,0.003551,0.000189,0.001228,-0.002720,0.5940,0.3389,0.0957,-0.003068,0.006136,0.000000,0.569107,-0.561437,0.556835,-0.579845,0.567573,-0.549165
0.5538,0.016747,-0.000064,0.000514,-0.001133,0.2929,0.0204,-0.0429,-0.003422,0.003422,0.000189,0.001228,-0.002720,0.5940,0.3389,0.0957,-0.006136,0.006136,0.000000,0.569107,-0.561437,0.556835,-0.579845,0.567573,-0.549165
0.5707,0.016965,-0.000061,0.000494,-0.001090,0.2818,0.0196,-0.0413,-0.003292,0.003292,0.000189,0.001228,-0.002720,0.5940,0.3389,0.0957,-0.003068,0.006136,0.000000,0.569107,-0.561437,0.556835,-0.579845,0.567573,-0.549165
0.5875,0.016757,-0.000059,0.000475,-0.001047,0.2708,0.0188,-0.0397,-0.003164,0.003164,0.000189,0.001228,-0.002720,0.5940,0.3389,0.0957,-0.003068,0.006136,0.000000,0.569107,-0.561437,0.556835,-0.579845,0.567573,-0.549165
0.6042,0.016742,-0.000057,0.000456,-0.001005,0.2598,0.0180,-0.0381,-0.003035,0.003035,0.000189,0.001228,-0.002720,0.5940,0.3389,0.0957,0.001534,0.006136,0.000000,0.569107,-0.561437,0.556835,-0.579845,0.567573,-0.549165
0.6210,0.016753,-0.000054,0.000436,-0.000962,0.2488,0.0173,-0.0364,-0.002907,0.002907,0.000189,0.001228,-0.002720,0.5940,0.3389,0.0957,-0.003068,0.006136,0.000000,0.569107,-0.561437,0.556835,-0.579845,0.567573,-0.549165
0.6377,0.016742,-0.000052,0.000417,-0.000920,0.2378,0.0165,-0.0348,-0.002778,0.002778,0.000189,0.001228,-0.002720,0.5940,0.3389,0.0957,-0.007670,0.006136,0.000000,0.569107,-0.561437,0.556835,-0.579845,0.567573,-0.549165
0.6545,0.016748,-0.000049,0.000398,-0.000877,0.2268,0.0157,-0.0332,-0.002650,0.002650,0.000189,0.001228,-0.002720,0.5940,0.3389,0.0957,-0.001534,0.006136,0.000000,0.569107,-0.561437,0.556835,-0.579845,0.567573,-0.549165
0.6713,0.016804,-0.000047,0.000378,-0.000834,0.2158,0.0150,-0.0316,-0.002521,0.002521,0.000189,0.001228,-0.002720,0.5940,0.3389,0.0957,0.004602,0.004602,0.000000,0.569107,-0.561437,0.556835,-0.579845,0.567573,-0.549165
0.6881,0.016758,-0.000045,0.000359,-0.000792,0.2048,0.0142,-0.0300,-0.002393,0.002393,0.000189,0.001228,-0.002720,0.5940,0.3389,0.0957,0.004602,0.004602,0.000000,0.569107,-0.561437,0.556835,-0.579845,0.567573,-0.549165
0.7048,0.016744,-0.000042,0.000340,-0.000749,0.1938,0.0134,-0.0284,-0.002264,0.002264,0.000189,0.001228,-0.002720,0.5940,0.3389,0.0957,0.001534,0.004602,0.000000,0.569107,-0.561437,0.556835,-0.579845,0.567573,-0.549165
0.7215,0.016754,-0.000040,0.000321,-0.000707,0.1828,0.0127,-0.0268,-0.002136,0.002136,0.000189,0.001228,-0.002720,0.5940,0.3389,0.0957,-0.004602,0.003068,0.000000,0.569107,-0.561437,0.556835,-0.579845,0.567573,-0.549165
0.7383,0.016741,-0.000037,0.000301,-0.000664,0.1718,0.0119,-0.0252,-0.002007,0.002007,0.000189,0.001228,-0.002720,0.5940,0.3389,0.0957,-0.001534,0.001534,0.000000,0.569107,-0.561437,0.556835,-0.579845,0.567573,-0.549165
0.7550,0.016752,-0.000035,0.000282,-0.000622,0.1608,0.0111,-0.0236,-0.001879,0.001879,0.000189,0.001228,-0.002720,0.5940,0.3389,0.0957,0.003068,0.001534,0.000000,0.569107,-0.561437,0.556835,-0.579845,0.567573,-0.549165
0.7722,0.017139,-0.000033,0.000262,-0.000578,0.1496,0.0104,-0.0219,-0.001747,0.001747,0.000189,0.001228,-0.002720,0.5940,0.3389,0.0957,0.000000,0.001534,0.000000,0.569107,-0.561437,0.556835,-0.579845,0.567573,-0.549165
0.7889,0.016754,-0.000030,0.000243,-0.000536,0.1386,0.0096,-0.0203,-0.001619,0.001619,0.000189,0.001228,-0.002720,0.5940,0.3389,0.0957,0.000000,0.001534,0.000000,0.569107,-0.561437,0.556835,-0.579845,0.567573,-0.549165
0.8057,0.016743,-0.000028,0.000224,-0.000493,0.1276,0.0088,-0.0187,-0.001490,0.001490,0.000189,0.001228,-0.002720,0.5940,0.3389,0.0957,-0.006136,0.001534,0.000000,0.569107,-0.561437,0.556835,-0.579845,0.567573,-0.549165
0.8224,0.016748,-0.000025,0.000204,-0.000451,0.1166,0.0081,-0.0171,-0.001362,0.001362,0.000148,0.001266,-0.002708,0.6434,0.3234,0.1485,-0.003068,0.001534,0.000000,0.570641,-0.561437,0.556835,-0.579845,0.567573,-0.549165
0.8392,0.016749,-0.000023,0.000185,-0.000408,0.1056,0.0073,-0.0155,-0.001234,0.001234,0.000153,0.001262,-0.002710,0.6382,0.3250,0.1430,0.003068,0.001534,0.000000,0.570641,-0.561437,0.556835,-0.579845,0.567573,-0.549165
0.8559,0.016748,-0.000021,0.000166,-0.000366,0.0946,0.0065,-0.0139,-0.001105,0.001105,0.000206,0.001246,-0.002697,0.6779,0.2893,0.0903,0.000000,0.000000,0.000000,0.570641,-0.562971,0.556835,-0.579845,0.567573,-0.549165
0.8729,0.017023,-0.000018,0.000146,-0.000323,0.0834,0.0058,-0.0122,-0.000974,0.000974,0.000147,0.001264,-0.002711,0.6347,0.3286,0.1491,-0.006136,0.000000,0.000000,0.570641,-0.561437,0.556835,-0.579845,0.567573,-0.549165
0.8897,0.016750,-0.000016,0.000127,-0.000280,0.0724,0.0050,-0.0106,-0.000846,0.000846,0.000147,0.001264,-0.002711,0.6347,0.3286,0.1491,-0.006136,0.000000,0.000000,0.570641,-0.561437,0.556835,-0.579845,0.567573,-0.549165
0.9064,0.016743,-0.000013,0.000108,-0.000238,0.0614,0.0042,-0.0090,-0.000718,0.000718,0.000153,0.001262,-0.002709,0.6391,0.3245,0.1430,-0.003068,0.000000,0.000000,0.570641,-0.561437,0.556835,-0.579845,0.567573,-0.549165
0.9232,0.016750,-0.000011,0.000088,-0.000195,0.0504,0.0035,-0.0074,-0.000589,0.000589,0.000206,0.001246,-0.002697,0.6778,0.2894,0.0903,0.003068,0.000000,0.000000,0.570641,-0.562971,0.556835,-0.579845,0.567573,-0.549165
0.9399,0.016744,-0.000009,0.000069,-0.000152,0.0394,0.0027,-0.0058,-0.000461,0.000461,0.000200,0.001248,-0.002698,0.6737,0.2931,0.0958,0.001534,0.000000,0.000000,0.570641,-0.562971,0.556835,-0.579845,0.567573,-0.549165
0.9567,0.016760,-0.000006,0.000050,-0.000110,0.0284,0.0020,-0.0042,-0.000332,0.000332,0.000147,0.001264,-0.002711,0.6351,0.3282,0.1485,-0.006136,0.000000,0.000000,0.570641,-0.561437,0.556835,-0.579845,0.567573,-0.549165
0.9736,0.016856,-0.000004,0.000030,-0.000067,0.0174,0.0012,-0.0025,-0.000203,0.000203,0.000206,0.001246,-0.002697,0.6782,0.2890,0.0897,-0.003068,0.000000,0.000000,0.570641,-0.562971,0.556835,-0.579845,0.567573,-0.549165
0.9903,0.016749,-0.000001,0.000011,-0.000025,0.0064,0.0004,-0.0009,-0.000074,0.000074,0.000206,0.001246,-0.002697,0.6782,0.2890,0.0897,-0.003068,0.000000,0.000000,0.570641,-0.562971,0.556835,-0.579845,0.567573,-0.549165
1.0070,0.016743,0.000000,0.000000,0.000022,0.0000,0.0000,0.0000,0.000772,-0.000772,0.000200,0.001248,-0.002698,0.6737,0.2931,0.0958,0.004602,0.000000,0.000000,0.570641,-0.562971,0.556835,-0.579845,0.567573,-0.549165
1.0238,0.016760,0.000000,0.000000,0.000075,0.0000,0.0000,0.0000,0.002610,-0.002610,0.000200,0.001248,-0.002698,0.6737,0.2931,0.0958,0.001534,0.000000,0.000000,0.570641,-0.562971,0.556835,-0.579845,0.567573,-0.549165
1.0406,0.016748,0.000000,0.000000,0.000127,0.0000,0.0000,0.0000,0.004445,-0.004445,0.000161,0.001210,-0.002685,0.6244,0.2751,0.0420,-0.006136,0.000000,0.000000,0.570641,-0.562971,0.556835,-0.579845,0.567573,-0.550699
1.0573,0.016759,0.000000,0.000000,0.000180,0.0000,0.0000,0.0000,0.006279,-0.006279,0.000110,0.001306,-0.002700,0.6902,0.3144,0.2076,-0.003068,-0.001534,0.000000,0.572175,-0.561437,0.556835,-0.579845,0.567573,-0.549165
1.0742,0.016908,0.000000,0.000000,0.000233,0.0000,0.0000,0.0000,0.008127,-0.008127,0.000170,0.001203,-0.002685,0.6227,0.2728,0.0304,0.006136,-0.001534,0.000000,0.570641,-0.562971,0.556835,-0.579845,0.567573,-0.550699
1.0910,0.016750,0.000000,0.000000,0.000286,0.0000,0.0000,0.0000,0.009954,-0.009954,0.000170,0.001203,-0.002685,0.6227,0.2728,0.0304,0.006136,-0.001534,0.000000,0.570641,-0.562971,0.556835,-0.579845,0.567573,-0.550699
1.1077,0.016742,0.000000,0.000000,0.000338,0.0000,0.0000,0.0000,0.011776,-0.011776,0.000204,0.001252,-0.002700,0.6795,0.2948,0.1020,0.006136,-0.003068,0.000000,0.570641,-0.562971,0.556835,-0.579845,0.567573,-0.549165
1.1245,0.016750,0.000000,0.000000,0.000391,0.0000,0.0000,0.0000,0.013593,-0.013593,0.000160,0.001209,-0.002685,0.6238,0.2749,0.0414,-0.001534,-0.003068,0.000000,0.570641,-0.562971,0.556835,-0.579845,0.567573,-0.550699
1.1412,0.016742,0.000000,0.000000,0.000443,0.0000,0.0000,0.0000,0.015403,-0.015403,0.000165,0.001214,-0.002686,0.6296,0.2770,0.0477,0.001534,-0.004602,0.000000,0.570641,-0.562971,0.556835,-0.579845,0.567573,-0.550699
1.1580,0.016750,0.000000,0.000000,0.000495,0.0000,0.0000,0.0000,0.017208,-0.017208,0.000163,0.001290,-0.002688,0.7287,0.2786,0.1537,0.010738,-0.006136,0.000000,0.572175,-0.562971,0.556835,-0.579845,0.567573,-0.549165
1.1747,0.016763,0.000000,0.000000,0.000548,0.0000,0.0000,0.0000,0.019006,-0.019006,0.000163,0.001290,-0.002688,0.7287,0.2786,0.1537,0.010738,-0.006136,0.000000,0.572175,-0.562971,0.556835,-0.579845,0.567573,-0.549165
1.1916,0.016838,0.000000,0.000000,0.000600,0.0000,0.0000,0.0000,0.020804,-0.020804,0.000163,0.001290,-0.002688,0.7287,0.2786,0.1537,0.010738,-0.006136,0.000000,0.572175,-0.562971,0.556835,-0.579845,0.567573,-0.549165
1.2106,0.019062,0.000000,0.000000,0.000660,0.0000,0.0000,0.0000,0.022828,-0.022828,0.000163,0.001290,-0.002688,0.7287,0.2786,0.1537,0.010738,-0.006136,0.000000,0.572175,-0.562971,0.556835,-0.579845,0.567573,-0.549165
1.2274,0.016747,0.000000,0.000000,0.000712,0.0000,0.0000,0.0000,0.024595,-0.024595,0.000163,0.001290,-0.002688,0.7287,0.2786,0.1537,0.010738,-0.006136,0.000000,0.572175,-0.562971,0.556835,-0.579845,0.567573,-0.549165
1.2441,0.016748,0.000000,0.000000,0.000764,0.0000,0.0000,0.0000,0.026352,-0.026352,0.000110,0.001299,-0.002663,0.6791,0.3118,0.0361,0.013806,-0.015340,0.000000,0.572175,-0.562971,0.556835,-0.581379,0.567573,-0.550699
1.2609,0.016742,0.000000,0.000000,0.000816,0.0000,0.0000,0.0000,0.028096,-0.028096,0.000116,0.001298,-0.002665,0.6843,0.3084,0.0484,0.018408,-0.015340,0.000000,0.572175,-0.562971,0.556835,-0.581379,0.567573,-0.550699
1.2776,0.016745,0.000000,0.000000,0.000868,0.0000,0.0000,0.0000,0.029828,-0.029828,0.000062,0.001315,-0.002640,0.6446,0.3420,-0.0595,0.016874,-0.016874,0.000000,0.572175,-0.562971,0.556835,-0.582913,0.567573,-0.552233
1.2943,0.016749,0.000000,0.000000,0.000919,0.0000,0.0000,0.0000,0.031548,-0.031548,0.000002,0.001167,-0.002566,0.5783,0.4225,-0.1549,0.016874,-0.018408,0.000000,0.572175,-0.564505,0.559903,-0.584447,0.567573,-0.555301
1.3111,0.016741,0.000000,0.000000,0.000971,0.0000,0.0000,0.0000,0.033252,-0.033252,-0.000193,0.001100,-0.002411,0.6545,0.5005,-0.1975,0.021476,-0.021476,0.000000,0.576777,-0.567573,0.564505,-0.587515,0.567573,-0.559903
1.3278,0.016755,0.000000,0.000000,0.001023,0.0000,0.0000,0.0000,0.034944,-0.034944,-0.000193,0.001100,-0.002411,0.6545,0.5005,-0.1975,0.035282,-0.026078,0.000000,0.579845,-0.572175,0.570641,-0.592117,0.569107,-0.566039
1.3446,0.016751,0.000000,0.000000,0.001074,0.0000,0.0000,0.0000,0.036619,-0.036619,-0.000292,0.000947,-0.002215,0.6159,0.6104,-0.3536,0.035282,-0.026078,0.000000,0.579845,-0.572175,0.570641,-0.592117,0.569107,-0.566039
1.3613,0.016746,0.000000,0.000000,0.001125,0.0000,0.0000,0.0000,0.038278,-0.038278,-0.000351,0.000909,-0.002073,0.6093,0.5147,-0.2839,0.035282,-0.032214,0.000000,0.584447,-0.575243,0.573709,-0.593651,0.572175,-0.570641
1.3781,0.016743,0.000000,0.000000,0.001177,0.0000,0.0000,0.0000,0.039919,-0.039919,-0.000387,0.000923,-0.001816,0.7373,0.5086,-0.1834,0.026078,-0.035282,0.000000,0.592117,-0.581379,0.579845,-0.598253,0.576777,-0.575243
1.3948,0.016740,0.000000,0.000000,0.001228,0.0000,0.0000,0.0000,0.041542,-0.041542,-0.000358,0.000812,-0.001643,0.7012,0.4076,-0.0867,0.029146,-0.033748,0.000000,0.596719,-0.585981,0.584447,-0.599786,0.581379,-0.579845
1.4116,0.016755,0.000000,0.000000,0.001279,0.0000,0.0000,0.0000,0.043149,-0.043149,-0.000268,0.000848,-0.001476,0.7922,0.4012,0.0650,0.038350,-0.036816,0.000000,0.601320,-0.590583,0.589049,-0.602854,0.585981,-0.581379
1.4283,0.016749,0.000000,0.000000,0.001329,0.0000,0.0000,0.0000,0.044736,-0.044736,-0.000268,0.000848,-0.001476,0.7922,0.4012,0.0650,0.038350,-0.036816,0.000000,0.601320,-0.590583,0.589049,-0.602854,0.585981,-0.581379
1.4451,0.016742,0.000000,0.000000,0.001380,0.0000,0.0000,0.0000,0.046302,-0.046302,-0.000182,0.000790,-0.001344,0.7708,0.3851,0.2651,0.041417,-0.039884,0.000000,0.604388,-0.593651,0.593651,-0.604388,0.590583,-0.582913
1.4618,0.016741,0.000000,0.000000,0.001431,0.0000,0.0000,0.0000,0.047848,-0.047848,-0.000274,0.000797,-0.001260,0.7727,0.3539,0.2447,0.039884,-0.041417,0.000000,0.607456,-0.595185,0.595185,-0.605922,0.592117,-0.585981
1.4785,0.016739,0.000000,0.000000,0.001481,0.0000,0.0000,0.0000,0.049372,-0.049372,-0.000169,0.000742,-0.001157,0.7613,0.3388,0.3009,0.038350,-0.042951,0.000000,0.608990,-0.598253,0.598253,-0.607456,0.595185,-0.587515
1.4953,0.016739,0.000000,0.000000,0.001531,0.0000,0.0000,0.0000,0.050875,-0.050875,-0.000072,0.000747,-0.001106,0.7620,0.2724,0.4572,0.042951,-0.046019,0.000000,0.610524,-0.599786,0.599786,-0.607456,0.598253,-0.587515
1.5123,0.016980,0.000000,0.000000,0.001582,0.0000,0.0000,0.0000,0.052376,-0.052376,-0.000095,0.000692,-0.001099,0.7513,0.3302,0.4954,0.050621,-0.046019,0.000000,0.610524,-0.599786,0.601320,-0.607456,0.598253,-0.587515
1.5290,0.016740,0.000000,0.000000,0.001631,0.0000,0.0000,0.0000,0.053833,-0.053833,-0.000095,0.000692,-0.001099,0.7513,0.3302,0.4954,0.050621,-0.046019,0.000000,0.610524,-0.599786,0.601320,-0.607456,0.598253,-0.587515
1.5458,0.016744,0.000000,0.000000,0.001681,0.0000,0.0000,0.0000,0.055266,-0.055266,-0.000051,0.000769,-0.001075,0.7242,0.3409,0.4912,0.049087,-0.049087,0.000000,0.610524,-0.599786,0.601320,-0.608990,0.599786,-0.587515
1.5625,0.016744,0.000000,0.000000,0.001731,0.0000,0.0000,0.0000,0.056675,-0.056675,-0.000001,0.000777,-0.001066,0.6883,0.3056,0.5455,0.042951,-0.050621,0.000000,0.610524,-0.599786,0.601320,-0.608990,0.601320,-0.587515
1.5792,0.016747,0.000000,0.000000,0.001780,0.0000,0.0000,0.0000,0.058059,-0.058059,-0.000006,0.000776,-0.001067,0.6920,0.3093,0.5398,0.047553,-0.052155,0.000000,0.610524,-0.599786,0.601320,-0.608990,0.601320,-0.587515
1.5960,0.016744,0.000000,0.000000,0.001829,0.0000,0.0000,0.0000,0.059417,-0.059417,0.000036,0.000847,-0.001043,0.6635,0.3256,0.5402,0.058291,-0.053689,0.000000,0.610524,-0.599786,0.601320,-0.610524,0.602854,-0.587515
1.6127,0.016753,0.000000,0.000000,0.001878,0.0000,0.0000,0.0000,0.060749,-0.060749,0.000036,0.000847,-0.001043,0.6635,0.3256,0.5402,0.058291,-0.053689,0.000000,0.610524,-0.599786,0.601320,-0.610524,0.602854,-0.587515
1.6295,0.016740,0.000000,0.000000,0.001926,0.0000,0.0000,0.0000,0.062053,-0.062053,0.000072,0.000911,-0.001021,0.6383,0.3406,0.5400,0.059825,-0.056757,0.000000,0.610524,-0.599786,0.601320,-0.612058,0.604388,-0.587515
1.6462,0.016752,0.000000,0.000000,0.001975,0.0000,0.0000,0.0000,0.063331,-0.063331,0.000055,0.000960,-0.001012,0.6515,0.3897,0.4858,0.055223,-0.056757,0.000000,0.610524,-0.599786,0.601320,-0.613592,0.604388,-0.587515
1.6630,0.016741,0.000000,0.000000,0.002023,0.0000,0.0000,0.0000,0.064580,-0.064580,0.000071,0.000932,-0.000988,0.5618,0.3334,0.4914,0.052155,-0.058291,0.000000,0.610524,-0.599786,0.601320,-0.613592,0.605922,-0.589049
1.6797,0.016742,0.000000,0.000000,0.002071,0.0000,0.0000,0.0000,0.065800,-0.065800,0.000015,0.000952,-0.000966,0.5323,0.3727,0.3824,0.061359,-0.059825,0.000000,0.610524,-0.599786,0.601320,-0.615126,0.605922,-0.590583
1.6965,0.016742,0.000000,0.000000,0.002119,0.0000,0.0000,0.0000,0.066992,-0.066992,0.000008,0.001005,-0.000956,0.5460,0.4192,0.3394,0.065961,-0.059825,0.000000,0.610524,-0.599786,0.601320,-0.616660,0.605922,-0.590583
1.7132,0.016754,0.000000,0.000000,0.002166,0.0000,0.0000,0.0000,0.068154,-0.068154,-0.000073,0.000922,-0.000931,0.4458,0.3801,0.2355,0.059825,-0.061359,0.000000,0.610524,-0.599786,0.601320,-0.616660,0.605922,-0.593651
1.7300,0.016739,0.000000,0.000000,0.002214,0.0000,0.0000,0.0000,0.069285,-0.069285,-0.000073,0.000922,-0.000931,0.4458,0.3801,0.2355,0.059825,-0.061359,0.000000,0.610524,-0.599786,0.601320,-0.616660,0.605922,-0.593651
1.7467,0.016747,0.000000,0.000000,0.002261,0.0000,0.0000,0.0000,0.070387,-0.070387,-0.000256,0.000932,-0.000897,0.4567,0.4192,0.0839,0.059825,-0.064427,0.000000,0.612058,-0.599786,0.601320,-0.618194,0.604388,-0.596719
1.7634,0.016743,0.000000,0.000000,0.002307,0.0000,0.0000,0.0000,0.071456,-0.071456,-0.000319,0.000963,-0.000840,0.3785,0.3820,0.0452,0.067495,-0.065961,0.000000,0.613592,-0.599786,0.601320,-0.619728,0.605922,-0.599786
1.7802,0.016763,0.000000,0.000000,0.002354,0.0000,0.0000,0.0000,0.072496,-0.072496,-0.000505,0.001072,-0.000774,0.4092,0.4215,-0.0593,0.070563,-0.067495,0.000000,0.616660,-0.599786,0.601320,-0.622796,0.605922,-0.602854
1.7969,0.016746,0.000000,0.000000,0.002400,0.0000,0.0000,0.0000,0.073502,-0.073502,-0.000501,0.001101,-0.000684,0.4559,0.2985,-0.1568,0.064427,-0.067495,0.000000,0.619728,-0.602854,0.601320,-0.624330,0.607456,-0.605922
1.8137,0.016775,0.000000,0.000000,0.002446,0.0000,0.0000,0.0000,0.074477,-0.074477,-0.000501,0.001101,-0.000684,0.4559,0.2985,-0.1568,0.064427,-0.069029,0.000000,0.622796,-0.605922,0.601320,-0.625864,0.610524,-0.607456
1.8305,0.016745,0.000000,0.000000,0.002492,0.0000,0.0000,0.0000,0.075417,-0.075417,-0.000422,0.001193,-0.000596,0.5104,0.1757,-0.1466,0.064427,-0.069029,0.000000,0.622796,-0.605922,0.601320,-0.625864,0.610524,-0.607456
1.8472,0.016757,0.000000,0.000000,0.002538,0.0000,0.0000,0.0000,0.076325,-0.076325,-0.000433,0.001312,-0.000448,0.4876,0.0200,-0.2022,0.073631,-0.070563,0.000000,0.627398,-0.608990,0.601320,-0.628932,0.615126,-0.612058
1.8640,0.016744,0.000000,0.000000,0.002583,0.0000,0.0000,0.0000,0.077198,-0.077198,-0.000296,0.001378,-0.000354,0.5875,-0.1342,-0.2511,0.073631,-0.072097,0.000000,0.630466,-0.613592,0.601320,-0.630466,0.618194,-0.613592
1.8807,0.016758,0.000000,0.000000,0.002628,0.0000,0.0000,0.0000,0.078038,-0.078038,-0.000256,0.001356,-0.000241,0.6146,-0.1507,-0.1370,0.067495,-0.072097,0.000000,0.633534,-0.616660,0.604388,-0.632000,0.621262,-0.615126
1.8975,0.016748,0.000000,0.000000,0.002672,0.0000,0.0000,0.0000,0.078843,-0.078843,-0.000261,0.001360,-0.000106,0.6116,-0.1487,-0.1492,0.070563,-0.073631,0.000000,0.636602,-0.619728,0.607456,-0.635068,0.624330,-0.618194
1.9142,0.016761,0.000000,0.000000,0.002717,0.0000,0.0000,0.0000,0.079613,-0.079613,-0.000261,0.001360,-0.000106,0.6116,-0.1487,-0.1492,0.070563,-0.073631,0.000000,0.636602,-0.619728,0.607456,-0.635068,0.624330,-0.618194
1.9310,0.016738,0.000000,0.000000,0.002761,0.0000,0.0000,0.0000,0.080347,-0.080347,-0.000206,0.001345,0.000002,0.6495,-0.1815,-0.0386,0.078233,-0.073631,0.000000,0.639670,-0.622796,0.610524,-0.636602,0.627398,-0.619728
1.9477,0.016753,0.000000,0.000000,0.002805,0.0000,0.0000,0.0000,0.081046,-0.081046,-0.000169,0.001197,0.000091,0.5744,-0.1597,0.1690,0.079767,-0.073631,0.000000,0.641204,-0.624330,0.615126,-0.636602,0.630466,-0.621262
1.9645,0.016741,0.000000,0.000000,0.002848,0.0000,0.0000,0.0000,0.081709,-0.081709,-0.000187,0.001158,0.000168,0.5714,-0.1111,0.2023,0.073631,-0.073631,0.000000,0.642738,-0.625864,0.618194,-0.638136,0.632000,-0.622796
1.9812,0.016755,0.000000,0.000000,0.002891,0.0000,0.0000,0.0000,0.082336,-0.082336,-0.000115,0.001075,0.000258,0.6373,-0.0328,0.3087,0.075165,-0.073631,0.000000,0.644272,-0.628932,0.622796,-0.639670,0.633534,-0.622796
1.9980,0.016741,0.000000,0.000000,0.002934,0.0000,0.0000,0.0000,0.082926,-0.082926,-0.000094,0.000989,0.000286,0.5706,0.0263,0.4625,0.084369,-0.073631,0.000000,0.644272,-0.628932,0.625864,-0.639670,0.635068,-0.622796
2.0147,0.016753,0.000000,0.000000,0.002976,0.0000,0.0000,0.0000,0.083480,-0.083480,-0.000094,0.000989,0.000286,0.5706,0.0263,0.4625,0.084369,-0.073631,0.000000,0.644272,-0.628932,0.625864,-0.639670,0.635068,-0.622796
2.0315,0.016743,0.000000,0.000000,0.003018,0.0000,0.0000,0.0000,0.083996,-0.083996,-0.000136,0.000943,0.000320,0.5668,0.1711,0.5017,0.085903,-0.075165,0.000000,0.644272,-0.628932,0.628932,-0.641204,0.635068,-0.622796
2.0482,0.016759,0.000000,0.000000,0.003060,0.0000,0.0000,0.0000,0.084476,-0.084476,-0.000214,0.001045,0.000364,0.6268,0.2918,0.4982,0.078233,-0.075165,0.000000,0.645806,-0.628932,0.630466,-0.644272,0.635068,-0.622796
2.0650,0.016750,0.000000,0.000000,0.003102,0.0000,0.0000,0.0000,0.084918,-0.084918,-0.000233,0.000923,0.000385,0.5988,0.3798,0.6089,0.079767,-0.075165,0.000000,0.645806,-0.628932,0.633534,-0.644272,0.635068,-0.622796
2.0817,0.016761,0.000000,0.000000,0.003143,0.0000,0.0000,0.0000,0.085323,-0.085323,-0.000300,0.000976,0.000418,0.6504,0.4560,0.6531,0.087437,-0.075165,0.000000,0.647340,-0.628932,0.635068,-0.645806,0.635068,-0.622796
2.0987,0.016933,0.000000,0.000000,0.003184,0.0000,0.0000,0.0000,0.085693,-0.085693,-0.000306,0.000915,0.000427,0.6340,0.4982,0.7037,0.087437,-0.075165,0.000000,0.647340,-0.628932,0.636602,-0.645806,0.635068,-0.622796
2.1154,0.016757,0.000000,0.000000,0.003224,0.0000,0.0000,0.0000,0.086022,-0.086022,-0.000306,0.000915,0.000427,0.6340,0.4982,0.7037,0.087437,-0.075165,0.000000,0.647340,-0.628932,0.636602,-0.645806,0.635068,-0.622796
2.1322,0.016746,0.000000,0.000000,0.003264,0.0000,0.0000,0.0000,0.086312,-0.086312,-0.000374,0.000962,0.000461,0.6843,0.5792,0.7543,0.079767,-0.075165,0.000000,0.648874,-0.628932,0.638136,-0.647340,0.635068,-0.622796
2.1489,0.016754,0.000000,0.000000,0.003304,0.0000,0.0000,0.0000,0.086563,-0.086563,-0.000367,0.000957,0.000458,0.6790,0.5708,0.7490,0.082835,-0.075165,0.000000,0.648874,-0.628932,0.638136,-0.647340,0.635068,-0.622796
2.1657,0.016745,0.000000,0.000000,0.003343,0.0000,0.0000,0.0000,0.086777,-0.086777,-0.000368,0.000958,0.000458,0.6798,0.5719,0.7497,0.087437,-0.076699,0.000000,0.648874,-0.628932,0.638136,-0.647340,0.635068,-0.622796
2.1824,0.016760,0.000000,0.000000,0.003382,0.0000,0.0000,0.0000,0.086952,-0.086952,-0.000326,0.000998,0.000482,0.7291,0.5867,0.6396,0.085903,-0.076699,0.000000,0.648874,-0.630466,0.638136,-0.648874,0.635068,-0.622796
2.1992,0.016745,0.000000,0.000000,0.003421,0.0000,0.0000,0.0000,0.087089,-0.087089,-0.000344,0.001051,0.000491,0.7349,0.6352,0.5961,0.081301,-0.078233,0.000000,0.648874,-0.630466,0.638136,-0.650408,0.635068,-0.622796
2.2159,0.016761,0.000000,0.000000,0.003459,0.0000,0.0000,0.0000,0.087187,-0.087187,-0.000344,0.001051,0.000491,0.7349,0.6352,0.5961,0.081301,-0.078233,0.000000,0.648874,-0.630466,0.638136,-0.650408,0.635068,-0.622796
2.2327,0.016776,0.000000,0.000000,0.003497,0.0000,0.0000,0.0000,0.087246,-0.087246,-0.000246,0.001069,0.000527,0.8221,0.6102,0.4356,0.084369,-0.081301,0.000000,0.648874,-0.633534,0.638136,-0.651942,0.635068,-0.622796
2.2495,0.016803,0.000000,0.000000,0.003534,0.0000,0.0000,0.0000,0.087266,-0.087266,-0.000246,0.001069,0.000527,0.8221,0.6102,0.4356,0.084369,-0.081301,0.000000,0.648874,-0.633534,0.638136,-0.651942,0.635068,-0.622796
2.2663,0.016750,0.000000,0.000000,0.003571,0.0000,0.0000,0.0000,0.087248,-0.087248,-0.000246,0.001069,0.000527,0.8221,0.6102,0.4356,0.084369,-0.081301,0.000000,0.648874,-0.633534,0.638136,-0.651942,0.635068,-0.622796
2.2830,0.016754,0.000000,0.000000,0.003608,0.0000,0.0000,0.0000,0.087191,-0.087191,-0.000217,0.001269,0.000618,1.0582,0.6279,0.2330,0.082835,-0.085903,0.000000,0.651942,-0.638136,0.638136,-0.656544,0.635068,-0.622796
2.2998,0.016745,0.000000,0.000000,0.003644,0.0000,0.0000,0.0000,0.087096,-0.087096,-0.000210,0.001352,0.000667,1.2182,0.5761,0.1997,0.085903,-0.085903,0.000000,0.655010,-0.641204,0.638136,-0.658078,0.635068,-0.622796
2.3165,0.016747,0.000000,0.000000,0.003680,0.0000,0.0000,0.0000,0.086962,-0.086962,-0.000143,0.001350,0.000698,1.3261,0.4968,0.1480,0.088971,-0.085903,0.000000,0.656544,-0.644272,0.638136,-0.658078,0.635068,-0.622796
2.3333,0.016746,0.000000,0.000000,0.003716,0.0000,0.0000,0.0000,0.086789,-0.086789,-0.000041,0.001463,0.000754,1.3351,0.4378,0.2075,0.085903,-0.085903,0.000000,0.658078,-0.645806,0.638136,-0.659612,0.638136,-0.622796
2.3504,0.017195,0.000000,0.000000,0.003751,0.0000,0.0000,0.0000,0.086572,-0.086572,0.000057,0.001644,0.000841,1.4520,0.3768,0.2004,0.082835,-0.085903,0.000000,0.661146,-0.648874,0.638136,-0.662680,0.641204,-0.622796
2.3672,0.016746,0.000000,0.000000,0.003786,0.0000,0.0000,0.0000,0.086322,-0.086322,0.000057,0.001644,0.000841,1.4520,0.3768,0.2004,0.082835,-0.085903,0.000000,0.661146,-0.648874,0.638136,-0.662680,0.641204,-0.622796
2.3840,0.016758,0.000000,0.000000,0.003820,0.0000,0.0000,0.0000,0.086033,-0.086033,0.000058,0.001761,0.000889,1.5475,0.3355,0.2563,0.085903,-0.085903,0.000000,0.664214,-0.650408,0.638136,-0.664214,0.642738,-0.622796
2.4007,0.016743,0.000000,0.000000,0.003854,0.0000,0.0000,0.0000,0.085706,-0.085706,0.000125,0.001901,0.000953,1.6066,0.2590,0.3604,0.088971,-0.085903,0.000000,0.667282,-0.651942,0.638136,-0.665748,0.645806,-0.622796
2.4174,0.016744,0.000000,0.000000,0.003887,0.0000,0.0000,0.0000,0.085342,-0.085342,0.000173,0.002016,0.000991,1.5833,0.2361,0.4597,0.082835,-0.085903,0.000000,0.668816,-0.651942,0.638136,-0.667282,0.648874,-0.622796
2.4342,0.016744,0.000000,0.000000,0.003920,0.0000,0.0000,0.0000,0.084939,-0.084939,0.000167,0.002118,0.001021,1.6070,0.2410,0.5047,0.082835,-0.085903,0.000000,0.670350,-0.651942,0.638136,-0.668816,0.650408,-0.622796
2.4515,0.017277,0.000000,0.000000,0.003954,0.0000,0.0000,0.0000,0.084485,-0.084485,0.000084,0.002239,0.001027,1.5887,0.3749,0.4455,0.088971,-0.085903,0.000000,0.670350,-0.650408,0.638136,-0.671884,0.650408,-0.622796
2.4682,0.016740,0.000000,0.000000,0.003986,0.0000,0.0000,0.0000,0.084006,-0.084006,0.000084,0.002239,0.001027,1.5887,0.3749,0.4455,0.088971,-0.085903,0.000000,0.670350,-0.650408,0.638136,-0.671884,0.650408,-0.622796
2.4850,0.016753,0.000000,0.000000,0.004017,0.0000,0.0000,0.0000,0.083490,-0.083490,0.000149,0.002242,0.001038,1.5523,0.3278,0.5065,0.085903,-0.085903,0.000000,0.670350,-0.650408,0.638136,-0.671884,0.651942,-0.622796
2.5017,0.016743,0.000000,0.000000,0.004048,0.0000,0.0000,0.0000,0.082938,-0.082938,0.000196,0.002339,0.001082,1.6149,0.2997,0.4998,0.081301,-0.085903,0.000000,0.671884,-0.651942,0.638136,-0.673418,0.653476,-0.622796
2.5184,0.016745,0.000000,0.000000,0.004079,0.0000,0.0000,0.0000,0.082348,-0.082348,0.000108,0.002362,0.001101,1.5325,0.2740,0.6119,0.084369,-0.085903,0.000000,0.673418,-0.650408,0.638136,-0.673418,0.655010,-0.624330
2.5352,0.016746,0.000000,0.000000,0.004109,0.0000,0.0000,0.0000,0.081722,-0.081722,0.000131,0.002304,0.001160,1.5296,0.2272,0.6560,0.085903,-0.084369,0.000000,0.674952,-0.651942,0.639670,-0.673418,0.656544,-0.625864
2.5523,0.017119,0.000000,0.000000,0.004139,0.0000,0.0000,0.0000,0.081045,-0.081045,0.000131,0.002304,0.001160,1.5296,0.2272,0.6560,0.082835,-0.084369,0.000000,0.678020,-0.651942,0.644272,-0.674952,0.658078,-0.625864
2.5690,0.016741,0.000000,0.000000,0.004169,0.0000,0.0000,0.0000,0.080346,-0.080346,0.000045,0.002298,0.001238,1.5682,0.3724,0.9306,0.082835,-0.084369,0.000000,0.678020,-0.651942,0.644272,-0.674952,0.658078,-0.625864
2.5858,0.016751,0.000000,0.000000,0.004198,0.0000,0.0000,0.0000,0.079612,-0.079612,-0.000111,0.002206,0.001305,1.5040,0.4579,0.9040,0.081301,-0.082835,0.000000,0.679553,-0.651942,0.647340,-0.676486,0.658078,-0.628932
2.6025,0.016747,0.000000,0.000000,0.004226,0.0000,0.0000,0.0000,0.078842,-0.078842,-0.000218,0.002196,0.001430,1.4231,0.5695,1.0756,0.081301,-0.081301,0.000000,0.682621,-0.651942,0.651942,-0.679553,0.661146,-0.632000
2.6195,0.016945,0.000000,0.000000,0.004254,0.0000,0.0000,0.0000,0.078027,-0.078027,-0.000346,0.002103,0.001502,1.3704,0.5621,1.2265,0.079767,-0.081301,0.000000,0.685689,-0.651942,0.655010,-0.679553,0.662680,-0.635068
2.6362,0.016720,0.000000,0.000000,0.004281,0.0000,0.0000,0.0000,0.077189,-0.077189,-0.000456,0.001979,0.001593,1.2662,0.6795,1.3240,0.078233,-0.078233,0.000000,0.687223,-0.651942,0.659612,-0.681087,0.664214,-0.638136
2.6530,0.016773,0.000000,0.000000,0.004308,0.0000,0.0000,0.0000,0.076314,-0.076314,-0.000376,0.001919,0.001657,1.3035,0.5819,1.3146,0.076699,-0.076699,0.000000,0.688757,-0.655010,0.661146,-0.681087,0.665748,-0.639670
2.6697,0.016741,0.000000,0.000000,0.004335,0.0000,0.0000,0.0000,0.075407,-0.075407,-0.000376,0.001919,0.001657,1.3035,0.5819,1.3146,0.076699,-0.076699,0.000000,0.688757,-0.655010,0.661146,-0.681087,0.665748,-0.639670
2.6865,0.016746,0.000000,0.000000,0.004361,0.0000,0.0000,0.0000,0.074466,-0.074466,-0.000509,0.001872,0.001747,1.2880,0.7061,1.2064,0.076699,-0.076699,0.000000,0.690291,-0.656544,0.664214,-0.684155,0.665748,-0.642738
2.7032,0.016741,0.000000,0.000000,0.004386,0.0000,0.0000,0.0000,0.073492,-0.073492,-0.000370,0.001819,0.001824,1.2781,0.5750,1.2736,0.073631,-0.076699,0.000000,0.691825,-0.659612,0.665748,-0.684155,0.668816,-0.644272
2.7200,0.016752,0.000000,0.000000,0.004411,0.0000,0.0000,0.0000,0.072485,-0.072485,-0.000287,0.001735,0.001854,1.3439,0.5677,1.2112,0.072097,-0.076699,0.000000,0.691825,-0.662680,0.667282,-0.684155,0.668816,-0.644272
2.7367,0.016747,0.000000,0.000000,0.004436,0.0000,0.0000,0.0000,0.071447,-0.071447,-0.000284,0.001768,0.001911,1.4230,0.5166,1.0510,0.073631,-0.075165,0.000000,0.693359,-0.665748,0.667282,-0.685689,0.668816,-0.645806
2.7535,0.016778,0.000000,0.000000,0.004460,0.0000,0.0000,0.0000,0.070374,-0.070374,-0.000284,0.001768,0.001911,1.4230,0.5166,1.0510,0.073631,-0.072097,0.000000,0.693359,-0.668816,0.667282,-0.687223,0.668816,-0.644272
2.7702,0.016740,0.000000,0.000000,0.004484,0.0000,0.0000,0.0000,0.069273,-0.069273,-0.000146,0.001829,0.001928,1.5498,0.5184,0.9557,0.073631,-0.072097,0.000000,0.693359,-0.668816,0.667282,-0.687223,0.668816,-0.644272
2.7870,0.016744,0.000000,0.000000,0.004507,0.0000,0.0000,0.0000,0.068142,-0.068142,-0.000046,0.001741,0.001953,1.4395,0.4460,0.8527,0.070563,-0.072097,0.000000,0.691825,-0.670350,0.667282,-0.687223,0.670350,-0.645806
2.8037,0.016739,0.000000,0.000000,0.004529,0.0000,0.0000,0.0000,0.066980,-0.066980,0.000041,0.001774,0.001986,1.5367,0.4326,0.6954,0.067495,-0.072097,0.000000,0.691825,-0.673418,0.667282,-0.688757,0.670350,-0.645806
2.8205,0.016750,0.000000,0.000000,0.004551,0.0000,0.0000,0.0000,0.065788,-0.065788,0.000088,0.001786,0.001994,1.4888,0.4008,0.7671,0.069029,-0.072097,0.000000,0.691825,-0.673418,0.667282,-0.688757,0.671884,-0.645806
2.8372,0.016748,0.000000,0.000000,0.004573,0.0000,0.0000,0.0000,0.064566,-0.064566,0.000123,0.001907,0.002014,1.6389,0.4218,0.7597,0.067495,-0.069029,0.000000,0.693359,-0.674952,0.667282,-0.690291,0.671884,-0.644272
2.8540,0.016766,0.000000,0.000000,0.004594,0.0000,0.0000,0.0000,0.063315,-0.063315,0.000123,0.001907,0.002014,1.6389,0.4218,0.7597,0.067495,-0.069029,0.000000,0.693359,-0.674952,0.667282,-0.690291,0.671884,-0.644272
2.8707,0.016740,0.000000,0.000000,0.004614,0.0000,0.0000,0.0000,0.062038,-0.062038,0.000219,0.001837,0.002013,1.6122,0.3978,0.6478,0.062893,-0.067495,0.000000,0.691825,-0.676486,0.667282,-0.690291,0.671884,-0.644272
2.8875,0.016753,0.000000,0.000000,0.004634,0.0000,0.0000,0.0000,0.060732,-0.060732,0.000167,0.001804,0.002026,1.5662,0.3832,0.6038,0.061359,-0.067495,0.000000,0.691825,-0.676486,0.667282,-0.690291,0.671884,-0.645806
2.9042,0.016742,0.000000,0.000000,0.004654,0.0000,0.0000,0.0000,0.059401,-0.059401,0.000214,0.001847,0.002012,1.6197,0.4019,0.6640,0.064427,-0.065961,0.000000,0.691825,-0.676486,0.667282,-0.690291,0.671884,-0.644272
2.9211,0.016877,0.000000,0.000000,0.004673,0.0000,0.0000,0.0000,0.058031,-0.058031,0.000166,0.001883,0.002024,1.6624,0.3865,0.7141,0.067495,-0.064427,0.000000,0.693359,-0.676486,0.667282,-0.690291,0.671884,-0.644272
2.9380,0.016891,0.000000,0.000000,0.004691,0.0000,0.0000,0.0000,0.056635,-0.056635,0.000226,0.001863,0.002035,1.6951,0.3529,0.6525,0.059825,-0.061359,0.000000,0.693359,-0.678020,0.667282,-0.690291,0.671884,-0.644272
2.9547,0.016768,0.000000,0.000000,0.004709,0.0000,0.0000,0.0000,0.055224,-0.055224,0.000226,0.001863,0.002035,1.6951,0.3529,0.6525,0.059825,-0.061359,0.000000,0.693359,-0.678020,0.667282,-0.690291,0.671884,-0.644272
2.9715,0.016753,0.000000,0.000000,0.004727,0.0000,0.0000,0.0000,0.053789,-0.053789,0.000276,0.001848,0.002046,1.7288,0.3212,0.6025,0.053689,-0.058291,0.000000,0.693359,-0.679553,0.667282,-0.690291,0.671884,-0.644272
2.9883,0.016754,0.000000,0.000000,0.004744,0.0000,0.0000,0.0000,0.052330,-0.052330,0.000270,0.001849,0.002045,1.7253,0.3245,0.6077,0.056757,-0.058291,0.000000,0.693359,-0.679553,0.667282,-0.690291,0.671884,-0.644272
3.0050,0.016753,0.000000,0.000000,0.004760,0.0000,0.0000,0.0000,0.050849,-0.050849,0.000260,0.001826,0.002058,1.6394,0.3694,0.4395,0.061359,-0.059825,0.000000,0.691825,-0.679553,0.667282,-0.691825,0.671884,-0.645806
3.0218,0.016764,0.000000,0.000000,0.004776,0.0000,0.0000,0.0000,0.049343,-0.049343,0.000203,0.001927,0.002078,1.7075,0.4002,0.4578,0.056757,-0.056757,0.000000,0.693359,-0.679553,0.667282,-0.693359,0.671884,-0.645806
3.0385,0.016747,0.000000,0.000000,0.004791,0.0000,0.0000,0.0000,0.047818,-0.047818,0.000294,0.001916,0.002052,1.7008,0.4277,0.4552,0.050621,-0.050621,0.000000,0.691825,-0.679553,0.667282,-0.693359,0.671884,-0.644272
3.0553,0.016768,0.000000,0.000000,0.004806,0.0000,0.0000,0.0000,0.046269,-0.046269,0.000294,0.001916,0.002052,1.7008,0.4277,0.4552,0.050621,-0.050621,0.000000,0.691825,-0.679553,0.667282,-0.693359,0.671884,-0.644272
3.0720,0.016749,0.000000,0.000000,0.004820,0.0000,0.0000,0.0000,0.044702,-0.044702,0.000229,0.001936,0.002079,1.6636,0.4565,0.3441,0.049087,-0.047553,0.000000,0.691825,-0.679553,0.667282,-0.694893,0.671884,-0.645806
3.0888,0.016750,0.000000,0.000000,0.004834,0.0000,0.0000,0.0000,0.043114,-0.043114,0.000236,0.001934,0.002076,1.6675,0.4535,0.3557,0.049087,-0.049087,0.000000,0.691825,-0.679553,0.667282,-0.694893,0.671884,-0.645806
3.1055,0.016743,0.000000,0.000000,0.004847,0.0000,0.0000,0.0000,0.041509,-0.041509,0.000277,0.001974,0.002063,1.7157,0.4710,0.4102,0.050621,-0.049087,0.000000,0.691825,-0.679553,0.667282,-0.694893,0.671884,-0.644272
3.1223,0.016753,0.000000,0.000000,0.004860,0.0000,0.0000,0.0000,0.039884,-0.039884,0.000187,0.001970,0.002089,1.7105,0.4385,0.4051,0.044485,-0.046019,0.000000,0.693359,-0.679553,0.667282,-0.694893,0.671884,-0.645806
3.1395,0.017190,0.000000,0.000000,0.004872,0.0000,0.0000,0.0000,0.038198,-0.038198,0.000187,0.001970,0.002089,1.7105,0.4385,0.4051,0.038350,-0.042951,0.000000,0.693359,-0.679553,0.667282,-0.694893,0.671884,-0.645806
3.1562,0.016760,0.000000,0.000000,0.004884,0.0000,0.0000,0.0000,0.036537,-0.036537,0.000197,0.001971,0.002086,1.7110,0.4419,0.4057,0.038350,-0.042951,0.000000,0.693359,-0.679553,0.667282,-0.694893,0.671884,-0.645806
3.1730,0.016740,0.000000,0.000000,0.004895,0.0000,0.0000,0.0000,0.034862,-0.034862,0.000237,0.002011,0.002073,1.7596,0.4588,0.4613,0.041417,-0.042951,0.000000,0.693359,-0.679553,0.667282,-0.694893,0.671884,-0.644272
3.1897,0.016756,0.000000,0.000000,0.004905,0.0000,0.0000,0.0000,0.033170,-0.033170,0.000277,0.001966,0.002063,1.7062,0.4705,0.3992,0.044485,-0.042951,0.000000,0.691825,-0.679553,0.667282,-0.694893,0.671884,-0.644272
3.2065,0.016750,0.000000,0.000000,0.004915,0.0000,0.0000,0.0000,0.031463,-0.031463,0.000231,0.001930,0.002078,1.6631,0.4521,0.3499,0.039884,-0.038350,0.000000,0.691825,-0.679553,0.667282,-0.694893,0.671884,-0.645806
3.2232,0.016760,0.000000,0.000000,0.004925,0.0000,0.0000,0.0000,0.029742,-0.029742,0.000236,0.001934,0.002076,1.6676,0.4540,0.3551,0.030680,-0.036816,0.000000,0.691825,-0.679553,0.667282,-0.694893,0.671884,-0.645806
3.2400,0.016752,0.000000,0.000000,0.004933,0.0000,0.0000,0.0000,0.028009,-0.028009,0.000233,0.002015,0.002074,1.7641,0.4575,0.4666,0.029146,-0.033748,0.000000,0.693359,-0.679553,0.667282,-0.694893,0.671884,-0.644272
3.2567,0.016755,0.000000,0.000000,0.004942,0.0000,0.0000,0.0000,0.026262,-0.026262,0.000233,0.002015,0.002074,1.7641,0.4575,0.4666,0.029146,-0.033748,0.000000,0.693359,-0.679553,0.667282,-0.694893,0.671884,-0.644272
3.2735,0.016787,0.000000,0.000000,0.004949,0.0000,0.0000,0.0000,0.024501,-0.024501,0.000233,0.002006,0.002074,1.7541,0.4572,0.4550,0.032214,-0.033748,0.000000,0.693359,-0.679553,0.667282,-0.694893,0.671884,-0.644272
3.2903,0.016779,0.000000,0.000000,0.004957,0.0000,0.0000,0.0000,0.022730,-0.022730,0.000233,0.002006,0.002074,1.7541,0.4572,0.4550,0.032214,-0.033748,0.000000,0.693359,-0.679553,0.667282,-0.694893,0.671884,-0.644272
3.3071,0.016813,0.000000,0.000000,0.004963,0.0000,0.0000,0.0000,0.020945,-0.020945,0.000233,0.002006,0.002074,1.7541,0.4572,0.4550,0.032214,-0.033748,0.000000,0.693359,-0.679553,0.667282,-0.694893,0.671884,-0.644272
3.3239,0.016747,0.000000,0.000000,0.004969,0.0000,0.0000,0.0000,0.019157,-0.019157,0.000233,0.002006,0.002074,1.7541,0.4572,0.4550,0.032214,-0.033748,0.000000,0.693359,-0.679553,0.667282,-0.694893,0.671884,-0.644272
3.3406,0.016765,0.000000,0.000000,0.004975,0.0000,0.0000,0.0000,0.017360,-0.017360,0.000233,0.002006,0.002074,1.7541,0.4572,0.4550,0.027612,-0.029146,0.000000,0.697961,-0.679553,0.667282,-0.694893,0.671884,-0.647340
3.3574,0.016771,0.000000,0.000000,0.004980,0.0000,0.0000,0.0000,0.015554,-0.015554,0.000019,0.002049,0.002133,1.8028,0.3824,0.5140,0.030680,-0.029146,0.000000,0.701029,-0.679553,0.667282,-0.694893,0.671884,-0.648874
3.3742,0.016765,0.000000,0.000000,0.004984,0.0000,0.0000,0.0000,0.013741,-0.013741,-0.000087,0.002086,0.002161,1.8455,0.3461,0.5651,0.030680,-0.029146,0.000000,0.701029,-0.679553,0.667282,-0.694893,0.671884,-0.648874
3.3909,0.016745,0.000000,0.000000,0.004988,0.0000,0.0000,0.0000,0.011925,-0.011925,-0.000120,0.002123,0.002169,1.8892,0.3366,0.6163,0.029146,-0.029146,0.000000,0.702563,-0.679553,0.667282,-0.694893,0.671884,-0.648874
3.4077,0.016746,0.000000,0.000000,0.004992,0.0000,0.0000,0.0000,0.010103,-0.010103,-0.000205,0.002200,0.002189,1.9808,0.3112,0.7241,0.019942,-0.021476,0.000000,0.705631,-0.679553,0.667282,-0.694893,0.671884,-0.648874
3.4244,0.016746,0.000000,0.000000,0.004994,0.0000,0.0000,0.0000,0.008277,-0.008277,-0.000281,0.002193,0.002210,1.9707,0.2832,0.7136,0.010738,-0.012272,0.000000,0.707165,-0.679553,0.667282,-0.694893,0.671884,-0.650408
3.4412,0.016747,0.000000,0.000000,0.004997,0.0000,0.0000,0.0000,0.006447,-0.006447,-0.000400,0.002154,0.002245,1.9227,0.2379,0.6597,0.007670,-0.010738,0.000000,0.708699,-0.679553,0.667282,-0.694893,0.671884,-0.653476
3.4579,0.016757,0.000000,0.000000,0.004998,0.0000,0.0000,0.0000,0.004613,-0.004613,-0.000400,0.002154,0.002245,1.9227,0.2379,0.6597,0.007670,-0.010738,0.000000,0.708699,-0.679553,0.667282,-0.694893,0.671884,-0.653476
3.4749,0.016966,0.000000,0.000000,0.004999,0.0000,0.0000,0.0000,0.002754,-0.002754,-0.000429,0.002118,0.002254,1.8793,0.2251,0.6094,0.012272,-0.013806,0.000000,0.708699,-0.679553,0.667282,-0.694893,0.671884,-0.655010
3.4916,0.016747,0.000000,0.000000,0.005000,0.0000,0.0000,0.0000,0.000918,-0.000918,-0.000467,0.002081,0.002266,1.8355,0.2090,0.5588,0.004602,-0.006136,0.000000,0.708699,-0.679553,0.667282,-0.694893,0.671884,-0.656544
3.5084,0.016745,0.000000,0.000000,0.005000,0.0000,0.0000,0.0000,-0.000918,0.000918,-0.000463,0.002085,0.002265,1.8400,0.2107,0.5641,0.000000,-0.004602,0.000000,0.708699,-0.679553,0.667282,-0.694893,0.671884,-0.656544
3.5251,0.016750,0.000000,0.000000,0.004999,0.0000,0.0000,0.0000,-0.002754,0.002754,-0.000477,0.002143,0.002276,1.8509,0.2594,0.5078,0.000000,-0.004602,0.000000,0.708699,-0.679553,0.667282,-0.696427,0.671884,-0.656544
3.5419,0.016746,0.000000,0.000000,0.004998,0.0000,0.0000,0.0000,-0.004589,0.004589,-0.000476,0.002137,0.002275,1.8498,0.2543,0.5137,0.000000,-0.001534,0.000000,0.708699,-0.679553,0.667282,-0.696427,0.671884,-0.656544
3.5586,0.016756,0.000000,0.000000,0.004997,0.0000,0.0000,0.0000,-0.006423,0.006423,-0.000476,0.002137,0.002275,1.8498,0.2543,0.5137,0.000000,-0.001534,0.000000,0.708699,-0.679553,0.667282,-0.696427,0.671884,-0.656544
3.5753,0.016726,0.000000,0.000000,0.004994,0.0000,0.0000,0.0000,-0.008250,0.008250,-0.000420,0.002120,0.002287,1.8870,0.2197,0.4565,-0.003068,0.001534,0.000000,0.708699,-0.681087,0.667282,-0.696427,0.671884,-0.656544
3.5921,0.016787,0.000000,0.000000,0.004992,0.0000,0.0000,0.0000,-0.010081,0.010081,-0.000426,0.002122,0.002286,1.8831,0.2233,0.4625,-0.003068,0.001534,0.000000,0.708699,-0.681087,0.667282,-0.696427,0.671884,-0.656544
3.6089,0.016750,0.000000,0.000000,0.004988,0.0000,0.0000,0.0000,-0.011903,0.011903,-0.000495,0.002197,0.002284,1.8579,0.3069,0.4627,-0.003068,0.003068,0.000000,0.708699,-0.679553,0.667282,-0.697961,0.671884,-0.656544
3.6256,0.016747,0.000000,0.000000,0.004984,0.0000,0.0000,0.0000,-0.013720,0.013720,-0.000502,0.002248,0.002294,1.8720,0.3469,0.4070,-0.003068,0.007670,0.000000,0.708699,-0.679553,0.667282,-0.699495,0.671884,-0.656544
3.6424,0.016748,0.000000,0.000000,0.004980,0.0000,0.0000,0.0000,-0.015530,0.015530,-0.000501,0.002243,0.002293,1.8705,0.3427,0.4128,-0.009204,0.012272,0.000000,0.708699,-0.679553,0.667282,-0.699495,0.671884,-0.656544
3.6591,0.016751,0.000000,0.000000,0.004975,0.0000,0.0000,0.0000,-0.017334,0.017334,-0.000501,0.002243,0.002293,1.8705,0.3427,0.4128,-0.009204,0.012272,0.000000,0.708699,-0.679553,0.667282,-0.699495,0.671884,-0.656544
3.6759,0.016746,0.000000,0.000000,0.004970,0.0000,0.0000,0.0000,-0.019130,0.019130,-0.000543,0.002203,0.002307,1.8224,0.3257,0.3562,-0.018408,0.010738,0.000000,0.708699,-0.679553,0.667282,-0.699495,0.671884,-0.658078
3.6926,0.016743,0.000000,0.000000,0.004963,0.0000,0.0000,0.0000,-0.020917,0.020917,-0.000538,0.002208,0.002341,1.8278,0.3236,0.1938,-0.018408,0.009204,0.000000,0.708699,-0.681087,0.667282,-0.701029,0.671884,-0.659612
3.7094,0.016743,0.000000,0.000000,0.004957,0.0000,0.0000,0.0000,-0.022695,0.022695,-0.000608,0.002283,0.002335,1.8018,0.4075,0.2115,-0.012272,0.013806,0.000000,0.708699,-0.679553,0.667282,-0.702563,0.671884,-0.659612
3.7261,0.016745,0.000000,0.000000,0.004950,0.0000,0.0000,0.0000,-0.024463,0.024463,-0.000601,0.002275,0.002336,1.8045,0.3988,0.2096,-0.016874,0.021476,0.000000,0.708699,-0.679553,0.667282,-0.702563,0.671884,-0.659612
3.7430,0.016848,0.000000,0.000000,0.004942,0.0000,0.0000,0.0000,-0.026231,0.026231,-0.000643,0.002236,0.002349,1.7562,0.3824,0.1538,-0.027612,0.021476,0.000000,0.708699,-0.679553,0.667282,-0.702563,0.671884,-0.661146
3.7597,0.016742,0.000000,0.000000,0.004934,0.0000,0.0000,0.0000,-0.027976,0.027976,-0.000643,0.002236,0.002349,1.7562,0.3824,0.1538,-0.027612,0.021476,0.000000,0.708699,-0.679553,0.667282,-0.702563,0.671884,-0.661146
3.7765,0.016759,0.000000,0.000000,0.004925,0.0000,0.0000,0.0000,-0.029711,0.029711,-0.000568,0.002198,0.002385,1.7118,0.2989,0.1023,-0.026078,0.019942,0.000000,0.708699,-0.681087,0.667282,-0.702563,0.673418,-0.662680
3.7932,0.016748,0.000000,0.000000,0.004915,0.0000,0.0000,0.0000,-0.031431,0.031431,-0.000519,0.002218,0.002393,1.6781,0.2749,0.1630,-0.019942,0.023010,0.000000,0.708699,-0.681087,0.667282,-0.702563,0.674952,-0.662680
3.8099,0.016744,0.000000,0.000000,0.004905,0.0000,0.0000,0.0000,-0.033137,0.033137,-0.000468,0.002232,0.002404,1.6434,0.2446,0.2121,-0.024544,0.026078,0.000000,0.708699,-0.681087,0.667282,-0.702563,0.676486,-0.662680
3.8267,0.016743,0.000000,0.000000,0.004895,0.0000,0.0000,0.0000,-0.034828,0.034828,-0.000304,0.002245,0.002439,1.6076,0.1471,0.2614,-0.033748,0.029146,0.000000,0.708699,-0.682621,0.667282,-0.702563,0.679553,-0.662680
3.8436,0.016889,0.000000,0.000000,0.004884,0.0000,0.0000,0.0000,-0.036518,0.036518,-0.000208,0.002242,0.002460,1.6102,0.0893,0.2552,-0.033748,0.032214,0.000000,0.708699,-0.684155,0.667282,-0.702563,0.681087,-0.662680
3.8603,0.016747,0.000000,0.000000,0.004872,0.0000,0.0000,0.0000,-0.038178,0.038178,-0.000208,0.002242,0.002460,1.6102,0.0893,0.2552,-0.033748,0.032214,0.000000,0.708699,-0.684155,0.667282,-0.702563,0.681087,-0.662680
3.8771,0.016746,0.000000,0.000000,0.004860,0.0000,0.0000,0.0000,-0.039821,0.039821,-0.000106,0.002242,0.002482,1.6087,0.0273,0.2549,-0.027612,0.033748,0.000000,0.708699,-0.685689,0.667282,-0.702563,0.682621,-0.662680
3.8938,0.016741,0.000000,0.000000,0.004848,0.0000,0.0000,0.0000,-0.041445,0.041445,-0.000003,0.002240,0.002503,1.6076,-0.0342,0.2539,-0.030680,0.032214,0.000000,0.708699,-0.687223,0.667282,-0.702563,0.684155,-0.662680
3.9106,0.016742,0.000000,0.000000,0.004835,0.0000,0.0000,0.0000,-0.043052,0.043052,-0.000014,0.002240,0.002501,1.6078,-0.0278,0.2540,-0.038350,0.036816,0.000000,0.708699,-0.687223,0.667282,-0.702563,0.684155,-0.662680
3.9273,0.016743,0.000000,0.000000,0.004821,0.0000,0.0000,0.0000,-0.044639,0.044639,-0.000014,0.002240,0.002501,1.6078,-0.0278,0.2540,-0.046019,0.039884,0.000000,0.708699,-0.687223,0.667282,-0.702563,0.684155,-0.662680
3.9448,0.017539,0.000000,0.000000,0.004806,0.0000,0.0000,0.0000,-0.046281,0.046281,0.000044,0.002257,0.002513,1.5699,-0.0613,0.3097,-0.044485,0.039884,0.000000,0.708699,-0.687223,0.667282,-0.702563,0.685689,-0.662680
3.9616,0.016746,0.000000,0.000000,0.004791,0.0000,0.0000,0.0000,-0.047827,0.047827,0.000044,0.002257,0.002513,1.5699,-0.0613,0.3097,-0.044485,0.039884,0.000000,0.708699,-0.687223,0.667282,-0.702563,0.685689,-0.662680
3.9783,0.016756,0.000000,0.000000,0.004776,0.0000,0.0000,0.0000,-0.049354,0.049354,0.000038,0.002255,0.002511,1.5739,-0.0578,0.3039,-0.039884,0.041417,0.000000,0.708699,-0.687223,0.667282,-0.702563,0.685689,-0.662680
3.9951,0.016742,0.000000,0.000000,0.004760,0.0000,0.0000,0.0000,-0.050857,0.050857,0.000038,0.002255,0.002511,1.5739,-0.0578,0.3039,-0.044485,0.046019,0.000000,0.708699,-0.687223,0.667282,-0.702563,0.685689,-0.662680
4.0118,0.016754,0.000000,0.000000,0.004744,0.0000,0.0000,0.0000,-0.052338,0.052338,0.000038,0.002255,0.002511,1.5739,-0.0578,0.3039,-0.053689,0.046019,0.000000,0.708699,-0.687223,0.667282,-0.702563,0.685689,-0.662680
4.0288,0.016977,0.000000,0.000000,0.004727,0.0000,0.0000,0.0000,-0.053816,0.053816,0.000038,0.002255,0.002511,1.5739,-0.0578,0.3039,-0.052155,0.046019,0.000000,0.708699,-0.687223,0.667282,-0.702563,0.685689,-0.662680
4.0456,0.016755,0.000000,0.000000,0.004709,0.0000,0.0000,0.0000,-0.055250,0.055250,0.000095,0.002238,0.002524,1.6101,-0.0934,0.2477,-0.047553,0.049087,0.000000,0.708699,-0.688757,0.667282,-0.702563,0.685689,-0.662680
4.0623,0.016745,0.000000,0.000000,0.004691,0.0000,0.0000,0.0000,-0.056659,0.056659,0.000095,0.002238,0.002524,1.6101,-0.0934,0.2477,-0.047553,0.049087,0.000000,0.708699,-0.688757,0.667282,-0.702563,0.685689,-0.662680
4.0817,0.019398,0.000000,0.000000,0.004670,0.0000,0.0000,0.0000,-0.058260,0.058260,0.000089,0.002240,0.002522,1.6063,-0.0897,0.2536,-0.052155,0.052155,0.000000,0.708699,-0.688757,0.667282,-0.702563,0.685689,-0.662680
4.0985,0.016743,0.000000,0.000000,0.004651,0.0000,0.0000,0.0000,-0.059614,0.059614,0.000089,0.002240,0.002522,1.6063,-0.0897,0.2536,-0.058291,0.052155,0.000000,0.708699,-0.688757,0.667282,-0.702563,0.685689,-0.662680
4.1152,0.016753,0.000000,0.000000,0.004631,0.0000,0.0000,0.0000,-0.060943,0.060943,0.000089,0.002240,0.002522,1.6063,-0.0897,0.2536,-0.056757,0.052155,0.000000,0.708699,-0.688757,0.667282,-0.702563,0.685689,-0.662680
4.1320,0.016744,0.000000,0.000000,0.004611,0.0000,0.0000,0.0000,-0.062243,0.062243,0.000145,0.002222,0.002535,1.6432,-0.1253,0.1962,-0.050621,0.053689,0.000000,0.708699,-0.690291,0.667282,-0.702563,0.685689,-0.662680
4.1487,0.016751,0.000000,0.000000,0.004590,0.0000,0.0000,0.0000,-0.063517,0.063517,0.000140,0.002224,0.002533,1.6394,-0.1216,0.2021,-0.055223,0.056757,0.000000,0.708699,-0.690291,0.667282,-0.702563,0.685689,-0.662680
4.1655,0.016752,0.000000,0.000000,0.004569,0.0000,0.0000,0.0000,-0.064763,0.064763,0.000140,0.002224,0.002533,1.6394,-0.1216,0.2021,-0.064427,0.061359,0.000000,0.708699,-0.690291,0.667282,-0.702563,0.685689,-0.662680
4.1822,0.016759,0.000000,0.000000,0.004548,0.0000,0.0000,0.0000,-0.065980,0.065980,0.000140,0.002224,0.002533,1.6394,-0.1216,0.2021,-0.064427,0.061359,0.000000,0.708699,-0.690291,0.667282,-0.702563,0.685689,-0.662680
4.1990,0.016742,0.000000,0.000000,0.004526,0.0000,0.0000,0.0000,-0.067167,0.067167,0.000140,0.002224,0.002533,1.6394,-0.1216,0.2021,-0.067495,0.062893,0.000000,0.708699,-0.690291,0.667282,-0.702563,0.685689,-0.662680
4.2157,0.016750,0.000000,0.000000,0.004503,0.0000,0.0000,0.0000,-0.068325,0.068325,0.000140,0.002224,0.002533,1.6394,-0.1216,0.2021,-0.064427,0.061359,0.000000,0.708699,-0.690291,0.667282,-0.702563,0.685689,-0.662680
4.2325,0.016748,0.000000,0.000000,0.004480,0.0000,0.0000,0.0000,-0.069452,0.069452,0.000140,0.002224,0.002533,1.6394,-0.1216,0.2021,-0.062893,0.064427,0.000000,0.708699,-0.690291,0.667282,-0.702563,0.685689,-0.662680
4.2492,0.016752,0.000000,0.000000,0.004456,0.0000,0.0000,0.0000,-0.070549,0.070549,0.000140,0.002224,0.002533,1.6394,-0.1216,0.2021,-0.069029,0.067495,0.000000,0.708699,-0.690291,0.667282,-0.702563,0.685689,-0.662680
4.2660,0.016823,0.000000,0.000000,0.004432,0.0000,0.0000,0.0000,-0.071619,0.071619,0.000140,0.002224,0.002533,1.6394,-0.1216,0.2021,-0.072097,0.067495,0.000000,0.708699,-0.690291,0.667282,-0.702563,0.685689,-0.662680
4.2828,0.016762,0.000000,0.000000,0.004407,0.0000,0.0000,0.0000,-0.072653,0.072653,0.000140,0.002224,0.002533,1.6394,-0.1216,0.2021,-0.072097,0.067495,0.000000,0.708699,-0.690291,0.667282,-0.702563,0.685689,-0.662680
4.2995,0.016747,0.000000,0.000000,0.004382,0.0000,0.0000,0.0000,-0.073654,0.073654,0.000140,0.002224,0.002533,1.6394,-0.1216,0.2021,-0.069029,0.067495,0.000000,0.708699,-0.690291,0.667282,-0.702563,0.685689,-0.662680
4.3163,0.016746,0.000000,0.000000,0.004357,0.0000,0.0000,0.0000,-0.074623,0.074623,0.000140,0.002224,0.002533,1.6394,-0.1216,0.2021,-0.069029,0.069029,0.000000,0.708699,-0.690291,0.667282,-0.702563,0.685689,-0.662680
4.3331,0.016807,0.000000,0.000000,0.004331,0.0000,0.0000,0.0000,-0.075562,0.075562,0.000140,0.002224,0.002533,1.6394,-0.1216,0.2021,-0.075165,0.069029,0.000000,0.708699,-0.690291,0.667282,-0.702563,0.685689,-0.662680
4.3499,0.016854,0.000000,0.000000,0.004304,0.0000,0.0000,0.0000,-0.076469,0.076469,0.000140,0.002224,0.002533,1.6394,-0.1216,0.2021,-0.075165,0.069029,0.000000,0.708699,-0.690291,0.667282,-0.702563,0.685689,-0.662680
4.3667,0.016754,0.000000,0.000000,0.004277,0.0000,0.0000,0.0000,-0.077337,0.077337,0.000140,0.002224,0.002533,1.6394,-0.1216,0.2021,-0.075165,0.069029,0.000000,0.708699,-0.690291,0.667282,-0.702563,0.685689,-0.662680
4.3834,0.016746,0.000000,0.000000,0.004249,0.0000,0.0000,0.0000,-0.078171,0.078171,0.000140,0.002224,0.002533,1.6394,-0.1216,0.2021,-0.072097,0.075165,0.000000,0.708699,-0.690291,0.667282,-0.702563,0.685689,-0.662680
4.4003,0.016821,0.000000,0.000000,0.004221,0.0000,0.0000,0.0000,-0.078973,0.078973,0.000140,0.002224,0.002533,1.6394,-0.1216,0.2021,-0.073631,0.073631,0.000000,0.708699,-0.690291,0.667282,-0.702563,0.685689,-0.662680
4.4170,0.016767,0.000000,0.000000,0.004193,0.0000,0.0000,0.0000,-0.079738,0.079738,0.000140,0.002224,0.002533,1.6394,-0.1216,0.2021,-0.079767,0.073631,0.000000,0.708699,-0.690291,0.667282,-0.702563,0.685689,-0.662680
4.4338,0.016757,0.000000,0.000000,0.004164,0.0000,0.0000,0.0000,-0.080467,0.080467,0.000140,0.002224,0.002533,1.6394,-0.1216,0.2021,-0.079767,0.078233,0.000000,0.708699,-0.690291,0.667282,-0.702563,0.685689,-0.662680
4.4505,0.016752,0.000000,0.000000,0.004134,0.0000,0.0000,0.0000,-0.081160,0.081160,0.000140,0.002224,0.002533,1.6394,-0.1216,0.2021,-0.079767,0.078233,0.000000,0.708699,-0.690291,0.667282,-0.702563,0.685689,-0.662680
4.4673,0.016740,0.000000,0.000000,0.004105,0.0000,0.0000,0.0000,-0.081817,0.081817,0.000140,0.002224,0.002533,1.6394,-0.1216,0.2021,-0.076699,0.078233,0.000000,0.708699,-0.690291,0.667282,-0.702563,0.685689,-0.662680
4.4840,0.016747,0.000000,0.000000,0.004074,0.0000,0.0000,0.0000,-0.082437,0.082437,0.000140,0.002224,0.002533,1.6394,-0.1216,0.2021,-0.078233,0.075165,0.000000,0.708699,-0.690291,0.667282,-0.702563,0.685689,-0.662680
4.5008,0.016749,0.000000,0.000000,0.004044,0.0000,0.0000,0.0000,-0.083022,0.083022,0.000140,0.002224,0.002533,1.6394,-0.1216,0.2021,-0.082835,0.079767,0.000000,0.708699,-0.690291,0.667282,-0.702563,0.685689,-0.662680
4.5175,0.016743,0.000000,0.000000,0.004012,0.0000,0.0000,0.0000,-0.083569,0.083569,0.000140,0.002224,0.002533,1.6394,-0.1216,0.2021,-0.082835,0.079767,0.000000,0.708699,-0.690291,0.667282,-0.702563,0.685689,-0.662680
4.5343,0.016747,0.000000,0.000000,0.003981,0.0000,0.0000,0.0000,-0.084079,0.084079,0.000140,0.002224,0.002533,1.6394,-0.1216,0.2021,-0.082835,0.079767,0.000000,0.708699,-0.690291,0.667282,-0.702563,0.685689,-0.662680
4.5510,0.016754,0.000000,0.000000,0.003949,0.0000,0.0000,0.0000,-0.084553,0.084553,0.000140,0.002224,0.002533,1.6394,-0.1216,0.2021,-0.079767,0.079767,0.000000,0.708699,-0.690291,0.667282,-0.702563,0.685689,-0.662680
4.5678,0.016745,0.000000,0.000000,0.003916,0.0000,0.0000,0.0000,-0.084988,0.084988,0.000140,0.002224,0.002533,1.6394,-0.1216,0.2021,-0.082835,0.081301,0.000000,0.708699,-0.690291,0.667282,-0.702563,0.685689,-0.662680
