t,loop_dt,cmd_x,cmd_y,cmd_z,cmd_roll,cmd_pitch,cmd_yaw,cmd_ant_l,cmd_ant_r,pres_x,pres_y,pres_z,pres_roll,pres_pitch,pres_yaw,pres_ant_l,pres_ant_r,pres_j0,pres_j1,pres_j2,pres_j3,pres_j4,pres_j5,pres_j6
0.0000,0.000001,-0.000351,0.001453,-0.002556,0.5630,-0.0951,-0.4348,-0.004602,0.007670,-0.000351,0.001453,-0.002556,0.5630,-0.0951,-0.4348,-0.004602,0.007670,0.000000,0.579845,-0.562971,0.549165,-0.582913,0.567573,-0.564505
0.0167,0.016748,-0.000345,0.001429,-0.002513,0.5535,-0.0936,-0.4275,-0.004525,0.007541,-0.000310,0.001415,-0.002567,0.5135,-0.0794,-0.4876,-0.003068,0.006136,0.000000,0.578311,-0.562971,0.549165,-0.582913,0.567573,-0.564505
0.0335,0.016744,-0.000339,0.001404,-0.002470,0.5441,-0.0920,-0.4202,-0.004448,0.007413,-0.000314,0.001419,-0.002566,0.5187,-0.0810,-0.4821,-0.006136,0.006136,0.000000,0.578311,-0.562971,0.549165,-0.582913,0.567573,-0.564505
0.0502,0.016745,-0.000333,0.001380,-0.002427,0.5347,-0.0904,-0.4129,-0.004371,0.007285,-0.000314,0.001419,-0.002566,0.5187,-0.0810,-0.4821,-0.006136,0.006136,0.000000,0.578311,-0.562971,0.549165,-0.582913,0.567573,-0.564505
0.0670,0.016749,-0.000327,0.001356,-0.002385,0.5252,-0.0889,-0.4056,-0.004294,0.007156,-0.000314,0.001419,-0.002566,0.5187,-0.0810,-0.4821,-0.010738,0.006136,0.000000,0.578311,-0.562971,0.549165,-0.582913,0.567573,-0.564505
0.0837,0.016745,-0.000321,0.001331,-0.002342,0.5158,-0.0873,-0.3983,-0.004217,0.007028,-0.000286,0.001434,-0.002604,0.4786,-0.0121,-0.4295,-0.007670,0.006136,0.000000,0.576777,-0.561437,0.549165,-0.582913,0.567573,-0.562971
0.1005,0.016753,-0.000315,0.001307,-0.002299,0.5064,-0.0858,-0.3910,-0.004140,0.006899,-0.000059,0.001486,-0.002699,0.4911,0.1337,-0.3291,0.003068,0.006136,0.000000,0.572175,-0.559903,0.549165,-0.582913,0.567573,-0.556835
0.1172,0.016750,-0.000310,0.001283,-0.002256,0.4969,-0.0842,-0.3837,-0.004062,0.006771,-0.000042,0.001519,-0.002703,0.5393,0.1361,-0.2863,0.003068,0.006136,0.000000,0.572175,-0.559903,0.549165,-0.582913,0.567573,-0.555301
0.1347,0.017445,-0.000303,0.001257,-0.002212,0.4871,-0.0826,-0.3762,-0.003982,0.006637,-0.000016,0.001531,-0.002740,0.4948,0.2048,-0.2378,-0.007670,0.006136,0.000000,0.570641,-0.558369,0.549165,-0.582913,0.567573,-0.553767
0.1514,0.016742,-0.000298,0.001233,-0.002169,0.4777,-0.0810,-0.3689,-0.003905,0.006509,-0.000016,0.001531,-0.002740,0.4948,0.2048,-0.2378,-0.007670,0.006136,0.000000,0.570641,-0.558369,0.549165,-0.582913,0.567573,-0.553767
0.1682,0.016730,-0.000292,0.001209,-0.002126,0.4683,-0.0794,-0.3616,-0.003828,0.006380,0.000034,0.001514,-0.002723,0.5384,0.1621,-0.2961,-0.004602,0.006136,0.000000,0.570641,-0.559903,0.549165,-0.582913,0.567573,-0.553767
0.1849,0.016748,-0.000286,0.001184,-0.002083,0.4588,-0.0779,-0.3543,-0.003751,0.006252,0.000029,0.001516,-0.002725,0.5338,0.1665,-0.2900,0.001534,0.006136,0.000000,0.570641,-0.559903,0.549165,-0.582913,0.567573,-0.553767
0.2016,0.016749,-0.000280,0.001160,-0.002040,0.4494,-0.0763,-0.3470,-0.003674,0.006123,-0.000011,0.001477,-0.002712,0.4848,0.1485,-0.3438,0.000000,0.006136,0.000000,0.570641,-0.559903,0.549165,-0.582913,0.567573,-0.555301
0.2184,0.016750,-0.000274,0.001136,-0.001998,0.4400,-0.0747,-0.3397,-0.003597,0.005995,-0.000048,0.001520,-0.002701,0.5400,0.1346,-0.2848,-0.006136,0.006136,0.000000,0.572175,-0.559903,0.549165,-0.582913,0.567573,-0.555301
0.2357,0.017324,-0.000268,0.001111,-0.001953,0.4302,-0.0731,-0.3322,-0.003517,0.005862,-0.000044,0.001515,-0.002702,0.5342,0.1361,-0.2909,-0.004602,0.006136,0.000000,0.572175,-0.559903,0.549165,-0.582913,0.567573,-0.555301
0.2525,0.016742,-0.000262,0.001086,-0.001911,0.4208,-0.0715,-0.3249,-0.003440,0.005734,-0.000044,0.001515,-0.002702,0.5342,0.1361,-0.2909,-0.004602,0.006136,0.000000,0.572175,-0.559903,0.549165,-0.582913,0.567573,-0.555301
0.2692,0.016754,-0.000256,0.001062,-0.001868,0.4114,-0.0699,-0.3176,-0.003363,0.005605,0.000037,0.001516,-0.002727,0.5342,0.1692,-0.2906,0.003068,0.006136,0.000000,0.570641,-0.559903,0.549165,-0.582913,0.567573,-0.553767
0.2860,0.016745,-0.000250,0.001038,-0.001825,0.4019,-0.0684,-0.3103,-0.003286,0.005477,0.000029,0.001516,-0.002725,0.5342,0.1658,-0.2906,0.000000,0.006136,0.000000,0.570641,-0.559903,0.549165,-0.582913,0.567573,-0.553767
0.3027,0.016761,-0.000245,0.001013,-0.001782,0.3925,-0.0668,-0.3031,-0.003209,0.005348,0.000029,0.001516,-0.002725,0.5342,0.1658,-0.2906,-0.006136,0.006136,0.000000,0.570641,-0.559903,0.549165,-0.582913,0.567573,-0.553767
0.3195,0.016749,-0.000239,0.000989,-0.001739,0.3831,-0.0652,-0.2958,-0.003132,0.005220,0.000029,0.001516,-0.002725,0.5342,0.1658,-0.2906,-0.006136,0.006136,0.000000,0.570641,-0.559903,0.549165,-0.582913,0.567573,-0.553767
0.3364,0.016942,-0.000233,0.000964,-0.001696,0.3735,-0.0636,-0.2884,-0.003054,0.005090,0.000029,0.001516,-0.002725,0.5342,0.1658,-0.2906,-0.006136,0.006136,0.000000,0.570641,-0.559903,0.549165,-0.582913,0.567573,-0.553767
0.3532,0.016745,-0.000227,0.000940,-0.001653,0.3641,-0.0620,-0.2811,-0.002977,0.004961,-0.000011,0.001477,-0.002712,0.4847,0.1485,-0.3438,0.001534,0.006136,0.000000,0.570641,-0.559903,0.549165,-0.582913,0.567573,-0.555301
0.3699,0.016750,-0.000221,0.000916,-0.001610,0.3547,-0.0604,-0.2738,-0.002900,0.004833,0.000033,0.001520,-0.002726,0.5394,0.1679,-0.2850,0.001534,0.006136,0.000000,0.570641,-0.559903,0.549165,-0.582913,0.567573,-0.553767
0.3867,0.016748,-0.000215,0.000891,-0.001568,0.3452,-0.0589,-0.2666,-0.002823,0.004704,-0.000011,0.001477,-0.002712,0.4842,0.1483,-0.3444,-0.006136,0.006136,0.000000,0.570641,-0.559903,0.549165,-0.582913,0.567573,-0.555301
0.4036,0.016940,-0.000209,0.000867,-0.001524,0.3357,-0.0572,-0.2592,-0.002745,0.004574,-0.000007,0.001558,-0.002714,0.5895,0.1522,-0.2315,-0.006136,0.006136,0.000000,0.572175,-0.559903,0.549165,-0.582913,0.567573,-0.553767
0.4203,0.016743,-0.000203,0.000842,-0.001481,0.3263,-0.0557,-0.2519,-0.002668,0.004446,0.000033,0.001511,-0.002726,0.5285,0.1675,-0.2967,-0.001534,0.006136,0.000000,0.570641,-0.559903,0.549165,-0.582913,0.567573,-0.553767
0.4387,0.018328,-0.000197,0.000816,-0.001435,0.3159,-0.0539,-0.2439,-0.002583,0.004305,0.000029,0.001516,-0.002725,0.5348,0.1659,-0.2899,0.003068,0.006136,0.000000,0.570641,-0.559903,0.549165,-0.582913,0.567573,-0.553767
0.4554,0.016762,-0.000191,0.000791,-0.001392,0.3065,-0.0523,-0.2367,-0.002506,0.004177,-0.000011,0.001477,-0.002712,0.4847,0.1485,-0.3438,-0.001534,0.006136,0.000000,0.570641,-0.559903,0.549165,-0.582913,0.567573,-0.555301
0.4722,0.016756,-0.000185,0.000767,-0.001349,0.2971,-0.0507,-0.2294,-0.002429,0.004048,-0.000011,0.001477,-0.002712,0.4847,0.1485,-0.3438,-0.001534,0.006136,0.000000,0.570641,-0.559903,0.549165,-0.582913,0.567573,-0.555301
0.4889,0.016741,-0.000179,0.000743,-0.001306,0.2876,-0.0492,-0.2221,-0.002352,0.003920,0.000033,0.001520,-0.002726,0.5394,0.1679,-0.2850,-0.004602,0.006136,0.000000,0.570641,-0.559903,0.549165,-0.582913,0.567573,-0.553767
0.5057,0.016746,-0.000173,0.000718,-0.001263,0.2782,-0.0476,-0.2148,-0.002275,0.003791,0.000029,0.001515,-0.002725,0.5337,0.1659,-0.2912,-0.003068,0.006136,0.000000,0.570641,-0.559903,0.549165,-0.582913,0.567573,-0.553767
0.5224,0.016752,-0.000167,0.000694,-0.001221,0.2688,-0.0460,-0.2075,-0.002198,0.003663,0.000029,0.001515,-0.002725,0.5337,0.1659,-0.2912,0.003068,0.006136,0.000000,0.570641,-0.559903,0.549165,-0.582913,0.567573,-0.553767
0.5392,0.016756,-0.000162,0.000670,-0.001178,0.2594,-0.0444,-0.2002,-0.002121,0.003534,-0.000011,0.001477,-0.002712,0.4848,0.1485,-0.3437,0.000000,0.006136,0.000000,0.570641,-0.559903,0.549165,-0.582913,0.567573,-0.555301
0.5559,0.016746,-0.000156,0.000645,-0.001135,0.2499,-0.0428,-0.1930,-0.002044,0.003406,-0.000011,0.001477,-0.002712,0.4848,0.1485,-0.3437,0.000000,0.006136,0.000000,0.570641,-0.559903,0.549165,-0.582913,0.567573,-0.555301
0.5727,0.016757,-0.000150,0.000621,-0.001092,0.2405,-0.0412,-0.1857,-0.001966,0.003277,-0.000007,0.001481,-0.002713,0.4899,0.1504,-0.3382,-0.006136,0.006136,0.000000,0.570641,-0.559903,0.549165,-0.582913,0.567573,-0.555301
0.5894,0.016744,-0.000144,0.000597,-0.001049,0.2311,-0.0396,-0.1784,-0.001889,0.003149,0.000033,0.001519,-0.002726,0.5389,0.1677,-0.2856,-0.001534,0.006136,0.000000,0.570641,-0.559903,0.549165,-0.582913,0.567573,-0.553767
0.6062,0.016752,-0.000138,0.000572,-0.001007,0.2216,-0.0380,-0.1711,-0.001812,0.003021,-0.000011,0.001477,-0.002712,0.4843,0.1483,-0.3443,0.003068,0.006136,0.000000,0.570641,-0.559903,0.549165,-0.582913,0.567573,-0.555301
0.6229,0.016748,-0.000132,0.000548,-0.000964,0.2122,-0.0364,-0.1638,-0.001735,0.002892,-0.000007,0.001481,-0.002713,0.4900,0.1504,-0.3382,0.000000,0.006136,0.000000,0.570641,-0.559903,0.549165,-0.582913,0.567573,-0.555301
0.6397,0.016751,-0.000126,0.000524,-0.000921,0.2028,-0.0348,-0.1566,-0.001658,0.002764,-0.000007,0.001481,-0.002713,0.4900,0.1504,-0.3382,-0.006136,0.006136,0.000000,0.570641,-0.559903,0.549165,-0.582913,0.567573,-0.555301
0.6564,0.016754,-0.000120,0.000499,-0.000878,0.1934,-0.0332,-0.1493,-0.001581,0.002635,-0.000007,0.001481,-0.002713,0.4900,0.1504,-0.3382,-0.006136,0.006136,0.000000,0.570641,-0.559903,0.549165,-0.582913,0.567573,-0.555301
0.6732,0.016769,-0.000115,0.000475,-0.000835,0.1839,-0.0316,-0.1420,-0.001504,0.002506,-0.000007,0.001481,-0.002713,0.4900,0.1504,-0.3382,0.003068,0.006136,0.000000,0.570641,-0.559903,0.549165,-0.582913,0.567573,-0.555301
0.6899,0.016741,-0.000109,0.000451,-0.000792,0.1745,-0.0300,-0.1347,-0.001427,0.002378,-0.000007,0.001481,-0.002713,0.4900,0.1504,-0.3382,0.000000,0.004602,0.000000,0.570641,-0.559903,0.549165,-0.582913,0.567573,-0.555301
0.7067,0.016754,-0.000103,0.000426,-0.000750,0.1651,-0.0283,-0.1274,-0.001350,0.002250,-0.000007,0.001481,-0.002713,0.4900,0.1504,-0.3382,-0.006136,0.004602,0.000000,0.570641,-0.559903,0.549165,-0.582913,0.567573,-0.555301
0.7234,0.016746,-0.000097,0.000402,-0.000707,0.1556,-0.0267,-0.1202,-0.001273,0.002121,-0.000007,0.001481,-0.002713,0.4900,0.1504,-0.3382,-0.003068,0.003068,0.000000,0.570641,-0.559903,0.549165,-0.582913,0.567573,-0.555301
0.7403,0.016873,-0.000091,0.000377,-0.000664,0.1461,-0.0251,-0.1128,-0.001195,0.001992,-0.000007,0.001481,-0.002713,0.4900,0.1504,-0.3382,0.003068,0.001534,0.000000,0.570641,-0.559903,0.549165,-0.582913,0.567573,-0.555301
0.7571,0.016749,-0.000085,0.000353,-0.000621,0.1367,-0.0235,-0.1055,-0.001118,0.001863,-0.000007,0.001481,-0.002713,0.4900,0.1504,-0.3382,0.003068,0.001534,0.000000,0.570641,-0.559903,0.549165,-0.582913,0.567573,-0.555301
0.7738,0.016753,-0.000079,0.000329,-0.000578,0.1273,-0.0219,-0.0983,-0.001041,0.001735,-0.000009,0.001481,-0.002713,0.4900,0.1504,-0.2503,0.000000,0.001534,0.001534,0.570641,-0.559903,0.549165,-0.582913,0.567573,-0.555301
0.7907,0.016859,-0.000073,0.000304,-0.000535,0.1178,-0.0203,-0.0909,-0.000963,0.001605,-0.000048,0.001519,-0.002701,0.5395,0.1344,-0.2854,-0.006136,0.001534,0.000000,0.572175,-0.559903,0.549165,-0.582913,0.567573,-0.555301
0.8116,0.020947,-0.000066,0.000274,-0.000481,0.1060,-0.0182,-0.0818,-0.000867,0.001445,-0.000048,0.001519,-0.002701,0.5395,0.1344,-0.2854,-0.006136,0.001534,0.000000,0.572175,-0.559903,0.549165,-0.582913,0.567573,-0.555301
0.8284,0.016749,-0.000060,0.000249,-0.000439,0.0966,-0.0166,-0.0746,-0.000790,0.001316,-0.000048,0.001519,-0.002701,0.5395,0.1344,-0.2854,-0.006136,0.001534,0.000000,0.572175,-0.559903,0.549165,-0.582913,0.567573,-0.555301
0.8451,0.016750,-0.000054,0.000225,-0.000396,0.0872,-0.0150,-0.0673,-0.000713,0.001188,-0.000084,0.001477,-0.002689,0.4848,0.1185,-0.3441,0.003068,0.001534,0.000000,0.572175,-0.559903,0.549165,-0.582913,0.567573,-0.556835
0.8619,0.016748,-0.000048,0.000201,-0.000353,0.0777,-0.0134,-0.0600,-0.000636,0.001059,-0.000039,0.001443,-0.002702,0.4405,0.1359,-0.3914,0.001534,0.001534,0.000000,0.570641,-0.559903,0.549165,-0.582913,0.567573,-0.556835
0.8786,0.016771,-0.000043,0.000176,-0.000310,0.0683,-0.0118,-0.0527,-0.000558,0.000931,-0.000085,0.001485,-0.002689,0.4952,0.1183,-0.3330,-0.006136,0.001534,0.000000,0.572175,-0.559903,0.549165,-0.582913,0.567573,-0.556835
0.8954,0.016781,-0.000037,0.000152,-0.000267,0.0588,-0.0102,-0.0454,-0.000481,0.000802,-0.000082,0.001481,-0.002691,0.4895,0.1202,-0.2512,-0.003068,0.000000,0.001534,0.572175,-0.559903,0.549165,-0.582913,0.567573,-0.556835
0.9122,0.016795,-0.000031,0.000128,-0.000224,0.0494,-0.0085,-0.0381,-0.000404,0.000673,-0.000080,0.001481,-0.002691,0.4895,0.1202,-0.3391,0.004602,0.000000,0.000000,0.572175,-0.559903,0.549165,-0.582913,0.567573,-0.556835
0.9290,0.016744,-0.000025,0.000103,-0.000182,0.0400,-0.0069,-0.0309,-0.000327,0.000545,-0.000080,0.001481,-0.002691,0.4895,0.1202,-0.3391,0.004602,0.000000,0.000000,0.572175,-0.559903,0.549165,-0.582913,0.567573,-0.556835
0.9457,0.016754,-0.000019,0.000079,-0.000139,0.0305,-0.0053,-0.0236,-0.000250,0.000416,-0.000040,0.001443,-0.002702,0.4400,0.1358,-0.3919,0.001534,0.000000,0.000000,0.570641,-0.559903,0.549165,-0.582913,0.567573,-0.556835
0.9625,0.016735,-0.000013,0.000055,-0.000096,0.0211,-0.0036,-0.0163,-0.000173,0.000288,-0.000044,0.001447,-0.002701,0.4451,0.1342,-0.3864,-0.006136,0.000000,0.000000,0.570641,-0.559903,0.549165,-0.582913,0.567573,-0.556835
0.9792,0.016750,-0.000007,0.000030,-0.000053,0.0117,-0.0020,-0.0090,-0.000096,0.000160,-0.000044,0.001447,-0.002701,0.4451,0.1342,-0.3864,-0.003068,0.000000,0.000000,0.570641,-0.559903,0.549165,-0.582913,0.567573,-0.556835
0.9959,0.016743,-0.000001,0.000006,-0.000010,0.0023,-0.0004,-0.0018,-0.000019,0.000031,-0.000044,0.001447,-0.002701,0.4451,0.1342,-0.3864,0.004602,0.000000,0.000000,0.570641,-0.559903,0.549165,-0.582913,0.567573,-0.556835
1.0127,0.016754,0.000000,0.000000,0.000040,0.0000,0.0000,0.0000,0.006961,-0.006961,-0.000044,0.001447,-0.002701,0.4451,0.1342,-0.3864,0.001534,0.000000,0.000000,0.570641,-0.559903,0.549165,-0.582913,0.567573,-0.556835
1.0294,0.016750,0.000000,0.000000,0.000093,0.0000,0.0000,0.0000,0.016124,-0.016124,-0.000044,0.001447,-0.002701,0.4451,0.1342,-0.3864,0.001534,0.000000,0.000000,0.570641,-0.559903,0.549165,-0.582913,0.567573,-0.556835
1.0462,0.016754,0.000000,0.000000,0.000145,0.0000,0.0000,0.0000,0.025244,-0.025244,-0.000084,0.001485,-0.002689,0.4947,0.1185,-0.3335,-0.006136,0.000000,0.000000,0.572175,-0.559903,0.549165,-0.582913,0.567573,-0.556835
1.0629,0.016747,0.000000,0.000000,0.000198,0.0000,0.0000,0.0000,0.034291,-0.034291,-0.000080,0.001481,-0.002691,0.4895,0.1202,-0.3391,-0.003068,0.000000,0.000000,0.572175,-0.559903,0.549165,-0.582913,0.567573,-0.556835
1.0797,0.016757,0.000000,0.000000,0.000250,0.0000,0.0000,0.0000,0.043249,-0.043249,-0.000027,0.001465,-0.002678,0.5289,0.0844,-0.3918,0.004602,-0.001534,0.000000,0.572175,-0.561437,0.549165,-0.582913,0.567573,-0.556835
1.0965,0.016750,0.000000,0.000000,0.000303,0.0000,0.0000,0.0000,0.052082,-0.052082,0.000062,0.001412,-0.002678,0.5135,0.0684,-0.4931,0.013806,-0.007670,0.000000,0.570641,-0.562971,0.549165,-0.582913,0.567573,-0.556835
1.1132,0.016768,0.000000,0.000000,0.000355,0.0000,0.0000,0.0000,0.060782,-0.060782,0.000052,0.001418,-0.002678,0.5151,0.0701,-0.4825,0.024544,-0.018408,0.000000,0.570641,-0.562971,0.549165,-0.582913,0.567573,-0.556835
1.1300,0.016744,0.000000,0.000000,0.000408,0.0000,0.0000,0.0000,0.069300,-0.069300,0.000052,0.001418,-0.002678,0.5151,0.0701,-0.4825,0.024544,-0.018408,0.000000,0.570641,-0.562971,0.549165,-0.582913,0.567573,-0.556835
1.1467,0.016746,0.000000,0.000000,0.000460,0.0000,0.0000,0.0000,0.077627,-0.077627,0.000012,0.001456,-0.002667,0.5651,0.0541,-0.4302,0.038350,-0.033748,0.000000,0.572175,-0.562971,0.549165,-0.582913,0.567573,-0.556835
1.1635,0.016745,0.000000,0.000000,0.000513,0.0000,0.0000,0.0000,0.085739,-0.085739,0.000017,0.001452,-0.002668,0.5599,0.0557,-0.4357,0.055223,-0.047553,0.000000,0.572175,-0.562971,0.549165,-0.582913,0.567573,-0.556835
1.1802,0.016771,0.000000,0.000000,0.000565,0.0000,0.0000,0.0000,0.093626,-0.093626,0.000017,0.001452,-0.002668,0.5599,0.0557,-0.4357,0.061359,-0.059825,0.000000,0.572175,-0.562971,0.549165,-0.582913,0.567573,-0.556835
1.1970,0.016750,0.000000,0.000000,0.000617,0.0000,0.0000,0.0000,0.101244,-0.101244,0.000014,0.001452,-0.002668,0.5599,0.0557,-0.3478,0.059825,-0.070563,0.001534,0.572175,-0.562971,0.549165,-0.582913,0.567573,-0.556835
1.2137,0.016760,0.000000,0.000000,0.000669,0.0000,0.0000,0.0000,0.108586,-0.108586,0.000017,0.001452,-0.002668,0.5599,0.0557,-0.4357,0.069029,-0.078233,0.000000,0.572175,-0.562971,0.549165,-0.582913,0.567573,-0.556835
1.2305,0.016742,0.000000,0.000000,0.000722,0.0000,0.0000,0.0000,0.115619,-0.115619,0.000017,0.001452,-0.002668,0.5599,0.0557,-0.4357,0.069029,-0.078233,0.000000,0.572175,-0.562971,0.549165,-0.582913,0.567573,-0.556835
1.2472,0.016744,0.000000,0.000000,0.000774,0.0000,0.0000,0.0000,0.122333,-0.122333,-0.000066,0.001529,-0.002644,0.6606,0.0240,-0.3282,0.084369,-0.085903,0.000000,0.575243,-0.562971,0.549165,-0.582913,0.567573,-0.556835
1.2640,0.016748,0.000000,0.000000,0.000826,0.0000,0.0000,0.0000,0.128711,-0.128711,-0.000111,0.001615,-0.002623,0.7109,0.0623,-0.3394,0.104311,-0.093573,0.000000,0.576777,-0.562971,0.549165,-0.584447,0.567573,-0.556835
1.2807,0.016772,0.000000,0.000000,0.000877,0.0000,0.0000,0.0000,0.134741,-0.134741,-0.000108,0.001544,-0.002550,0.8626,0.0602,-0.2315,0.110447,-0.102777,0.000000,0.579845,-0.566039,0.552233,-0.584447,0.567573,-0.556835
1.2975,0.016744,0.000000,0.000000,0.000929,0.0000,0.0000,0.0000,0.140387,-0.140387,-0.000163,0.001506,-0.002458,0.9649,0.0952,-0.2426,0.108913,-0.111981,0.000000,0.582913,-0.569107,0.555301,-0.585981,0.567573,-0.558369
1.3142,0.016747,0.000000,0.000000,0.000981,0.0000,0.0000,0.0000,0.145646,-0.145646,-0.000163,0.001506,-0.002458,0.9649,0.0952,-0.2426,0.119651,-0.122718,0.000000,0.587515,-0.572175,0.561437,-0.590583,0.570641,-0.561437
1.3310,0.016747,0.000000,0.000000,0.001032,0.0000,0.0000,0.0000,0.150502,-0.150502,-0.000238,0.001499,-0.002268,0.9937,0.2307,-0.1343,0.119651,-0.122718,0.000000,0.587515,-0.572175,0.561437,-0.590583,0.570641,-0.561437
1.3477,0.016740,0.000000,0.000000,0.001084,0.0000,0.0000,0.0000,0.154939,-0.154939,-0.000325,0.001449,-0.002064,0.9794,0.2376,0.0693,0.136524,-0.133456,0.000000,0.593651,-0.575243,0.567573,-0.593651,0.575243,-0.566039
1.3645,0.016743,0.000000,0.000000,0.001135,0.0000,0.0000,0.0000,0.158949,-0.158949,-0.000235,0.001316,-0.001847,1.0365,0.2716,0.2095,0.141126,-0.142660,0.000000,0.598253,-0.581379,0.575243,-0.596719,0.579845,-0.569107
1.3812,0.016744,0.000000,0.000000,0.001186,0.0000,0.0000,0.0000,0.162520,-0.162520,-0.000177,0.001246,-0.001696,1.0973,0.3529,0.3032,0.139592,-0.145728,0.000000,0.601320,-0.585981,0.581379,-0.599786,0.582913,-0.570641
1.3980,0.016750,0.000000,0.000000,0.001237,0.0000,0.0000,0.0000,0.165642,-0.165642,-0.000142,0.001217,-0.001538,1.0403,0.3615,0.4015,0.144194,-0.148796,0.000000,0.604388,-0.589049,0.585981,-0.602854,0.587515,-0.573709
1.4147,0.016754,0.000000,0.000000,0.001288,0.0000,0.0000,0.0000,0.168306,-0.168306,-0.000142,0.001217,-0.001538,1.0403,0.3615,0.4015,0.144194,-0.148796,0.000000,0.604388,-0.589049,0.585981,-0.602854,0.587515,-0.573709
1.4315,0.016745,0.000000,0.000000,0.001339,0.0000,0.0000,0.0000,0.170502,-0.170502,-0.000090,0.001127,-0.001429,0.9855,0.3248,0.3913,0.151864,-0.156466,0.000000,0.605922,-0.592117,0.589049,-0.604388,0.590583,-0.576777
1.4482,0.016744,0.000000,0.000000,0.001390,0.0000,0.0000,0.0000,0.172227,-0.172227,-0.000109,0.001083,-0.001317,0.9800,0.3815,0.6095,0.165670,-0.164136,0.000000,0.608990,-0.593651,0.593651,-0.605922,0.593651,-0.578311
1.4649,0.016740,0.000000,0.000000,0.001440,0.0000,0.0000,0.0000,0.173476,-0.173476,-0.000011,0.001032,-0.001254,0.9699,0.3553,0.4784,0.165670,-0.164136,0.000000,0.608990,-0.596719,0.595185,-0.607456,0.595185,-0.579845
1.4817,0.016746,0.000000,0.000000,0.001490,0.0000,0.0000,0.0000,0.174244,-0.174244,0.000033,0.001054,-0.001174,0.9316,0.3239,0.5462,0.162602,-0.167204,0.000000,0.610524,-0.598253,0.596719,-0.608990,0.598253,-0.581379
1.4984,0.016754,0.000000,0.000000,0.001540,0.0000,0.0000,0.0000,0.174531,-0.174531,0.000042,0.000997,-0.001157,0.9248,0.2745,0.4308,0.167204,-0.171806,0.000000,0.610524,-0.599786,0.596719,-0.608990,0.598253,-0.582913
1.5152,0.016757,0.000000,0.000000,0.001590,0.0000,0.0000,0.0000,0.174334,-0.174334,0.000042,0.000997,-0.001157,0.9248,0.2745,0.4308,0.167204,-0.171806,0.000000,0.610524,-0.599786,0.596719,-0.608990,0.598253,-0.582913
1.5319,0.016746,0.000000,0.000000,0.001640,0.0000,0.0000,0.0000,0.173655,-0.173655,0.000015,0.001004,-0.001134,0.9256,0.3814,0.4434,0.177942,-0.174874,0.000000,0.610524,-0.599786,0.598253,-0.610524,0.598253,-0.582913
1.5487,0.016743,0.000000,0.000000,0.001690,0.0000,0.0000,0.0000,0.172495,-0.172495,0.000004,0.001059,-0.001125,0.9362,0.4209,0.3880,0.176408,-0.176408,0.000000,0.610524,-0.599786,0.598253,-0.612058,0.598253,-0.582913
1.5654,0.016746,0.000000,0.000000,0.001739,0.0000,0.0000,0.0000,0.170858,-0.170858,-0.000008,0.001109,-0.001114,0.9457,0.4674,0.3398,0.168738,-0.176408,0.000000,0.610524,-0.599786,0.598253,-0.613592,0.598253,-0.582913
1.5822,0.016747,0.000000,0.000000,0.001788,0.0000,0.0000,0.0000,0.168748,-0.168748,-0.000020,0.001049,-0.001102,0.9342,0.5136,0.3993,0.171806,-0.176408,0.000000,0.610524,-0.599786,0.599786,-0.613592,0.598253,-0.582913
1.5989,0.016748,0.000000,0.000000,0.001837,0.0000,0.0000,0.0000,0.166171,-0.166171,-0.000112,0.000922,-0.001065,0.8257,0.5251,0.3393,0.177942,-0.174874,0.000000,0.610524,-0.599786,0.601320,-0.613592,0.598253,-0.585981
1.6157,0.016751,0.000000,0.000000,0.001886,0.0000,0.0000,0.0000,0.163133,-0.163133,-0.000112,0.000922,-0.001065,0.8257,0.5251,0.3393,0.177942,-0.174874,0.000000,0.610524,-0.599786,0.601320,-0.613592,0.598253,-0.585981
1.6324,0.016745,0.000000,0.000000,0.001935,0.0000,0.0000,0.0000,0.159646,-0.159646,-0.000116,0.000991,-0.001057,0.8478,0.5745,0.2915,0.173340,-0.174874,0.000000,0.610524,-0.599786,0.601320,-0.615126,0.598253,-0.585981
1.6492,0.016744,0.000000,0.000000,0.001983,0.0000,0.0000,0.0000,0.155716,-0.155716,-0.000115,0.001017,-0.001021,0.7678,0.5686,0.2418,0.165670,-0.173340,0.000000,0.610524,-0.599786,0.601320,-0.616660,0.599786,-0.587515
1.6659,0.016706,0.000000,0.000000,0.002031,0.0000,0.0000,0.0000,0.151367,-0.151367,-0.000047,0.001006,-0.000988,0.6486,0.4840,0.3004,0.170272,-0.170272,0.000000,0.610524,-0.599786,0.601320,-0.616660,0.602854,-0.589049
1.6826,0.016749,0.000000,0.000000,0.002079,0.0000,0.0000,0.0000,0.146587,-0.146587,-0.000094,0.001001,-0.000941,0.5341,0.4750,0.1854,0.167204,-0.168738,0.000000,0.610524,-0.599786,0.601320,-0.618194,0.604388,-0.592117
1.6995,0.016841,0.000000,0.000000,0.002127,0.0000,0.0000,0.0000,0.141372,-0.141372,-0.000145,0.001034,-0.000873,0.4682,0.3429,0.3061,0.159534,-0.165670,0.000000,0.613592,-0.599786,0.601320,-0.618194,0.607456,-0.595185
1.7162,0.016741,0.000000,0.000000,0.002175,0.0000,0.0000,0.0000,0.135797,-0.135797,-0.000145,0.001034,-0.000873,0.4682,0.3429,0.3061,0.159534,-0.165670,0.000000,0.613592,-0.599786,0.601320,-0.618194,0.607456,-0.595185
1.7331,0.016915,0.000000,0.000000,0.002223,0.0000,0.0000,0.0000,0.129781,-0.129781,-0.000223,0.001174,-0.000784,0.4190,0.3249,0.2936,0.150330,-0.156466,0.000000,0.616660,-0.599786,0.601320,-0.621262,0.610524,-0.598253
1.7499,0.016742,0.000000,0.000000,0.002270,0.0000,0.0000,0.0000,0.123467,-0.123467,-0.000215,0.001160,-0.000793,0.4241,0.3268,0.2949,0.150330,-0.156466,0.000000,0.616660,-0.599786,0.601320,-0.621262,0.610524,-0.598253
1.7666,0.016748,0.000000,0.000000,0.002316,0.0000,0.0000,0.0000,0.116809,-0.116809,-0.000246,0.001306,-0.000598,0.3675,0.0920,0.2958,0.138058,-0.144194,0.000000,0.622796,-0.602854,0.601320,-0.624330,0.616660,-0.604388
1.7834,0.016750,0.000000,0.000000,0.002363,0.0000,0.0000,0.0000,0.109826,-0.109826,-0.000217,0.001403,-0.000497,0.3951,0.0147,0.1872,0.131922,-0.134990,0.000000,0.625864,-0.605922,0.601320,-0.627398,0.619728,-0.607456
1.8001,0.016762,0.000000,0.000000,0.002409,0.0000,0.0000,0.0000,0.102534,-0.102534,-0.000248,0.001521,-0.000399,0.3753,-0.0440,0.1445,0.124252,-0.125786,0.000000,0.628932,-0.607456,0.601320,-0.630466,0.622796,-0.610524
1.8169,0.016743,0.000000,0.000000,0.002455,0.0000,0.0000,0.0000,0.094967,-0.094967,-0.000248,0.001521,-0.000399,0.3753,-0.0440,0.1445,0.124252,-0.125786,0.000000,0.628932,-0.607456,0.601320,-0.630466,0.622796,-0.610524
1.8336,0.016757,0.000000,0.000000,0.002501,0.0000,0.0000,0.0000,0.087130,-0.087130,-0.000208,0.001565,-0.000300,0.3882,-0.1900,0.1830,0.113515,-0.118117,0.001534,0.632000,-0.610524,0.601320,-0.632000,0.625864,-0.613592
1.8504,0.016759,0.000000,0.000000,0.002546,0.0000,0.0000,0.0000,0.079051,-0.079051,-0.000208,0.001565,-0.000300,0.3882,-0.1900,0.1830,0.113515,-0.118117,0.001534,0.632000,-0.610524,0.601320,-0.632000,0.625864,-0.613592
1.8672,0.016778,0.000000,0.000000,0.002591,0.0000,0.0000,0.0000,0.070743,-0.070743,-0.000208,0.001565,-0.000300,0.3882,-0.1900,0.1830,0.113515,-0.118117,0.001534,0.632000,-0.610524,0.601320,-0.632000,0.625864,-0.613592
1.8839,0.016764,0.000000,0.000000,0.002636,0.0000,0.0000,0.0000,0.062246,-0.062246,-0.000208,0.001565,-0.000300,0.3882,-0.1900,0.1830,0.113515,-0.118117,0.001534,0.632000,-0.610524,0.601320,-0.632000,0.625864,-0.613592
1.9007,0.016759,0.000000,0.000000,0.002681,0.0000,0.0000,0.0000,0.053578,-0.053578,-0.000197,0.001539,-0.000115,0.5899,-0.0570,0.1000,0.099709,-0.101243,0.000000,0.636602,-0.616660,0.607456,-0.636602,0.627398,-0.615126
1.9176,0.016934,0.000000,0.000000,0.002726,0.0000,0.0000,0.0000,0.044670,-0.044670,-0.000169,0.001415,-0.000096,0.5856,-0.0042,0.1540,0.102777,-0.102777,0.000000,0.636602,-0.618194,0.610524,-0.636602,0.627398,-0.615126
1.9344,0.016777,0.000000,0.000000,0.002770,0.0000,0.0000,0.0000,0.035719,-0.035719,-0.000169,0.001415,-0.000096,0.5856,-0.0042,0.1540,0.102777,-0.102777,0.000000,0.636602,-0.618194,0.610524,-0.636602,0.627398,-0.615126
1.9511,0.016742,0.000000,0.000000,0.002813,0.0000,0.0000,0.0000,0.026688,-0.026688,-0.000185,0.001372,-0.000084,0.5754,0.0412,0.2031,0.098175,-0.099709,0.000000,0.636602,-0.618194,0.612058,-0.636602,0.627398,-0.615126
1.9679,0.016757,0.000000,0.000000,0.002857,0.0000,0.0000,0.0000,0.017575,-0.017575,-0.000265,0.001251,-0.000035,0.5933,0.1740,0.4174,0.079767,-0.084369,0.000000,0.638136,-0.618194,0.616660,-0.636602,0.627398,-0.615126
1.9846,0.016742,0.000000,0.000000,0.002900,0.0000,0.0000,0.0000,0.008422,-0.008422,-0.000271,0.001176,0.000009,0.6570,0.2112,0.5051,0.056757,-0.059825,0.000000,0.639670,-0.619728,0.619728,-0.636602,0.627398,-0.615126
2.0027,0.018101,0.000000,0.000000,0.002946,0.0000,0.0000,0.0000,-0.001500,0.001500,-0.000338,0.001001,0.000079,0.6560,0.2917,0.6066,0.036816,-0.036816,0.000000,0.641204,-0.621262,0.624330,-0.636602,0.627398,-0.616660
2.0195,0.016748,0.000000,0.000000,0.002988,0.0000,0.0000,0.0000,-0.010676,0.010676,-0.000290,0.000948,0.000133,0.6831,0.3002,0.7611,0.018408,-0.016874,0.000000,0.642738,-0.622796,0.627398,-0.636602,0.628932,-0.616660
2.0366,0.017124,0.000000,0.000000,0.003031,0.0000,0.0000,0.0000,-0.020028,0.020028,-0.000227,0.000881,0.000202,0.7078,0.2138,0.7454,0.004602,-0.007670,0.000000,0.644272,-0.625864,0.628932,-0.636602,0.630466,-0.618194
2.0534,0.016745,0.000000,0.000000,0.003073,0.0000,0.0000,0.0000,-0.029117,0.029117,-0.000227,0.000881,0.000202,0.7078,0.2138,0.7454,0.004602,-0.007670,0.000000,0.644272,-0.625864,0.628932,-0.636602,0.630466,-0.618194
2.0706,0.017230,0.000000,0.000000,0.003115,0.0000,0.0000,0.0000,-0.038385,0.038385,-0.000110,0.000785,0.000414,0.8088,0.2715,0.9690,0.000000,-0.004602,0.000000,0.648874,-0.632000,0.636602,-0.639670,0.635068,-0.619728
2.0873,0.016745,0.000000,0.000000,0.003156,0.0000,0.0000,0.0000,-0.047284,0.047284,-0.000122,0.000795,0.000392,0.7982,0.2654,0.9456,0.000000,-0.004602,0.000000,0.648874,-0.632000,0.636602,-0.639670,0.635068,-0.619728
2.1041,0.016752,0.000000,0.000000,0.003197,0.0000,0.0000,0.0000,-0.056057,0.056057,-0.000148,0.000795,0.000491,0.7988,0.3663,0.9494,-0.003068,0.006136,0.000000,0.650408,-0.633534,0.639670,-0.642738,0.636602,-0.621262
2.1208,0.016745,0.000000,0.000000,0.003237,0.0000,0.0000,0.0000,-0.064670,0.064670,-0.000064,0.001004,0.000576,0.8799,0.2225,0.8389,-0.038350,0.041417,0.000000,0.653476,-0.636602,0.638136,-0.645806,0.639670,-0.622796
2.1376,0.016753,0.000000,0.000000,0.003277,0.0000,0.0000,0.0000,-0.073108,0.073108,-0.000064,0.001004,0.000576,0.8799,0.2225,0.8389,-0.038350,0.041417,0.000000,0.653476,-0.636602,0.638136,-0.645806,0.639670,-0.622796
2.1543,0.016743,0.000000,0.000000,0.003317,0.0000,0.0000,0.0000,-0.081340,0.081340,-0.000100,0.001096,0.000626,0.8925,0.3397,0.9063,-0.058291,0.056757,0.000000,0.655010,-0.636602,0.639670,-0.648874,0.641204,-0.622796
2.1711,0.016754,0.000000,0.000000,0.003356,0.0000,0.0000,0.0000,-0.089351,0.089351,-0.000110,0.001255,0.000631,0.9236,0.3777,0.7338,-0.064427,0.061359,0.000000,0.655010,-0.636602,0.638136,-0.651942,0.641204,-0.622796
2.1878,0.016746,0.000000,0.000000,0.003395,0.0000,0.0000,0.0000,-0.097112,0.097112,-0.000067,0.001312,0.000654,0.8930,0.3901,0.7516,-0.062893,0.067495,0.000000,0.655010,-0.636602,0.638136,-0.653476,0.642738,-0.622796
2.2046,0.016755,0.000000,0.000000,0.003433,0.0000,0.0000,0.0000,-0.104607,0.104607,-0.000098,0.001307,0.000676,0.8962,0.4889,0.7501,-0.072097,0.081301,0.000000,0.655010,-0.636602,0.639670,-0.655010,0.642738,-0.622796
2.2213,0.016744,0.000000,0.000000,0.003471,0.0000,0.0000,0.0000,-0.111808,0.111808,-0.000111,0.001364,0.000685,0.9067,0.5286,0.7831,-0.090505,0.098175,0.001534,0.655010,-0.636602,0.639670,-0.656544,0.642738,-0.622796
2.2381,0.016758,0.000000,0.000000,0.003509,0.0000,0.0000,0.0000,-0.118706,0.118706,-0.000111,0.001364,0.000685,0.9067,0.5286,0.7831,-0.090505,0.098175,0.001534,0.655010,-0.636602,0.639670,-0.656544,0.642738,-0.622796
2.2548,0.016744,0.000000,0.000000,0.003546,0.0000,0.0000,0.0000,-0.125269,0.125269,-0.000108,0.001471,0.000682,0.9273,0.5242,0.5903,-0.110447,0.102777,0.000000,0.655010,-0.636602,0.638136,-0.658078,0.642738,-0.622796
2.2716,0.016752,0.000000,0.000000,0.003583,0.0000,0.0000,0.0000,-0.131489,0.131489,-0.000053,0.001443,0.000695,0.9633,0.4894,0.5461,-0.113515,0.102777,0.000000,0.655010,-0.638136,0.638136,-0.658078,0.642738,-0.622796
2.2883,0.016744,0.000000,0.000000,0.003620,0.0000,0.0000,0.0000,-0.137341,0.137341,-0.000031,0.001431,0.000730,0.9977,0.5578,0.4958,-0.111981,0.108913,0.000000,0.655010,-0.639670,0.639670,-0.659612,0.642738,-0.622796
2.3051,0.016749,0.000000,0.000000,0.003656,0.0000,0.0000,0.0000,-0.142815,0.142815,-0.000033,0.001545,0.000725,1.0157,0.5502,0.3904,-0.118117,0.122718,0.000000,0.655010,-0.639670,0.638136,-0.661146,0.642738,-0.622796
2.3218,0.016744,0.000000,0.000000,0.003691,0.0000,0.0000,0.0000,-0.147893,0.147893,0.000021,0.001484,0.000775,1.1279,0.5163,0.4019,-0.136524,0.138058,0.000000,0.656544,-0.642738,0.639670,-0.661146,0.642738,-0.622796
2.3386,0.016756,0.000000,0.000000,0.003727,0.0000,0.0000,0.0000,-0.152564,0.152564,0.000021,0.001484,0.000775,1.1279,0.5163,0.4019,-0.136524,0.138058,0.000000,0.656544,-0.642738,0.639670,-0.661146,0.642738,-0.622796
2.3553,0.016749,0.000000,0.000000,0.003762,0.0000,0.0000,0.0000,-0.156812,0.156812,0.000100,0.001491,0.000782,1.1160,0.5487,0.2346,-0.148796,0.141126,0.000000,0.655010,-0.644272,0.639670,-0.662680,0.642738,-0.622796
2.3721,0.016747,0.000000,0.000000,0.003796,0.0000,0.0000,0.0000,-0.160625,0.160625,0.000119,0.001443,0.000854,1.2313,0.6107,0.2529,-0.148796,0.141126,0.000000,0.656544,-0.647340,0.642738,-0.664214,0.642738,-0.622796
2.3888,0.016743,0.000000,0.000000,0.003830,0.0000,0.0000,0.0000,-0.163992,0.163992,0.000242,0.001490,0.000954,1.2672,0.6519,0.3061,-0.148796,0.147262,0.000000,0.658078,-0.650408,0.645806,-0.667282,0.645806,-0.622796
2.4056,0.016748,0.000000,0.000000,0.003864,0.0000,0.0000,0.0000,-0.166907,0.166907,0.000258,0.001470,0.001016,1.3014,0.7144,0.4118,-0.156466,0.161068,0.000000,0.659612,-0.651942,0.648874,-0.668816,0.647340,-0.622796
2.4223,0.016742,0.000000,0.000000,0.003897,0.0000,0.0000,0.0000,-0.169358,0.169358,0.000283,0.001538,0.001116,1.4330,0.7745,0.4572,-0.168738,0.162602,0.000000,0.662680,-0.655010,0.651942,-0.671884,0.648874,-0.622796
2.4390,0.016753,0.000000,0.000000,0.003930,0.0000,0.0000,0.0000,-0.171343,0.171343,0.000283,0.001538,0.001116,1.4330,0.7745,0.4572,-0.168738,0.162602,0.000000,0.662680,-0.655010,0.651942,-0.671884,0.648874,-0.622796
2.4558,0.016743,0.000000,0.000000,0.003962,0.0000,0.0000,0.0000,-0.172852,0.172852,0.000265,0.001477,0.001191,1.4080,0.8176,0.5967,-0.167204,0.159534,0.001534,0.664214,-0.656544,0.655010,-0.673418,0.650408,-0.624330
2.4725,0.016722,0.000000,0.000000,0.003994,0.0000,0.0000,0.0000,-0.173883,0.173883,0.000269,0.001470,0.001243,1.4486,0.9766,0.5372,-0.164136,0.167204,0.001534,0.664214,-0.658078,0.658078,-0.676486,0.650408,-0.624330
2.4893,0.016749,0.000000,0.000000,0.004025,0.0000,0.0000,0.0000,-0.174434,0.174434,0.000286,0.001446,0.001298,1.3571,0.9115,0.6216,-0.171806,0.173340,0.000000,0.665748,-0.658078,0.659612,-0.676486,0.653476,-0.625864
2.5060,0.016755,0.000000,0.000000,0.004056,0.0000,0.0000,0.0000,-0.174502,0.174502,0.000185,0.001474,0.001364,1.4527,0.9369,0.6054,-0.177942,0.173340,0.000000,0.668816,-0.659612,0.661146,-0.678020,0.653476,-0.627398
2.5228,0.016748,0.000000,0.000000,0.004087,0.0000,0.0000,0.0000,-0.174087,0.174087,0.000110,0.001505,0.001418,1.3660,0.9018,0.6394,-0.176408,0.171806,0.001534,0.670350,-0.659612,0.661146,-0.679553,0.655010,-0.630466
2.5395,0.016753,0.000000,0.000000,0.004117,0.0000,0.0000,0.0000,-0.173189,0.173189,0.000110,0.001505,0.001418,1.3660,0.9018,0.6394,-0.176408,0.171806,0.001534,0.670350,-0.659612,0.661146,-0.679553,0.655010,-0.630466
2.5563,0.016738,0.000000,0.000000,0.004146,0.0000,0.0000,0.0000,-0.171814,0.171814,0.000036,0.001649,0.001434,1.3205,0.8755,0.5566,-0.176408,0.174874,0.000000,0.671884,-0.658078,0.659612,-0.681087,0.656544,-0.632000
2.5730,0.016746,0.000000,0.000000,0.004176,0.0000,0.0000,0.0000,-0.169963,0.169963,-0.000113,0.001691,0.001503,1.3349,0.7685,0.6684,-0.176408,0.173340,0.000000,0.676486,-0.658078,0.659612,-0.681087,0.658078,-0.635068
2.5897,0.016740,0.000000,0.000000,0.004204,0.0000,0.0000,0.0000,-0.167642,0.167642,-0.000322,0.001705,0.001567,1.2950,0.7493,0.5468,-0.176408,0.173340,0.000000,0.679553,-0.658078,0.659612,-0.682621,0.658078,-0.639670
2.6065,0.016752,0.000000,0.000000,0.004233,0.0000,0.0000,0.0000,-0.164855,0.164855,-0.000385,0.001704,0.001584,1.2990,0.7202,0.5601,-0.174874,0.171806,0.000000,0.681087,-0.658078,0.659612,-0.682621,0.658078,-0.641204
2.6234,0.016855,0.000000,0.000000,0.004260,0.0000,0.0000,0.0000,-0.161591,0.161591,-0.000450,0.001762,0.001665,1.3087,0.6418,0.5035,-0.174874,0.171806,0.000000,0.684155,-0.659612,0.659612,-0.684155,0.659612,-0.644272
2.6401,0.016777,0.000000,0.000000,0.004288,0.0000,0.0000,0.0000,-0.157892,0.157892,-0.000450,0.001762,0.001665,1.3087,0.6418,0.5035,-0.174874,0.171806,0.000000,0.684155,-0.659612,0.659612,-0.684155,0.659612,-0.644272
2.6569,0.016738,0.000000,0.000000,0.004315,0.0000,0.0000,0.0000,-0.153765,0.153765,-0.000528,0.001757,0.001680,1.3075,0.6188,0.5100,-0.174874,0.171806,0.000000,0.685689,-0.659612,0.659612,-0.684155,0.659612,-0.645806
2.6736,0.016743,0.000000,0.000000,0.004341,0.0000,0.0000,0.0000,-0.149211,0.149211,-0.000506,0.001733,0.001704,1.2209,0.5709,0.5087,-0.174874,0.171806,0.000000,0.685689,-0.659612,0.659612,-0.684155,0.661146,-0.647340
2.6904,0.016742,0.000000,0.000000,0.004367,0.0000,0.0000,0.0000,-0.144244,0.144244,-0.000537,0.001719,0.001737,1.2674,0.5097,0.4536,-0.171806,0.170272,0.000000,0.687223,-0.661146,0.659612,-0.684155,0.661146,-0.648874
2.7071,0.016757,0.000000,0.000000,0.004392,0.0000,0.0000,0.0000,-0.138874,0.138874,-0.000580,0.001760,0.001744,1.3107,0.5021,0.6035,-0.165670,0.168738,0.001534,0.688757,-0.661146,0.659612,-0.684155,0.661146,-0.648874
2.7243,0.017191,0.000000,0.000000,0.004418,0.0000,0.0000,0.0000,-0.132965,0.132965,-0.000531,0.001684,0.001769,1.3327,0.5177,0.5095,-0.153398,0.165670,0.000000,0.688757,-0.662680,0.661146,-0.684155,0.661146,-0.648874
2.7411,0.016763,0.000000,0.000000,0.004442,0.0000,0.0000,0.0000,-0.126829,0.126829,-0.000531,0.001684,0.001769,1.3327,0.5177,0.5095,-0.153398,0.165670,0.000000,0.688757,-0.662680,0.661146,-0.684155,0.661146,-0.648874
2.7578,0.016742,0.000000,0.000000,0.004466,0.0000,0.0000,0.0000,-0.120350,0.120350,-0.000551,0.001717,0.001814,1.4164,0.5662,0.5112,-0.144194,0.156466,0.000000,0.690291,-0.664214,0.662680,-0.685689,0.661146,-0.648874
2.7746,0.016749,0.000000,0.000000,0.004490,0.0000,0.0000,0.0000,-0.113536,0.113536,-0.000522,0.001667,0.001881,1.5201,0.6259,0.5125,-0.139592,0.145728,0.000000,0.691825,-0.667282,0.665748,-0.687223,0.661146,-0.648874
2.7913,0.016751,0.000000,0.000000,0.004512,0.0000,0.0000,0.0000,-0.106406,0.106406,-0.000329,0.001672,0.001947,1.5082,0.5822,0.5110,-0.131922,0.138058,0.000000,0.691825,-0.670350,0.667282,-0.688757,0.664214,-0.648874
2.8081,0.016755,0.000000,0.000000,0.004535,0.0000,0.0000,0.0000,-0.098980,0.098980,-0.000237,0.001670,0.001965,1.5087,0.5186,0.5101,-0.124252,0.127320,0.000000,0.691825,-0.671884,0.667282,-0.688757,0.665748,-0.648874
2.8248,0.016755,0.000000,0.000000,0.004557,0.0000,0.0000,0.0000,-0.091280,0.091280,-0.000205,0.001711,0.001986,1.5572,0.5392,0.3984,-0.119651,0.116583,0.000000,0.691825,-0.673418,0.667282,-0.690291,0.665748,-0.648874
2.8416,0.016758,0.000000,0.000000,0.004578,0.0000,0.0000,0.0000,-0.083325,0.083325,-0.000205,0.001711,0.001986,1.5572,0.5392,0.3984,-0.119651,0.116583,0.000000,0.691825,-0.673418,0.667282,-0.690291,0.665748,-0.648874
2.8583,0.016747,0.000000,0.000000,0.004599,0.0000,0.0000,0.0000,-0.075145,0.075145,-0.000152,0.001723,0.001996,1.5140,0.5039,0.4652,-0.110447,0.107379,0.000000,0.691825,-0.673418,0.667282,-0.690291,0.667282,-0.648874
2.8751,0.016751,0.000000,0.000000,0.004619,0.0000,0.0000,0.0000,-0.066755,0.066755,-0.000045,0.001720,0.002019,1.5178,0.4393,0.4572,-0.102777,0.098175,0.000000,0.691825,-0.674952,0.667282,-0.690291,0.668816,-0.648874
2.8922,0.017111,0.000000,0.000000,0.004640,0.0000,0.0000,0.0000,-0.057994,0.057994,-0.000015,0.001762,0.002039,1.5656,0.4600,0.3460,-0.092039,0.090505,0.000000,0.691825,-0.676486,0.667282,-0.691825,0.668816,-0.648874
2.9090,0.016800,0.000000,0.000000,0.004659,0.0000,0.0000,0.0000,-0.049229,0.049229,-0.000015,0.001762,0.002039,1.5656,0.4600,0.3460,-0.092039,0.090505,0.000000,0.691825,-0.676486,0.667282,-0.691825,0.668816,-0.648874
2.9258,0.016780,0.000000,0.000000,0.004678,0.0000,0.0000,0.0000,-0.040337,0.040337,-0.000015,0.001762,0.002039,1.5656,0.4600,0.3460,-0.092039,0.090505,0.000000,0.691825,-0.676486,0.667282,-0.691825,0.668816,-0.648874
2.9425,0.016757,0.000000,0.000000,0.004696,0.0000,0.0000,0.0000,-0.031346,0.031346,-0.000015,0.001762,0.002039,1.5656,0.4600,0.3460,-0.092039,0.090505,0.000000,0.691825,-0.676486,0.667282,-0.691825,0.668816,-0.648874
2.9593,0.016757,0.000000,0.000000,0.004714,0.0000,0.0000,0.0000,-0.022268,0.022268,0.000179,0.001871,0.002107,1.5807,0.4190,0.2440,-0.062893,0.062893,0.000000,0.691825,-0.679553,0.667282,-0.694893,0.671884,-0.648874
2.9761,0.016788,0.000000,0.000000,0.004732,0.0000,0.0000,0.0000,-0.013112,0.013112,0.000159,0.001860,0.002100,1.5790,0.4232,0.2546,-0.069029,0.065961,0.000000,0.691825,-0.679553,0.667282,-0.694893,0.671884,-0.648874
2.9928,0.016746,0.000000,0.000000,0.004748,0.0000,0.0000,0.0000,-0.003942,0.003942,0.000159,0.001860,0.002100,1.5790,0.4232,0.2546,-0.069029,0.065961,0.000000,0.691825,-0.679553,0.667282,-0.694893,0.671884,-0.648874
3.0096,0.016757,0.000000,0.000000,0.004764,0.0000,0.0000,0.0000,0.005246,-0.005246,0.000160,0.001861,0.002100,1.5792,0.4229,0.2538,-0.069029,0.064427,0.000000,0.691825,-0.679553,0.667282,-0.694893,0.671884,-0.648874
3.0263,0.016751,0.000000,0.000000,0.004780,0.0000,0.0000,0.0000,0.014415,-0.014415,0.000160,0.001861,0.002100,1.5792,0.4229,0.2538,-0.053689,0.053689,0.000000,0.691825,-0.679553,0.667282,-0.694893,0.671884,-0.648874
3.0431,0.016761,0.000000,0.000000,0.004795,0.0000,0.0000,0.0000,0.023550,-0.023550,0.000117,0.001902,0.002111,1.6276,0.4092,0.3100,-0.029146,0.035282,0.000000,0.693359,-0.679553,0.667282,-0.694893,0.671884,-0.648874
3.0598,0.016747,0.000000,0.000000,0.004810,0.0000,0.0000,0.0000,0.032611,-0.032611,0.000121,0.001897,0.002110,1.6225,0.4106,0.3041,-0.007670,0.016874,0.000000,0.693359,-0.679553,0.667282,-0.694893,0.671884,-0.648874
3.0766,0.016725,0.000000,0.000000,0.004824,0.0000,0.0000,0.0000,0.041571,-0.041571,0.000121,0.001897,0.002110,1.6225,0.4106,0.3041,-0.007670,0.016874,0.000000,0.693359,-0.679553,0.667282,-0.694893,0.671884,-0.648874
3.0933,0.016749,0.000000,0.000000,0.004838,0.0000,0.0000,0.0000,0.050429,-0.050429,0.000165,0.001857,0.002099,1.5747,0.4241,0.2484,0.012272,-0.003068,0.000000,0.691825,-0.679553,0.667282,-0.694893,0.671884,-0.648874
3.1101,0.016759,0.000000,0.000000,0.004851,0.0000,0.0000,0.0000,0.059152,-0.059152,0.000160,0.001861,0.002100,1.5797,0.4227,0.2542,0.026078,-0.032214,0.000000,0.691825,-0.679553,0.667282,-0.694893,0.671884,-0.648874
3.1268,0.016746,0.000000,0.000000,0.004863,0.0000,0.0000,0.0000,0.067705,-0.067705,0.000160,0.001861,0.002100,1.5797,0.4227,0.2542,0.030680,-0.039884,0.000000,0.691825,-0.679553,0.667282,-0.694893,0.671884,-0.648874
3.1436,0.016774,0.000000,0.000000,0.004875,0.0000,0.0000,0.0000,0.076084,-0.076084,0.000160,0.001861,0.002100,1.5797,0.4227,0.2542,0.044485,-0.050621,0.000000,0.691825,-0.679553,0.667282,-0.694893,0.671884,-0.648874
3.1603,0.016746,0.000000,0.000000,0.004887,0.0000,0.0000,0.0000,0.084239,-0.084239,0.000117,0.001902,0.002111,1.6275,0.4092,0.3099,0.061359,-0.059825,0.000000,0.693359,-0.679553,0.667282,-0.694893,0.671884,-0.648874
3.1771,0.016754,0.000000,0.000000,0.004897,0.0000,0.0000,0.0000,0.092164,-0.092164,0.000117,0.001902,0.002111,1.6275,0.4092,0.3099,0.061359,-0.059825,0.000000,0.693359,-0.679553,0.667282,-0.694893,0.671884,-0.648874
3.1938,0.016746,0.000000,0.000000,0.004908,0.0000,0.0000,0.0000,0.099830,-0.099830,0.000121,0.001897,0.002110,1.6225,0.4106,0.3041,0.076699,-0.070563,0.000000,0.693359,-0.679553,0.667282,-0.694893,0.671884,-0.648874
3.2106,0.016751,0.000000,0.000000,0.004918,0.0000,0.0000,0.0000,0.107222,-0.107222,0.000165,0.001857,0.002099,1.5747,0.4241,0.2484,0.084369,-0.079767,0.000000,0.691825,-0.679553,0.667282,-0.694893,0.671884,-0.648874
3.2273,0.016743,0.000000,0.000000,0.004927,0.0000,0.0000,0.0000,0.114314,-0.114314,0.000116,0.001902,0.002111,1.6280,0.4090,0.3105,0.084369,-0.085903,0.000000,0.693359,-0.679553,0.667282,-0.694893,0.671884,-0.648874
3.2441,0.016744,0.000000,0.000000,0.004935,0.0000,0.0000,0.0000,0.121091,-0.121091,0.000121,0.001897,0.002110,1.6225,0.4106,0.3041,0.090505,-0.095107,0.000000,0.693359,-0.679553,0.667282,-0.694893,0.671884,-0.648874
3.2608,0.016746,0.000000,0.000000,0.004944,0.0000,0.0000,0.0000,0.127533,-0.127533,0.000121,0.001897,0.002110,1.6225,0.4106,0.3041,0.107379,-0.107379,0.000000,0.693359,-0.679553,0.667282,-0.694893,0.671884,-0.648874
3.2776,0.016755,0.000000,0.000000,0.004951,0.0000,0.0000,0.0000,0.133625,-0.133625,0.000121,0.001897,0.002110,1.6225,0.4106,0.3041,0.107379,-0.107379,0.000000,0.693359,-0.679553,0.667282,-0.694893,0.671884,-0.648874
3.2943,0.016750,0.000000,0.000000,0.004958,0.0000,0.0000,0.0000,0.139346,-0.139346,0.000077,0.001938,0.002121,1.6714,0.3969,0.3611,0.122718,-0.116583,0.000000,0.694893,-0.679553,0.667282,-0.694893,0.671884,-0.648874
3.3111,0.016748,0.000000,0.000000,0.004965,0.0000,0.0000,0.0000,0.144680,-0.144680,0.000038,0.001975,0.002130,1.7146,0.3848,0.4116,0.127320,-0.125786,0.000000,0.696427,-0.679553,0.667282,-0.694893,0.671884,-0.648874
3.3278,0.016741,0.000000,0.000000,0.004971,0.0000,0.0000,0.0000,0.149611,-0.149611,0.000042,0.001971,0.002129,1.7101,0.3861,0.4063,0.124252,-0.133456,0.000000,0.696427,-0.679553,0.667282,-0.694893,0.671884,-0.648874
3.3446,0.016748,0.000000,0.000000,0.004976,0.0000,0.0000,0.0000,0.154131,-0.154131,-0.000049,0.002053,0.002151,1.8070,0.3590,0.6077,0.130388,-0.139592,0.001534,0.699495,-0.679553,0.667282,-0.694893,0.671884,-0.648874
3.3613,0.016744,0.000000,0.000000,0.004981,0.0000,0.0000,0.0000,0.158224,-0.158224,-0.000081,0.002085,0.002159,1.8450,0.3486,0.5644,0.144194,-0.148796,0.000000,0.701029,-0.679553,0.667282,-0.694893,0.671884,-0.648874
3.3781,0.016754,0.000000,0.000000,0.004985,0.0000,0.0000,0.0000,0.161880,-0.161880,-0.000081,0.002085,0.002159,1.8450,0.3486,0.5644,0.144194,-0.148796,0.000000,0.701029,-0.679553,0.667282,-0.694893,0.671884,-0.648874
3.3948,0.016752,0.000000,0.000000,0.004989,0.0000,0.0000,0.0000,0.165088,-0.165088,-0.000165,0.002164,0.002179,1.9373,0.3231,0.6729,0.156466,-0.154932,0.000000,0.704097,-0.679553,0.667282,-0.694893,0.671884,-0.648874
3.4115,0.016746,0.000000,0.000000,0.004992,0.0000,0.0000,0.0000,0.167838,-0.167838,-0.000156,0.002155,0.002177,1.9277,0.3258,0.6616,0.156466,-0.156466,0.000000,0.704097,-0.679553,0.667282,-0.694893,0.671884,-0.648874
3.4283,0.016749,0.000000,0.000000,0.004995,0.0000,0.0000,0.0000,0.170124,-0.170124,-0.000245,0.002238,0.002198,2.0248,0.2992,0.7759,0.151864,-0.158000,0.000000,0.707165,-0.679553,0.667282,-0.694893,0.671884,-0.648874
3.4450,0.016744,0.000000,0.000000,0.004997,0.0000,0.0000,0.0000,0.171938,-0.171938,-0.000236,0.002229,0.002196,2.0146,0.3020,0.7640,0.156466,-0.162602,0.000000,0.707165,-0.679553,0.667282,-0.694893,0.671884,-0.648874
3.4619,0.016864,0.000000,0.000000,0.004999,0.0000,0.0000,0.0000,0.173285,-0.173285,-0.000237,0.002230,0.002196,2.0160,0.3016,0.7657,0.168738,-0.170272,0.000000,0.707165,-0.679553,0.667282,-0.694893,0.671884,-0.648874
3.4787,0.016746,0.000000,0.000000,0.005000,0.0000,0.0000,0.0000,0.174141,-0.174141,-0.000237,0.002230,0.002196,2.0160,0.3016,0.7657,0.168738,-0.170272,0.000000,0.707165,-0.679553,0.667282,-0.694893,0.671884,-0.648874
3.4954,0.016743,0.000000,0.000000,0.005000,0.0000,0.0000,0.0000,0.174515,-0.174515,-0.000237,0.002230,0.002196,2.0160,0.3016,0.7657,0.176408,-0.173340,0.000000,0.707165,-0.679553,0.667282,-0.694893,0.671884,-0.648874
3.5121,0.016747,0.000000,0.000000,0.005000,0.0000,0.0000,0.0000,0.174406,-0.174406,-0.000237,0.002230,0.002196,2.0160,0.3016,0.7657,0.173340,-0.173340,0.000000,0.707165,-0.679553,0.667282,-0.694893,0.671884,-0.648874
3.5289,0.016745,0.000000,0.000000,0.004999,0.0000,0.0000,0.0000,0.173815,-0.173815,-0.000237,0.002230,0.002196,2.0160,0.3016,0.7657,0.167204,-0.173340,0.000000,0.707165,-0.679553,0.667282,-0.694893,0.671884,-0.648874
3.5456,0.016744,0.000000,0.000000,0.004998,0.0000,0.0000,0.0000,0.172743,-0.172743,-0.000194,0.002304,0.002218,1.9888,0.3179,0.7647,0.171806,-0.174874,0.000000,0.707165,-0.679553,0.667282,-0.696427,0.673418,-0.648874
3.5627,0.017030,0.000000,0.000000,0.004996,0.0000,0.0000,0.0000,0.171162,-0.171162,-0.000085,0.002328,0.002239,1.9158,0.2507,0.8754,0.177942,-0.176408,0.000000,0.707165,-0.679553,0.667282,-0.696427,0.676486,-0.648874
3.5794,0.016741,0.000000,0.000000,0.004994,0.0000,0.0000,0.0000,0.169131,-0.169131,-0.000085,0.002328,0.002239,1.9158,0.2507,0.8754,0.177942,-0.176408,0.000000,0.707165,-0.679553,0.667282,-0.696427,0.676486,-0.648874
3.5961,0.016743,0.000000,0.000000,0.004991,0.0000,0.0000,0.0000,0.166632,-0.166632,-0.000057,0.002400,0.002259,1.8968,0.2739,0.9514,0.174874,-0.176408,0.001534,0.707165,-0.679553,0.667282,-0.697961,0.678020,-0.648874
3.6129,0.016746,0.000000,0.000000,0.004987,0.0000,0.0000,0.0000,0.163671,-0.163671,-0.000014,0.002467,0.002279,1.8720,0.2877,0.8644,0.167204,-0.174874,0.000000,0.707165,-0.679553,0.667282,-0.699495,0.679553,-0.648874
3.6296,0.016743,0.000000,0.000000,0.004983,0.0000,0.0000,0.0000,0.160258,-0.160258,0.000025,0.002534,0.002299,1.8479,0.3025,0.8640,0.170272,-0.171806,0.000000,0.707165,-0.679553,0.667282,-0.701029,0.681087,-0.648874
3.6464,0.016745,0.000000,0.000000,0.004979,0.0000,0.0000,0.0000,0.156402,-0.156402,0.000120,0.002617,0.002330,1.7860,0.2845,0.9192,0.170272,-0.170272,0.000000,0.707165,-0.679553,0.667282,-0.702563,0.684155,-0.648874
3.6631,0.016753,0.000000,0.000000,0.004974,0.0000,0.0000,0.0000,0.152110,-0.152110,0.000153,0.002683,0.002348,1.7658,0.3026,0.9131,0.164136,-0.168738,0.000000,0.707165,-0.679553,0.667282,-0.704097,0.685689,-0.648874
3.6799,0.016742,0.000000,0.000000,0.004968,0.0000,0.0000,0.0000,0.147401,-0.147401,0.000153,0.002683,0.002348,1.7658,0.3026,0.9131,0.164136,-0.168738,0.000000,0.707165,-0.679553,0.667282,-0.704097,0.685689,-0.648874
3.6966,0.016745,0.000000,0.000000,0.004962,0.0000,0.0000,0.0000,0.142283,-0.142283,0.000150,0.002676,0.002346,1.7679,0.3007,0.9138,0.161068,-0.168738,0.000000,0.707165,-0.679553,0.667282,-0.704097,0.685689,-0.648874
3.7134,0.016742,0.000000,0.000000,0.004955,0.0000,0.0000,0.0000,0.136772,-0.136772,0.000136,0.002735,0.002357,1.7786,0.3497,0.8578,0.154932,-0.164136,0.000000,0.707165,-0.679553,0.667282,-0.705631,0.685689,-0.648874
3.7301,0.016742,0.000000,0.000000,0.004948,0.0000,0.0000,0.0000,0.130883,-0.130883,0.000137,0.002729,0.002355,1.7775,0.3446,0.8636,0.147262,-0.156466,0.000000,0.707165,-0.679553,0.667282,-0.705631,0.685689,-0.648874
3.7468,0.016744,0.000000,0.000000,0.004940,0.0000,0.0000,0.0000,0.124631,-0.124631,0.000137,0.002729,0.002355,1.7775,0.3446,0.8636,0.141126,-0.147262,0.000000,0.707165,-0.679553,0.667282,-0.705631,0.685689,-0.648874
3.7636,0.016750,0.000000,0.000000,0.004932,0.0000,0.0000,0.0000,0.118032,-0.118032,0.000137,0.002729,0.002355,1.7775,0.3446,0.8636,0.134990,-0.141126,0.000000,0.707165,-0.679553,0.667282,-0.707165,0.685689,-0.648874
3.7804,0.016761,0.000000,0.000000,0.004923,0.0000,0.0000,0.0000,0.111102,-0.111102,0.000123,0.002788,0.002366,1.7885,0.3939,0.8070,0.134990,-0.141126,0.000000,0.707165,-0.679553,0.667282,-0.707165,0.685689,-0.648874
3.7971,0.016742,0.000000,0.000000,0.004913,0.0000,0.0000,0.0000,0.103872,-0.103872,0.000139,0.002724,0.002354,1.7764,0.3400,0.8689,0.127320,-0.133456,0.000000,0.707165,-0.679553,0.667282,-0.705631,0.685689,-0.648874
3.8138,0.016742,0.000000,0.000000,0.004903,0.0000,0.0000,0.0000,0.096354,-0.096354,0.000137,0.002730,0.002356,1.7777,0.3456,0.8624,0.121184,-0.125786,0.000000,0.707165,-0.679553,0.667282,-0.705631,0.685689,-0.648874
3.8306,0.016743,0.000000,0.000000,0.004893,0.0000,0.0000,0.0000,0.088570,-0.088570,0.000137,0.002730,0.002356,1.7777,0.3456,0.8624,0.113515,-0.119651,0.000000,0.707165,-0.679553,0.667282,-0.705631,0.685689,-0.648874
3.8473,0.016742,0.000000,0.000000,0.004881,0.0000,0.0000,0.0000,0.080541,-0.080541,0.000137,0.002730,0.002356,1.7777,0.3456,0.8624,0.105845,-0.111981,0.000000,0.707165,-0.679553,0.667282,-0.705631,0.685689,-0.648874
3.8641,0.016752,0.000000,0.000000,0.004870,0.0000,0.0000,0.0000,0.072285,-0.072285,0.000137,0.002730,0.002356,1.7777,0.3456,0.8624,0.095107,-0.102777,0.000000,0.707165,-0.679553,0.667282,-0.705631,0.685689,-0.648874
3.8808,0.016740,0.000000,0.000000,0.004858,0.0000,0.0000,0.0000,0.063834,-0.063834,0.000137,0.002730,0.002356,1.7777,0.3456,0.8624,0.095107,-0.102777,0.000000,0.707165,-0.679553,0.667282,-0.705631,0.685689,-0.648874
3.8976,0.016753,0.000000,0.000000,0.004845,0.0000,0.0000,0.0000,0.055200,-0.055200,0.000123,0.002788,0.002366,1.7885,0.3938,0.8072,0.084369,-0.090505,0.000000,0.707165,-0.679553,0.667282,-0.707165,0.685689,-0.648874
3.9143,0.016748,0.000000,0.000000,0.004832,0.0000,0.0000,0.0000,0.046416,-0.046416,0.000139,0.002724,0.002354,1.7764,0.3400,0.8689,0.075165,-0.078233,0.000000,0.707165,-0.679553,0.667282,-0.705631,0.685689,-0.648874
3.9311,0.016758,0.000000,0.000000,0.004818,0.0000,0.0000,0.0000,0.037498,-0.037498,0.000123,0.002789,0.002366,1.7886,0.3944,0.8065,0.065961,-0.065961,0.000000,0.707165,-0.679553,0.667282,-0.707165,0.685689,-0.648874
3.9478,0.016743,0.000000,0.000000,0.004803,0.0000,0.0000,0.0000,0.028484,-0.028484,0.000135,0.002724,0.002354,1.7764,0.3400,0.9568,0.055223,-0.052155,0.001534,0.707165,-0.679553,0.667282,-0.705631,0.685689,-0.648874
3.9647,0.016838,0.000000,0.000000,0.004788,0.0000,0.0000,0.0000,0.019340,-0.019340,0.000135,0.002724,0.002354,1.7764,0.3400,0.9568,0.055223,-0.052155,0.001534,0.707165,-0.679553,0.667282,-0.705631,0.685689,-0.648874
3.9815,0.016859,0.000000,0.000000,0.004773,0.0000,0.0000,0.0000,0.010131,-0.010131,0.000135,0.002724,0.002354,1.7764,0.3400,0.9568,0.055223,-0.052155,0.001534,0.707165,-0.679553,0.667282,-0.705631,0.685689,-0.648874
3.9983,0.016752,0.000000,0.000000,0.004757,0.0000,0.0000,0.0000,0.000951,-0.000951,0.000135,0.002724,0.002354,1.7764,0.3400,0.9568,0.055223,-0.052155,0.001534,0.707165,-0.679553,0.667282,-0.705631,0.685689,-0.648874
4.0150,0.016745,0.000000,0.000000,0.004740,0.0000,0.0000,0.0000,-0.008227,0.008227,0.000137,0.002730,0.002356,1.7777,0.3456,0.8624,0.030680,-0.036816,0.000000,0.707165,-0.679553,0.667282,-0.705631,0.685689,-0.648874
4.0318,0.016755,0.000000,0.000000,0.004723,0.0000,0.0000,0.0000,-0.017388,0.017388,0.000137,0.002730,0.002356,1.7777,0.3456,0.8624,0.035282,-0.036816,0.000000,0.707165,-0.679553,0.667282,-0.705631,0.685689,-0.648874
4.0485,0.016742,0.000000,0.000000,0.004706,0.0000,0.0000,0.0000,-0.026494,0.026494,0.000137,0.002730,0.002356,1.7777,0.3456,0.8624,0.029146,-0.030680,0.000000,0.707165,-0.679553,0.667282,-0.705631,0.685689,-0.648874
4.0653,0.016757,0.000000,0.000000,0.004688,0.0000,0.0000,0.0000,-0.035535,0.035535,0.000137,0.002730,0.002356,1.7777,0.3456,0.8624,0.012272,-0.010738,0.000000,0.707165,-0.679553,0.667282,-0.705631,0.685689,-0.648874
4.0820,0.016744,0.000000,0.000000,0.004669,0.0000,0.0000,0.0000,-0.044470,0.044470,0.000137,0.002730,0.002356,1.7777,0.3456,0.8624,-0.013806,0.015340,0.000000,0.707165,-0.679553,0.667282,-0.705631,0.685689,-0.648874
4.0988,0.016764,0.000000,0.000000,0.004650,0.0000,0.0000,0.0000,-0.053293,0.053293,0.000137,0.002730,0.002356,1.7777,0.3456,0.8624,-0.013806,0.015340,0.000000,0.707165,-0.679553,0.667282,-0.705631,0.685689,-0.648874
4.1155,0.016746,0.000000,0.000000,0.004631,0.0000,0.0000,0.0000,-0.061959,0.061959,0.000137,0.002730,0.002356,1.7777,0.3456,0.8624,-0.038350,0.036816,0.000000,0.707165,-0.679553,0.667282,-0.705631,0.685689,-0.648874
4.1323,0.016756,0.000000,0.000000,0.004611,0.0000,0.0000,0.0000,-0.070458,0.070458,0.000137,0.002730,0.002356,1.7777,0.3456,0.8624,-0.047553,0.044485,0.000000,0.707165,-0.679553,0.667282,-0.705631,0.685689,-0.648874
4.1490,0.016747,0.000000,0.000000,0.004590,0.0000,0.0000,0.0000,-0.078758,0.078758,0.000137,0.002730,0.002356,1.7777,0.3456,0.8624,-0.042951,0.041417,0.000000,0.707165,-0.679553,0.667282,-0.705631,0.685689,-0.648874
4.1658,0.016756,0.000000,0.000000,0.004569,0.0000,0.0000,0.0000,-0.086844,0.086844,0.000123,0.002788,0.002366,1.7885,0.3938,0.8072,-0.049087,0.046019,0.000000,0.707165,-0.679553,0.667282,-0.707165,0.685689,-0.648874
4.1825,0.016771,0.000000,0.000000,0.004547,0.0000,0.0000,0.0000,-0.094696,0.094696,0.000139,0.002724,0.002354,1.7764,0.3400,0.8689,-0.067495,0.062893,0.000000,0.707165,-0.679553,0.667282,-0.705631,0.685689,-0.648874
4.1993,0.016761,0.000000,0.000000,0.004525,0.0000,0.0000,0.0000,-0.102281,0.102281,0.000139,0.002724,0.002354,1.7764,0.3400,0.8689,-0.067495,0.062893,0.000000,0.707165,-0.679553,0.667282,-0.705631,0.685689,-0.648874
4.2161,0.016746,0.000000,0.000000,0.004502,0.0000,0.0000,0.0000,-0.109576,0.109576,0.000137,0.002730,0.002356,1.7777,0.3456,0.8624,-0.085903,0.081301,0.000000,0.707165,-0.679553,0.667282,-0.705631,0.685689,-0.648874
4.2328,0.016754,0.000000,0.000000,0.004479,0.0000,0.0000,0.0000,-0.116571,0.116571,0.000119,0.002788,0.002366,1.7885,0.3938,0.8950,-0.095107,0.096641,0.001534,0.707165,-0.679553,0.667282,-0.707165,0.685689,-0.648874
4.2496,0.016750,0.000000,0.000000,0.004456,0.0000,0.0000,0.0000,-0.123242,0.123242,0.000125,0.002782,0.002365,1.7874,0.3887,0.8129,-0.096641,0.096641,0.000000,0.707165,-0.679553,0.667282,-0.707165,0.685689,-0.648874
4.2663,0.016763,0.000000,0.000000,0.004432,0.0000,0.0000,0.0000,-0.129577,0.129577,0.000139,0.002724,0.002355,1.7765,0.3406,0.8683,-0.102777,0.098175,0.000000,0.707165,-0.679553,0.667282,-0.705631,0.685689,-0.648874
4.2831,0.016748,0.000000,0.000000,0.004407,0.0000,0.0000,0.0000,-0.135547,0.135547,0.000137,0.002730,0.002356,1.7777,0.3456,0.8625,-0.116583,0.113515,0.000000,0.707165,-0.679553,0.667282,-0.705631,0.685689,-0.648874
4.2998,0.016756,0.000000,0.000000,0.004382,0.0000,0.0000,0.0000,-0.141144,0.141144,0.000137,0.002730,0.002356,1.7777,0.3456,0.8625,-0.116583,0.113515,0.000000,0.707165,-0.679553,0.667282,-0.705631,0.685689,-0.648874
4.3166,0.016745,0.000000,0.000000,0.004356,0.0000,0.0000,0.0000,-0.146347,0.146347,0.000137,0.002730,0.002356,1.7777,0.3456,0.8625,-0.133456,0.130388,0.000000,0.707165,-0.679553,0.667282,-0.705631,0.685689,-0.648874
4.3334,0.016812,0.000000,0.000000,0.004330,0.0000,0.0000,0.0000,-0.151164,0.151164,0.000123,0.002788,0.002366,1.7885,0.3938,0.8072,-0.136524,0.133456,0.000000,0.707165,-0.679553,0.667282,-0.707165,0.685689,-0.648874
4.3501,0.016757,0.000000,0.000000,0.004303,0.0000,0.0000,0.0000,-0.155545,0.155545,0.000135,0.002724,0.002354,1.7764,0.3400,0.9568,-0.134990,0.130388,0.001534,0.707165,-0.679553,0.667282,-0.705631,0.685689,-0.648874
4.3669,0.016765,0.000000,0.000000,0.004276,0.0000,0.0000,0.0000,-0.159497,0.159497,0.000137,0.002730,0.002356,1.7777,0.3456,0.8624,-0.138058,0.134990,0.000000,0.707165,-0.679553,0.667282,-0.705631,0.685689,-0.648874
4.3837,0.016749,0.000000,0.000000,0.004249,0.0000,0.0000,0.0000,-0.163004,0.163004,0.000137,0.002730,0.002356,1.7777,0.3456,0.8624,-0.138058,0.134990,0.000000,0.707165,-0.679553,0.667282,-0.705631,0.685689,-0.648874
4.4004,0.016746,0.000000,0.000000,0.004221,0.0000,0.0000,0.0000,-0.166058,0.166058,0.000137,0.002730,0.002356,1.7777,0.3456,0.8624,-0.153398,0.150330,0.000000,0.707165,-0.679553,0.667282,-0.705631,0.685689,-0.648874
4.4171,0.016745,0.000000,0.000000,0.004193,0.0000,0.0000,0.0000,-0.168654,0.168654,0.000137,0.002730,0.002356,1.7777,0.3456,0.8624,-0.164136,0.159534,0.000000,0.707165,-0.679553,0.667282,-0.705631,0.685689,-0.648874
4.4339,0.016744,0.000000,0.000000,0.004164,0.0000,0.0000,0.0000,-0.170782,0.170782,0.000137,0.002730,0.002356,1.7777,0.3456,0.8624,-0.162602,0.158000,0.000000,0.707165,-0.679553,0.667282,-0.705631,0.685689,-0.648874
4.4506,0.016744,0.000000,0.000000,0.004134,0.0000,0.0000,0.0000,-0.172438,0.172438,0.000137,0.002730,0.002356,1.7777,0.3456,0.8624,-0.161068,0.156466,0.000000,0.707165,-0.679553,0.667282,-0.705631,0.685689,-0.648874
4.4679,0.017288,0.000000,0.000000,0.004103,0.0000,0.0000,0.0000,-0.173647,0.173647,0.000137,0.002730,0.002356,1.7777,0.3456,0.8624,-0.170272,0.165670,0.000000,0.707165,-0.679553,0.667282,-0.705631,0.685689,-0.648874
4.4847,0.016742,0.000000,0.000000,0.004073,0.0000,0.0000,0.0000,-0.174330,0.174330,0.000137,0.002730,0.002356,1.7777,0.3456,0.8624,-0.170272,0.165670,0.000000,0.707165,-0.679553,0.667282,-0.705631,0.685689,-0.648874
4.5014,0.016749,0.000000,0.000000,0.004042,0.0000,0.0000,0.0000,-0.174531,0.174531,0.000123,0.002788,0.002366,1.7885,0.3938,0.8072,-0.176408,0.173340,0.000000,0.707165,-0.679553,0.667282,-0.707165,0.685689,-0.648874
4.5182,0.016745,0.000000,0.000000,0.004011,0.0000,0.0000,0.0000,-0.174249,0.174249,0.000139,0.002724,0.002354,1.7764,0.3400,0.8689,-0.174874,0.173340,0.000000,0.707165,-0.679553,0.667282,-0.705631,0.685689,-0.648874
4.5350,0.016834,0.000000,0.000000,0.003979,0.0000,0.0000,0.0000,-0.173479,0.173479,0.000123,0.002789,0.002366,1.7886,0.3944,0.8065,-0.173340,0.170272,0.000000,0.707165,-0.679553,0.667282,-0.707165,0.685689,-0.648874
4.5517,0.016753,0.000000,0.000000,0.003947,0.0000,0.0000,0.0000,-0.172232,0.172232,0.000139,0.002724,0.002354,1.7764,0.3400,0.8689,-0.176408,0.173340,0.000000,0.707165,-0.679553,0.667282,-0.705631,0.685689,-0.648874
