t,loop_dt,cmd_x,cmd_y,cmd_z,cmd_roll,cmd_pitch,cmd_yaw,cmd_ant_l,cmd_ant_r,pres_x,pres_y,pres_z,pres_roll,pres_pitch,pres_yaw,pres_ant_l,pres_ant_r,pres_j0,pres_j1,pres_j2,pres_j3,pres_j4,pres_j5,pres_j6
0.0000,0.000001,-0.000357,0.000802,-0.002468,0.4726,0.4221,0.2913,-0.003068,0.000000,-0.000357,0.000802,-0.002468,0.4726,0.4221,0.2913,-0.003068,0.000000,0.000000,0.578311,-0.562971,0.567573,-0.579845,0.567573,-0.561437
0.0170,0.016995,-0.000351,0.000788,-0.002426,0.4646,0.4149,0.2863,-0.003016,0.000000,-0.000357,0.000802,-0.002468,0.4726,0.4221,0.2913,-0.003068,0.000000,0.000000,0.578311,-0.562971,0.567573,-0.579845,0.567573,-0.561437
0.0348,0.017796,-0.000344,0.000774,-0.002382,0.4561,0.4074,0.2811,-0.002961,0.000000,-0.000357,0.000802,-0.002468,0.4726,0.4221,0.2913,-0.003068,0.000000,0.000000,0.578311,-0.562971,0.567573,-0.579845,0.567573,-0.561437
0.0516,0.016783,-0.000338,0.000761,-0.002340,0.4482,0.4003,0.2762,-0.002910,0.000000,-0.000357,0.000802,-0.002468,0.4726,0.4221,0.2913,0.001534,0.000000,0.000000,0.578311,-0.562971,0.567573,-0.579845,0.567573,-0.561437
0.0683,0.016755,-0.000333,0.000747,-0.002299,0.4403,0.3933,0.2713,-0.002858,0.000000,-0.000357,0.000802,-0.002468,0.4726,0.4221,0.2913,0.003068,0.000000,0.000000,0.578311,-0.562971,0.567573,-0.579845,0.567573,-0.561437
0.0851,0.016750,-0.000327,0.000734,-0.002258,0.4323,0.3862,0.2664,-0.002807,0.000000,-0.000357,0.000802,-0.002468,0.4726,0.4221,0.2913,0.003068,0.000000,0.000000,0.578311,-0.562971,0.567573,-0.579845,0.567573,-0.561437
0.1018,0.016743,-0.000321,0.000720,-0.002216,0.4244,0.3792,0.2615,-0.002756,0.000000,-0.000370,0.000748,-0.002455,0.4620,0.4729,0.3443,-0.003068,0.000000,0.000000,0.578311,-0.562971,0.569107,-0.579845,0.567573,-0.561437
0.1186,0.016742,-0.000315,0.000707,-0.002175,0.4165,0.3722,0.2566,-0.002704,0.000000,-0.000355,0.000808,-0.002469,0.4739,0.4162,0.2852,-0.004602,0.000000,0.000000,0.578311,-0.562971,0.567573,-0.579845,0.567573,-0.561437
0.1353,0.016749,-0.000309,0.000693,-0.002134,0.4086,0.3651,0.2517,-0.002653,0.000000,-0.000235,0.000840,-0.002505,0.5224,0.4728,0.3445,0.000000,0.000000,0.000000,0.576777,-0.562971,0.567573,-0.579845,0.567573,-0.558369
0.1521,0.016799,-0.000303,0.000680,-0.002092,0.4006,0.3580,0.2468,-0.002601,0.000000,-0.000086,0.000836,-0.002551,0.5175,0.5335,0.3377,0.004602,0.000000,0.000000,0.573709,-0.562971,0.567573,-0.579845,0.567573,-0.555301
0.1689,0.016750,-0.000297,0.000666,-0.002051,0.3927,0.3510,0.2419,-0.002550,0.000000,-0.000086,0.000836,-0.002551,0.5175,0.5335,0.3377,0.004602,0.000000,0.000000,0.573709,-0.562971,0.567573,-0.579845,0.567573,-0.555301
0.1856,0.016748,-0.000291,0.000653,-0.002010,0.3847,0.3439,0.2370,-0.002499,0.000000,-0.000101,0.000837,-0.002546,0.5180,0.5272,0.3384,-0.001534,0.000000,0.000000,0.573709,-0.562971,0.567573,-0.579845,0.567573,-0.555301
0.2024,0.016743,-0.000285,0.000640,-0.001968,0.3768,0.3369,0.2321,-0.002447,0.000000,-0.000059,0.000798,-0.002559,0.4683,0.5437,0.2847,-0.006136,0.000000,0.000000,0.572175,-0.562971,0.567573,-0.579845,0.567573,-0.555301
0.2191,0.016743,-0.000279,0.000626,-0.001927,0.3689,0.3298,0.2272,-0.002396,0.000000,-0.000023,0.000840,-0.002570,0.5233,0.5594,0.3437,-0.001534,0.000000,0.000000,0.572175,-0.562971,0.567573,-0.579845,0.567573,-0.553767
0.2358,0.016743,-0.000273,0.000613,-0.001886,0.3610,0.3228,0.2223,-0.002344,0.000000,-0.000067,0.000797,-0.002556,0.4677,0.5404,0.2842,0.003068,0.000000,0.000000,0.572175,-0.562971,0.567573,-0.579845,0.567573,-0.555301
0.2526,0.016748,-0.000267,0.000599,-0.001844,0.3531,0.3157,0.2174,-0.002293,0.000000,-0.000062,0.000802,-0.002557,0.4735,0.5424,0.2904,0.000000,0.000000,0.000000,0.572175,-0.562971,0.567573,-0.579845,0.567573,-0.555301
0.2693,0.016746,-0.000261,0.000586,-0.001803,0.3451,0.3086,0.2125,-0.002242,0.000000,-0.000062,0.000802,-0.002557,0.4735,0.5424,0.2904,0.000000,0.000000,0.000000,0.572175,-0.562971,0.567573,-0.579845,0.567573,-0.555301
0.2861,0.016742,-0.000255,0.000572,-0.001762,0.3372,0.3016,0.2076,-0.002190,0.000000,-0.000104,0.000840,-0.002545,0.5226,0.5262,0.3434,-0.006136,0.000000,0.000000,0.573709,-0.562971,0.567573,-0.579845,0.567573,-0.555301
0.3028,0.016743,-0.000249,0.000559,-0.001720,0.3293,0.2945,0.2027,-0.002139,0.000000,-0.000099,0.000836,-0.002547,0.5175,0.5279,0.3379,-0.001534,0.000000,0.000000,0.573709,-0.562971,0.567573,-0.579845,0.567573,-0.555301
0.3196,0.016751,-0.000243,0.000546,-0.001679,0.3214,0.2875,0.1979,-0.002088,0.000000,-0.000099,0.000836,-0.002547,0.5175,0.5279,0.3379,0.003068,0.000000,0.000000,0.573709,-0.562971,0.567573,-0.579845,0.567573,-0.555301
0.3363,0.016753,-0.000237,0.000532,-0.001638,0.3134,0.2804,0.1930,-0.002036,0.000000,-0.000059,0.000798,-0.002558,0.4683,0.5436,0.2848,0.001534,0.000000,0.000000,0.572175,-0.562971,0.567573,-0.579845,0.567573,-0.555301
0.3531,0.016760,-0.000231,0.000519,-0.001596,0.3055,0.2733,0.1881,-0.001985,0.000000,-0.000104,0.000841,-0.002545,0.5232,0.5261,0.3440,-0.007670,0.000000,0.000000,0.573709,-0.562971,0.567573,-0.579845,0.567573,-0.555301
0.3698,0.016743,-0.000225,0.000505,-0.001555,0.2976,0.2663,0.1832,-0.001933,0.000000,-0.000104,0.000841,-0.002545,0.5232,0.5261,0.3440,-0.007670,0.000000,0.000000,0.573709,-0.562971,0.567573,-0.579845,0.567573,-0.555301
0.3866,0.016750,-0.000219,0.000492,-0.001514,0.2897,0.2592,0.1783,-0.001882,0.000000,-0.000099,0.000836,-0.002547,0.5174,0.5280,0.3378,-0.003068,0.000000,0.000000,0.573709,-0.562971,0.567573,-0.579845,0.567573,-0.555301
0.4033,0.016741,-0.000213,0.000478,-0.001472,0.2818,0.2522,0.1734,-0.001831,0.000000,-0.000099,0.000836,-0.002547,0.5174,0.5280,0.3378,0.004602,0.000000,0.000000,0.573709,-0.562971,0.567573,-0.579845,0.567573,-0.555301
0.4202,0.016839,-0.000207,0.000465,-0.001431,0.2738,0.2450,0.1685,-0.001779,0.000000,-0.000099,0.000836,-0.002547,0.5174,0.5280,0.3378,0.003068,0.000000,0.000000,0.573709,-0.562971,0.567573,-0.579845,0.567573,-0.555301
0.4369,0.016747,-0.000201,0.000452,-0.001390,0.2659,0.2380,0.1636,-0.001728,0.000000,-0.000059,0.000798,-0.002558,0.4683,0.5436,0.2848,-0.006136,0.000000,0.000000,0.572175,-0.562971,0.567573,-0.579845,0.567573,-0.555301
0.4541,0.017187,-0.000195,0.000438,-0.001347,0.2578,0.2307,0.1586,-0.001675,0.000000,-0.000059,0.000798,-0.002558,0.4683,0.5436,0.2848,-0.003068,0.000000,0.000000,0.573709,-0.562971,0.567573,-0.579845,0.567573,-0.555301
0.4708,0.016756,-0.000189,0.000424,-0.001306,0.2498,0.2237,0.1537,-0.001623,0.000000,-0.000104,0.000841,-0.002545,0.5232,0.5261,0.3440,-0.003068,0.000000,0.000000,0.573709,-0.562971,0.567573,-0.579845,0.567573,-0.555301
0.4876,0.016742,-0.000183,0.000411,-0.001265,0.2419,0.2166,0.1489,-0.001572,0.000000,-0.000099,0.000836,-0.002547,0.5174,0.5280,0.3378,0.004602,0.000000,0.000000,0.573709,-0.562971,0.567573,-0.579845,0.567573,-0.555301
0.5043,0.016743,-0.000177,0.000397,-0.001223,0.2340,0.2095,0.1440,-0.001521,0.000000,-0.000099,0.000836,-0.002547,0.5174,0.5280,0.3378,0.001534,0.000000,0.000000,0.573709,-0.562971,0.567573,-0.579845,0.567573,-0.555301
0.5211,0.016744,-0.000171,0.000384,-0.001182,0.2261,0.2025,0.1391,-0.001469,0.000000,-0.000059,0.000798,-0.002558,0.4683,0.5436,0.2848,-0.006136,0.000000,0.000000,0.572175,-0.562971,0.567573,-0.579845,0.567573,-0.555301
0.5378,0.016745,-0.000165,0.000371,-0.001141,0.2182,0.1954,0.1342,-0.001418,0.000000,-0.000104,0.000841,-0.002545,0.5232,0.5261,0.3440,-0.003068,0.000000,0.000000,0.573709,-0.562971,0.567573,-0.579845,0.567573,-0.555301
0.5546,0.016760,-0.000159,0.000357,-0.001099,0.2103,0.1883,0.1293,-0.001367,0.000000,-0.000099,0.000836,-0.002547,0.5174,0.5280,0.3378,0.004602,0.000000,0.000000,0.573709,-0.562971,0.567573,-0.579845,0.567573,-0.555301
0.5713,0.016747,-0.000153,0.000344,-0.001058,0.2024,0.1812,0.1245,-0.001315,0.000000,-0.000099,0.000836,-0.002547,0.5174,0.5280,0.3378,0.004602,0.000000,0.000000,0.573709,-0.562971,0.567573,-0.579845,0.567573,-0.555301
0.5881,0.016744,-0.000147,0.000330,-0.001017,0.1944,0.1742,0.1196,-0.001264,0.000000,-0.000099,0.000836,-0.002547,0.5174,0.5280,0.3378,0.003068,0.000000,0.000000,0.573709,-0.562971,0.567573,-0.579845,0.567573,-0.555301
0.6048,0.016744,-0.000141,0.000317,-0.000975,0.1865,0.1671,0.1147,-0.001212,0.000000,-0.000099,0.000836,-0.002547,0.5174,0.5280,0.3378,-0.003068,0.000000,0.000000,0.573709,-0.562971,0.567573,-0.579845,0.567573,-0.555301
0.6216,0.016748,-0.000135,0.000303,-0.000934,0.1786,0.1600,0.1098,-0.001161,0.000000,-0.000099,0.000836,-0.002547,0.5174,0.5280,0.3378,0.004602,0.000000,0.000000,0.573709,-0.562971,0.567573,-0.579845,0.567573,-0.555301
0.6383,0.016748,-0.000129,0.000290,-0.000893,0.1707,0.1530,0.1050,-0.001110,0.000000,-0.000099,0.000836,-0.002547,0.5174,0.5280,0.3378,0.003068,0.000000,0.000000,0.573709,-0.562971,0.567573,-0.579845,0.567573,-0.555301
0.6551,0.016780,-0.000123,0.000277,-0.000851,0.1628,0.1459,0.1001,-0.001058,0.000000,-0.000099,0.000836,-0.002547,0.5174,0.5280,0.3378,-0.004602,0.000000,0.000000,0.573709,-0.562971,0.567573,-0.579845,0.567573,-0.555301
0.6718,0.016744,-0.000117,0.000263,-0.000810,0.1549,0.1388,0.0952,-0.001007,0.000000,-0.000099,0.000836,-0.002547,0.5174,0.5280,0.3378,-0.004602,0.000000,0.000000,0.573709,-0.562971,0.567573,-0.579845,0.567573,-0.555301
0.6886,0.016741,-0.000111,0.000250,-0.000769,0.1470,0.1317,0.0904,-0.000955,0.000000,-0.000099,0.000836,-0.002547,0.5174,0.5280,0.3378,-0.004602,0.000000,0.000000,0.573709,-0.562971,0.567573,-0.579845,0.567573,-0.555301
0.7053,0.016741,-0.000105,0.000236,-0.000727,0.1391,0.1246,0.0855,-0.000904,0.000000,-0.000099,0.000836,-0.002547,0.5174,0.5280,0.3378,0.004602,0.000000,0.000000,0.573709,-0.562971,0.567573,-0.579845,0.567573,-0.555301
0.7223,0.016936,-0.000099,0.000223,-0.000685,0.1311,0.1175,0.0806,-0.000852,0.000000,-0.000099,0.000836,-0.002547,0.5174,0.5280,0.3378,0.003068,0.000000,0.000000,0.573709,-0.562971,0.567573,-0.579845,0.567573,-0.555301
0.7390,0.016753,-0.000093,0.000209,-0.000644,0.1232,0.1104,0.0757,-0.000801,0.000000,-0.000099,0.000836,-0.002547,0.5174,0.5280,0.3378,-0.004602,0.000000,0.000000,0.573709,-0.562971,0.567573,-0.579845,0.567573,-0.555301
0.7557,0.016742,-0.000087,0.000196,-0.000603,0.1153,0.1033,0.0708,-0.000749,0.000000,-0.000140,0.000798,-0.002534,0.4683,0.5103,0.2851,-0.004602,0.000000,0.000000,0.573709,-0.562971,0.567573,-0.579845,0.567573,-0.556835
0.7725,0.016749,-0.000081,0.000182,-0.000561,0.1073,0.0963,0.0660,-0.000698,0.000000,-0.000140,0.000798,-0.002534,0.4683,0.5103,0.2851,-0.004602,0.000000,0.000000,0.573709,-0.562971,0.567573,-0.579845,0.567573,-0.556835
0.7892,0.016743,-0.000075,0.000169,-0.000520,0.0994,0.0892,0.0611,-0.000647,0.000000,-0.000095,0.000841,-0.002548,0.5232,0.5296,0.3439,0.001534,0.000000,0.000000,0.573709,-0.562971,0.567573,-0.579845,0.567573,-0.555301
0.8060,0.016755,-0.000069,0.000156,-0.000479,0.0915,0.0821,0.0563,-0.000595,0.000000,-0.000140,0.000798,-0.002534,0.4677,0.5102,0.2844,0.003068,0.000000,0.000000,0.573709,-0.562971,0.567573,-0.579845,0.567573,-0.556835
0.8227,0.016750,-0.000063,0.000142,-0.000437,0.0836,0.0750,0.0514,-0.000544,0.000000,-0.000136,0.000802,-0.002535,0.4735,0.5122,0.2906,-0.003068,0.000000,0.000000,0.573709,-0.562971,0.567573,-0.579845,0.567573,-0.556835
0.8395,0.016749,-0.000057,0.000129,-0.000396,0.0757,0.0679,0.0465,-0.000492,0.000000,-0.000136,0.000802,-0.002535,0.4735,0.5122,0.2906,-0.004602,0.000000,0.000000,0.573709,-0.562971,0.567573,-0.579845,0.567573,-0.556835
0.8570,0.017486,-0.000051,0.000115,-0.000353,0.0675,0.0605,0.0415,-0.000439,0.000000,-0.000136,0.000802,-0.002535,0.4735,0.5122,0.2906,0.001534,0.000000,0.000000,0.573709,-0.562971,0.567573,-0.579845,0.567573,-0.556835
0.8737,0.016759,-0.000045,0.000101,-0.000312,0.0596,0.0534,0.0366,-0.000387,0.000000,-0.000136,0.000802,-0.002535,0.4735,0.5122,0.2906,0.001534,0.000000,0.000000,0.573709,-0.562971,0.567573,-0.579845,0.567573,-0.556835
0.8905,0.016742,-0.000039,0.000088,-0.000270,0.0517,0.0464,0.0317,-0.000336,0.000000,-0.000136,0.000802,-0.002535,0.4735,0.5122,0.2906,0.003068,0.000000,0.000000,0.573709,-0.562971,0.567573,-0.579845,0.567573,-0.556835
0.9073,0.016860,-0.000033,0.000074,-0.000229,0.0437,0.0392,0.0269,-0.000284,0.000000,-0.000136,0.000802,-0.002535,0.4735,0.5122,0.2906,-0.001534,0.000000,0.000000,0.573709,-0.562971,0.567573,-0.579845,0.567573,-0.556835
0.9241,0.016732,-0.000027,0.000061,-0.000187,0.0358,0.0321,0.0220,-0.000233,0.000000,-0.000136,0.000802,-0.002535,0.4735,0.5122,0.2906,-0.004602,0.000000,0.000000,0.573709,-0.562971,0.567573,-0.579845,0.567573,-0.556835
0.9408,0.016760,-0.000021,0.000047,-0.000146,0.0279,0.0250,0.0171,-0.000182,0.000000,-0.000177,0.000840,-0.002523,0.5225,0.4961,0.3437,0.000000,0.000000,0.000000,0.575243,-0.562971,0.567573,-0.579845,0.567573,-0.556835
0.9576,0.016750,-0.000015,0.000034,-0.000105,0.0200,0.0180,0.0123,-0.000130,0.000000,-0.000173,0.000836,-0.002524,0.5174,0.4978,0.3381,0.003068,0.000000,0.000000,0.575243,-0.562971,0.567573,-0.579845,0.567573,-0.556835
0.9743,0.016762,-0.000009,0.000021,-0.000063,0.0121,0.0109,0.0074,-0.000079,0.000000,-0.000173,0.000836,-0.002524,0.5174,0.4978,0.3381,0.003068,0.000000,0.000000,0.575243,-0.562971,0.567573,-0.579845,0.567573,-0.556835
0.9911,0.016744,-0.000003,0.000007,-0.000022,0.0042,0.0038,0.0026,-0.000027,0.000000,-0.000173,0.000836,-0.002524,0.5174,0.4978,0.3381,-0.001534,0.000000,0.000000,0.575243,-0.562971,0.567573,-0.579845,0.567573,-0.556835
1.0078,0.016760,0.000000,0.000000,0.000025,0.0000,0.0000,0.0000,0.002151,-0.002151,-0.000173,0.000836,-0.002524,0.5174,0.4978,0.3381,-0.004602,0.000000,0.000000,0.575243,-0.562971,0.567573,-0.579845,0.567573,-0.556835
1.0246,0.016759,0.000000,0.000000,0.000077,0.0000,0.0000,0.0000,0.006739,-0.006739,-0.000173,0.000836,-0.002524,0.5174,0.4978,0.3381,-0.001534,0.000000,0.000000,0.575243,-0.562971,0.567573,-0.579845,0.567573,-0.556835
1.0414,0.016755,0.000000,0.000000,0.000130,0.0000,0.0000,0.0000,0.011307,-0.011307,-0.000173,0.000836,-0.002524,0.5174,0.4978,0.3381,0.004602,-0.001534,0.000000,0.575243,-0.562971,0.567573,-0.579845,0.567573,-0.556835
1.0582,0.016803,0.000000,0.000000,0.000183,0.0000,0.0000,0.0000,0.015857,-0.015857,-0.000173,0.000836,-0.002524,0.5174,0.4978,0.3381,0.004602,-0.001534,0.000000,0.575243,-0.562971,0.567573,-0.579845,0.567573,-0.556835
1.0750,0.016839,0.000000,0.000000,0.000236,0.0000,0.0000,0.0000,0.020372,-0.020372,-0.000173,0.000836,-0.002524,0.5174,0.4978,0.3381,0.004602,-0.001534,0.000000,0.575243,-0.562971,0.567573,-0.579845,0.567573,-0.556835
1.0918,0.016823,0.000000,0.000000,0.000288,0.0000,0.0000,0.0000,0.024827,-0.024827,-0.000173,0.000836,-0.002524,0.5174,0.4978,0.3381,0.004602,-0.001534,0.000000,0.575243,-0.562971,0.567573,-0.579845,0.567573,-0.556835
1.1086,0.016758,0.000000,0.000000,0.000341,0.0000,0.0000,0.0000,0.029194,-0.029194,-0.000173,0.000836,-0.002524,0.5174,0.4978,0.3381,0.004602,-0.001534,0.000000,0.575243,-0.562971,0.567573,-0.579845,0.567573,-0.556835
1.1253,0.016745,0.000000,0.000000,0.000393,0.0000,0.0000,0.0000,0.033478,-0.033478,-0.000173,0.000836,-0.002524,0.5174,0.4978,0.3381,0.010738,-0.006136,0.000000,0.575243,-0.562971,0.567573,-0.579845,0.567573,-0.556835
1.1421,0.016755,0.000000,0.000000,0.000446,0.0000,0.0000,0.0000,0.037672,-0.037672,-0.000173,0.000836,-0.002524,0.5174,0.4978,0.3381,0.007670,-0.006136,0.000000,0.575243,-0.562971,0.567573,-0.579845,0.567573,-0.556835
1.1588,0.016755,0.000000,0.000000,0.000498,0.0000,0.0000,0.0000,0.041761,-0.041761,-0.000173,0.000836,-0.002524,0.5174,0.4978,0.3381,0.000000,-0.007670,0.000000,0.575243,-0.562971,0.567573,-0.579845,0.567573,-0.556835
1.1756,0.016743,0.000000,0.000000,0.000550,0.0000,0.0000,0.0000,0.045732,-0.045732,-0.000173,0.000836,-0.002524,0.5174,0.4978,0.3381,0.004602,-0.012272,0.000000,0.575243,-0.562971,0.567573,-0.579845,0.567573,-0.556835
1.1923,0.016751,0.000000,0.000000,0.000603,0.0000,0.0000,0.0000,0.049578,-0.049578,-0.000173,0.000836,-0.002524,0.5174,0.4978,0.3381,0.019942,-0.023010,0.000000,0.575243,-0.562971,0.567573,-0.579845,0.567573,-0.556835
1.2091,0.016753,0.000000,0.000000,0.000655,0.0000,0.0000,0.0000,0.053288,-0.053288,-0.000173,0.000836,-0.002524,0.5174,0.4978,0.3381,0.019942,-0.023010,0.000000,0.575243,-0.562971,0.567573,-0.579845,0.567573,-0.556835
1.2258,0.016746,0.000000,0.000000,0.000707,0.0000,0.0000,0.0000,0.056848,-0.056848,-0.000227,0.000931,-0.002500,0.5783,0.5329,0.3390,0.038350,-0.035282,0.000000,0.576777,-0.562971,0.567573,-0.581379,0.567573,-0.556835
1.2426,0.016744,0.000000,0.000000,0.000759,0.0000,0.0000,0.0000,0.060251,-0.060251,-0.000276,0.001015,-0.002479,0.6323,0.5646,0.3393,0.050621,-0.046019,0.000000,0.578311,-0.562971,0.567573,-0.582913,0.567573,-0.556835
1.2593,0.016749,0.000000,0.000000,0.000811,0.0000,0.0000,0.0000,0.063487,-0.063487,-0.000325,0.001100,-0.002458,0.6871,0.5966,0.3396,0.050621,-0.050621,0.000000,0.579845,-0.562971,0.567573,-0.584447,0.567573,-0.556835
1.2762,0.016843,0.000000,0.000000,0.000863,0.0000,0.0000,0.0000,0.066565,-0.066565,-0.000415,0.001116,-0.002349,0.7711,0.6095,0.1804,0.046019,-0.052155,0.000000,0.582913,-0.566039,0.569107,-0.587515,0.567573,-0.559903
1.2929,0.016753,0.000000,0.000000,0.000915,0.0000,0.0000,0.0000,0.069442,-0.069442,-0.000415,0.001116,-0.002349,0.7711,0.6095,0.1804,0.046019,-0.052155,0.000000,0.582913,-0.566039,0.569107,-0.587515,0.567573,-0.559903
1.3097,0.016754,0.000000,0.000000,0.000967,0.0000,0.0000,0.0000,0.072126,-0.072126,-0.000405,0.001114,-0.002361,0.7623,0.6081,0.1970,0.046019,-0.052155,0.000000,0.582913,-0.566039,0.569107,-0.587515,0.567573,-0.559903
1.3264,0.016745,0.000000,0.000000,0.001018,0.0000,0.0000,0.0000,0.074609,-0.074609,-0.000503,0.001251,-0.002064,0.8737,0.6251,0.0894,0.069029,-0.065961,0.000000,0.590583,-0.572175,0.573709,-0.595185,0.572175,-0.566039
1.3432,0.016800,0.000000,0.000000,0.001070,0.0000,0.0000,0.0000,0.076893,-0.076893,-0.000440,0.001223,-0.001933,0.9008,0.5875,0.0472,0.073631,-0.069029,0.000000,0.593651,-0.576777,0.576777,-0.598253,0.575243,-0.569107
1.3603,0.017125,0.000000,0.000000,0.001122,0.0000,0.0000,0.0000,0.079001,-0.079001,-0.000380,0.001188,-0.001760,0.8475,0.5042,-0.0028,0.072097,-0.072097,0.000000,0.596719,-0.581379,0.579845,-0.601320,0.579845,-0.573709
1.3771,0.016801,0.000000,0.000000,0.001174,0.0000,0.0000,0.0000,0.080847,-0.080847,-0.000380,0.001188,-0.001760,0.8475,0.5042,-0.0028,0.070563,-0.073631,0.000000,0.599786,-0.584447,0.582913,-0.602854,0.582913,-0.576777
1.3939,0.016742,0.000000,0.000000,0.001225,0.0000,0.0000,0.0000,0.082462,-0.082462,-0.000374,0.001138,-0.001641,0.8417,0.4621,0.0563,0.070563,-0.073631,0.000000,0.599786,-0.584447,0.582913,-0.602854,0.582913,-0.576777
1.4106,0.016755,0.000000,0.000000,0.001276,0.0000,0.0000,0.0000,0.083850,-0.083850,-0.000321,0.001161,-0.001493,0.8024,0.4322,0.1036,0.073631,-0.075165,0.000000,0.602854,-0.587515,0.585981,-0.605922,0.587515,-0.579845
1.4274,0.016747,0.000000,0.000000,0.001327,0.0000,0.0000,0.0000,0.085006,-0.085006,-0.000232,0.001104,-0.001396,0.7951,0.4172,0.1525,0.082835,-0.075165,0.000000,0.604388,-0.590583,0.589049,-0.607456,0.590583,-0.581379
1.4442,0.016794,0.000000,0.000000,0.001377,0.0000,0.0000,0.0000,0.085928,-0.085928,-0.000213,0.000985,-0.001294,0.8132,0.4858,0.2020,0.084369,-0.075165,0.000000,0.605922,-0.593651,0.593651,-0.608990,0.592117,-0.582913
1.4609,0.016741,0.000000,0.000000,0.001428,0.0000,0.0000,0.0000,0.086610,-0.086610,-0.000189,0.001029,-0.001255,0.7328,0.3779,0.3045,0.079767,-0.075165,0.000000,0.607456,-0.593651,0.593651,-0.608990,0.595185,-0.584447
1.4777,0.016774,0.000000,0.000000,0.001478,0.0000,0.0000,0.0000,0.087052,-0.087052,-0.000287,0.001081,-0.001186,0.7515,0.4088,0.4026,0.081301,-0.076699,0.000000,0.610524,-0.593651,0.595185,-0.610524,0.596719,-0.585981
1.4944,0.016742,0.000000,0.000000,0.001528,0.0000,0.0000,0.0000,0.087253,-0.087253,-0.000287,0.001081,-0.001186,0.7515,0.4088,0.4026,0.081301,-0.076699,0.000000,0.610524,-0.593651,0.595185,-0.610524,0.596719,-0.585981
1.5112,0.016755,0.000000,0.000000,0.001578,0.0000,0.0000,0.0000,0.087212,-0.087212,-0.000167,0.001061,-0.001107,0.7885,0.5045,0.3384,0.087437,-0.078233,0.000000,0.610524,-0.596719,0.598253,-0.613592,0.598253,-0.585981
1.5279,0.016741,0.000000,0.000000,0.001628,0.0000,0.0000,0.0000,0.086931,-0.086931,-0.000097,0.000953,-0.001065,0.7631,0.5272,0.4537,0.088971,-0.081301,0.000000,0.610524,-0.598253,0.601320,-0.613592,0.599786,-0.585981
1.5447,0.016752,0.000000,0.000000,0.001678,0.0000,0.0000,0.0000,0.086408,-0.086408,0.000005,0.000964,-0.001044,0.7657,0.4556,0.4412,0.082835,-0.084369,0.000000,0.610524,-0.599786,0.601320,-0.613592,0.601320,-0.585981
1.5614,0.016754,0.000000,0.000000,0.001727,0.0000,0.0000,0.0000,0.085646,-0.085646,-0.000006,0.000963,-0.001046,0.7654,0.4631,0.4425,0.082835,-0.085903,0.000000,0.610524,-0.599786,0.601320,-0.613592,0.601320,-0.585981
1.5785,0.017054,0.000000,0.000000,0.001778,0.0000,0.0000,0.0000,0.084626,-0.084626,-0.000006,0.000963,-0.001046,0.7654,0.4631,0.4425,0.090505,-0.085903,0.000000,0.610524,-0.599786,0.601320,-0.613592,0.601320,-0.585981
1.5952,0.016742,0.000000,0.000000,0.001827,0.0000,0.0000,0.0000,0.083389,-0.083389,-0.000006,0.000963,-0.001046,0.7654,0.4631,0.4425,0.090505,-0.085903,0.000000,0.610524,-0.599786,0.601320,-0.613592,0.601320,-0.585981
1.6120,0.016750,0.000000,0.000000,0.001876,0.0000,0.0000,0.0000,0.081921,-0.081921,0.000104,0.000994,-0.001022,0.6877,0.3942,0.5501,0.087437,-0.085903,0.000000,0.610524,-0.599786,0.601320,-0.613592,0.604388,-0.585981
1.6287,0.016745,0.000000,0.000000,0.001924,0.0000,0.0000,0.0000,0.080226,-0.080226,0.000093,0.000991,-0.001025,0.6959,0.4014,0.5389,0.079767,-0.085903,0.000000,0.610524,-0.599786,0.601320,-0.613592,0.604388,-0.585981
1.6455,0.016768,0.000000,0.000000,0.001973,0.0000,0.0000,0.0000,0.078307,-0.078307,0.000094,0.000991,-0.001024,0.6948,0.4004,0.5405,0.082835,-0.085903,0.000000,0.610524,-0.599786,0.601320,-0.613592,0.604388,-0.585981
1.6622,0.016746,0.000000,0.000000,0.002021,0.0000,0.0000,0.0000,0.076173,-0.076173,0.000094,0.000991,-0.001024,0.6948,0.4004,0.5405,0.084369,-0.082835,0.000000,0.610524,-0.599786,0.601320,-0.613592,0.604388,-0.585981
1.6790,0.016765,0.000000,0.000000,0.002069,0.0000,0.0000,0.0000,0.073826,-0.073826,0.000094,0.000991,-0.001024,0.6948,0.4004,0.5405,0.082835,-0.078233,0.000000,0.610524,-0.599786,0.601320,-0.615126,0.604388,-0.585981
1.6958,0.016744,0.000000,0.000000,0.002117,0.0000,0.0000,0.0000,0.071278,-0.071278,0.000081,0.001047,-0.001013,0.7057,0.4514,0.4857,0.082835,-0.078233,0.000000,0.610524,-0.599786,0.601320,-0.615126,0.604388,-0.585981
1.7125,0.016720,0.000000,0.000000,0.002164,0.0000,0.0000,0.0000,0.068536,-0.068536,0.000069,0.001097,-0.001002,0.7152,0.4967,0.4372,0.075165,-0.075165,0.000000,0.610524,-0.599786,0.601320,-0.616660,0.604388,-0.585981
1.7292,0.016745,0.000000,0.000000,0.002212,0.0000,0.0000,0.0000,0.065601,-0.065601,0.000029,0.001053,-0.000990,0.6647,0.4747,0.3881,0.073631,-0.075165,0.000000,0.610524,-0.599786,0.601320,-0.616660,0.604388,-0.587515
1.7460,0.016754,0.000000,0.000000,0.002259,0.0000,0.0000,0.0000,0.062482,-0.062482,-0.000049,0.001090,-0.000930,0.5922,0.4438,0.3391,0.078233,-0.073631,0.000000,0.612058,-0.599786,0.601320,-0.618194,0.605922,-0.590583
1.7627,0.016744,0.000000,0.000000,0.002305,0.0000,0.0000,0.0000,0.059192,-0.059192,-0.000190,0.001159,-0.000876,0.5719,0.4982,0.1815,0.073631,-0.070563,0.000000,0.613592,-0.599786,0.601320,-0.621262,0.605922,-0.593651
1.7795,0.016777,0.000000,0.000000,0.002352,0.0000,0.0000,0.0000,0.055732,-0.055732,-0.000190,0.001159,-0.000876,0.5719,0.4982,0.1815,0.073631,-0.070563,0.000000,0.613592,-0.599786,0.601320,-0.621262,0.605922,-0.593651
1.7962,0.016743,0.000000,0.000000,0.002398,0.0000,0.0000,0.0000,0.052125,-0.052125,-0.000288,0.001216,-0.000785,0.7120,0.3921,0.0904,0.062893,-0.064427,0.000000,0.618194,-0.602854,0.601320,-0.622796,0.605922,-0.596719
1.8130,0.016752,0.000000,0.000000,0.002444,0.0000,0.0000,0.0000,0.048371,-0.048371,-0.000319,0.001284,-0.000636,0.6697,0.3848,-0.0635,0.055223,-0.059825,0.000000,0.621262,-0.605922,0.602854,-0.627398,0.608990,-0.601320
1.8297,0.016742,0.000000,0.000000,0.002490,0.0000,0.0000,0.0000,0.044485,-0.044485,-0.000345,0.001262,-0.000467,0.7126,0.3177,-0.1017,0.056757,-0.061359,0.000000,0.625864,-0.610524,0.605922,-0.630466,0.612058,-0.605922
1.8465,0.016761,0.000000,0.000000,0.002536,0.0000,0.0000,0.0000,0.040472,-0.040472,-0.000426,0.001235,-0.000314,0.7856,0.2908,-0.2064,0.059825,-0.058291,0.000000,0.630466,-0.615126,0.608990,-0.633534,0.613592,-0.610524
1.8632,0.016741,0.000000,0.000000,0.002581,0.0000,0.0000,0.0000,0.036352,-0.036352,-0.000446,0.001176,-0.000182,0.6401,0.2279,-0.0867,0.053689,-0.052155,0.000000,0.633534,-0.616660,0.612058,-0.635068,0.618194,-0.615126
1.8800,0.016758,0.000000,0.000000,0.002626,0.0000,0.0000,0.0000,0.032127,-0.032127,-0.000446,0.001176,-0.000182,0.6401,0.2279,-0.0867,0.053689,-0.052155,0.000000,0.633534,-0.616660,0.612058,-0.635068,0.618194,-0.615126
1.8967,0.016710,0.000000,0.000000,0.002670,0.0000,0.0000,0.0000,0.027825,-0.027825,-0.000389,0.001056,-0.000035,0.6714,0.2002,-0.0446,0.042951,-0.039884,0.000000,0.636602,-0.621262,0.616660,-0.636602,0.621262,-0.618194
1.9135,0.016749,0.000000,0.000000,0.002715,0.0000,0.0000,0.0000,0.023436,-0.023436,-0.000396,0.001069,0.000060,0.6672,0.2049,0.1155,0.035282,-0.036816,0.000000,0.639670,-0.622796,0.619728,-0.638136,0.624330,-0.619728
1.9302,0.016746,0.000000,0.000000,0.002759,0.0000,0.0000,0.0000,0.018984,-0.018984,-0.000244,0.000996,0.000136,0.6940,0.1531,0.2631,0.030680,-0.039884,0.000000,0.641204,-0.625864,0.622796,-0.638136,0.627398,-0.619728
1.9470,0.016758,0.000000,0.000000,0.002803,0.0000,0.0000,0.0000,0.014475,-0.014475,-0.000273,0.000981,0.000177,0.6038,0.2085,0.2477,0.029146,-0.036816,0.000000,0.641204,-0.625864,0.624330,-0.639670,0.628932,-0.621262
1.9638,0.016807,0.000000,0.000000,0.002846,0.0000,0.0000,0.0000,0.009913,-0.009913,-0.000105,0.000966,0.000210,0.6513,0.0989,0.1940,0.024544,-0.030680,0.000000,0.641204,-0.628932,0.624330,-0.639670,0.630466,-0.621262
1.9805,0.016764,0.000000,0.000000,0.002889,0.0000,0.0000,0.0000,0.005335,-0.005335,-0.000105,0.000966,0.000210,0.6513,0.0989,0.1940,0.024544,-0.030680,0.000000,0.641204,-0.628932,0.624330,-0.639670,0.630466,-0.621262
1.9973,0.016748,0.000000,0.000000,0.002932,0.0000,0.0000,0.0000,0.000747,-0.000747,-0.000067,0.000983,0.000219,0.6078,0.0765,0.2543,0.016874,-0.019942,0.000000,0.641204,-0.628932,0.624330,-0.639670,0.632000,-0.621262
2.0140,0.016758,0.000000,0.000000,0.002974,0.0000,0.0000,0.0000,-0.003846,0.003846,-0.000084,0.000959,0.000267,0.5250,0.1289,0.2481,0.010738,-0.009204,0.000000,0.641204,-0.628932,0.625864,-0.641204,0.633534,-0.622796
2.0308,0.016758,0.000000,0.000000,0.003017,0.0000,0.0000,0.0000,-0.008429,0.008429,-0.000053,0.000978,0.000298,0.4953,0.1902,0.3036,0.007670,-0.007670,0.000000,0.641204,-0.628932,0.627398,-0.642738,0.635068,-0.622796
2.0475,0.016757,0.000000,0.000000,0.003058,0.0000,0.0000,0.0000,-0.012987,0.012987,-0.000083,0.001089,0.000318,0.5200,0.2839,0.1878,0.006136,-0.009204,0.000000,0.641204,-0.628932,0.627398,-0.645806,0.635068,-0.622796
2.0643,0.016749,0.000000,0.000000,0.003100,0.0000,0.0000,0.0000,-0.017508,0.017508,-0.000094,0.001134,0.000327,0.5283,0.3240,0.1449,-0.001534,-0.003068,0.000000,0.641204,-0.628932,0.627398,-0.647340,0.635068,-0.622796
2.0811,0.016761,0.000000,0.000000,0.003141,0.0000,0.0000,0.0000,-0.021983,0.021983,-0.000094,0.001134,0.000327,0.5283,0.3240,0.1449,-0.001534,-0.003068,0.000000,0.641204,-0.628932,0.627398,-0.647340,0.635068,-0.622796
2.0978,0.016752,0.000000,0.000000,0.003182,0.0000,0.0000,0.0000,-0.026395,0.026395,-0.000093,0.001130,0.000326,0.5274,0.3199,0.1493,-0.010738,0.004602,0.000000,0.641204,-0.628932,0.627398,-0.647340,0.635068,-0.622796
2.1147,0.016846,0.000000,0.000000,0.003222,0.0000,0.0000,0.0000,-0.030759,0.030759,-0.000149,0.001227,0.000349,0.5874,0.3552,0.1490,-0.015340,0.016874,0.000000,0.642738,-0.628932,0.627398,-0.648874,0.635068,-0.622796
2.1345,0.019862,0.000000,0.000000,0.003270,0.0000,0.0000,0.0000,-0.035791,0.035791,-0.000149,0.001227,0.000349,0.5874,0.3552,0.1490,-0.015340,0.016874,0.000000,0.642738,-0.628932,0.627398,-0.648874,0.635068,-0.622796
2.1513,0.016749,0.000000,0.000000,0.003310,0.0000,0.0000,0.0000,-0.039928,0.039928,-0.000149,0.001227,0.000349,0.5874,0.3552,0.1490,-0.015340,0.016874,0.000000,0.642738,-0.628932,0.627398,-0.648874,0.635068,-0.622796
2.1680,0.016751,0.000000,0.000000,0.003349,0.0000,0.0000,0.0000,-0.043954,0.043954,-0.000254,0.001410,0.000392,0.7011,0.4214,0.1495,-0.032214,0.023010,0.000000,0.645806,-0.628932,0.627398,-0.651942,0.635068,-0.622796
2.1848,0.016742,0.000000,0.000000,0.003388,0.0000,0.0000,0.0000,-0.047857,0.047857,-0.000299,0.001375,0.000412,0.7273,0.4503,0.2600,-0.027612,0.027612,0.000000,0.647340,-0.628932,0.628932,-0.651942,0.635068,-0.622796
2.2015,0.016750,0.000000,0.000000,0.003426,0.0000,0.0000,0.0000,-0.051629,0.051629,-0.000363,0.001420,0.000445,0.7736,0.5328,0.3040,-0.021476,0.026078,0.000000,0.648874,-0.628932,0.630466,-0.653476,0.635068,-0.622796
2.2184,0.016859,0.000000,0.000000,0.003465,0.0000,0.0000,0.0000,-0.055281,0.055281,-0.000412,0.001400,0.000466,0.8067,0.5600,0.4102,-0.029146,0.033748,0.000000,0.650408,-0.628932,0.632000,-0.653476,0.635068,-0.622796
2.2351,0.016754,0.000000,0.000000,0.003502,0.0000,0.0000,0.0000,-0.058757,0.058757,-0.000412,0.001400,0.000466,0.8067,0.5600,0.4102,-0.029146,0.033748,0.000000,0.650408,-0.628932,0.632000,-0.653476,0.635068,-0.622796
2.2519,0.016744,0.000000,0.000000,0.003540,0.0000,0.0000,0.0000,-0.062068,0.062068,-0.000476,0.001331,0.000500,0.8299,0.6432,0.5652,-0.044485,0.047553,0.000000,0.651942,-0.628932,0.635068,-0.653476,0.635068,-0.622796
2.2686,0.016748,0.000000,0.000000,0.003577,0.0000,0.0000,0.0000,-0.065208,0.065208,-0.000607,0.001308,0.000568,0.9026,0.8058,0.7716,-0.058291,0.055223,0.000000,0.655010,-0.628932,0.639670,-0.655010,0.635068,-0.622796
2.2854,0.016761,0.000000,0.000000,0.003613,0.0000,0.0000,0.0000,-0.068170,0.068170,-0.000688,0.001353,0.000619,0.9435,0.9742,0.8066,-0.061359,0.053689,0.000000,0.656544,-0.628932,0.642738,-0.658078,0.635068,-0.622796
2.3021,0.016745,0.000000,0.000000,0.003649,0.0000,0.0000,0.0000,-0.070941,0.070941,-0.000806,0.001342,0.000708,1.1006,1.0778,1.0277,-0.056757,0.056757,0.000000,0.661146,-0.630466,0.647340,-0.659612,0.635068,-0.622796
2.3189,0.016743,0.000000,0.000000,0.003685,0.0000,0.0000,0.0000,-0.073515,0.073515,-0.000806,0.001342,0.000708,1.1006,1.0778,1.0277,-0.061359,0.070563,0.000000,0.662680,-0.635068,0.650408,-0.661146,0.638136,-0.622796
2.3356,0.016748,0.000000,0.000000,0.003721,0.0000,0.0000,0.0000,-0.075886,0.075886,-0.000601,0.001311,0.000810,1.1602,1.0302,1.0609,-0.061359,0.070563,0.000000,0.662680,-0.635068,0.650408,-0.661146,0.638136,-0.622796
2.3524,0.016744,0.000000,0.000000,0.003755,0.0000,0.0000,0.0000,-0.078046,0.078046,-0.000498,0.001356,0.000908,1.2028,1.0831,1.1137,-0.073631,0.070563,0.000000,0.664214,-0.638136,0.653476,-0.664214,0.641204,-0.622796
2.3691,0.016744,0.000000,0.000000,0.003790,0.0000,0.0000,0.0000,-0.079991,0.079991,-0.000427,0.001434,0.001017,1.2955,1.1112,1.2206,-0.078233,0.067495,0.000000,0.667282,-0.641204,0.656544,-0.667282,0.644272,-0.622796
2.3858,0.016743,0.000000,0.000000,0.003824,0.0000,0.0000,0.0000,-0.081715,0.081715,-0.000228,0.001449,0.001102,1.3731,1.0214,1.2097,-0.072097,0.073631,0.000000,0.668816,-0.645806,0.658078,-0.668816,0.647340,-0.622796
2.4026,0.016748,0.000000,0.000000,0.003858,0.0000,0.0000,0.0000,-0.083212,0.083212,-0.000111,0.001545,0.001188,1.4247,1.0288,1.2111,-0.075165,0.078233,0.000000,0.670350,-0.648874,0.659612,-0.671884,0.650408,-0.622796
2.4194,0.016854,0.000000,0.000000,0.003891,0.0000,0.0000,0.0000,-0.084487,0.084487,-0.000111,0.001545,0.001188,1.4247,1.0288,1.2111,-0.084369,0.078233,0.000000,0.671884,-0.650408,0.661146,-0.673418,0.651942,-0.622796
2.4362,0.016751,0.000000,0.000000,0.003924,0.0000,0.0000,0.0000,-0.085519,0.085519,-0.000082,0.001577,0.001238,1.4679,1.0449,1.2673,-0.084369,0.078233,0.000000,0.671884,-0.650408,0.661146,-0.673418,0.651942,-0.622796
2.4529,0.016742,0.000000,0.000000,0.003956,0.0000,0.0000,0.0000,-0.086314,0.086314,-0.000018,0.001727,0.001266,1.5337,0.9611,1.2053,-0.084369,0.079767,0.000000,0.673418,-0.651942,0.659612,-0.674952,0.653476,-0.622796
2.4697,0.016742,0.000000,0.000000,0.003988,0.0000,0.0000,0.0000,-0.086871,0.086871,-0.000082,0.001809,0.001285,1.5861,1.0058,1.2127,-0.079767,0.081301,0.000000,0.674952,-0.651942,0.659612,-0.676486,0.653476,-0.622796
2.4864,0.016742,0.000000,0.000000,0.004020,0.0000,0.0000,0.0000,-0.087187,0.087187,-0.000173,0.001858,0.001281,1.5908,1.0230,1.3237,-0.084369,0.085903,0.000000,0.676486,-0.650408,0.659612,-0.676486,0.653476,-0.622796
2.5032,0.016758,0.000000,0.000000,0.004051,0.0000,0.0000,0.0000,-0.087262,0.087262,-0.000122,0.002041,0.001337,1.5846,1.0408,1.3672,-0.088971,0.088971,0.000000,0.678020,-0.650408,0.659612,-0.679553,0.656544,-0.622796
2.5199,0.016752,0.000000,0.000000,0.004082,0.0000,0.0000,0.0000,-0.087095,0.087095,-0.000114,0.001965,0.001358,1.5742,0.9856,1.2516,-0.085903,0.087437,0.000000,0.678020,-0.651942,0.659612,-0.679553,0.656544,-0.624330
2.5367,0.016726,0.000000,0.000000,0.004112,0.0000,0.0000,0.0000,-0.086688,0.086688,-0.000114,0.001965,0.001358,1.5742,0.9856,1.2516,-0.085903,0.087437,0.000000,0.678020,-0.651942,0.659612,-0.679553,0.656544,-0.624330
2.5534,0.016744,0.000000,0.000000,0.004141,0.0000,0.0000,0.0000,-0.086041,0.086041,-0.000211,0.001949,0.001356,1.4880,1.0090,1.2638,-0.084369,0.084369,0.000000,0.678020,-0.650408,0.659612,-0.679553,0.656544,-0.625864
2.5702,0.016753,0.000000,0.000000,0.004171,0.0000,0.0000,0.0000,-0.085155,0.085155,-0.000146,0.001934,0.001369,1.5351,0.9711,1.2070,-0.088971,0.087437,0.000000,0.678020,-0.651942,0.659612,-0.679553,0.656544,-0.625864
2.5869,0.016756,0.000000,0.000000,0.004199,0.0000,0.0000,0.0000,-0.084033,0.084033,-0.000207,0.001952,0.001355,1.4921,1.0105,1.2684,-0.087437,0.087437,0.000000,0.678020,-0.650408,0.659612,-0.679553,0.656544,-0.625864
2.6038,0.016917,0.000000,0.000000,0.004228,0.0000,0.0000,0.0000,-0.082665,0.082665,-0.000201,0.001952,0.001393,1.4966,1.0027,1.0956,-0.084369,0.085903,0.000000,0.678020,-0.651942,0.659612,-0.681087,0.656544,-0.627398
2.6206,0.016745,0.000000,0.000000,0.004256,0.0000,0.0000,0.0000,-0.081080,0.081080,-0.000201,0.001952,0.001393,1.4966,1.0027,1.0956,-0.084369,0.085903,0.000000,0.678020,-0.651942,0.659612,-0.681087,0.656544,-0.627398
2.6373,0.016741,0.000000,0.000000,0.004283,0.0000,0.0000,0.0000,-0.079271,0.079271,-0.000340,0.001856,0.001439,1.4354,1.0041,1.1151,-0.085903,0.085903,0.000000,0.679553,-0.651942,0.661146,-0.681087,0.656544,-0.630466
2.6541,0.016747,0.000000,0.000000,0.004310,0.0000,0.0000,0.0000,-0.077243,0.077243,-0.000397,0.001923,0.001445,1.4522,0.9231,1.0577,-0.084369,0.082835,0.000000,0.681087,-0.651942,0.659612,-0.681087,0.656544,-0.632000
2.6708,0.016741,0.000000,0.000000,0.004337,0.0000,0.0000,0.0000,-0.075001,0.075001,-0.000561,0.001917,0.001492,1.4492,0.8690,1.0652,-0.078233,0.081301,0.000000,0.684155,-0.651942,0.659612,-0.681087,0.656544,-0.635068
2.6875,0.016743,0.000000,0.000000,0.004363,0.0000,0.0000,0.0000,-0.072552,0.072552,-0.000628,0.001919,0.001547,1.4495,0.8398,0.8985,-0.078233,0.078233,0.000000,0.685689,-0.653476,0.659612,-0.682621,0.656544,-0.638136
2.7045,0.016932,0.000000,0.000000,0.004388,0.0000,0.0000,0.0000,-0.069871,0.069871,-0.000628,0.001919,0.001547,1.4495,0.8398,0.8985,-0.079767,0.075165,0.000000,0.687223,-0.655010,0.659612,-0.684155,0.656544,-0.641204
2.7212,0.016763,0.000000,0.000000,0.004413,0.0000,0.0000,0.0000,-0.067022,0.067022,-0.000706,0.001921,0.001602,1.4498,0.8081,0.7497,-0.079767,0.075165,0.000000,0.687223,-0.655010,0.659612,-0.684155,0.656544,-0.641204
2.7380,0.016752,0.000000,0.000000,0.004438,0.0000,0.0000,0.0000,-0.063990,0.063990,-0.000741,0.001963,0.001679,1.4997,0.7906,0.4877,-0.078233,0.075165,0.000000,0.688757,-0.658078,0.659612,-0.687223,0.656544,-0.644272
2.7547,0.016752,0.000000,0.000000,0.004462,0.0000,0.0000,0.0000,-0.060780,0.060780,-0.000866,0.002001,0.001741,1.5434,0.7438,0.4050,-0.072097,0.072097,0.000000,0.691825,-0.659612,0.659612,-0.688757,0.656544,-0.647340
2.7715,0.016752,0.000000,0.000000,0.004485,0.0000,0.0000,0.0000,-0.057401,0.057401,-0.000784,0.001923,0.001773,1.5659,0.6611,0.2460,-0.069029,0.069029,0.000000,0.691825,-0.662680,0.659612,-0.688757,0.656544,-0.648874
2.7883,0.016767,0.000000,0.000000,0.004508,0.0000,0.0000,0.0000,-0.053861,0.053861,-0.000696,0.001955,0.001806,1.6501,0.6485,0.0950,-0.067495,0.065961,0.000000,0.691825,-0.665748,0.659612,-0.690291,0.656544,-0.648874
2.8050,0.016762,0.000000,0.000000,0.004531,0.0000,0.0000,0.0000,-0.050172,0.050172,-0.000638,0.001958,0.001838,1.7642,0.5659,0.0550,-0.064427,0.064427,0.000000,0.693359,-0.668816,0.659612,-0.690291,0.656544,-0.648874
2.8218,0.016749,0.000000,0.000000,0.004553,0.0000,0.0000,0.0000,-0.046348,0.046348,-0.000638,0.001958,0.001838,1.7642,0.5659,0.0550,-0.064427,0.064427,0.000000,0.693359,-0.668816,0.659612,-0.690291,0.656544,-0.648874
2.8385,0.016754,0.000000,0.000000,0.004574,0.0000,0.0000,0.0000,-0.042393,0.042393,-0.000548,0.001982,0.001871,1.8383,0.5531,-0.1088,-0.058291,0.061359,0.000000,0.693359,-0.671884,0.659612,-0.691825,0.656544,-0.648874
2.8553,0.016760,0.000000,0.000000,0.004595,0.0000,0.0000,0.0000,-0.038320,0.038320,-0.000529,0.001965,0.001903,1.8682,0.6182,-0.1472,-0.052155,0.059825,0.000000,0.693359,-0.673418,0.661146,-0.693359,0.656544,-0.648874
2.8721,0.016780,0.000000,0.000000,0.004616,0.0000,0.0000,0.0000,-0.034136,0.034136,-0.000402,0.001780,0.001941,1.8689,0.6557,-0.1994,-0.050621,0.055223,0.000000,0.691825,-0.676486,0.664214,-0.693359,0.656544,-0.648874
2.8888,0.016759,0.000000,0.000000,0.004636,0.0000,0.0000,0.0000,-0.029862,0.029862,-0.000444,0.001769,0.001996,1.9438,0.7517,-0.1364,-0.049087,0.049087,0.000000,0.693359,-0.678020,0.667282,-0.694893,0.656544,-0.648874
2.9058,0.017003,0.000000,0.000000,0.004656,0.0000,0.0000,0.0000,-0.025441,0.025441,-0.000444,0.001769,0.001996,1.9438,0.7517,-0.1364,-0.042951,0.041417,0.000000,0.691825,-0.679553,0.667282,-0.694893,0.656544,-0.648874
2.9226,0.016755,0.000000,0.000000,0.004675,0.0000,0.0000,0.0000,-0.021014,0.021014,-0.000340,0.001713,0.001992,1.9247,0.7207,-0.2558,-0.042951,0.041417,0.000000,0.691825,-0.679553,0.667282,-0.694893,0.656544,-0.648874
2.9393,0.016761,0.000000,0.000000,0.004693,0.0000,0.0000,0.0000,-0.016527,0.016527,-0.000339,0.001742,0.002016,2.0119,0.6751,-0.2434,-0.036816,0.035282,0.000000,0.693359,-0.681087,0.667282,-0.694893,0.656544,-0.648874
2.9561,0.016756,0.000000,0.000000,0.004711,0.0000,0.0000,0.0000,-0.011996,0.011996,-0.000295,0.001698,0.002002,1.9544,0.6938,-0.3011,-0.029146,0.030680,0.000000,0.691825,-0.681087,0.667282,-0.694893,0.656544,-0.648874
2.9729,0.016762,0.000000,0.000000,0.004728,0.0000,0.0000,0.0000,-0.007429,0.007429,-0.000399,0.001761,0.002002,1.9719,0.7128,-0.1822,-0.023010,0.027612,0.000000,0.693359,-0.679553,0.667282,-0.694893,0.656544,-0.648874
2.9896,0.016759,0.000000,0.000000,0.004745,0.0000,0.0000,0.0000,-0.002843,0.002843,-0.000388,0.001754,0.002002,1.9701,0.7108,-0.1946,-0.021476,0.021476,0.000000,0.693359,-0.679553,0.667282,-0.694893,0.656544,-0.648874
3.0065,0.016851,0.000000,0.000000,0.004762,0.0000,0.0000,0.0000,0.001776,-0.001776,-0.000388,0.001754,0.002002,1.9701,0.7108,-0.1946,-0.015340,0.013806,0.000000,0.693359,-0.679553,0.667282,-0.694893,0.656544,-0.648874
3.0232,0.016755,0.000000,0.000000,0.004777,0.0000,0.0000,0.0000,0.006364,-0.006364,-0.000388,0.001754,0.002002,1.9701,0.7108,-0.1946,-0.015340,0.013806,0.000000,0.693359,-0.679553,0.667282,-0.694893,0.656544,-0.648874
3.0400,0.016769,0.000000,0.000000,0.004793,0.0000,0.0000,0.0000,0.010938,-0.010938,-0.000222,0.001769,0.002039,1.9298,0.6096,-0.1402,-0.007670,0.006136,0.000000,0.693359,-0.681087,0.667282,-0.694893,0.659612,-0.648874
3.0568,0.016751,0.000000,0.000000,0.004807,0.0000,0.0000,0.0000,0.015477,-0.015477,-0.000139,0.001743,0.002036,1.8472,0.6008,-0.1474,-0.001534,0.001534,0.000000,0.691825,-0.681087,0.667282,-0.694893,0.661146,-0.648874
3.0736,0.016828,0.000000,0.000000,0.004822,0.0000,0.0000,0.0000,0.019994,-0.019994,-0.000134,0.001835,0.002059,1.7904,0.5564,0.0761,0.003068,-0.003068,0.000000,0.693359,-0.679553,0.667282,-0.694893,0.664214,-0.648874
3.0903,0.016758,0.000000,0.000000,0.004835,0.0000,0.0000,0.0000,0.024436,-0.024436,-0.000025,0.001857,0.002080,1.7198,0.4947,0.2508,0.003068,-0.006136,0.001534,0.693359,-0.679553,0.667282,-0.694893,0.667282,-0.648874
3.1071,0.016772,0.000000,0.000000,0.004848,0.0000,0.0000,0.0000,0.028814,-0.028814,-0.000025,0.001857,0.002080,1.7198,0.4947,0.2508,0.003068,-0.006136,0.001534,0.693359,-0.679553,0.667282,-0.694893,0.667282,-0.648874
3.1239,0.016752,0.000000,0.000000,0.004861,0.0000,0.0000,0.0000,0.033107,-0.033107,0.000066,0.001944,0.002112,1.6619,0.4836,0.2085,0.009204,-0.012272,0.000000,0.693359,-0.679553,0.667282,-0.696427,0.670350,-0.648874
3.1406,0.016752,0.000000,0.000000,0.004873,0.0000,0.0000,0.0000,0.037309,-0.037309,0.000213,0.001926,0.002121,1.5435,0.4321,0.2579,0.018408,-0.018408,0.000000,0.691825,-0.679553,0.667282,-0.696427,0.673418,-0.648874
3.1574,0.016824,0.000000,0.000000,0.004885,0.0000,0.0000,0.0000,0.041424,-0.041424,0.000253,0.002059,0.002165,1.5393,0.4065,0.3640,0.024544,-0.023010,0.000000,0.693359,-0.679553,0.667282,-0.697961,0.676486,-0.648874
3.1746,0.017190,0.000000,0.000000,0.004896,0.0000,0.0000,0.0000,0.045510,-0.045510,0.000253,0.002059,0.002165,1.5393,0.4065,0.3640,0.024544,-0.023010,0.000000,0.693359,-0.679553,0.667282,-0.697961,0.676486,-0.648874
3.1914,0.016766,0.000000,0.000000,0.004906,0.0000,0.0000,0.0000,0.049367,-0.049367,0.000253,0.002059,0.002165,1.5393,0.4065,0.3640,0.024544,-0.023010,0.000000,0.693359,-0.679553,0.667282,-0.697961,0.676486,-0.648874
3.2081,0.016753,0.000000,0.000000,0.004916,0.0000,0.0000,0.0000,0.053084,-0.053084,0.000391,0.002209,0.002216,1.4480,0.4077,0.4076,0.035282,-0.038350,0.000000,0.693359,-0.679553,0.667282,-0.701029,0.681087,-0.648874
3.2249,0.016749,0.000000,0.000000,0.004925,0.0000,0.0000,0.0000,0.056654,-0.056654,0.000363,0.002252,0.002221,1.4683,0.4563,0.3471,0.039884,-0.038350,0.000000,0.693359,-0.679553,0.667282,-0.702563,0.681087,-0.648874
3.2417,0.016755,0.000000,0.000000,0.004934,0.0000,0.0000,0.0000,0.060068,-0.060068,0.000363,0.002252,0.002221,1.4683,0.4563,0.3471,0.039884,-0.038350,0.000000,0.693359,-0.679553,0.667282,-0.702563,0.681087,-0.648874
3.2584,0.016746,0.000000,0.000000,0.004943,0.0000,0.0000,0.0000,0.063313,-0.063313,0.000478,0.002246,0.002244,1.4652,0.3828,0.3526,0.041417,-0.041417,0.000000,0.693359,-0.681087,0.667282,-0.702563,0.682621,-0.648874
3.2752,0.016758,0.000000,0.000000,0.004950,0.0000,0.0000,0.0000,0.066386,-0.066386,0.000454,0.002223,0.002218,1.3803,0.4393,0.3520,0.046019,-0.047553,0.000000,0.691825,-0.679553,0.667282,-0.702563,0.682621,-0.648874
3.2921,0.016975,0.000000,0.000000,0.004957,0.0000,0.0000,0.0000,0.069311,-0.069311,0.000413,0.002266,0.002232,1.4376,0.4201,0.4085,0.055223,-0.053689,0.000000,0.693359,-0.679553,0.667282,-0.702563,0.682621,-0.648874
3.3089,0.016751,0.000000,0.000000,0.004964,0.0000,0.0000,0.0000,0.072004,-0.072004,0.000417,0.002262,0.002230,1.4316,0.4221,0.4026,0.065961,-0.061359,0.000000,0.693359,-0.679553,0.667282,-0.702563,0.682621,-0.648874
3.3256,0.016759,0.000000,0.000000,0.004970,0.0000,0.0000,0.0000,0.074499,-0.074499,0.000417,0.002262,0.002230,1.4316,0.4221,0.4026,0.067495,-0.069029,0.000000,0.693359,-0.679553,0.667282,-0.702563,0.682621,-0.648874
3.3424,0.016753,0.000000,0.000000,0.004976,0.0000,0.0000,0.0000,0.076786,-0.076786,0.000417,0.002262,0.002230,1.4316,0.4221,0.4026,0.067495,-0.069029,0.000000,0.693359,-0.679553,0.667282,-0.702563,0.682621,-0.648874
3.3591,0.016743,0.000000,0.000000,0.004980,0.0000,0.0000,0.0000,0.078860,-0.078860,0.000385,0.002327,0.002264,1.5660,0.3599,0.4596,0.064427,-0.069029,0.000000,0.696427,-0.681087,0.667282,-0.702563,0.682621,-0.648874
3.3759,0.016744,0.000000,0.000000,0.004985,0.0000,0.0000,0.0000,0.080716,-0.080716,0.000345,0.002361,0.002271,1.6004,0.3533,0.5101,0.065961,-0.069029,0.000000,0.697961,-0.681087,0.667282,-0.702563,0.682621,-0.648874
3.3926,0.016758,0.000000,0.000000,0.004989,0.0000,0.0000,0.0000,0.082350,-0.082350,0.000305,0.002398,0.002281,1.6451,0.3409,0.5613,0.070563,-0.072097,0.000000,0.699495,-0.681087,0.667282,-0.702563,0.682621,-0.648874
3.4094,0.016753,0.000000,0.000000,0.004992,0.0000,0.0000,0.0000,0.083755,-0.083755,0.000222,0.002476,0.002301,1.7371,0.3161,0.6690,0.078233,-0.075165,0.000000,0.702563,-0.681087,0.667282,-0.702563,0.682621,-0.648874
3.4262,0.016762,0.000000,0.000000,0.004995,0.0000,0.0000,0.0000,0.084929,-0.084929,0.000187,0.002509,0.002310,1.7758,0.3058,0.7143,0.082835,-0.075165,0.000000,0.704097,-0.681087,0.667282,-0.702563,0.682621,-0.648874
3.4429,0.016755,0.000000,0.000000,0.004997,0.0000,0.0000,0.0000,0.085867,-0.085867,0.000187,0.002509,0.002310,1.7758,0.3058,0.7143,0.082835,-0.075165,0.000000,0.704097,-0.681087,0.667282,-0.702563,0.682621,-0.648874
3.4597,0.016743,0.000000,0.000000,0.004998,0.0000,0.0000,0.0000,0.086566,-0.086566,0.000102,0.002587,0.002330,1.8682,0.2811,0.8227,0.081301,-0.076699,0.000000,0.707165,-0.681087,0.667282,-0.702563,0.682621,-0.648874
3.4765,0.016897,0.000000,0.000000,0.004999,0.0000,0.0000,0.0000,0.087030,-0.087030,0.000167,0.002561,0.002340,1.8954,0.2482,0.7548,0.079767,-0.076699,0.000000,0.707165,-0.682621,0.667282,-0.702563,0.682621,-0.648874
3.4934,0.016836,0.000000,0.000000,0.005000,0.0000,0.0000,0.0000,0.087248,-0.087248,0.000172,0.002588,0.002361,1.9776,0.2033,0.7619,0.084369,-0.078233,0.000000,0.708699,-0.684155,0.667282,-0.702563,0.682621,-0.648874
3.5102,0.016829,0.000000,0.000000,0.005000,0.0000,0.0000,0.0000,0.087222,-0.087222,0.000327,0.002509,0.002373,1.9943,0.1497,0.5911,0.088971,-0.081301,0.000000,0.707165,-0.687223,0.667282,-0.702563,0.682621,-0.648874
3.5270,0.016758,0.000000,0.000000,0.004999,0.0000,0.0000,0.0000,0.086953,-0.086953,0.000327,0.002509,0.002373,1.9943,0.1497,0.5911,0.088971,-0.081301,0.000000,0.707165,-0.687223,0.667282,-0.702563,0.682621,-0.648874
3.5437,0.016752,0.000000,0.000000,0.004998,0.0000,0.0000,0.0000,0.086444,-0.086444,0.000311,0.002517,0.002372,1.9925,0.1553,0.6089,0.084369,-0.084369,0.000000,0.707165,-0.687223,0.667282,-0.702563,0.682621,-0.648874
3.5605,0.016743,0.000000,0.000000,0.004996,0.0000,0.0000,0.0000,0.085697,-0.085697,0.000424,0.002482,0.002396,2.0658,0.0837,0.4933,0.082835,-0.087437,0.000000,0.707165,-0.690291,0.667282,-0.702563,0.682621,-0.648874
3.5773,0.016792,0.000000,0.000000,0.004994,0.0000,0.0000,0.0000,0.084708,-0.084708,0.000455,0.002412,0.002419,2.0842,0.1056,0.5052,0.087437,-0.087437,0.000000,0.707165,-0.691825,0.668816,-0.702563,0.682621,-0.648874
3.5940,0.016753,0.000000,0.000000,0.004991,0.0000,0.0000,0.0000,0.083488,-0.083488,0.000508,0.002402,0.002429,2.1188,0.0679,0.4470,0.087437,-0.087437,0.000000,0.707165,-0.693359,0.668816,-0.702563,0.682621,-0.648874
3.6111,0.017050,0.000000,0.000000,0.004988,0.0000,0.0000,0.0000,0.082008,-0.082008,0.000532,0.002274,0.002467,2.1309,0.1361,0.5097,0.082835,-0.085903,0.000000,0.707165,-0.694893,0.671884,-0.702563,0.682621,-0.648874
3.6278,0.016739,0.000000,0.000000,0.004984,0.0000,0.0000,0.0000,0.080327,-0.080327,0.000532,0.002274,0.002467,2.1309,0.1361,0.5097,0.082835,-0.085903,0.000000,0.707165,-0.694893,0.671884,-0.702563,0.682621,-0.648874
3.6446,0.016749,0.000000,0.000000,0.004979,0.0000,0.0000,0.0000,0.078422,-0.078422,0.000516,0.002231,0.002476,2.1193,0.1787,0.5600,0.082835,-0.085903,0.000000,0.707165,-0.694893,0.673418,-0.702563,0.682621,-0.648874
3.6613,0.016740,0.000000,0.000000,0.004974,0.0000,0.0000,0.0000,0.076301,-0.076301,0.000504,0.002180,0.002488,2.1102,0.2240,0.6116,0.085903,-0.085903,0.000000,0.707165,-0.694893,0.674952,-0.702563,0.682621,-0.648874
3.6782,0.016916,0.000000,0.000000,0.004969,0.0000,0.0000,0.0000,0.073944,-0.073944,0.000423,0.002090,0.002501,2.0538,0.3538,0.7770,0.084369,-0.082835,0.000000,0.707165,-0.693359,0.678020,-0.702563,0.682621,-0.648874
3.6950,0.016758,0.000000,0.000000,0.004963,0.0000,0.0000,0.0000,0.071402,-0.071402,0.000461,0.001970,0.002538,2.0753,0.4038,0.8168,0.079767,-0.078233,0.000000,0.707165,-0.694893,0.681087,-0.702563,0.682621,-0.648874
3.7118,0.016831,0.000000,0.000000,0.004956,0.0000,0.0000,0.0000,0.068651,-0.068651,0.000444,0.001927,0.002547,2.0626,0.4479,0.8696,0.073631,-0.073631,0.000000,0.707165,-0.694893,0.682621,-0.702563,0.682621,-0.648874
3.7285,0.016750,0.000000,0.000000,0.004949,0.0000,0.0000,0.0000,0.065722,-0.065722,0.000444,0.001927,0.002547,2.0626,0.4479,0.8696,0.073631,-0.073631,0.000000,0.707165,-0.694893,0.682621,-0.702563,0.682621,-0.648874
3.7453,0.016751,0.000000,0.000000,0.004941,0.0000,0.0000,0.0000,0.062611,-0.062611,0.000446,0.001931,0.002546,2.0639,0.4433,0.8641,0.070563,-0.073631,0.000000,0.707165,-0.694893,0.682621,-0.702563,0.682621,-0.648874
3.7620,0.016747,0.000000,0.000000,0.004932,0.0000,0.0000,0.0000,0.059328,-0.059328,0.000390,0.001948,0.002534,2.0270,0.4790,0.9215,0.070563,-0.073631,0.000000,0.707165,-0.693359,0.682621,-0.702563,0.682621,-0.648874
3.7788,0.016742,0.000000,0.000000,0.004923,0.0000,0.0000,0.0000,0.055882,-0.055882,0.000395,0.001946,0.002536,2.0309,0.4753,0.9156,0.070563,-0.069029,0.000000,0.707165,-0.693359,0.682621,-0.702563,0.682621,-0.648874
3.7955,0.016750,0.000000,0.000000,0.004914,0.0000,0.0000,0.0000,0.052279,-0.052279,0.000381,0.002005,0.002546,2.0412,0.5245,0.8604,0.064427,-0.064427,0.000000,0.707165,-0.693359,0.682621,-0.704097,0.682621,-0.648874
3.8123,0.016763,0.000000,0.000000,0.004904,0.0000,0.0000,0.0000,0.048528,-0.048528,0.000381,0.002005,0.002546,2.0412,0.5245,0.8604,0.055223,-0.059825,0.000000,0.707165,-0.694893,0.682621,-0.704097,0.682621,-0.648874
3.8290,0.016740,0.000000,0.000000,0.004894,0.0000,0.0000,0.0000,0.044649,-0.044649,0.000438,0.001982,0.002557,2.0769,0.4842,0.8093,0.055223,-0.059825,0.000000,0.707165,-0.694893,0.682621,-0.704097,0.682621,-0.648874
3.8458,0.016748,0.000000,0.000000,0.004882,0.0000,0.0000,0.0000,0.040643,-0.040643,0.000376,0.002001,0.002544,2.0364,0.5236,0.8715,0.052155,-0.056757,0.000000,0.707165,-0.693359,0.682621,-0.704097,0.682621,-0.648874
3.8626,0.016763,0.000000,0.000000,0.004871,0.0000,0.0000,0.0000,0.036522,-0.036522,0.000439,0.001982,0.002557,2.0774,0.4843,0.8082,0.056757,-0.053689,0.000000,0.707165,-0.694893,0.682621,-0.704097,0.682621,-0.648874
3.8793,0.016770,0.000000,0.000000,0.004859,0.0000,0.0000,0.0000,0.032298,-0.032298,0.000432,0.001984,0.002556,2.0731,0.4884,0.8148,0.055223,-0.047553,0.000000,0.707165,-0.694893,0.682621,-0.704097,0.682621,-0.648874
3.8961,0.016754,0.000000,0.000000,0.004846,0.0000,0.0000,0.0000,0.027988,-0.027988,0.000377,0.002001,0.002544,2.0368,0.5231,0.8709,0.049087,-0.042951,0.000000,0.707165,-0.693359,0.682621,-0.704097,0.682621,-0.648874
3.9128,0.016769,0.000000,0.000000,0.004833,0.0000,0.0000,0.0000,0.023597,-0.023597,0.000383,0.001999,0.002545,2.0406,0.5195,0.8651,0.038350,-0.036816,0.000000,0.707165,-0.693359,0.682621,-0.704097,0.682621,-0.648874
3.9296,0.016738,0.000000,0.000000,0.004819,0.0000,0.0000,0.0000,0.019148,-0.019148,0.000383,0.001999,0.002545,2.0406,0.5195,0.8651,0.038350,-0.036816,0.000000,0.707165,-0.693359,0.682621,-0.704097,0.682621,-0.648874
3.9463,0.016749,0.000000,0.000000,0.004805,0.0000,0.0000,0.0000,0.014644,-0.014644,0.000383,0.001999,0.002545,2.0406,0.5195,0.8651,0.026078,-0.036816,0.000000,0.707165,-0.693359,0.682621,-0.704097,0.682621,-0.648874
3.9631,0.016750,0.000000,0.000000,0.004790,0.0000,0.0000,0.0000,0.010098,-0.010098,0.000368,0.002058,0.002556,2.0510,0.5687,0.8099,0.026078,-0.033748,0.000000,0.707165,-0.693359,0.682621,-0.705631,0.682621,-0.648874
3.9798,0.016764,0.000000,0.000000,0.004774,0.0000,0.0000,0.0000,0.005522,-0.005522,0.000370,0.002052,0.002555,2.0499,0.5635,0.8156,0.029146,-0.030680,0.000000,0.707165,-0.693359,0.682621,-0.705631,0.682621,-0.648874
3.9966,0.016747,0.000000,0.000000,0.004759,0.0000,0.0000,0.0000,0.000934,-0.000934,0.000426,0.002035,0.002567,2.0867,0.5289,0.7582,0.026078,-0.023010,0.000000,0.707165,-0.694893,0.682621,-0.705631,0.682621,-0.648874
4.0134,0.016770,0.000000,0.000000,0.004742,0.0000,0.0000,0.0000,-0.003662,0.003662,0.000364,0.002054,0.002554,2.0462,0.5677,0.8210,0.016874,-0.010738,0.000000,0.707165,-0.693359,0.682621,-0.705631,0.682621,-0.648874
4.0301,0.016743,0.000000,0.000000,0.004725,0.0000,0.0000,0.0000,-0.008241,0.008241,0.000364,0.002054,0.002554,2.0462,0.5677,0.8210,0.016874,-0.010738,0.000000,0.707165,-0.693359,0.682621,-0.705631,0.682621,-0.648874
4.0469,0.016750,0.000000,0.000000,0.004708,0.0000,0.0000,0.0000,-0.012799,0.012799,0.000370,0.002052,0.002555,2.0504,0.5636,0.8145,0.003068,-0.003068,0.000000,0.707165,-0.693359,0.682621,-0.705631,0.682621,-0.648874
4.0636,0.016746,0.000000,0.000000,0.004690,0.0000,0.0000,0.0000,-0.017321,0.017321,0.000425,0.002035,0.002567,2.0867,0.5288,0.7583,-0.003068,-0.004602,0.000000,0.707165,-0.694893,0.682621,-0.705631,0.682621,-0.648874
4.0804,0.016768,0.000000,0.000000,0.004671,0.0000,0.0000,0.0000,-0.021800,0.021800,0.000420,0.002037,0.002566,2.0829,0.5325,0.7642,-0.001534,-0.004602,0.000000,0.707165,-0.694893,0.682621,-0.705631,0.682621,-0.648874
4.0971,0.016744,0.000000,0.000000,0.004652,0.0000,0.0000,0.0000,-0.026213,0.026213,0.000420,0.002037,0.002566,2.0829,0.5325,0.7642,0.001534,-0.001534,0.000000,0.707165,-0.694893,0.682621,-0.705631,0.682621,-0.648874
4.1139,0.016807,0.000000,0.000000,0.004633,0.0000,0.0000,0.0000,-0.030569,0.030569,0.000420,0.002037,0.002566,2.0829,0.5325,0.7642,-0.004602,0.009204,0.000000,0.707165,-0.694893,0.682621,-0.705631,0.682621,-0.648874
4.1307,0.016744,0.000000,0.000000,0.004613,0.0000,0.0000,0.0000,-0.034825,0.034825,0.000420,0.002037,0.002566,2.0829,0.5325,0.7642,-0.004602,0.009204,0.000000,0.707165,-0.694893,0.682621,-0.705631,0.682621,-0.648874
4.1474,0.016751,0.000000,0.000000,0.004592,0.0000,0.0000,0.0000,-0.038985,0.038985,0.000364,0.002054,0.002554,2.0466,0.5673,0.8204,-0.030680,0.024544,0.000000,0.707165,-0.693359,0.682621,-0.705631,0.682621,-0.648874
4.1642,0.016744,0.000000,0.000000,0.004571,0.0000,0.0000,0.0000,-0.043036,0.043036,0.000370,0.002052,0.002555,2.0503,0.5637,0.8146,-0.032214,0.023010,0.000000,0.707165,-0.693359,0.682621,-0.705631,0.682621,-0.648874
4.1809,0.016753,0.000000,0.000000,0.004549,0.0000,0.0000,0.0000,-0.046971,0.046971,0.000425,0.002035,0.002567,2.0867,0.5288,0.7583,-0.026078,0.026078,0.000000,0.707165,-0.694893,0.682621,-0.705631,0.682621,-0.648874
4.1977,0.016743,0.000000,0.000000,0.004527,0.0000,0.0000,0.0000,-0.050772,0.050772,0.000420,0.002037,0.002566,2.0829,0.5325,0.7642,-0.030680,0.038350,0.000000,0.707165,-0.694893,0.682621,-0.705631,0.682621,-0.648874
4.2145,0.016796,0.000000,0.000000,0.004505,0.0000,0.0000,0.0000,-0.054445,0.054445,0.000420,0.002037,0.002566,2.0829,0.5325,0.7642,-0.030680,0.038350,0.000000,0.707165,-0.694893,0.682621,-0.705631,0.682621,-0.648874
4.2312,0.016781,0.000000,0.000000,0.004481,0.0000,0.0000,0.0000,-0.057963,0.057963,0.000420,0.002037,0.002566,2.0829,0.5325,0.7642,-0.030680,0.038350,0.000000,0.707165,-0.694893,0.682621,-0.705631,0.682621,-0.648874
4.2481,0.016841,0.000000,0.000000,0.004458,0.0000,0.0000,0.0000,-0.061332,0.061332,0.000420,0.002037,0.002566,2.0829,0.5325,0.7642,-0.030680,0.038350,0.000000,0.707165,-0.694893,0.682621,-0.705631,0.682621,-0.648874
4.2648,0.016744,0.000000,0.000000,0.004434,0.0000,0.0000,0.0000,-0.064511,0.064511,0.000420,0.002037,0.002566,2.0829,0.5325,0.7642,-0.030680,0.038350,0.000000,0.707165,-0.694893,0.682621,-0.705631,0.682621,-0.648874
4.2816,0.016746,0.000000,0.000000,0.004409,0.0000,0.0000,0.0000,-0.067512,0.067512,0.000420,0.002037,0.002566,2.0829,0.5325,0.7642,-0.052155,0.044485,0.000000,0.707165,-0.694893,0.682621,-0.705631,0.682621,-0.648874
4.2983,0.016748,0.000000,0.000000,0.004384,0.0000,0.0000,0.0000,-0.070327,0.070327,0.000420,0.002037,0.002566,2.0829,0.5325,0.7642,-0.046019,0.044485,0.000000,0.707165,-0.694893,0.682621,-0.705631,0.682621,-0.648874
4.3151,0.016760,0.000000,0.000000,0.004359,0.0000,0.0000,0.0000,-0.072949,0.072949,0.000320,0.002095,0.002564,2.0946,0.5543,0.8772,-0.047553,0.049087,0.000000,0.708699,-0.693359,0.682621,-0.705631,0.682621,-0.648874
4.3318,0.016751,0.000000,0.000000,0.004333,0.0000,0.0000,0.0000,-0.075367,0.075367,0.000375,0.002048,0.002554,2.0453,0.5650,0.8086,-0.058291,0.058291,0.000000,0.707165,-0.693359,0.682621,-0.705631,0.682621,-0.648874
4.3486,0.016777,0.000000,0.000000,0.004306,0.0000,0.0000,0.0000,-0.077580,0.077580,0.000369,0.002053,0.002555,2.0505,0.5639,0.8158,-0.073631,0.072097,0.000000,0.707165,-0.693359,0.682621,-0.705631,0.682621,-0.648874
4.3653,0.016750,0.000000,0.000000,0.004279,0.0000,0.0000,0.0000,-0.079574,0.079574,0.000369,0.002053,0.002555,2.0505,0.5639,0.8158,-0.073631,0.072097,0.000000,0.707165,-0.693359,0.682621,-0.705631,0.682621,-0.648874
4.3821,0.016761,0.000000,0.000000,0.004251,0.0000,0.0000,0.0000,-0.081349,0.081349,0.000369,0.002053,0.002555,2.0505,0.5639,0.8158,-0.075165,0.073631,0.000000,0.707165,-0.693359,0.682621,-0.705631,0.682621,-0.648874
4.3989,0.016745,0.000000,0.000000,0.004224,0.0000,0.0000,0.0000,-0.082898,0.082898,0.000426,0.002035,0.002567,2.0867,0.5288,0.7582,-0.070563,0.070563,0.000000,0.707165,-0.694893,0.682621,-0.705631,0.682621,-0.648874
4.4159,0.017049,0.000000,0.000000,0.004195,0.0000,0.0000,0.0000,-0.084238,0.084238,0.000420,0.002037,0.002566,2.0829,0.5325,0.7642,-0.076699,0.075165,0.000000,0.707165,-0.694893,0.682621,-0.705631,0.682621,-0.648874
4.4327,0.016748,0.000000,0.000000,0.004166,0.0000,0.0000,0.0000,-0.085320,0.085320,0.000364,0.002054,0.002554,2.0466,0.5673,0.8204,-0.085903,0.081301,0.000000,0.707165,-0.693359,0.682621,-0.705631,0.682621,-0.648874
4.4510,0.018309,0.000000,0.000000,0.004134,0.0000,0.0000,0.0000,-0.086233,0.086233,0.000364,0.002054,0.002554,2.0466,0.5673,0.8204,-0.085903,0.081301,0.000000,0.707165,-0.693359,0.682621,-0.705631,0.682621,-0.648874
4.4677,0.016747,0.000000,0.000000,0.004104,0.0000,0.0000,0.0000,-0.086818,0.086818,0.000370,0.002052,0.002555,2.0503,0.5637,0.8146,-0.082835,0.081301,0.000000,0.707165,-0.693359,0.682621,-0.705631,0.682621,-0.648874
4.4845,0.016750,0.000000,0.000000,0.004074,0.0000,0.0000,0.0000,-0.087162,0.087162,0.000370,0.002052,0.002555,2.0503,0.5637,0.8146,-0.079767,0.081301,0.000000,0.707165,-0.693359,0.682621,-0.705631,0.682621,-0.648874
4.5012,0.016744,0.000000,0.000000,0.004043,0.0000,0.0000,0.0000,-0.087266,0.087266,0.000425,0.002035,0.002567,2.0867,0.5288,0.7583,-0.085903,0.084369,0.000000,0.707165,-0.694893,0.682621,-0.705631,0.682621,-0.648874
4.5179,0.016743,0.000000,0.000000,0.004012,0.0000,0.0000,0.0000,-0.087128,0.087128,0.000420,0.002037,0.002566,2.0829,0.5325,0.7642,-0.088971,0.084369,0.000000,0.707165,-0.694893,0.682621,-0.705631,0.682621,-0.648874
4.5347,0.016741,0.000000,0.000000,0.003980,0.0000,0.0000,0.0000,-0.086749,0.086749,0.000420,0.002037,0.002566,2.0829,0.5325,0.7642,-0.085903,0.084369,0.000000,0.707165,-0.694893,0.682621,-0.705631,0.682621,-0.648874
4.5514,0.016755,0.000000,0.000000,0.003948,0.0000,0.0000,0.0000,-0.086129,0.086129,0.000420,0.002037,0.002566,2.0829,0.5325,0.7642,-0.085903,0.084369,0.000000,0.707165,-0.694893,0.682621,-0.705631,0.682621,-0.648874
4.5682,0.016743,0.000000,0.000000,0.003916,0.0000,0.0000,0.0000,-0.085272,0.085272,0.000364,0.002054,0.002554,2.0466,0.5673,0.8204,-0.084369,0.084369,0.000000,0.707165,-0.693359,0.682621,-0.705631,0.682621,-0.648874
