t,loop_dt,cmd_x,cmd_y,cmd_z,cmd_roll,cmd_pitch,cmd_yaw,cmd_ant_l,cmd_ant_r,pres_x,pres_y,pres_z,pres_roll,pres_pitch,pres_yaw,pres_ant_l,pres_ant_r,pres_j0,pres_j1,pres_j2,pres_j3,pres_j4,pres_j5,pres_j6
0.0000,0.000001,-0.000205,0.001522,-0.002601,0.6516,-0.0334,-0.3384,-0.003068,0.000000,-0.000205,0.001522,-0.002601,0.6516,-0.0334,-0.3384,-0.003068,0.000000,0.000000,0.578311,-0.562971,0.549165,-0.582913,0.567573,-0.559903
0.0168,0.016762,-0.000202,0.001497,-0.002558,0.6407,-0.0329,-0.3328,-0.003017,0.000000,-0.000205,0.001522,-0.002601,0.6516,-0.0334,-0.3384,0.004602,0.000000,0.000000,0.578311,-0.562971,0.549165,-0.582913,0.567573,-0.559903
0.0338,0.017050,-0.000198,0.001471,-0.002513,0.6296,-0.0324,-0.3270,-0.002964,0.000000,-0.000205,0.001522,-0.002601,0.6516,-0.0334,-0.3384,0.001534,0.000000,0.000000,0.578311,-0.562971,0.549165,-0.582913,0.567573,-0.559903
0.0506,0.016751,-0.000195,0.001445,-0.002470,0.6187,-0.0318,-0.3213,-0.002913,0.000000,-0.000205,0.001522,-0.002601,0.6516,-0.0334,-0.3384,0.001534,0.000000,0.000000,0.578311,-0.562971,0.549165,-0.582913,0.567573,-0.559903
0.0673,0.016751,-0.000191,0.001420,-0.002426,0.6078,-0.0313,-0.3157,-0.002861,0.000000,-0.000205,0.001522,-0.002601,0.6516,-0.0334,-0.3384,-0.006136,0.000000,0.000000,0.578311,-0.562971,0.549165,-0.582913,0.567573,-0.559903
0.0841,0.016750,-0.000188,0.001394,-0.002383,0.5969,-0.0308,-0.3100,-0.002810,0.000000,-0.000096,0.001538,-0.002664,0.6122,0.0689,-0.2849,-0.003068,0.000000,0.000000,0.575243,-0.561437,0.549165,-0.582913,0.567573,-0.556835
0.1008,0.016741,-0.000185,0.001369,-0.002339,0.5860,-0.0303,-0.3043,-0.002759,0.000000,0.000122,0.001590,-0.002758,0.6252,0.2115,-0.1849,0.004602,0.000000,0.000000,0.570641,-0.559903,0.549165,-0.582913,0.567573,-0.550699
0.1176,0.016753,-0.000181,0.001343,-0.002295,0.5750,-0.0297,-0.2986,-0.002707,0.000000,0.000181,0.001584,-0.002773,0.6233,0.2300,-0.1956,0.003068,0.000000,0.000000,0.569107,-0.559903,0.549165,-0.582913,0.567573,-0.549165
0.1344,0.016819,-0.000178,0.001318,-0.002252,0.5641,-0.0292,-0.2929,-0.002656,0.000000,0.000161,0.001640,-0.002760,0.6341,0.2788,-0.2480,-0.006136,0.000000,0.000000,0.569107,-0.559903,0.549165,-0.584447,0.567573,-0.549165
0.1511,0.016754,-0.000174,0.001292,-0.002208,0.5532,-0.0286,-0.2873,-0.002604,0.000000,0.000161,0.001640,-0.002760,0.6341,0.2788,-0.2480,-0.006136,0.000000,0.000000,0.569107,-0.559903,0.549165,-0.584447,0.567573,-0.549165
0.1679,0.016750,-0.000171,0.001267,-0.002165,0.5422,-0.0281,-0.2816,-0.002553,0.000000,0.000163,0.001634,-0.002761,0.6330,0.2737,-0.2425,-0.003068,0.000000,0.000000,0.569107,-0.559903,0.549165,-0.584447,0.567573,-0.549165
0.1846,0.016749,-0.000167,0.001241,-0.002121,0.5313,-0.0276,-0.2759,-0.002502,0.000000,0.000176,0.001579,-0.002773,0.6225,0.2235,-0.1896,0.003068,0.000000,0.000000,0.569107,-0.559903,0.549165,-0.582913,0.567573,-0.549165
0.2016,0.016980,-0.000164,0.001215,-0.002077,0.5203,-0.0270,-0.2702,-0.002449,0.000000,0.000175,0.001585,-0.002771,0.6236,0.2287,-0.1951,0.001534,0.000000,0.000000,0.569107,-0.559903,0.549165,-0.582913,0.567573,-0.549165
0.2184,0.016749,-0.000160,0.001190,-0.002033,0.5094,-0.0265,-0.2645,-0.002398,0.000000,0.000082,0.001562,-0.002771,0.5350,0.2462,-0.1944,-0.003068,0.000000,0.000000,0.569107,-0.558369,0.549165,-0.582913,0.567573,-0.550699
0.2351,0.016756,-0.000157,0.001164,-0.001990,0.4984,-0.0259,-0.2588,-0.002347,0.000000,0.000185,0.001587,-0.002772,0.6327,0.2264,-0.1946,-0.004602,0.000000,0.000000,0.569107,-0.559903,0.549165,-0.582913,0.567573,-0.549165
0.2519,0.016743,-0.000154,0.001139,-0.001946,0.4875,-0.0254,-0.2532,-0.002295,0.000000,0.000185,0.001587,-0.002772,0.6327,0.2264,-0.1946,-0.004602,0.000000,0.000000,0.569107,-0.559903,0.549165,-0.582913,0.567573,-0.549165
0.2686,0.016741,-0.000150,0.001113,-0.001903,0.4766,-0.0248,-0.2475,-0.002244,0.000000,0.000174,0.001584,-0.002771,0.6225,0.2284,-0.1946,0.001534,0.000000,0.000000,0.569107,-0.559903,0.549165,-0.582913,0.567573,-0.549165
0.2853,0.016743,-0.000147,0.001088,-0.001859,0.4657,-0.0243,-0.2418,-0.002193,0.000000,0.000176,0.001585,-0.002771,0.6240,0.2281,-0.1946,0.003068,0.000000,0.000000,0.569107,-0.559903,0.549165,-0.582913,0.567573,-0.549165
0.3021,0.016760,-0.000143,0.001062,-0.001815,0.4548,-0.0238,-0.2362,-0.002141,0.000000,0.000176,0.001585,-0.002771,0.6240,0.2281,-0.1946,-0.001534,0.000000,0.000000,0.569107,-0.559903,0.549165,-0.582913,0.567573,-0.549165
0.3188,0.016743,-0.000140,0.001037,-0.001772,0.4439,-0.0232,-0.2305,-0.002090,0.000000,0.000176,0.001585,-0.002771,0.6240,0.2281,-0.1946,-0.004602,0.000000,0.000000,0.569107,-0.559903,0.549165,-0.582913,0.567573,-0.549165
0.3356,0.016764,-0.000136,0.001011,-0.001728,0.4329,-0.0227,-0.2248,-0.002038,0.000000,0.000122,0.001600,-0.002784,0.5846,0.2640,-0.1413,0.001534,0.000000,0.000000,0.569107,-0.558369,0.549165,-0.582913,0.567573,-0.549165
0.3524,0.016744,-0.000133,0.000986,-0.001685,0.4220,-0.0221,-0.2192,-0.001987,0.000000,0.000122,0.001600,-0.002784,0.5846,0.2640,-0.1413,0.001534,0.000000,0.000000,0.569107,-0.558369,0.549165,-0.582913,0.567573,-0.549165
0.3691,0.016747,-0.000130,0.000960,-0.001641,0.4111,-0.0216,-0.2135,-0.001936,0.000000,0.000181,0.001583,-0.002770,0.6276,0.2245,-0.2002,0.004602,0.000000,0.000000,0.569107,-0.559903,0.549165,-0.582913,0.567573,-0.549165
0.3858,0.016743,-0.000126,0.000935,-0.001598,0.4002,-0.0210,-0.2078,-0.001884,0.000000,0.000174,0.001585,-0.002772,0.6231,0.2286,-0.1940,-0.001534,0.000000,0.000000,0.569107,-0.559903,0.549165,-0.582913,0.567573,-0.549165
0.4026,0.016746,-0.000123,0.000909,-0.001554,0.3893,-0.0204,-0.2022,-0.001833,0.000000,0.000122,0.001600,-0.002784,0.5847,0.2639,-0.1414,-0.004602,0.000000,0.000000,0.569107,-0.558369,0.549165,-0.582913,0.567573,-0.549165
0.4193,0.016741,-0.000119,0.000884,-0.001510,0.3784,-0.0199,-0.1965,-0.001781,0.000000,0.000181,0.001583,-0.002770,0.6276,0.2245,-0.2001,-0.001534,0.000000,0.000000,0.569107,-0.559903,0.549165,-0.582913,0.567573,-0.549165
0.4361,0.016756,-0.000116,0.000858,-0.001467,0.3675,-0.0193,-0.1908,-0.001730,0.000000,0.000181,0.001583,-0.002770,0.6276,0.2245,-0.2001,-0.001534,0.000000,0.000000,0.569107,-0.559903,0.549165,-0.582913,0.567573,-0.549165
0.4528,0.016742,-0.000112,0.000833,-0.001423,0.3566,-0.0188,-0.1852,-0.001679,0.000000,0.000174,0.001585,-0.002772,0.6231,0.2286,-0.1940,0.003068,0.000000,0.000000,0.569107,-0.559903,0.549165,-0.582913,0.567573,-0.549165
0.4696,0.016747,-0.000109,0.000807,-0.001380,0.3456,-0.0182,-0.1795,-0.001627,0.000000,0.000174,0.001585,-0.002772,0.6231,0.2286,-0.1940,-0.001534,0.000000,0.000000,0.569107,-0.559903,0.549165,-0.582913,0.567573,-0.549165
0.4863,0.016744,-0.000105,0.000782,-0.001336,0.3347,-0.0177,-0.1738,-0.001576,0.000000,0.000122,0.001600,-0.002784,0.5847,0.2639,-0.1414,-0.006136,0.000000,0.000000,0.569107,-0.558369,0.549165,-0.582913,0.567573,-0.549165
0.5031,0.016756,-0.000102,0.000756,-0.001293,0.3238,-0.0171,-0.1681,-0.001525,0.000000,0.000127,0.001599,-0.002783,0.5887,0.2602,-0.1469,-0.001534,0.000000,0.000000,0.569107,-0.558369,0.549165,-0.582913,0.567573,-0.549165
0.5198,0.016740,-0.000099,0.000731,-0.001249,0.3129,-0.0165,-0.1625,-0.001473,0.000000,0.000127,0.001599,-0.002783,0.5887,0.2602,-0.1469,0.003068,0.000000,0.000000,0.569107,-0.558369,0.549165,-0.582913,0.567573,-0.549165
0.5366,0.016751,-0.000095,0.000705,-0.001206,0.3020,-0.0160,-0.1568,-0.001422,0.000000,0.000127,0.001599,-0.002783,0.5887,0.2602,-0.1469,0.003068,0.000000,0.000000,0.569107,-0.558369,0.549165,-0.582913,0.567573,-0.549165
0.5533,0.016741,-0.000092,0.000680,-0.001162,0.2911,-0.0154,-0.1511,-0.001370,0.000000,0.000127,0.001599,-0.002783,0.5887,0.2602,-0.1469,0.000000,0.000000,0.000000,0.569107,-0.558369,0.549165,-0.582913,0.567573,-0.549165
0.5701,0.016744,-0.000088,0.000654,-0.001118,0.2802,-0.0149,-0.1455,-0.001319,0.000000,0.000127,0.001599,-0.002783,0.5887,0.2602,-0.1469,-0.006136,0.000000,0.000000,0.569107,-0.558369,0.549165,-0.582913,0.567573,-0.549165
0.5868,0.016748,-0.000085,0.000629,-0.001075,0.2693,-0.0143,-0.1398,-0.001268,0.000000,0.000180,0.001583,-0.002770,0.6272,0.2249,-0.1996,-0.003068,0.000000,0.000000,0.569107,-0.559903,0.549165,-0.582913,0.567573,-0.549165
0.6035,0.016747,-0.000081,0.000603,-0.001031,0.2583,-0.0137,-0.1341,-0.001216,0.000000,0.000175,0.001585,-0.002772,0.6231,0.2286,-0.1941,0.004602,0.000000,0.000000,0.569107,-0.559903,0.549165,-0.582913,0.567573,-0.549165
0.6203,0.016747,-0.000078,0.000578,-0.000988,0.2474,-0.0132,-0.1285,-0.001165,0.000000,0.000175,0.001585,-0.002772,0.6231,0.2286,-0.1941,0.000000,0.000000,0.000000,0.569107,-0.559903,0.549165,-0.582913,0.567573,-0.549165
0.6370,0.016751,-0.000075,0.000552,-0.000944,0.2365,-0.0126,-0.1228,-0.001114,0.000000,0.000175,0.001585,-0.002772,0.6231,0.2286,-0.1941,0.000000,0.000000,0.000000,0.569107,-0.559903,0.549165,-0.582913,0.567573,-0.549165
0.6538,0.016743,-0.000071,0.000527,-0.000901,0.2256,-0.0120,-0.1171,-0.001062,0.000000,0.000175,0.001585,-0.002772,0.6231,0.2286,-0.1941,-0.006136,0.000000,0.000000,0.569107,-0.559903,0.549165,-0.582913,0.567573,-0.549165
0.6705,0.016741,-0.000068,0.000502,-0.000857,0.2147,-0.0114,-0.1115,-0.001011,0.000000,0.000175,0.001585,-0.002772,0.6231,0.2286,-0.1941,-0.003068,0.000000,0.000000,0.569107,-0.559903,0.549165,-0.582913,0.567573,-0.549165
0.6874,0.016842,-0.000064,0.000476,-0.000813,0.2037,-0.0109,-0.1058,-0.000959,0.000000,0.000175,0.001585,-0.002772,0.6231,0.2286,-0.1941,0.004602,0.000000,0.000000,0.569107,-0.559903,0.549165,-0.582913,0.567573,-0.549165
0.7085,0.021086,-0.000060,0.000444,-0.000758,0.1900,-0.0102,-0.0986,-0.000894,0.000000,0.000175,0.001585,-0.002772,0.6231,0.2286,-0.1941,0.004602,0.000000,0.000000,0.569107,-0.559903,0.549165,-0.582913,0.567573,-0.549165
0.7252,0.016751,-0.000056,0.000418,-0.000715,0.1791,-0.0096,-0.0930,-0.000843,0.000000,0.000175,0.001585,-0.002772,0.6231,0.2286,-0.1941,0.004602,0.000000,0.000000,0.569107,-0.559903,0.549165,-0.582913,0.567573,-0.549165
0.7420,0.016744,-0.000053,0.000393,-0.000671,0.1682,-0.0090,-0.0873,-0.000792,0.000000,0.000175,0.001585,-0.002772,0.6231,0.2286,-0.1941,-0.003068,0.000000,0.000000,0.569107,-0.559903,0.549165,-0.582913,0.567573,-0.549165
0.7587,0.016765,-0.000050,0.000367,-0.000628,0.1572,-0.0084,-0.0816,-0.000740,0.000000,0.000175,0.001585,-0.002772,0.6231,0.2286,-0.1941,0.004602,0.000000,0.000000,0.569107,-0.559903,0.549165,-0.582913,0.567573,-0.549165
0.7755,0.016751,-0.000046,0.000342,-0.000584,0.1463,-0.0078,-0.0760,-0.000689,0.000000,0.000175,0.001585,-0.002772,0.6231,0.2286,-0.1941,0.001534,0.000000,0.000000,0.569107,-0.559903,0.549165,-0.582913,0.567573,-0.549165
0.7922,0.016767,-0.000043,0.000316,-0.000540,0.1354,-0.0073,-0.0703,-0.000637,0.000000,0.000134,0.001623,-0.002760,0.6737,0.2126,-0.1412,-0.006136,0.000000,0.000000,0.570641,-0.559903,0.549165,-0.582913,0.567573,-0.549165
0.8090,0.016748,-0.000039,0.000291,-0.000497,0.1245,-0.0067,-0.0646,-0.000586,0.000000,0.000134,0.001623,-0.002760,0.6737,0.2126,-0.1412,-0.006136,0.000000,0.000000,0.570641,-0.559903,0.549165,-0.582913,0.567573,-0.549165
0.8257,0.016746,-0.000036,0.000265,-0.000453,0.1136,-0.0061,-0.0590,-0.000535,0.000000,0.000138,0.001619,-0.002761,0.6684,0.2143,-0.1467,-0.003068,0.000000,0.000000,0.570641,-0.559903,0.549165,-0.582913,0.567573,-0.549165
0.8425,0.016750,-0.000032,0.000240,-0.000410,0.1026,-0.0055,-0.0533,-0.000483,0.000000,0.000138,0.001619,-0.002761,0.6684,0.2143,-0.1467,0.004602,0.000000,0.000000,0.570641,-0.559903,0.549165,-0.582913,0.567573,-0.549165
0.8592,0.016755,-0.000029,0.000214,-0.000366,0.0917,-0.0049,-0.0476,-0.000432,0.000000,0.000138,0.001619,-0.002761,0.6684,0.2143,-0.1467,0.003068,0.000000,0.000000,0.570641,-0.559903,0.549165,-0.582913,0.567573,-0.549165
0.8760,0.016747,-0.000025,0.000189,-0.000323,0.0808,-0.0044,-0.0420,-0.000380,0.000000,0.000138,0.001619,-0.002761,0.6684,0.2143,-0.1467,-0.006136,0.000000,0.000000,0.570641,-0.559903,0.549165,-0.582913,0.567573,-0.549165
0.8927,0.016758,-0.000022,0.000163,-0.000279,0.0699,-0.0038,-0.0363,-0.000329,0.000000,0.000138,0.001619,-0.002761,0.6684,0.2143,-0.1467,-0.003068,0.000000,0.000000,0.570641,-0.559903,0.549165,-0.582913,0.567573,-0.549165
0.9095,0.016752,-0.000019,0.000138,-0.000235,0.0590,-0.0032,-0.0306,-0.000278,0.000000,0.000138,0.001619,-0.002761,0.6684,0.2143,-0.1467,-0.003068,0.000000,0.000000,0.570641,-0.559903,0.549165,-0.582913,0.567573,-0.549165
0.9262,0.016742,-0.000015,0.000112,-0.000192,0.0481,-0.0026,-0.0250,-0.000226,0.000000,0.000138,0.001619,-0.002761,0.6684,0.2143,-0.1467,0.004602,0.000000,0.000000,0.570641,-0.559903,0.549165,-0.582913,0.567573,-0.549165
0.9430,0.016753,-0.000012,0.000087,-0.000148,0.0372,-0.0020,-0.0193,-0.000175,0.000000,0.000138,0.001619,-0.002761,0.6684,0.2143,-0.1467,0.003068,0.000000,0.000000,0.570641,-0.559903,0.549165,-0.582913,0.567573,-0.549165
0.9597,0.016715,-0.000008,0.000061,-0.000105,0.0263,-0.0014,-0.0136,-0.000124,0.000000,0.000138,0.001619,-0.002761,0.6684,0.2143,-0.1467,-0.004602,0.000000,0.000000,0.570641,-0.559903,0.549165,-0.582913,0.567573,-0.549165
0.9764,0.016748,-0.000005,0.000036,-0.000061,0.0153,-0.0008,-0.0080,-0.000072,0.000000,0.000138,0.001619,-0.002761,0.6684,0.2143,-0.1467,-0.003068,0.000000,0.000000,0.570641,-0.559903,0.549165,-0.582913,0.567573,-0.549165
0.9932,0.016752,-0.000001,0.000010,-0.000018,0.0044,-0.0002,-0.0023,-0.000021,0.000000,0.000138,0.001619,-0.002761,0.6684,0.2143,-0.1467,-0.003068,0.000000,0.000000,0.570641,-0.559903,0.549165,-0.582913,0.567573,-0.549165
1.0100,0.016756,0.000000,0.000000,0.000031,0.0000,0.0000,0.0000,0.001637,-0.001637,0.000138,0.001619,-0.002761,0.6684,0.2143,-0.1467,0.003068,0.000000,0.000000,0.570641,-0.559903,0.549165,-0.582913,0.567573,-0.549165
1.0267,0.016732,0.000000,0.000000,0.000084,0.0000,0.0000,0.0000,0.004385,-0.004385,0.000138,0.001619,-0.002761,0.6684,0.2143,-0.1467,0.003068,0.000000,0.000000,0.570641,-0.559903,0.549165,-0.582913,0.567573,-0.549165
1.0434,0.016749,0.000000,0.000000,0.000136,0.0000,0.0000,0.0000,0.007123,-0.007123,0.000098,0.001581,-0.002748,0.6193,0.1964,-0.1993,-0.003068,0.000000,0.000000,0.570641,-0.559903,0.549165,-0.582913,0.567573,-0.550699
1.0602,0.016749,0.000000,0.000000,0.000189,0.0000,0.0000,0.0000,0.009841,-0.009841,0.000142,0.001623,-0.002762,0.6741,0.2160,-0.1407,-0.003068,-0.001534,0.000000,0.570641,-0.559903,0.549165,-0.582913,0.567573,-0.549165
1.0769,0.016759,0.000000,0.000000,0.000242,0.0000,0.0000,0.0000,0.012534,-0.012534,0.000098,0.001581,-0.002747,0.6188,0.1962,-0.1999,0.004602,-0.003068,0.000000,0.570641,-0.559903,0.549165,-0.582913,0.567573,-0.550699
1.0937,0.016742,0.000000,0.000000,0.000294,0.0000,0.0000,0.0000,0.015189,-0.015189,0.000098,0.001581,-0.002747,0.6188,0.1962,-0.1999,0.004602,-0.003068,0.000000,0.570641,-0.559903,0.549165,-0.582913,0.567573,-0.550699
1.1104,0.016757,0.000000,0.000000,0.000347,0.0000,0.0000,0.0000,0.017805,-0.017805,0.000142,0.001623,-0.002762,0.6741,0.2160,-0.1406,0.007670,-0.004602,0.000000,0.570641,-0.559903,0.549165,-0.582913,0.567573,-0.549165
1.1272,0.016747,0.000000,0.000000,0.000399,0.0000,0.0000,0.0000,0.020369,-0.020369,0.000191,0.001603,-0.002748,0.7073,0.1782,-0.2001,0.001534,-0.004602,0.000000,0.570641,-0.561437,0.549165,-0.582913,0.567573,-0.549165
1.1442,0.016995,0.000000,0.000000,0.000452,0.0000,0.0000,0.0000,0.022914,-0.022914,0.000186,0.001605,-0.002750,0.7038,0.1822,-0.1939,0.004602,-0.009204,0.000000,0.570641,-0.561437,0.549165,-0.582913,0.567573,-0.549165
1.1609,0.016747,0.000000,0.000000,0.000505,0.0000,0.0000,0.0000,0.025359,-0.025359,0.000200,0.001551,-0.002724,0.6933,0.1283,-0.3011,0.012272,-0.015340,0.000000,0.570641,-0.562971,0.549165,-0.582913,0.567573,-0.550699
1.1779,0.016928,0.000000,0.000000,0.000558,0.0000,0.0000,0.0000,0.027758,-0.027758,0.000200,0.001551,-0.002724,0.6933,0.1283,-0.3011,0.019942,-0.019942,0.000000,0.572175,-0.562971,0.549165,-0.584447,0.567573,-0.549165
1.1946,0.016740,0.000000,0.000000,0.000610,0.0000,0.0000,0.0000,0.030053,-0.030053,0.000184,0.001688,-0.002716,0.8047,0.1867,-0.2368,0.019942,-0.019942,0.000000,0.572175,-0.562971,0.549165,-0.584447,0.567573,-0.549165
1.2113,0.016749,0.000000,0.000000,0.000662,0.0000,0.0000,0.0000,0.032267,-0.032267,0.000185,0.001674,-0.002717,0.7931,0.1807,-0.2435,0.023010,-0.021476,0.000000,0.572175,-0.562971,0.549165,-0.584447,0.567573,-0.549165
1.2281,0.016743,0.000000,0.000000,0.000714,0.0000,0.0000,0.0000,0.034390,-0.034390,0.000145,0.001637,-0.002704,0.7447,0.1635,-0.2959,0.021476,-0.021476,0.000000,0.572175,-0.562971,0.549165,-0.584447,0.567573,-0.550699
1.2450,0.016895,0.000000,0.000000,0.000767,0.0000,0.0000,0.0000,0.036436,-0.036436,0.000162,0.001663,-0.002681,0.8387,0.1141,-0.2905,0.023010,-0.024544,0.000000,0.573709,-0.564505,0.549165,-0.584447,0.567573,-0.550699
1.2617,0.016754,0.000000,0.000000,0.000819,0.0000,0.0000,0.0000,0.038364,-0.038364,0.000038,0.001700,-0.002609,0.8795,0.0676,-0.3974,0.030680,-0.030680,0.000000,0.576777,-0.566039,0.549165,-0.585981,0.567573,-0.553767
1.2790,0.017274,0.000000,0.000000,0.000872,0.0000,0.0000,0.0000,0.040240,-0.040240,-0.000151,0.001724,-0.002456,0.9664,0.1573,-0.5463,0.038350,-0.036816,0.000000,0.581379,-0.569107,0.552233,-0.590583,0.567573,-0.558369
1.2958,0.016740,0.000000,0.000000,0.000924,0.0000,0.0000,0.0000,0.041946,-0.041946,-0.000151,0.001724,-0.002456,0.9664,0.1573,-0.5463,0.038350,-0.036816,0.000000,0.581379,-0.569107,0.552233,-0.590583,0.567573,-0.558369
1.3125,0.016753,0.000000,0.000000,0.000975,0.0000,0.0000,0.0000,0.043536,-0.043536,-0.000239,0.001585,-0.002271,1.0157,0.2174,-0.5310,0.035282,-0.036816,0.000000,0.585981,-0.573709,0.558369,-0.593651,0.569107,-0.562971
1.3293,0.016744,0.000000,0.000000,0.001027,0.0000,0.0000,0.0000,0.045006,-0.045006,-0.000365,0.001479,-0.002053,1.0291,0.2134,-0.4793,0.030680,-0.036816,0.000000,0.592117,-0.578311,0.564505,-0.596719,0.572175,-0.569107
1.3463,0.017014,0.000000,0.000000,0.001079,0.0000,0.0000,0.0000,0.046371,-0.046371,-0.000340,0.001438,-0.001864,1.0160,0.1634,-0.4321,0.038350,-0.039884,0.000000,0.596719,-0.582913,0.569107,-0.599786,0.576777,-0.573709
1.3630,0.016744,0.000000,0.000000,0.001131,0.0000,0.0000,0.0000,0.047585,-0.047585,-0.000329,0.001280,-0.001670,0.9839,0.1198,-0.2764,0.046019,-0.042951,0.000000,0.601320,-0.587515,0.575243,-0.601320,0.581379,-0.578311
1.3798,0.016770,0.000000,0.000000,0.001182,0.0000,0.0000,0.0000,0.048670,-0.048670,-0.000344,0.001244,-0.001529,0.9762,0.1760,-0.2391,0.044485,-0.044485,0.000000,0.604388,-0.590583,0.579845,-0.604388,0.584447,-0.581379
1.3965,0.016738,0.000000,0.000000,0.001233,0.0000,0.0000,0.0000,0.049617,-0.049617,-0.000344,0.001244,-0.001529,0.9762,0.1760,-0.2391,0.044485,-0.044485,0.000000,0.604388,-0.590583,0.579845,-0.604388,0.584447,-0.581379
1.4133,0.016750,0.000000,0.000000,0.001284,0.0000,0.0000,0.0000,0.050428,-0.050428,-0.000247,0.001194,-0.001431,0.9651,0.1525,-0.1897,0.039884,-0.046019,0.000000,0.605922,-0.593651,0.582913,-0.605922,0.587515,-0.582913
1.4300,0.016742,0.000000,0.000000,0.001335,0.0000,0.0000,0.0000,0.051099,-0.051099,-0.000162,0.001145,-0.001366,0.9543,0.1393,0.0207,0.042951,-0.047553,0.000000,0.607456,-0.595185,0.585981,-0.605922,0.590583,-0.582913
1.4468,0.016770,0.000000,0.000000,0.001385,0.0000,0.0000,0.0000,0.051630,-0.051630,-0.000102,0.001096,-0.001310,0.9446,0.2247,0.0527,0.049087,-0.047553,0.000000,0.607456,-0.596719,0.589049,-0.607456,0.592117,-0.582913
1.4635,0.016744,0.000000,0.000000,0.001436,0.0000,0.0000,0.0000,0.052016,-0.052016,-0.000175,0.000953,-0.001240,0.8746,0.3028,0.2664,0.050621,-0.047553,0.000000,0.608990,-0.596719,0.593651,-0.607456,0.593651,-0.584447
1.4803,0.016766,0.000000,0.000000,0.001486,0.0000,0.0000,0.0000,0.052260,-0.052260,-0.000175,0.000953,-0.001240,0.8746,0.3028,0.2664,0.049087,-0.047553,0.000000,0.610524,-0.599786,0.595185,-0.608990,0.596719,-0.585981
1.4970,0.016741,0.000000,0.000000,0.001536,0.0000,0.0000,0.0000,0.052358,-0.052358,-0.000059,0.000968,-0.001149,0.8813,0.2252,0.2437,0.049087,-0.047553,0.000000,0.610524,-0.599786,0.595185,-0.608990,0.596719,-0.585981
1.5138,0.016750,0.000000,0.000000,0.001586,0.0000,0.0000,0.0000,0.052311,-0.052311,-0.000056,0.000929,-0.001109,0.8311,0.3520,0.3547,0.047553,-0.049087,0.000000,0.610524,-0.599786,0.598253,-0.610524,0.598253,-0.585981
1.5305,0.016741,0.000000,0.000000,0.001636,0.0000,0.0000,0.0000,0.052119,-0.052119,0.000013,0.001021,-0.001053,0.7692,0.4229,0.3970,0.050621,-0.050621,0.000000,0.610524,-0.599786,0.599786,-0.613592,0.601320,-0.585981
1.5473,0.016756,0.000000,0.000000,0.001686,0.0000,0.0000,0.0000,0.051783,-0.051783,-0.000007,0.000957,-0.001046,0.7650,0.4665,0.4471,0.055223,-0.050621,0.000000,0.610524,-0.599786,0.601320,-0.613592,0.601320,-0.585981
1.5640,0.016742,0.000000,0.000000,0.001735,0.0000,0.0000,0.0000,0.051304,-0.051304,-0.000005,0.000963,-0.001046,0.7655,0.4619,0.4419,0.052155,-0.052155,0.000000,0.610524,-0.599786,0.601320,-0.613592,0.601320,-0.585981
1.5808,0.016773,0.000000,0.000000,0.001784,0.0000,0.0000,0.0000,0.050682,-0.050682,0.000050,0.000978,-0.001034,0.7266,0.4284,0.4963,0.047553,-0.052155,0.000000,0.610524,-0.599786,0.601320,-0.613592,0.602854,-0.585981
1.5975,0.016745,0.000000,0.000000,0.001833,0.0000,0.0000,0.0000,0.049921,-0.049921,0.000050,0.000978,-0.001034,0.7266,0.4284,0.4963,0.047553,-0.052155,0.000000,0.610524,-0.599786,0.601320,-0.613592,0.602854,-0.585981
1.6143,0.016748,0.000000,0.000000,0.001882,0.0000,0.0000,0.0000,0.049021,-0.049021,0.000098,0.000992,-0.001023,0.6918,0.3978,0.5445,0.047553,-0.052155,0.000000,0.610524,-0.599786,0.601320,-0.613592,0.604388,-0.585981
1.6310,0.016748,0.000000,0.000000,0.001931,0.0000,0.0000,0.0000,0.047986,-0.047986,0.000093,0.000991,-0.001025,0.6955,0.4010,0.5395,0.053689,-0.052155,0.000000,0.610524,-0.599786,0.601320,-0.613592,0.604388,-0.585981
1.6478,0.016771,0.000000,0.000000,0.001979,0.0000,0.0000,0.0000,0.046816,-0.046816,0.000093,0.000991,-0.001025,0.6955,0.4010,0.5395,0.055223,-0.052155,0.000000,0.610524,-0.599786,0.601320,-0.613592,0.604388,-0.585981
1.6646,0.016756,0.000000,0.000000,0.002028,0.0000,0.0000,0.0000,0.045517,-0.045517,0.000081,0.001047,-0.001013,0.7057,0.4514,0.4858,0.049087,-0.047553,0.000000,0.610524,-0.599786,0.601320,-0.615126,0.604388,-0.585981
1.6813,0.016765,0.000000,0.000000,0.002076,0.0000,0.0000,0.0000,0.044092,-0.044092,0.000081,0.001047,-0.001013,0.7057,0.4514,0.4858,0.042951,-0.044485,0.000000,0.610524,-0.599786,0.601320,-0.616660,0.604388,-0.587515
1.6981,0.016740,0.000000,0.000000,0.002123,0.0000,0.0000,0.0000,0.042546,-0.042546,0.000028,0.001058,-0.000989,0.6657,0.4794,0.3831,0.042951,-0.044485,0.000000,0.610524,-0.599786,0.601320,-0.616660,0.604388,-0.587515
1.7148,0.016751,0.000000,0.000000,0.002171,0.0000,0.0000,0.0000,0.040882,-0.040882,0.000034,0.001057,-0.000992,0.6699,0.4765,0.3938,0.042951,-0.046019,0.000000,0.610524,-0.599786,0.601320,-0.616660,0.604388,-0.587515
1.7316,0.016820,0.000000,0.000000,0.002218,0.0000,0.0000,0.0000,0.039097,-0.039097,-0.000034,0.001130,-0.000955,0.6413,0.5606,0.2299,0.046019,-0.047553,0.000000,0.610524,-0.599786,0.601320,-0.619728,0.604388,-0.589049
1.7484,0.016793,0.000000,0.000000,0.002266,0.0000,0.0000,0.0000,0.037206,-0.037206,-0.000034,0.001130,-0.000955,0.6413,0.5606,0.2299,0.046019,-0.047553,0.000000,0.610524,-0.599786,0.601320,-0.619728,0.604388,-0.589049
1.7652,0.016750,0.000000,0.000000,0.002312,0.0000,0.0000,0.0000,0.035217,-0.035217,-0.000034,0.001130,-0.000955,0.6413,0.5606,0.2299,0.046019,-0.047553,0.000000,0.610524,-0.599786,0.601320,-0.619728,0.604388,-0.589049
1.7819,0.016769,0.000000,0.000000,0.002359,0.0000,0.0000,0.0000,0.033128,-0.033128,-0.000276,0.001237,-0.000703,0.6669,0.4469,-0.3504,0.035282,-0.039884,0.000000,0.616660,-0.605922,0.601320,-0.627398,0.605922,-0.599786
1.7987,0.016746,0.000000,0.000000,0.002405,0.0000,0.0000,0.0000,0.030950,-0.030950,-0.000388,0.001322,-0.000646,0.7261,0.4586,-0.4527,0.041417,-0.039884,0.000000,0.619728,-0.607456,0.601320,-0.630466,0.605922,-0.602854
1.8155,0.016770,0.000000,0.000000,0.002451,0.0000,0.0000,0.0000,0.028683,-0.028683,-0.000388,0.001322,-0.000646,0.7261,0.4586,-0.4527,0.041417,-0.038350,0.000000,0.621262,-0.610524,0.601320,-0.632000,0.604388,-0.605922
1.8322,0.016740,0.000000,0.000000,0.002497,0.0000,0.0000,0.0000,0.026341,-0.026341,-0.000460,0.001282,-0.000591,0.7990,0.4213,-0.7138,0.041417,-0.038350,0.000000,0.621262,-0.610524,0.601320,-0.632000,0.604388,-0.605922
1.8490,0.016751,0.000000,0.000000,0.002542,0.0000,0.0000,0.0000,0.023924,-0.023924,-0.000565,0.001350,-0.000501,0.9301,0.3244,-0.7952,0.033748,-0.032214,0.000000,0.625864,-0.613592,0.601320,-0.633534,0.604388,-0.608990
1.8657,0.016745,0.000000,0.000000,0.002588,0.0000,0.0000,0.0000,0.021442,-0.021442,-0.000541,0.001399,-0.000414,0.9277,0.2805,-1.0061,0.026078,-0.030680,0.000000,0.627398,-0.616660,0.601320,-0.636602,0.605922,-0.612058
1.8825,0.016761,0.000000,0.000000,0.002632,0.0000,0.0000,0.0000,0.018898,-0.018898,-0.000547,0.001377,-0.000300,0.9647,0.1188,-0.8760,0.024544,-0.030680,0.000000,0.632000,-0.619728,0.602854,-0.636602,0.608990,-0.615126
1.8992,0.016739,0.000000,0.000000,0.002677,0.0000,0.0000,0.0000,0.016305,-0.016305,-0.000506,0.001310,-0.000176,0.9866,0.1546,-0.7266,0.029146,-0.029146,0.000000,0.635068,-0.622796,0.607456,-0.638136,0.612058,-0.616660
1.9160,0.016779,0.000000,0.000000,0.002721,0.0000,0.0000,0.0000,0.013661,-0.013661,-0.000506,0.001310,-0.000176,0.9866,0.1546,-0.7266,0.029146,-0.029146,0.000000,0.635068,-0.622796,0.607456,-0.638136,0.612058,-0.616660
1.9327,0.016746,0.000000,0.000000,0.002765,0.0000,0.0000,0.0000,0.010984,-0.010984,-0.000497,0.001262,-0.000053,0.9723,0.1012,-0.6886,0.026078,-0.026078,0.000000,0.638136,-0.625864,0.610524,-0.639670,0.615126,-0.619728
1.9495,0.016751,0.000000,0.000000,0.002809,0.0000,0.0000,0.0000,0.008276,-0.008276,-0.000443,0.001173,0.000095,0.9117,0.0748,-0.5295,0.018408,-0.018408,0.000000,0.641204,-0.628932,0.615126,-0.641204,0.619728,-0.622796
1.9662,0.016746,0.000000,0.000000,0.002852,0.0000,0.0000,0.0000,0.005546,-0.005546,-0.000366,0.001184,0.000202,0.9156,0.1137,-0.2176,0.010738,-0.013806,0.000000,0.644272,-0.630466,0.619728,-0.642738,0.624330,-0.622796
1.9830,0.016751,0.000000,0.000000,0.002895,0.0000,0.0000,0.0000,0.002800,-0.002800,-0.000346,0.001201,0.000264,0.8759,0.1786,-0.0307,0.009204,-0.012272,0.000000,0.645806,-0.630466,0.622796,-0.644272,0.627398,-0.622796
1.9997,0.016758,0.000000,0.000000,0.002938,0.0000,0.0000,0.0000,0.000044,-0.000044,-0.000430,0.001217,0.000306,0.8414,0.3095,0.1701,0.010738,-0.010738,0.000000,0.647340,-0.628932,0.625864,-0.645806,0.628932,-0.622796
2.0165,0.016756,0.000000,0.000000,0.002981,0.0000,0.0000,0.0000,-0.002711,0.002711,-0.000430,0.001217,0.000306,0.8414,0.3095,0.1701,0.010738,-0.010738,0.000000,0.647340,-0.628932,0.625864,-0.645806,0.628932,-0.622796
2.0332,0.016751,0.000000,0.000000,0.003023,0.0000,0.0000,0.0000,-0.005457,0.005457,-0.000393,0.001233,0.000374,0.8055,0.3647,0.3691,0.006136,-0.004602,0.000000,0.648874,-0.628932,0.628932,-0.647340,0.632000,-0.622796
2.0500,0.016757,0.000000,0.000000,0.003065,0.0000,0.0000,0.0000,-0.008190,0.008190,-0.000299,0.001208,0.000404,0.7212,0.3421,0.5128,-0.003068,-0.001534,0.000000,0.648874,-0.628932,0.630466,-0.647340,0.635068,-0.622796
2.0667,0.016752,0.000000,0.000000,0.003106,0.0000,0.0000,0.0000,-0.010899,0.010899,-0.000294,0.001172,0.000450,0.6808,0.4615,0.6080,-0.001534,-0.001534,0.000000,0.648874,-0.628932,0.633534,-0.648874,0.636602,-0.622796
2.0835,0.016749,0.000000,0.000000,0.003147,0.0000,0.0000,0.0000,-0.013578,0.013578,-0.000279,0.001137,0.000494,0.6357,0.5659,0.7082,0.003068,-0.001534,0.000000,0.648874,-0.628932,0.636602,-0.650408,0.638136,-0.622796
2.1002,0.016753,0.000000,0.000000,0.003188,0.0000,0.0000,0.0000,-0.016219,0.016219,-0.000238,0.001100,0.000514,0.5912,0.5714,0.8078,-0.001534,0.003068,0.000000,0.648874,-0.628932,0.638136,-0.650408,0.639670,-0.622796
2.1170,0.016753,0.000000,0.000000,0.003228,0.0000,0.0000,0.0000,-0.018816,0.018816,-0.000238,0.001100,0.000514,0.5912,0.5714,0.8078,-0.001534,0.003068,0.000000,0.648874,-0.628932,0.638136,-0.650408,0.639670,-0.622796
2.1337,0.016746,0.000000,0.000000,0.003268,0.0000,0.0000,0.0000,-0.021359,0.021359,-0.000145,0.001160,0.000548,0.6070,0.5522,0.7422,-0.009204,0.013806,0.000000,0.648874,-0.630466,0.638136,-0.651942,0.641204,-0.622796
2.1505,0.016747,0.000000,0.000000,0.003308,0.0000,0.0000,0.0000,-0.023843,0.023843,-0.000155,0.001154,0.000544,0.6053,0.5542,0.7491,-0.016874,0.013806,0.000000,0.648874,-0.630466,0.638136,-0.651942,0.641204,-0.622796
2.1672,0.016743,0.000000,0.000000,0.003347,0.0000,0.0000,0.0000,-0.026261,0.026261,-0.000099,0.001171,0.000556,0.5673,0.5204,0.8032,-0.018408,0.010738,0.000000,0.648874,-0.630466,0.638136,-0.651942,0.642738,-0.622796
2.1840,0.016743,0.000000,0.000000,0.003386,0.0000,0.0000,0.0000,-0.028607,0.028607,-0.000063,0.001209,0.000579,0.6205,0.5389,0.6875,-0.016874,0.013806,0.000000,0.648874,-0.632000,0.638136,-0.653476,0.642738,-0.622796
2.2008,0.016772,0.000000,0.000000,0.003424,0.0000,0.0000,0.0000,-0.030877,0.030877,-0.000080,0.001262,0.000588,0.6257,0.5869,0.6444,-0.021476,0.023010,0.000000,0.648874,-0.632000,0.638136,-0.655010,0.642738,-0.622796
2.2175,0.016766,0.000000,0.000000,0.003463,0.0000,0.0000,0.0000,-0.033060,0.033060,-0.000080,0.001262,0.000588,0.6257,0.5869,0.6444,-0.021476,0.023010,0.000000,0.648874,-0.632000,0.638136,-0.655010,0.642738,-0.622796
2.2343,0.016744,0.000000,0.000000,0.003500,0.0000,0.0000,0.0000,-0.035149,0.035149,-0.000079,0.001224,0.000588,0.7017,0.5804,0.5391,-0.030680,0.024544,0.000000,0.648874,-0.633534,0.638136,-0.655010,0.641204,-0.622796
2.2510,0.016744,0.000000,0.000000,0.003538,0.0000,0.0000,0.0000,-0.037141,0.037141,0.000018,0.001285,0.000624,0.7046,0.5622,0.4947,-0.029146,0.024544,0.000000,0.648874,-0.635068,0.638136,-0.656544,0.642738,-0.622796
2.2678,0.016745,0.000000,0.000000,0.003575,0.0000,0.0000,0.0000,-0.039030,0.039030,-0.000006,0.001303,0.000632,0.7915,0.6124,0.3343,-0.026078,0.026078,0.000000,0.648874,-0.636602,0.638136,-0.658078,0.641204,-0.622796
2.2845,0.016745,0.000000,0.000000,0.003611,0.0000,0.0000,0.0000,-0.040812,0.040812,0.000052,0.001317,0.000643,0.7441,0.5735,0.4058,-0.030680,0.033748,0.000000,0.648874,-0.636602,0.638136,-0.658078,0.642738,-0.622796
2.3013,0.016781,0.000000,0.000000,0.003648,0.0000,0.0000,0.0000,-0.042483,0.042483,0.000052,0.001317,0.000643,0.7441,0.5735,0.4058,-0.038350,0.038350,0.000000,0.650408,-0.636602,0.638136,-0.659612,0.642738,-0.622796
2.3180,0.016743,0.000000,0.000000,0.003683,0.0000,0.0000,0.0000,-0.044034,0.044034,-0.000010,0.001413,0.000664,0.8087,0.6127,0.3986,-0.038350,0.038350,0.000000,0.650408,-0.636602,0.638136,-0.659612,0.642738,-0.622796
2.3348,0.016747,0.000000,0.000000,0.003719,0.0000,0.0000,0.0000,-0.045463,0.045463,-0.000073,0.001557,0.000696,0.8726,0.6935,0.3444,-0.044485,0.036816,0.000000,0.651942,-0.636602,0.638136,-0.662680,0.642738,-0.622796
2.3515,0.016743,0.000000,0.000000,0.003754,0.0000,0.0000,0.0000,-0.046765,0.046765,-0.000179,0.001737,0.000737,0.9857,0.7553,0.3509,-0.042951,0.036816,0.000000,0.655010,-0.636602,0.638136,-0.665748,0.642738,-0.622796
2.3683,0.016743,0.000000,0.000000,0.003788,0.0000,0.0000,0.0000,-0.047939,0.047939,-0.000309,0.001783,0.000742,1.1101,0.7535,0.4070,-0.036816,0.042951,0.000000,0.658078,-0.636602,0.638136,-0.665748,0.641204,-0.622796
2.3850,0.016748,0.000000,0.000000,0.003822,0.0000,0.0000,0.0000,-0.048980,0.048980,-0.000243,0.001956,0.000822,1.2544,0.7203,0.3464,-0.041417,0.042951,0.000000,0.661146,-0.639670,0.638136,-0.668816,0.642738,-0.622796
2.4021,0.017137,0.000000,0.000000,0.003857,0.0000,0.0000,0.0000,-0.049905,0.049905,-0.000252,0.002019,0.000848,1.3371,0.7236,0.2980,-0.050621,0.042951,0.000000,0.662680,-0.641204,0.638136,-0.670350,0.642738,-0.622796
2.4189,0.016745,0.000000,0.000000,0.003890,0.0000,0.0000,0.0000,-0.050669,0.050669,-0.000252,0.002019,0.000848,1.3371,0.7236,0.2980,-0.050621,0.042951,0.000000,0.662680,-0.641204,0.638136,-0.670350,0.642738,-0.622796
2.4356,0.016748,0.000000,0.000000,0.003923,0.0000,0.0000,0.0000,-0.051293,0.051293,-0.000198,0.002077,0.000892,1.4641,0.6877,0.1928,-0.052155,0.047553,0.000000,0.664214,-0.644272,0.638136,-0.671884,0.642738,-0.622796
2.4524,0.016745,0.000000,0.000000,0.003955,0.0000,0.0000,0.0000,-0.051775,0.051775,-0.000083,0.002174,0.000969,1.6338,0.5731,0.1481,-0.049087,0.047553,0.000000,0.667282,-0.648874,0.638136,-0.673418,0.644272,-0.622796
2.4691,0.016743,0.000000,0.000000,0.003987,0.0000,0.0000,0.0000,-0.052114,0.052114,-0.000071,0.002245,0.001044,1.7123,0.4848,0.0972,-0.046019,0.047553,0.000000,0.670350,-0.651942,0.638136,-0.674952,0.645806,-0.624330
2.4859,0.016745,0.000000,0.000000,0.004019,0.0000,0.0000,0.0000,-0.052308,0.052308,0.000039,0.002237,0.001096,1.7025,0.4214,-0.0649,-0.050621,0.047553,0.000000,0.670350,-0.655010,0.638136,-0.676486,0.647340,-0.625864
2.5031,0.017272,0.000000,0.000000,0.004051,0.0000,0.0000,0.0000,-0.052357,0.052357,0.000137,0.002318,0.001149,1.7991,0.3590,-0.1046,-0.056757,0.049087,0.000000,0.671884,-0.658078,0.638136,-0.678020,0.648874,-0.625864
2.5199,0.016812,0.000000,0.000000,0.004082,0.0000,0.0000,0.0000,-0.052257,0.052257,0.000137,0.002318,0.001149,1.7991,0.3590,-0.1046,-0.056757,0.049087,0.000000,0.671884,-0.658078,0.638136,-0.678020,0.648874,-0.625864
2.5367,0.016758,0.000000,0.000000,0.004112,0.0000,0.0000,0.0000,-0.052012,0.052012,0.000196,0.002382,0.001214,1.7599,0.2814,-0.1017,-0.052155,0.050621,0.000000,0.673418,-0.659612,0.638136,-0.679553,0.651942,-0.627398
2.5536,0.016850,0.000000,0.000000,0.004142,0.0000,0.0000,0.0000,-0.051620,0.051620,0.000077,0.002392,0.001267,1.7259,0.1940,-0.0459,-0.047553,0.050621,0.000000,0.676486,-0.659612,0.638136,-0.679553,0.653476,-0.630466
2.5703,0.016743,0.000000,0.000000,0.004171,0.0000,0.0000,0.0000,-0.051088,0.051088,-0.000050,0.002410,0.001309,1.6923,0.2033,-0.1618,-0.055223,0.050621,0.000000,0.678020,-0.659612,0.638136,-0.681087,0.653476,-0.633534
2.5871,0.016768,0.000000,0.000000,0.004200,0.0000,0.0000,0.0000,-0.050413,0.050413,0.000050,0.002329,0.001392,1.5970,0.2337,-0.0949,-0.056757,0.050621,0.000000,0.678020,-0.661146,0.641204,-0.682621,0.656544,-0.635068
2.6040,0.016932,0.000000,0.000000,0.004228,0.0000,0.0000,0.0000,-0.049590,0.049590,-0.000014,0.002244,0.001482,1.5473,0.2636,-0.1014,-0.049087,0.049087,0.000000,0.679553,-0.662680,0.644272,-0.684155,0.658078,-0.638136
2.6207,0.016743,0.000000,0.000000,0.004256,0.0000,0.0000,0.0000,-0.048638,0.048638,-0.000014,0.002244,0.001482,1.5473,0.2636,-0.1014,-0.049087,0.049087,0.000000,0.679553,-0.662680,0.644272,-0.684155,0.658078,-0.638136
2.6375,0.016749,0.000000,0.000000,0.004284,0.0000,0.0000,0.0000,-0.047551,0.047551,-0.000118,0.002176,0.001559,1.4557,0.3289,-0.0443,-0.047553,0.049087,0.000000,0.681087,-0.662680,0.647340,-0.685689,0.659612,-0.641204
2.6542,0.016741,0.000000,0.000000,0.004310,0.0000,0.0000,0.0000,-0.046333,0.046333,-0.000260,0.002147,0.001648,1.4171,0.3766,0.0623,-0.052155,0.049087,0.000000,0.684155,-0.662680,0.650408,-0.687223,0.661146,-0.644272
2.6712,0.016958,0.000000,0.000000,0.004337,0.0000,0.0000,0.0000,-0.044968,0.044968,-0.000286,0.001951,0.001750,1.4636,0.5199,0.1084,-0.053689,0.049087,0.000000,0.685689,-0.665748,0.656544,-0.688757,0.661146,-0.645806
2.6879,0.016743,0.000000,0.000000,0.004363,0.0000,0.0000,0.0000,-0.043496,0.043496,-0.000240,0.001931,0.001765,1.4095,0.5219,0.2147,-0.047553,0.049087,0.000000,0.685689,-0.665748,0.658078,-0.688757,0.662680,-0.645806
2.7047,0.016755,0.000000,0.000000,0.004389,0.0000,0.0000,0.0000,-0.041902,0.041902,-0.000145,0.001910,0.001836,1.3278,0.5021,0.2027,-0.044485,0.047553,0.000000,0.685689,-0.667282,0.659612,-0.690291,0.665748,-0.647340
2.7214,0.016738,0.000000,0.000000,0.004414,0.0000,0.0000,0.0000,-0.040194,0.040194,-0.000145,0.001910,0.001836,1.3278,0.5021,0.2027,-0.044485,0.047553,0.000000,0.685689,-0.667282,0.659612,-0.690291,0.665748,-0.647340
2.7382,0.016790,0.000000,0.000000,0.004438,0.0000,0.0000,0.0000,-0.038369,0.038369,-0.000113,0.001839,0.001854,1.3628,0.5190,0.2040,-0.047553,0.044485,0.000000,0.685689,-0.668816,0.661146,-0.690291,0.665748,-0.647340
2.7550,0.016744,0.000000,0.000000,0.004462,0.0000,0.0000,0.0000,-0.036442,0.036442,-0.000059,0.001749,0.001902,1.2990,0.4819,0.2035,-0.049087,0.042951,0.000000,0.685689,-0.670350,0.662680,-0.690291,0.667282,-0.648874
2.7718,0.016813,0.000000,0.000000,0.004486,0.0000,0.0000,0.0000,-0.034407,0.034407,0.000007,0.001703,0.001958,1.2943,0.5662,0.2595,-0.044485,0.042951,0.000000,0.685689,-0.671884,0.665748,-0.691825,0.668816,-0.648874
2.7885,0.016771,0.000000,0.000000,0.004509,0.0000,0.0000,0.0000,-0.032280,0.032280,0.000007,0.001703,0.001958,1.2943,0.5662,0.2595,-0.044485,0.042951,0.000000,0.685689,-0.671884,0.665748,-0.691825,0.668816,-0.648874
2.8053,0.016789,0.000000,0.000000,0.004531,0.0000,0.0000,0.0000,-0.030062,0.030062,0.000007,0.001703,0.001958,1.2943,0.5662,0.2595,-0.044485,0.042951,0.000000,0.685689,-0.671884,0.665748,-0.691825,0.668816,-0.648874
2.8221,0.016771,0.000000,0.000000,0.004553,0.0000,0.0000,0.0000,-0.027763,0.027763,0.000007,0.001703,0.001958,1.2943,0.5662,0.2595,-0.044485,0.042951,0.000000,0.685689,-0.671884,0.665748,-0.691825,0.668816,-0.648874
2.8389,0.016765,0.000000,0.000000,0.004575,0.0000,0.0000,0.0000,-0.025387,0.025387,0.000007,0.001703,0.001958,1.2943,0.5662,0.2595,-0.044485,0.042951,0.000000,0.685689,-0.671884,0.665748,-0.691825,0.668816,-0.648874
2.8556,0.016747,0.000000,0.000000,0.004596,0.0000,0.0000,0.0000,-0.022944,0.022944,0.000142,0.001725,0.002012,1.2562,0.5545,0.3086,-0.039884,0.035282,0.000000,0.685689,-0.673418,0.667282,-0.693359,0.671884,-0.648874
2.8724,0.016753,0.000000,0.000000,0.004616,0.0000,0.0000,0.0000,-0.020436,0.020436,0.000114,0.001780,0.002017,1.2712,0.6046,0.2476,-0.036816,0.036816,0.000000,0.685689,-0.673418,0.667282,-0.694893,0.671884,-0.648874
2.8891,0.016752,0.000000,0.000000,0.004636,0.0000,0.0000,0.0000,-0.017872,0.017872,0.000117,0.001775,0.002016,1.2696,0.5994,0.2540,-0.036816,0.036816,0.000000,0.685689,-0.673418,0.667282,-0.694893,0.671884,-0.648874
2.9059,0.016754,0.000000,0.000000,0.004656,0.0000,0.0000,0.0000,-0.015258,0.015258,0.000117,0.001775,0.002016,1.2696,0.5994,0.2540,-0.033748,0.033748,0.000000,0.685689,-0.673418,0.667282,-0.694893,0.671884,-0.648874
2.9227,0.016868,0.000000,0.000000,0.004675,0.0000,0.0000,0.0000,-0.012583,0.012583,0.000172,0.001757,0.001993,1.3073,0.5681,0.3649,-0.026078,0.030680,0.000000,0.685689,-0.673418,0.667282,-0.693359,0.671884,-0.647340
2.9395,0.016761,0.000000,0.000000,0.004693,0.0000,0.0000,0.0000,-0.009891,0.009891,0.000172,0.001757,0.001993,1.3073,0.5681,0.3649,-0.026078,0.030680,0.000000,0.685689,-0.673418,0.667282,-0.693359,0.671884,-0.647340
2.9563,0.016748,0.000000,0.000000,0.004711,0.0000,0.0000,0.0000,-0.007173,0.007173,0.000152,0.001817,0.002006,1.3143,0.6202,0.2975,-0.015340,0.023010,0.000000,0.685689,-0.673418,0.667282,-0.694893,0.671884,-0.647340
2.9730,0.016758,0.000000,0.000000,0.004728,0.0000,0.0000,0.0000,-0.004434,0.004434,0.000154,0.001811,0.002004,1.3136,0.6148,0.3045,-0.013806,0.016874,0.000000,0.685689,-0.673418,0.667282,-0.694893,0.671884,-0.647340
2.9898,0.016762,0.000000,0.000000,0.004745,0.0000,0.0000,0.0000,-0.001682,0.001682,0.000113,0.001771,0.002018,1.2652,0.5983,0.2480,-0.018408,0.010738,0.000000,0.685689,-0.673418,0.667282,-0.694893,0.671884,-0.648874
3.0065,0.016753,0.000000,0.000000,0.004762,0.0000,0.0000,0.0000,0.001074,-0.001074,0.000117,0.001775,0.002016,1.2702,0.6001,0.2539,-0.015340,0.009204,0.000000,0.685689,-0.673418,0.667282,-0.694893,0.671884,-0.648874
3.0233,0.016755,0.000000,0.000000,0.004777,0.0000,0.0000,0.0000,0.003827,-0.003827,0.000117,0.001775,0.002016,1.2702,0.6001,0.2539,-0.010738,0.007670,0.000000,0.685689,-0.673418,0.667282,-0.694893,0.671884,-0.648874
3.0400,0.016754,0.000000,0.000000,0.004793,0.0000,0.0000,0.0000,0.006569,-0.006569,0.000117,0.001775,0.002016,1.2702,0.6001,0.2539,-0.010738,0.007670,0.000000,0.685689,-0.673418,0.667282,-0.694893,0.671884,-0.648874
3.0568,0.016747,0.000000,0.000000,0.004807,0.0000,0.0000,0.0000,0.009291,-0.009291,0.000158,0.001815,0.002003,1.3182,0.6168,0.3091,-0.003068,0.004602,0.000000,0.685689,-0.673418,0.667282,-0.694893,0.671884,-0.647340
3.0735,0.016756,0.000000,0.000000,0.004822,0.0000,0.0000,0.0000,0.011990,-0.011990,0.000112,0.001771,0.002018,1.2647,0.5981,0.2476,0.003068,0.003068,0.000000,0.685689,-0.673418,0.667282,-0.694893,0.671884,-0.648874
3.0903,0.016763,0.000000,0.000000,0.004835,0.0000,0.0000,0.0000,0.014656,-0.014656,0.000074,0.001816,0.002027,1.3187,0.5863,0.3103,0.003068,-0.001534,0.000000,0.687223,-0.673418,0.667282,-0.694893,0.671884,-0.648874
3.1071,0.016772,0.000000,0.000000,0.004848,0.0000,0.0000,0.0000,0.017283,-0.017283,0.000090,0.001835,0.002049,1.3986,0.5386,0.3039,0.000000,-0.006136,0.000000,0.688757,-0.674952,0.667282,-0.694893,0.671884,-0.648874
3.1238,0.016760,0.000000,0.000000,0.004861,0.0000,0.0000,0.0000,0.019860,-0.019860,0.000090,0.001835,0.002049,1.3986,0.5386,0.3039,0.004602,-0.012272,0.000000,0.691825,-0.678020,0.667282,-0.694893,0.671884,-0.648874
3.1406,0.016756,0.000000,0.000000,0.004873,0.0000,0.0000,0.0000,0.022382,-0.022382,0.000112,0.001881,0.002093,1.5611,0.4459,0.3047,0.004602,-0.012272,0.000000,0.691825,-0.678020,0.667282,-0.694893,0.671884,-0.648874
3.1573,0.016747,0.000000,0.000000,0.004885,0.0000,0.0000,0.0000,0.024840,-0.024840,0.000134,0.001923,0.002135,1.7147,0.3580,0.3046,0.012272,-0.013806,0.000000,0.694893,-0.681087,0.667282,-0.694893,0.671884,-0.648874
3.1741,0.016753,0.000000,0.000000,0.004896,0.0000,0.0000,0.0000,0.027231,-0.027231,0.000044,0.002000,0.002152,1.7953,0.3402,0.4174,0.016874,-0.013806,0.000000,0.697961,-0.681087,0.667282,-0.694893,0.671884,-0.648874
3.1909,0.016759,0.000000,0.000000,0.004906,0.0000,0.0000,0.0000,0.029546,-0.029546,0.000077,0.002039,0.002196,1.9571,0.2449,0.4053,0.016874,-0.016874,0.000000,0.701029,-0.684155,0.667282,-0.694893,0.671884,-0.648874
3.2076,0.016753,0.000000,0.000000,0.004916,0.0000,0.0000,0.0000,0.031779,-0.031779,0.000141,0.002041,0.002226,2.0620,0.1711,0.3496,0.016874,-0.018408,0.000000,0.702563,-0.687223,0.667282,-0.694893,0.671884,-0.648874
3.2244,0.016752,0.000000,0.000000,0.004925,0.0000,0.0000,0.0000,0.033924,-0.033924,0.000090,0.002081,0.002234,2.0992,0.1655,0.4119,0.016874,-0.021476,0.000000,0.704097,-0.687223,0.667282,-0.694893,0.671884,-0.648874
3.2411,0.016754,0.000000,0.000000,0.004934,0.0000,0.0000,0.0000,0.035976,-0.035976,0.000090,0.002081,0.002234,2.0992,0.1655,0.4119,0.016874,-0.021476,0.000000,0.704097,-0.687223,0.667282,-0.694893,0.671884,-0.648874
3.2579,0.016747,0.000000,0.000000,0.004942,0.0000,0.0000,0.0000,0.037927,-0.037927,0.000107,0.002100,0.002256,2.1802,0.1177,0.4050,0.024544,-0.026078,0.000000,0.705631,-0.688757,0.667282,-0.694893,0.671884,-0.648874
3.2746,0.016755,0.000000,0.000000,0.004950,0.0000,0.0000,0.0000,0.039773,-0.039773,0.000117,0.002122,0.002276,2.2566,0.0743,0.4053,0.033748,-0.032214,0.000000,0.707165,-0.690291,0.667282,-0.694893,0.671884,-0.648874
3.2914,0.016747,0.000000,0.000000,0.004957,0.0000,0.0000,0.0000,0.041509,-0.041509,0.000172,0.002102,0.002286,2.2853,0.0436,0.3482,0.029146,-0.033748,0.000000,0.707165,-0.691825,0.667282,-0.694893,0.671884,-0.648874
3.3081,0.016747,0.000000,0.000000,0.004964,0.0000,0.0000,0.0000,0.043130,-0.043130,0.000222,0.002086,0.002297,2.3188,0.0116,0.2971,0.033748,-0.036816,0.000000,0.707165,-0.693359,0.667282,-0.694893,0.671884,-0.648874
3.3249,0.016753,0.000000,0.000000,0.004970,0.0000,0.0000,0.0000,0.044632,-0.044632,0.000217,0.002088,0.002296,2.3153,0.0150,0.3025,0.042951,-0.041417,0.000000,0.707165,-0.693359,0.667282,-0.694893,0.671884,-0.648874
3.3416,0.016758,0.000000,0.000000,0.004975,0.0000,0.0000,0.0000,0.046011,-0.046011,0.000217,0.002088,0.002296,2.3153,0.0150,0.3025,0.042951,-0.041417,0.000000,0.707165,-0.693359,0.667282,-0.694893,0.671884,-0.648874
3.3584,0.016743,0.000000,0.000000,0.004980,0.0000,0.0000,0.0000,0.047261,-0.047261,0.000274,0.002070,0.002308,2.3522,-0.0206,0.2448,0.044485,-0.042951,0.000000,0.707165,-0.694893,0.667282,-0.694893,0.671884,-0.648874
3.3751,0.016752,0.000000,0.000000,0.004985,0.0000,0.0000,0.0000,0.048381,-0.048381,0.000198,0.002148,0.002306,2.3228,0.0670,0.2524,0.038350,-0.042951,0.000000,0.707165,-0.693359,0.667282,-0.696427,0.671884,-0.648874
3.3919,0.016819,0.000000,0.000000,0.004988,0.0000,0.0000,0.0000,0.049371,-0.049371,0.000206,0.002140,0.002306,2.3258,0.0579,0.2516,0.039884,-0.046019,0.000000,0.707165,-0.693359,0.667282,-0.696427,0.671884,-0.648874
3.4087,0.016755,0.000000,0.000000,0.004992,0.0000,0.0000,0.0000,0.050220,-0.050220,0.000191,0.002199,0.002316,2.3365,0.1075,0.1962,0.047553,-0.047553,0.000000,0.707165,-0.693359,0.667282,-0.697961,0.671884,-0.648874
3.4254,0.016751,0.000000,0.000000,0.004995,0.0000,0.0000,0.0000,0.050930,-0.050930,0.000248,0.002176,0.002327,2.3718,0.0671,0.1449,0.049087,-0.047553,0.000000,0.707165,-0.694893,0.667282,-0.697961,0.671884,-0.648874
3.4422,0.016751,0.000000,0.000000,0.004997,0.0000,0.0000,0.0000,0.051499,-0.051499,0.000248,0.002176,0.002327,2.3718,0.0671,0.1449,0.049087,-0.047553,0.000000,0.707165,-0.694893,0.667282,-0.697961,0.671884,-0.648874
3.4589,0.016750,0.000000,0.000000,0.004998,0.0000,0.0000,0.0000,0.051925,-0.051925,0.000228,0.002237,0.002337,2.3791,0.1200,0.0947,0.049087,-0.047553,0.000000,0.707165,-0.694893,0.667282,-0.699495,0.671884,-0.648874
3.4757,0.016743,0.000000,0.000000,0.004999,0.0000,0.0000,0.0000,0.052207,-0.052207,0.000174,0.002248,0.002324,2.3420,0.1497,0.1570,0.047553,-0.049087,0.000000,0.707165,-0.693359,0.667282,-0.699495,0.671884,-0.648874
3.4924,0.016753,0.000000,0.000000,0.005000,0.0000,0.0000,0.0000,0.052345,-0.052345,0.000236,0.002229,0.002337,2.3823,0.1113,0.0934,0.050621,-0.050621,0.000000,0.707165,-0.694893,0.667282,-0.699495,0.671884,-0.648874
3.5092,0.016751,0.000000,0.000000,0.005000,0.0000,0.0000,0.0000,0.052338,-0.052338,0.000159,0.002307,0.002334,2.3527,0.1991,0.1015,0.052155,-0.050621,0.000000,0.707165,-0.693359,0.667282,-0.701029,0.671884,-0.648874
3.5259,0.016750,0.000000,0.000000,0.004999,0.0000,0.0000,0.0000,0.052186,-0.052186,0.000153,0.002358,0.002345,2.3669,0.2384,0.0451,0.052155,-0.052155,0.000000,0.707165,-0.693359,0.667282,-0.702563,0.671884,-0.648874
3.5427,0.016757,0.000000,0.000000,0.004998,0.0000,0.0000,0.0000,0.051890,-0.051890,0.000153,0.002358,0.002345,2.3669,0.2384,0.0451,0.052155,-0.052155,0.000000,0.707165,-0.693359,0.667282,-0.702563,0.671884,-0.648874
3.5594,0.016743,0.000000,0.000000,0.004997,0.0000,0.0000,0.0000,0.051450,-0.051450,0.000211,0.002368,0.002355,2.3272,0.2014,0.1061,0.052155,-0.052155,0.000000,0.707165,-0.693359,0.667282,-0.702563,0.673418,-0.648874
3.5762,0.016747,0.000000,0.000000,0.004994,0.0000,0.0000,0.0000,0.050867,-0.050867,0.000262,0.002383,0.002365,2.2932,0.1724,0.1550,0.052155,-0.050621,0.000000,0.707165,-0.693359,0.667282,-0.702563,0.674952,-0.648874
3.5929,0.016745,0.000000,0.000000,0.004991,0.0000,0.0000,0.0000,0.050144,-0.050144,0.000369,0.002380,0.002388,2.2951,0.1071,0.1481,0.052155,-0.052155,0.000000,0.707165,-0.694893,0.667282,-0.702563,0.676486,-0.648874
3.6098,0.016842,0.000000,0.000000,0.004988,0.0000,0.0000,0.0000,0.049277,-0.049277,0.000416,0.002429,0.002396,2.1826,0.0835,0.3166,0.050621,-0.052155,0.000000,0.707165,-0.693359,0.667282,-0.702563,0.679553,-0.648874
3.6265,0.016743,0.000000,0.000000,0.004984,0.0000,0.0000,0.0000,0.048278,-0.048278,0.000416,0.002429,0.002396,2.1826,0.0835,0.3166,0.050621,-0.052155,0.000000,0.707165,-0.693359,0.667282,-0.702563,0.679553,-0.648874
3.6433,0.016759,0.000000,0.000000,0.004980,0.0000,0.0000,0.0000,0.047145,-0.047145,0.000411,0.002424,0.002395,2.1944,0.0860,0.2990,0.049087,-0.050621,0.000000,0.707165,-0.693359,0.667282,-0.702563,0.679553,-0.648874
3.6600,0.016741,0.000000,0.000000,0.004975,0.0000,0.0000,0.0000,0.045882,-0.045882,0.000412,0.002425,0.002395,2.1928,0.0856,0.3014,0.049087,-0.049087,0.000000,0.707165,-0.693359,0.667282,-0.702563,0.679553,-0.648874
3.6768,0.016747,0.000000,0.000000,0.004969,0.0000,0.0000,0.0000,0.044492,-0.044492,0.000412,0.002425,0.002395,2.1928,0.0856,0.3014,0.049087,-0.047553,0.000000,0.707165,-0.693359,0.667282,-0.702563,0.679553,-0.648874
3.6935,0.016743,0.000000,0.000000,0.004963,0.0000,0.0000,0.0000,0.042979,-0.042979,0.000412,0.002425,0.002395,2.1928,0.0856,0.3014,0.046019,-0.047553,0.000000,0.707165,-0.693359,0.667282,-0.702563,0.679553,-0.648874
3.7103,0.016762,0.000000,0.000000,0.004956,0.0000,0.0000,0.0000,0.041345,-0.041345,0.000468,0.002407,0.002407,2.2297,0.0503,0.2435,0.039884,-0.046019,0.000000,0.707165,-0.694893,0.667282,-0.702563,0.679553,-0.648874
3.7270,0.016742,0.000000,0.000000,0.004949,0.0000,0.0000,0.0000,0.039599,-0.039599,0.000468,0.002407,0.002407,2.2297,0.0503,0.2435,0.039884,-0.046019,0.000000,0.707165,-0.694893,0.667282,-0.702563,0.679553,-0.648874
3.7438,0.016751,0.000000,0.000000,0.004941,0.0000,0.0000,0.0000,0.037742,-0.037742,0.000406,0.002426,0.002394,2.1895,0.0894,0.3066,0.041417,-0.042951,0.000000,0.707165,-0.693359,0.667282,-0.702563,0.679553,-0.648874
3.7605,0.016747,0.000000,0.000000,0.004933,0.0000,0.0000,0.0000,0.035782,-0.035782,0.000454,0.002465,0.002418,2.2408,0.0985,0.1873,0.044485,-0.042951,0.000000,0.707165,-0.694893,0.667282,-0.704097,0.679553,-0.648874
3.7773,0.016770,0.000000,0.000000,0.004924,0.0000,0.0000,0.0000,0.033719,-0.033719,0.000393,0.002479,0.002403,2.1992,0.1330,0.2567,0.039884,-0.039884,0.000000,0.707165,-0.693359,0.667282,-0.704097,0.679553,-0.648874
3.7940,0.016742,0.000000,0.000000,0.004915,0.0000,0.0000,0.0000,0.031566,-0.031566,0.000399,0.002477,0.002405,2.2035,0.1294,0.2495,0.033748,-0.035282,0.000000,0.707165,-0.693359,0.667282,-0.704097,0.679553,-0.648874
3.8108,0.016754,0.000000,0.000000,0.004905,0.0000,0.0000,0.0000,0.029325,-0.029325,0.000399,0.002477,0.002405,2.2035,0.1294,0.2495,0.029146,-0.035282,0.000000,0.707165,-0.693359,0.667282,-0.704097,0.679553,-0.648874
3.8275,0.016738,0.000000,0.000000,0.004895,0.0000,0.0000,0.0000,0.027005,-0.027005,0.000399,0.002477,0.002405,2.2035,0.1294,0.2495,0.029146,-0.035282,0.000000,0.707165,-0.693359,0.667282,-0.704097,0.679553,-0.648874
3.8449,0.017411,0.000000,0.000000,0.004883,0.0000,0.0000,0.0000,0.024512,-0.024512,0.000399,0.002477,0.002405,2.2035,0.1294,0.2495,0.032214,-0.036816,0.000000,0.707165,-0.693359,0.667282,-0.704097,0.679553,-0.648874
3.8686,0.023701,0.000000,0.000000,0.004866,0.0000,0.0000,0.0000,0.021002,-0.021002,0.000399,0.002477,0.002405,2.2035,0.1294,0.2495,0.032214,-0.036816,0.000000,0.707165,-0.693359,0.667282,-0.704097,0.679553,-0.648874
3.8854,0.016756,0.000000,0.000000,0.004854,0.0000,0.0000,0.0000,0.018449,-0.018449,0.000399,0.002477,0.002405,2.2035,0.1294,0.2495,0.027612,-0.029146,0.000000,0.707165,-0.693359,0.667282,-0.704097,0.679553,-0.648874
3.9021,0.016750,0.000000,0.000000,0.004841,0.0000,0.0000,0.0000,0.015846,-0.015846,0.000399,0.002477,0.002405,2.2035,0.1294,0.2495,0.027612,-0.029146,0.000000,0.707165,-0.693359,0.667282,-0.704097,0.679553,-0.648874
3.9189,0.016748,0.000000,0.000000,0.004828,0.0000,0.0000,0.0000,0.013200,-0.013200,0.000385,0.002536,0.002415,2.2139,0.1782,0.1945,0.026078,-0.029146,0.000000,0.707165,-0.693359,0.667282,-0.705631,0.679553,-0.648874
3.9356,0.016745,0.000000,0.000000,0.004814,0.0000,0.0000,0.0000,0.010517,-0.010517,0.000442,0.002513,0.002426,2.2491,0.1377,0.1432,0.029146,-0.027612,0.000000,0.707165,-0.694893,0.667282,-0.705631,0.679553,-0.648874
3.9524,0.016742,0.000000,0.000000,0.004799,0.0000,0.0000,0.0000,0.007806,-0.007806,0.000436,0.002515,0.002425,2.2454,0.1419,0.1486,0.021476,-0.021476,0.000000,0.707165,-0.694893,0.667282,-0.705631,0.679553,-0.648874
3.9691,0.016749,0.000000,0.000000,0.004784,0.0000,0.0000,0.0000,0.005072,-0.005072,0.000381,0.002532,0.002413,2.2096,0.1769,0.2050,0.010738,-0.007670,0.000000,0.707165,-0.693359,0.667282,-0.705631,0.679553,-0.648874
3.9860,0.016899,0.000000,0.000000,0.004769,0.0000,0.0000,0.0000,0.002300,-0.002300,0.000442,0.002513,0.002426,2.2496,0.1378,0.1421,-0.001534,-0.004602,0.000000,0.707165,-0.694893,0.667282,-0.705631,0.679553,-0.648874
4.0028,0.016744,0.000000,0.000000,0.004753,0.0000,0.0000,0.0000,-0.000454,0.000454,0.000442,0.002513,0.002426,2.2496,0.1378,0.1421,-0.001534,-0.004602,0.000000,0.707165,-0.694893,0.667282,-0.705631,0.679553,-0.648874
4.0195,0.016740,0.000000,0.000000,0.004736,0.0000,0.0000,0.0000,-0.003205,0.003205,0.000380,0.002533,0.002413,2.2092,0.1773,0.2057,0.001534,-0.007670,0.000000,0.707165,-0.693359,0.667282,-0.705631,0.679553,-0.648874
4.0362,0.016742,0.000000,0.000000,0.004719,0.0000,0.0000,0.0000,-0.005949,0.005949,0.000387,0.002530,0.002414,2.2133,0.1732,0.1991,0.001534,-0.007670,0.000000,0.707165,-0.693359,0.667282,-0.705631,0.679553,-0.648874
4.0530,0.016742,0.000000,0.000000,0.004701,0.0000,0.0000,0.0000,-0.008675,0.008675,0.000387,0.002530,0.002414,2.2133,0.1732,0.1991,0.003068,-0.001534,0.000000,0.707165,-0.693359,0.667282,-0.705631,0.679553,-0.648874
4.0697,0.016749,0.000000,0.000000,0.004683,0.0000,0.0000,0.0000,-0.011379,0.011379,0.000442,0.002513,0.002426,2.2492,0.1382,0.1427,-0.007670,0.004602,0.000000,0.707165,-0.694893,0.667282,-0.705631,0.679553,-0.648874
4.0865,0.016750,0.000000,0.000000,0.004664,0.0000,0.0000,0.0000,-0.014051,0.014051,0.000380,0.002532,0.002413,2.2092,0.1773,0.2056,-0.007670,0.009204,0.000000,0.707165,-0.693359,0.667282,-0.705631,0.679553,-0.648874
4.1032,0.016745,0.000000,0.000000,0.004645,0.0000,0.0000,0.0000,-0.016684,0.016684,0.000380,0.002532,0.002413,2.2092,0.1773,0.2056,-0.007670,0.009204,0.000000,0.707165,-0.693359,0.667282,-0.705631,0.679553,-0.648874
4.1200,0.016741,0.000000,0.000000,0.004625,0.0000,0.0000,0.0000,-0.019270,0.019270,0.000387,0.002530,0.002414,2.2133,0.1732,0.1991,-0.003068,0.007670,0.000000,0.707165,-0.693359,0.667282,-0.705631,0.679553,-0.648874
4.1367,0.016746,0.000000,0.000000,0.004605,0.0000,0.0000,0.0000,-0.021804,0.021804,0.000387,0.002530,0.002414,2.2133,0.1732,0.1991,-0.007670,0.007670,0.000000,0.707165,-0.693359,0.667282,-0.705631,0.679553,-0.648874
4.1535,0.016755,0.000000,0.000000,0.004584,0.0000,0.0000,0.0000,-0.024278,0.024278,0.000387,0.002530,0.002414,2.2133,0.1732,0.1991,-0.015340,0.013806,0.000000,0.707165,-0.693359,0.667282,-0.705631,0.679553,-0.648874
4.1702,0.016747,0.000000,0.000000,0.004563,0.0000,0.0000,0.0000,-0.026684,0.026684,0.000442,0.002513,0.002426,2.2492,0.1382,0.1427,-0.027612,0.021476,0.000000,0.707165,-0.694893,0.667282,-0.705631,0.679553,-0.648874
4.1871,0.016890,0.000000,0.000000,0.004541,0.0000,0.0000,0.0000,-0.029036,0.029036,0.000442,0.002513,0.002426,2.2492,0.1382,0.1427,-0.027612,0.023010,0.000000,0.707165,-0.694893,0.667282,-0.705631,0.679553,-0.648874
4.2039,0.016751,0.000000,0.000000,0.004519,0.0000,0.0000,0.0000,-0.031287,0.031287,0.000436,0.002515,0.002425,2.2454,0.1418,0.1486,-0.027612,0.023010,0.000000,0.707165,-0.694893,0.667282,-0.705631,0.679553,-0.648874
4.2206,0.016740,0.000000,0.000000,0.004496,0.0000,0.0000,0.0000,-0.033451,0.033451,0.000381,0.002532,0.002413,2.2096,0.1769,0.2050,-0.021476,0.021476,0.000000,0.707165,-0.693359,0.667282,-0.705631,0.679553,-0.648874
4.2373,0.016746,0.000000,0.000000,0.004473,0.0000,0.0000,0.0000,-0.035523,0.035523,0.000387,0.002530,0.002414,2.2133,0.1733,0.1991,-0.024544,0.023010,0.000000,0.707165,-0.693359,0.667282,-0.705631,0.679553,-0.648874
4.2541,0.016750,0.000000,0.000000,0.004449,0.0000,0.0000,0.0000,-0.037497,0.037497,0.000387,0.002530,0.002414,2.2133,0.1733,0.1991,-0.032214,0.026078,0.000000,0.707165,-0.693359,0.667282,-0.705631,0.679553,-0.648874
4.2708,0.016747,0.000000,0.000000,0.004425,0.0000,0.0000,0.0000,-0.039367,0.039367,0.000442,0.002513,0.002426,2.2492,0.1382,0.1427,-0.036816,0.035282,0.000000,0.707165,-0.694893,0.667282,-0.705631,0.679553,-0.648874
4.2876,0.016759,0.000000,0.000000,0.004400,0.0000,0.0000,0.0000,-0.041129,0.041129,0.000380,0.002532,0.002413,2.2092,0.1773,0.2056,-0.035282,0.038350,0.000000,0.707165,-0.693359,0.667282,-0.705631,0.679553,-0.648874
4.3043,0.016742,0.000000,0.000000,0.004375,0.0000,0.0000,0.0000,-0.042776,0.042776,0.000380,0.002532,0.002413,2.2092,0.1773,0.2056,-0.035282,0.038350,0.000000,0.707165,-0.693359,0.667282,-0.705631,0.679553,-0.648874
4.3211,0.016742,0.000000,0.000000,0.004349,0.0000,0.0000,0.0000,-0.044304,0.044304,0.000387,0.002530,0.002414,2.2133,0.1732,0.1991,-0.035282,0.036816,0.000000,0.707165,-0.693359,0.667282,-0.705631,0.679553,-0.648874
4.3378,0.016759,0.000000,0.000000,0.004323,0.0000,0.0000,0.0000,-0.045711,0.045711,0.000387,0.002530,0.002414,2.2133,0.1732,0.1991,-0.039884,0.036816,0.000000,0.707165,-0.693359,0.667282,-0.705631,0.679553,-0.648874
4.3546,0.016746,0.000000,0.000000,0.004296,0.0000,0.0000,0.0000,-0.046991,0.046991,0.000387,0.002530,0.002414,2.2133,0.1732,0.1991,-0.046019,0.042951,0.000000,0.707165,-0.693359,0.667282,-0.705631,0.679553,-0.648874
4.3714,0.016859,0.000000,0.000000,0.004269,0.0000,0.0000,0.0000,-0.048148,0.048148,0.000387,0.002530,0.002414,2.2133,0.1732,0.1991,-0.046019,0.042951,0.000000,0.707165,-0.693359,0.667282,-0.705631,0.679553,-0.648874
4.3882,0.016759,0.000000,0.000000,0.004241,0.0000,0.0000,0.0000,-0.049164,0.049164,0.000387,0.002530,0.002414,2.2133,0.1732,0.1991,-0.041417,0.041417,0.000000,0.707165,-0.693359,0.667282,-0.705631,0.679553,-0.648874
4.4050,0.016756,0.000000,0.000000,0.004213,0.0000,0.0000,0.0000,-0.050043,0.050043,0.000387,0.002530,0.002414,2.2133,0.1732,0.1991,-0.041417,0.041417,0.000000,0.707165,-0.693359,0.667282,-0.705631,0.679553,-0.648874
4.4217,0.016747,0.000000,0.000000,0.004185,0.0000,0.0000,0.0000,-0.050784,0.050784,0.000387,0.002530,0.002414,2.2133,0.1732,0.1991,-0.046019,0.044485,0.000000,0.707165,-0.693359,0.667282,-0.705631,0.679553,-0.648874
4.4385,0.016758,0.000000,0.000000,0.004156,0.0000,0.0000,0.0000,-0.051385,0.051385,0.000387,0.002530,0.002414,2.2133,0.1732,0.1991,-0.055223,0.047553,0.000000,0.707165,-0.693359,0.667282,-0.705631,0.679553,-0.648874
4.4552,0.016751,0.000000,0.000000,0.004126,0.0000,0.0000,0.0000,-0.051843,0.051843,0.000387,0.002530,0.002414,2.2133,0.1732,0.1991,-0.053689,0.047553,0.000000,0.707165,-0.693359,0.667282,-0.705631,0.679553,-0.648874
4.4720,0.016758,0.000000,0.000000,0.004096,0.0000,0.0000,0.0000,-0.052157,0.052157,0.000442,0.002513,0.002426,2.2492,0.1382,0.1427,-0.047553,0.049087,0.000000,0.707165,-0.694893,0.667282,-0.705631,0.679553,-0.648874
4.4887,0.016755,0.000000,0.000000,0.004066,0.0000,0.0000,0.0000,-0.052327,0.052327,0.000380,0.002532,0.002413,2.2092,0.1773,0.2056,-0.050621,0.050621,0.000000,0.707165,-0.693359,0.667282,-0.705631,0.679553,-0.648874
4.5055,0.016757,0.000000,0.000000,0.004035,0.0000,0.0000,0.0000,-0.052352,0.052352,0.000380,0.002532,0.002413,2.2092,0.1773,0.2056,-0.050621,0.050621,0.000000,0.707165,-0.693359,0.667282,-0.705631,0.679553,-0.648874
4.5222,0.016745,0.000000,0.000000,0.004004,0.0000,0.0000,0.0000,-0.052232,0.052232,0.000387,0.002530,0.002414,2.2133,0.1732,0.1991,-0.055223,0.050621,0.000000,0.707165,-0.693359,0.667282,-0.705631,0.679553,-0.648874
4.5390,0.016755,0.000000,0.000000,0.003972,0.0000,0.0000,0.0000,-0.051968,0.051968,0.000387,0.002530,0.002414,2.2133,0.1732,0.1991,-0.053689,0.050621,0.000000,0.707165,-0.693359,0.667282,-0.705631,0.679553,-0.648874
4.5557,0.016743,0.000000,0.000000,0.003940,0.0000,0.0000,0.0000,-0.051559,0.051559,0.000387,0.002530,0.002414,2.2133,0.1732,0.1991,-0.049087,0.050621,0.000000,0.707165,-0.693359,0.667282,-0.705631,0.679553,-0.648874
4.5725,0.016744,0.000000,0.000000,0.003907,0.0000,0.0000,0.0000,-0.051008,0.051008,0.000442,0.002513,0.002426,2.2492,0.1382,0.1427,-0.053689,0.050621,0.000000,0.707165,-0.694893,0.667282,-0.705631,0.679553,-0.648874
