t,loop_dt,cmd_x,cmd_y,cmd_z,cmd_roll,cmd_pitch,cmd_yaw,cmd_ant_l,cmd_ant_r,pres_x,pres_y,pres_z,pres_roll,pres_pitch,pres_yaw,pres_ant_l,pres_ant_r,pres_j0,pres_j1,pres_j2,pres_j3,pres_j4,pres_j5,pres_j6
0.0000,0.000001,-0.000276,0.001642,-0.002560,0.6380,0.0833,-0.5366,-0.004602,0.000000,-0.000276,0.001642,-0.002560,0.6380,0.0833,-0.5366,-0.004602,0.000000,0.000000,0.578311,-0.562971,0.549165,-0.587515,0.567573,-0.561437
0.0167,0.016734,-0.000271,0.001615,-0.002517,0.6274,0.0819,-0.5276,-0.004525,0.000000,-0.000290,0.001583,-0.002545,0.6265,0.1410,-0.4778,-0.003068,0.000000,0.000000,0.578311,-0.562971,0.550699,-0.587515,0.567573,-0.561437
0.0335,0.016741,-0.000267,0.001587,-0.002475,0.6167,0.0805,-0.5186,-0.004448,0.000000,-0.000276,0.001643,-0.002560,0.6382,0.0827,-0.5372,0.004602,0.000000,0.000000,0.578311,-0.562971,0.549165,-0.587515,0.567573,-0.561437
0.0502,0.016757,-0.000262,0.001560,-0.002432,0.6060,0.0790,-0.5097,-0.004371,0.000000,-0.000276,0.001643,-0.002560,0.6382,0.0827,-0.5372,0.004602,0.000000,0.000000,0.578311,-0.562971,0.549165,-0.587515,0.567573,-0.561437
0.0669,0.016709,-0.000258,0.001532,-0.002389,0.5953,0.0776,-0.5007,-0.004294,0.000000,-0.000290,0.001583,-0.002545,0.6265,0.1410,-0.4778,0.003068,0.000000,0.000000,0.578311,-0.562971,0.550699,-0.587515,0.567573,-0.561437
0.0837,0.016776,-0.000253,0.001505,-0.002346,0.5846,0.0761,-0.4917,-0.004217,0.000000,-0.000180,0.001713,-0.002648,0.6083,0.2381,-0.3777,-0.006136,0.000000,0.000000,0.575243,-0.559903,0.549165,-0.587515,0.567573,-0.556835
0.1005,0.016743,-0.000248,0.001477,-0.002303,0.5740,0.0747,-0.4827,-0.004140,0.000000,0.000011,0.001768,-0.002738,0.5795,0.3115,-0.3889,-0.004602,0.000000,0.000000,0.570641,-0.558369,0.547631,-0.587515,0.567573,-0.552233
0.1172,0.016758,-0.000244,0.001450,-0.002260,0.5633,0.0733,-0.4737,-0.004063,0.000000,0.000072,0.001762,-0.002754,0.5817,0.3372,-0.3880,0.003068,0.000000,0.000000,0.569107,-0.558369,0.547631,-0.587515,0.567573,-0.550699
0.1340,0.016742,-0.000239,0.001422,-0.002217,0.5526,0.0718,-0.4648,-0.003985,0.000000,0.000066,0.001762,-0.002752,0.5815,0.3346,-0.3881,0.001534,0.000000,0.000000,0.569107,-0.558369,0.547631,-0.587515,0.567573,-0.550699
0.1507,0.016744,-0.000234,0.001395,-0.002174,0.5419,0.0704,-0.4558,-0.003908,0.000000,0.000066,0.001762,-0.002752,0.5815,0.3346,-0.3881,0.001534,0.000000,0.000000,0.569107,-0.558369,0.547631,-0.587515,0.567573,-0.550699
0.1674,0.016741,-0.000230,0.001367,-0.002132,0.5313,0.0690,-0.4468,-0.003831,0.000000,0.000066,0.001762,-0.002752,0.5815,0.3346,-0.3881,-0.007670,0.000000,0.000000,0.569107,-0.558369,0.547631,-0.587515,0.567573,-0.550699
0.1842,0.016747,-0.000225,0.001340,-0.002089,0.5206,0.0675,-0.4378,-0.003754,0.000000,0.000066,0.001762,-0.002752,0.5815,0.3346,-0.3881,-0.006136,0.000000,0.000000,0.569107,-0.558369,0.547631,-0.587515,0.567573,-0.550699
0.2009,0.016742,-0.000221,0.001312,-0.002046,0.5099,0.0661,-0.4289,-0.003677,0.000000,0.000026,0.001801,-0.002741,0.6317,0.3193,-0.3346,0.001534,0.000000,0.000000,0.570641,-0.558369,0.547631,-0.587515,0.567573,-0.550699
0.2177,0.016756,-0.000216,0.001285,-0.002003,0.4992,0.0647,-0.4199,-0.003600,0.000000,0.000071,0.001758,-0.002754,0.5763,0.3364,-0.3936,0.001534,0.000000,0.000000,0.569107,-0.558369,0.547631,-0.587515,0.567573,-0.550699
0.2344,0.016740,-0.000211,0.001257,-0.001960,0.4885,0.0633,-0.4109,-0.003523,0.000000,0.000066,0.001763,-0.002752,0.5821,0.3347,-0.3875,-0.004602,0.000000,0.000000,0.569107,-0.558369,0.547631,-0.587515,0.567573,-0.550699
0.2512,0.016746,-0.000207,0.001230,-0.001917,0.4779,0.0618,-0.4019,-0.003446,0.000000,0.000066,0.001763,-0.002752,0.5821,0.3347,-0.3875,-0.004602,0.000000,0.000000,0.569107,-0.558369,0.547631,-0.587515,0.567573,-0.550699
0.2679,0.016746,-0.000202,0.001202,-0.001874,0.4672,0.0604,-0.3929,-0.003369,0.000000,0.000066,0.001763,-0.002752,0.5821,0.3347,-0.3875,-0.006136,0.000000,0.000000,0.569107,-0.558369,0.547631,-0.587515,0.567573,-0.550699
0.2847,0.016757,-0.000197,0.001175,-0.001831,0.4565,0.0590,-0.3839,-0.003292,0.000000,0.000066,0.001763,-0.002752,0.5821,0.3347,-0.3875,-0.001534,0.000000,0.000000,0.569107,-0.558369,0.547631,-0.587515,0.567573,-0.550699
0.3014,0.016742,-0.000193,0.001147,-0.001789,0.4458,0.0576,-0.3750,-0.003215,0.000000,0.000066,0.001763,-0.002752,0.5821,0.3347,-0.3875,0.000000,0.000000,0.000000,0.569107,-0.558369,0.547631,-0.587515,0.567573,-0.550699
0.3182,0.016752,-0.000188,0.001120,-0.001746,0.4351,0.0562,-0.3660,-0.003138,0.000000,0.000066,0.001763,-0.002752,0.5821,0.3347,-0.3875,-0.004602,0.000000,0.000000,0.569107,-0.558369,0.547631,-0.587515,0.567573,-0.550699
0.3349,0.016747,-0.000184,0.001092,-0.001703,0.4244,0.0548,-0.3570,-0.003061,0.000000,0.000066,0.001763,-0.002752,0.5821,0.3347,-0.3875,-0.006136,0.000000,0.000000,0.569107,-0.558369,0.547631,-0.587515,0.567573,-0.550699
0.3518,0.016835,-0.000179,0.001065,-0.001660,0.4137,0.0533,-0.3480,-0.002983,0.000000,0.000066,0.001763,-0.002752,0.5821,0.3347,-0.3875,-0.006136,0.000000,0.000000,0.569107,-0.558369,0.547631,-0.587515,0.567573,-0.550699
0.3685,0.016743,-0.000174,0.001037,-0.001617,0.4030,0.0519,-0.3390,-0.002906,0.000000,0.000066,0.001763,-0.002752,0.5821,0.3347,-0.3875,0.000000,0.000000,0.000000,0.569107,-0.558369,0.547631,-0.587515,0.567573,-0.550699
0.3853,0.016759,-0.000170,0.001010,-0.001574,0.3923,0.0505,-0.3300,-0.002829,0.000000,0.000066,0.001763,-0.002752,0.5821,0.3347,-0.3875,0.001534,0.000000,0.000000,0.569107,-0.558369,0.547631,-0.587515,0.567573,-0.550699
0.4020,0.016745,-0.000165,0.000982,-0.001531,0.3816,0.0491,-0.3210,-0.002752,0.000000,0.000066,0.001763,-0.002752,0.5821,0.3347,-0.3875,-0.003068,0.000000,0.000000,0.569107,-0.558369,0.547631,-0.587515,0.567573,-0.550699
0.4188,0.016762,-0.000160,0.000955,-0.001488,0.3710,0.0477,-0.3120,-0.002675,0.000000,0.000066,0.001763,-0.002752,0.5821,0.3347,-0.3875,-0.004602,0.000000,0.000000,0.569107,-0.558369,0.547631,-0.587515,0.567573,-0.550699
0.4355,0.016742,-0.000156,0.000927,-0.001445,0.3603,0.0463,-0.3030,-0.002598,0.000000,0.000066,0.001763,-0.002752,0.5821,0.3347,-0.3875,0.000000,0.000000,0.000000,0.569107,-0.558369,0.547631,-0.587515,0.567573,-0.550699
0.4523,0.016746,-0.000151,0.000900,-0.001402,0.3496,0.0449,-0.2940,-0.002521,0.000000,0.000066,0.001763,-0.002752,0.5821,0.3347,-0.3875,0.000000,0.000000,0.000000,0.569107,-0.558369,0.547631,-0.587515,0.567573,-0.550699
0.4690,0.016743,-0.000147,0.000872,-0.001360,0.3389,0.0435,-0.2851,-0.002444,0.000000,0.000066,0.001763,-0.002752,0.5821,0.3347,-0.3875,0.003068,0.000000,0.000000,0.569107,-0.558369,0.547631,-0.587515,0.567573,-0.550699
0.4858,0.016754,-0.000142,0.000845,-0.001317,0.3282,0.0421,-0.2761,-0.002367,0.000000,0.000066,0.001763,-0.002752,0.5821,0.3347,-0.3875,-0.001534,0.000000,0.000000,0.569107,-0.558369,0.547631,-0.587515,0.567573,-0.550699
0.5025,0.016745,-0.000137,0.000817,-0.001274,0.3175,0.0407,-0.2671,-0.002289,0.000000,0.000066,0.001763,-0.002752,0.5821,0.3347,-0.3875,-0.004602,0.000000,0.000000,0.569107,-0.558369,0.547631,-0.587515,0.567573,-0.550699
0.5193,0.016757,-0.000133,0.000790,-0.001231,0.3068,0.0393,-0.2581,-0.002212,0.000000,0.000066,0.001763,-0.002752,0.5821,0.3347,-0.3875,-0.001534,0.000000,0.000000,0.569107,-0.558369,0.547631,-0.587515,0.567573,-0.550699
0.5360,0.016740,-0.000128,0.000762,-0.001188,0.2962,0.0379,-0.2491,-0.002135,0.000000,0.000066,0.001763,-0.002752,0.5821,0.3347,-0.3875,0.003068,0.000000,0.000000,0.569107,-0.558369,0.547631,-0.587515,0.567573,-0.550699
0.5527,0.016745,-0.000123,0.000735,-0.001145,0.2855,0.0365,-0.2401,-0.002058,0.000000,0.000066,0.001763,-0.002752,0.5821,0.3347,-0.3875,0.003068,0.000000,0.000000,0.569107,-0.558369,0.547631,-0.587515,0.567573,-0.550699
0.5695,0.016739,-0.000119,0.000707,-0.001102,0.2748,0.0351,-0.2311,-0.001981,0.000000,0.000066,0.001763,-0.002752,0.5821,0.3347,-0.3875,0.000000,0.000000,0.000000,0.569107,-0.558369,0.547631,-0.587515,0.567573,-0.550699
0.5862,0.016747,-0.000114,0.000680,-0.001059,0.2641,0.0338,-0.2222,-0.001904,0.000000,0.000066,0.001763,-0.002752,0.5821,0.3347,-0.3875,-0.006136,0.000000,0.000000,0.569107,-0.558369,0.547631,-0.587515,0.567573,-0.550699
0.6030,0.016744,-0.000110,0.000652,-0.001017,0.2534,0.0324,-0.2132,-0.001827,0.000000,0.000066,0.001763,-0.002752,0.5821,0.3347,-0.3875,-0.001534,0.000000,0.000000,0.569107,-0.558369,0.547631,-0.587515,0.567573,-0.550699
0.6197,0.016756,-0.000105,0.000625,-0.000974,0.2427,0.0310,-0.2042,-0.001750,0.000000,0.000066,0.001763,-0.002752,0.5821,0.3347,-0.3875,0.003068,0.000000,0.000000,0.569107,-0.558369,0.547631,-0.587515,0.567573,-0.550699
0.6365,0.016784,-0.000100,0.000597,-0.000931,0.2320,0.0296,-0.1952,-0.001673,0.000000,0.000120,0.001746,-0.002740,0.6203,0.2991,-0.4414,0.000000,0.000000,0.000000,0.569107,-0.559903,0.547631,-0.587515,0.567573,-0.550699
0.6533,0.016742,-0.000096,0.000570,-0.000888,0.2213,0.0282,-0.1862,-0.001596,0.000000,0.000120,0.001746,-0.002740,0.6203,0.2991,-0.4414,0.000000,0.000000,0.000000,0.569107,-0.559903,0.547631,-0.587515,0.567573,-0.550699
0.6700,0.016750,-0.000091,0.000542,-0.000845,0.2106,0.0268,-0.1772,-0.001519,0.000000,0.000061,0.001764,-0.002754,0.5775,0.3385,-0.3825,-0.006136,0.000000,0.000000,0.569107,-0.558369,0.547631,-0.587515,0.567573,-0.550699
0.6867,0.016747,-0.000086,0.000514,-0.000802,0.2000,0.0255,-0.1682,-0.001442,0.000000,0.000067,0.001762,-0.002752,0.5819,0.3344,-0.3886,-0.003068,0.000000,0.000000,0.569107,-0.558369,0.547631,-0.587515,0.567573,-0.550699
0.7035,0.016743,-0.000082,0.000487,-0.000759,0.1893,0.0241,-0.1592,-0.001365,0.000000,0.000120,0.001746,-0.002740,0.6203,0.2991,-0.4412,0.004602,0.000000,0.000000,0.569107,-0.559903,0.547631,-0.587515,0.567573,-0.550699
0.7202,0.016749,-0.000077,0.000459,-0.000716,0.1786,0.0227,-0.1502,-0.001287,0.000000,0.000101,0.001694,-0.002728,0.6061,0.3550,-0.3826,0.001534,0.000000,0.000000,0.569107,-0.559903,0.549165,-0.587515,0.567573,-0.550699
0.7371,0.016852,-0.000073,0.000432,-0.000673,0.1678,0.0213,-0.1412,-0.001210,0.000000,0.000063,0.001769,-0.002755,0.5790,0.3327,-0.3886,-0.006136,0.000000,0.000000,0.569107,-0.558369,0.547631,-0.587515,0.567573,-0.550699
0.7538,0.016757,-0.000068,0.000404,-0.000630,0.1571,0.0200,-0.1322,-0.001133,0.000000,0.000063,0.001769,-0.002755,0.5790,0.3327,-0.3886,-0.006136,0.000000,0.000000,0.569107,-0.558369,0.547631,-0.587515,0.567573,-0.550699
0.7706,0.016743,-0.000063,0.000377,-0.000587,0.1464,0.0186,-0.1232,-0.001056,0.000000,0.000079,0.001784,-0.002728,0.6708,0.2837,-0.3878,-0.003068,0.000000,0.000000,0.570641,-0.559903,0.547631,-0.587515,0.567573,-0.550699
0.7873,0.016754,-0.000059,0.000349,-0.000544,0.1358,0.0172,-0.1142,-0.000979,0.000000,0.000077,0.001783,-0.002731,0.6612,0.2888,-0.3879,0.004602,0.000000,0.000000,0.570641,-0.559903,0.547631,-0.587515,0.567573,-0.550699
0.8042,0.016827,-0.000054,0.000322,-0.000501,0.1250,0.0158,-0.1052,-0.000901,0.000000,0.000065,0.001729,-0.002717,0.6520,0.3405,-0.3347,0.001534,0.000000,0.000000,0.570641,-0.559903,0.549165,-0.587515,0.567573,-0.550699
0.8248,0.020590,-0.000048,0.000288,-0.000449,0.1119,0.0142,-0.0941,-0.000806,0.000000,0.000065,0.001729,-0.002717,0.6520,0.3405,-0.3347,0.001534,0.000000,0.000000,0.570641,-0.559903,0.549165,-0.587515,0.567573,-0.550699
0.8415,0.016743,-0.000044,0.000260,-0.000406,0.1012,0.0128,-0.0851,-0.000729,0.000000,0.000065,0.001729,-0.002717,0.6520,0.3405,-0.3347,0.001534,0.000000,0.000000,0.570641,-0.559903,0.549165,-0.587515,0.567573,-0.550699
0.8583,0.016776,-0.000039,0.000233,-0.000363,0.0905,0.0114,-0.0761,-0.000652,0.000000,0.000026,0.001697,-0.002705,0.6035,0.3174,-0.3934,0.004602,0.000000,0.000000,0.570641,-0.559903,0.549165,-0.587515,0.567573,-0.552233
0.8750,0.016748,-0.000034,0.000205,-0.000320,0.0798,0.0101,-0.0671,-0.000575,0.000000,0.000030,0.001700,-0.002706,0.6085,0.3198,-0.3873,0.001534,0.000000,0.000000,0.570641,-0.559903,0.549165,-0.587515,0.567573,-0.552233
0.8919,0.016825,-0.000030,0.000178,-0.000277,0.0690,0.0087,-0.0581,-0.000498,0.000000,0.000030,0.001700,-0.002706,0.6085,0.3198,-0.3873,-0.006136,0.000000,0.000000,0.570641,-0.559903,0.549165,-0.587515,0.567573,-0.552233
0.9086,0.016749,-0.000025,0.000150,-0.000234,0.0583,0.0074,-0.0491,-0.000421,0.000000,0.000030,0.001700,-0.002706,0.6085,0.3198,-0.3873,-0.006136,0.000000,0.000000,0.570641,-0.559903,0.549165,-0.587515,0.567573,-0.552233
0.9254,0.016751,-0.000021,0.000123,-0.000191,0.0477,0.0060,-0.0401,-0.000344,0.000000,-0.000010,0.001661,-0.002693,0.5585,0.3019,-0.4412,-0.003068,0.000000,0.000000,0.570641,-0.559903,0.549165,-0.587515,0.567573,-0.553767
0.9421,0.016754,-0.000016,0.000095,-0.000148,0.0370,0.0047,-0.0311,-0.000266,0.000000,-0.000006,0.001665,-0.002694,0.5638,0.3037,-0.4356,0.004602,0.000000,0.000000,0.570641,-0.559903,0.549165,-0.587515,0.567573,-0.553767
0.9589,0.016751,-0.000011,0.000068,-0.000105,0.0263,0.0033,-0.0221,-0.000189,0.000000,0.000034,0.001703,-0.002707,0.6127,0.3212,-0.3829,0.001534,0.000000,0.000000,0.570641,-0.559903,0.549165,-0.587515,0.567573,-0.552233
0.9757,0.016868,-0.000007,0.000040,-0.000062,0.0155,0.0020,-0.0130,-0.000112,0.000000,-0.000011,0.001661,-0.002693,0.5581,0.3017,-0.4416,-0.006136,0.000000,0.000000,0.570641,-0.559903,0.549165,-0.587515,0.567573,-0.553767
0.9925,0.016795,-0.000002,0.000012,-0.000019,0.0048,0.0006,-0.0040,-0.000034,0.000000,-0.000006,0.001665,-0.002694,0.5638,0.3038,-0.4355,-0.003068,0.000000,0.000000,0.570641,-0.559903,0.549165,-0.587515,0.567573,-0.553767
1.0093,0.016746,0.000000,0.000000,0.000000,0.0000,0.0000,0.0000,0.007623,-0.007623,-0.000006,0.001665,-0.002694,0.5638,0.3038,-0.4355,-0.003068,0.000000,0.000000,0.570641,-0.559903,0.549165,-0.587515,0.567573,-0.553767
1.0260,0.016761,0.000000,0.000000,0.000000,0.0000,0.0000,0.0000,0.021385,-0.021385,-0.000007,0.001742,-0.002696,0.6628,0.3056,-0.3294,0.003068,0.000000,0.000000,0.572175,-0.559903,0.549165,-0.587515,0.567573,-0.552233
1.0428,0.016749,0.000000,0.000000,0.000000,0.0000,0.0000,0.0000,0.035079,-0.035079,-0.000006,0.001657,-0.002694,0.5529,0.3033,-0.4472,0.003068,0.000000,0.000000,0.570641,-0.559903,0.549165,-0.587515,0.567573,-0.553767
1.0596,0.016799,0.000000,0.000000,0.000000,0.0000,0.0000,0.0000,0.048716,-0.048716,-0.000006,0.001666,-0.002694,0.5644,0.3036,-0.4349,-0.004602,0.000000,0.000000,0.570641,-0.559903,0.549165,-0.587515,0.567573,-0.553767
1.0763,0.016758,0.000000,0.000000,0.000000,0.0000,0.0000,0.0000,0.062184,-0.062184,0.000034,0.001703,-0.002707,0.6126,0.3212,-0.3830,0.003068,-0.006136,0.000000,0.570641,-0.559903,0.549165,-0.587515,0.567573,-0.552233
1.0933,0.016948,0.000000,0.000000,0.000000,0.0000,0.0000,0.0000,0.075630,-0.075630,-0.000011,0.001661,-0.002693,0.5581,0.3017,-0.4416,0.021476,-0.021476,0.000000,0.570641,-0.559903,0.549165,-0.587515,0.567573,-0.553767
1.1101,0.016811,0.000000,0.000000,0.000000,0.0000,0.0000,0.0000,0.088755,-0.088755,-0.000011,0.001661,-0.002693,0.5581,0.3017,-0.4416,0.021476,-0.021476,0.000000,0.570641,-0.559903,0.549165,-0.587515,0.567573,-0.553767
1.1268,0.016751,0.000000,0.000000,0.000000,0.0000,0.0000,0.0000,0.101588,-0.101588,0.000034,0.001704,-0.002708,0.6132,0.3214,-0.3823,0.042951,-0.038350,0.000000,0.570641,-0.559903,0.549165,-0.587515,0.567573,-0.552233
1.1436,0.016751,0.000000,0.000000,0.000000,0.0000,0.0000,0.0000,0.114138,-0.114138,-0.000052,0.001700,-0.002681,0.6082,0.2861,-0.3882,0.062893,-0.058291,0.000000,0.572175,-0.559903,0.549165,-0.587515,0.567573,-0.553767
1.1604,0.016823,0.000000,0.000000,0.000000,0.0000,0.0000,0.0000,0.126425,-0.126425,-0.000043,0.001700,-0.002684,0.6088,0.2897,-0.3876,0.082835,-0.076699,0.000000,0.572175,-0.559903,0.549165,-0.587515,0.567573,-0.553767
1.1772,0.016756,0.000000,0.000000,0.000000,0.0000,0.0000,0.0000,0.138312,-0.138312,0.000051,0.001645,-0.002683,0.5974,0.2693,-0.4944,0.099709,-0.092039,0.000000,0.570641,-0.561437,0.549165,-0.587515,0.567573,-0.553767
1.1940,0.016783,0.000000,0.000000,0.000000,0.0000,0.0000,0.0000,0.149834,-0.149834,0.000051,0.001645,-0.002683,0.5974,0.2693,-0.4944,0.116583,-0.107379,0.000000,0.572175,-0.562971,0.549165,-0.587515,0.567573,-0.553767
1.2107,0.016758,0.000000,0.000000,0.000000,0.0000,0.0000,0.0000,0.160924,-0.160924,0.000053,0.001674,-0.002658,0.6874,0.2201,-0.4831,0.116583,-0.107379,0.000000,0.572175,-0.562971,0.549165,-0.587515,0.567573,-0.553767
1.2275,0.016755,0.000000,0.000000,0.000000,0.0000,0.0000,0.0000,0.171565,-0.171565,0.000053,0.001671,-0.002661,0.6780,0.2252,-0.4843,0.133456,-0.124252,0.000000,0.572175,-0.562971,0.549165,-0.587515,0.567573,-0.553767
1.2442,0.016753,0.000000,0.000000,0.000000,0.0000,0.0000,0.0000,0.181731,-0.181731,0.000094,0.001632,-0.002672,0.6288,0.2404,-0.5377,0.144194,-0.139592,0.000000,0.570641,-0.562971,0.549165,-0.587515,0.567573,-0.553767
1.2610,0.016746,0.000000,0.000000,0.000000,0.0000,0.0000,0.0000,0.191389,-0.191389,0.000090,0.001636,-0.002671,0.6339,0.2388,-0.5321,0.148796,-0.153398,0.000000,0.570641,-0.562971,0.549165,-0.587515,0.567573,-0.553767
1.2777,0.016754,0.000000,0.000000,0.000000,0.0000,0.0000,0.0000,0.200522,-0.200522,0.000049,0.001675,-0.002660,0.6836,0.2233,-0.4792,0.156466,-0.167204,0.000000,0.572175,-0.562971,0.549165,-0.587515,0.567573,-0.553767
1.2945,0.016763,0.000000,0.000000,0.000000,0.0000,0.0000,0.0000,0.209104,-0.209104,0.000053,0.001671,-0.002661,0.6784,0.2249,-0.4847,0.173340,-0.182544,0.000000,0.572175,-0.562971,0.549165,-0.587515,0.567573,-0.553767
1.3112,0.016751,0.000000,0.000000,0.000000,0.0000,0.0000,0.0000,0.217100,-0.217100,0.000053,0.001671,-0.002661,0.6784,0.2249,-0.4847,0.173340,-0.182544,0.000000,0.572175,-0.562971,0.549165,-0.587515,0.567573,-0.553767
1.3280,0.016751,0.000000,0.000000,0.000000,0.0000,0.0000,0.0000,0.224496,-0.224496,0.000053,0.001671,-0.002661,0.6784,0.2249,-0.4847,0.196350,-0.194816,0.000000,0.572175,-0.562971,0.549165,-0.587515,0.567573,-0.553767
1.3447,0.016748,0.000000,0.000000,0.000000,0.0000,0.0000,0.0000,0.231268,-0.231268,0.000053,0.001671,-0.002661,0.6784,0.2249,-0.4847,0.207087,-0.204019,0.000000,0.572175,-0.562971,0.549165,-0.587515,0.567573,-0.553767
1.3615,0.016745,0.000000,0.000000,0.000000,0.0000,0.0000,0.0000,0.237400,-0.237400,0.000094,0.001632,-0.002673,0.6288,0.2404,-0.5376,0.208621,-0.211689,0.000000,0.570641,-0.562971,0.549165,-0.587515,0.567573,-0.553767
1.3782,0.016747,0.000000,0.000000,0.000000,0.0000,0.0000,0.0000,0.242875,-0.242875,0.000049,0.001675,-0.002660,0.6842,0.2231,-0.4786,0.208621,-0.217825,0.000000,0.572175,-0.562971,0.549165,-0.587515,0.567573,-0.553767
1.3950,0.016764,0.000000,0.000000,0.000000,0.0000,0.0000,0.0000,0.247683,-0.247683,0.000053,0.001671,-0.002661,0.6784,0.2249,-0.4848,0.227029,-0.230097,0.000000,0.572175,-0.562971,0.549165,-0.587515,0.567573,-0.553767
1.4117,0.016749,0.000000,0.000000,0.000000,0.0000,0.0000,0.0000,0.251800,-0.251800,0.000053,0.001671,-0.002661,0.6784,0.2249,-0.4848,0.227029,-0.230097,0.000000,0.572175,-0.562971,0.549165,-0.587515,0.567573,-0.553767
1.4285,0.016743,0.000000,0.000000,0.000000,0.0000,0.0000,0.0000,0.255220,-0.255220,0.000094,0.001632,-0.002673,0.6288,0.2404,-0.5376,0.242369,-0.240835,0.000000,0.570641,-0.562971,0.549165,-0.587515,0.567573,-0.553767
1.4452,0.016748,0.000000,0.000000,0.000000,0.0000,0.0000,0.0000,0.257934,-0.257934,0.000090,0.001636,-0.002671,0.6339,0.2388,-0.5321,0.245437,-0.245437,0.000000,0.570641,-0.562971,0.549165,-0.587515,0.567573,-0.553767
1.4620,0.016757,0.000000,0.000000,0.000000,0.0000,0.0000,0.0000,0.259935,-0.259935,0.000049,0.001675,-0.002660,0.6836,0.2233,-0.4792,0.240835,-0.245437,0.000000,0.572175,-0.562971,0.549165,-0.587515,0.567573,-0.553767
1.4787,0.016749,0.000000,0.000000,0.000000,0.0000,0.0000,0.0000,0.261216,-0.261216,0.000053,0.001671,-0.002661,0.6784,0.2249,-0.4847,0.250039,-0.253107,0.000000,0.572175,-0.562971,0.549165,-0.587515,0.567573,-0.553767
1.4956,0.016858,0.000000,0.000000,0.000000,0.0000,0.0000,0.0000,0.261774,-0.261774,0.000053,0.001671,-0.002661,0.6784,0.2249,-0.4847,0.262311,-0.262311,0.000000,0.572175,-0.562971,0.549165,-0.587515,0.567573,-0.556835
1.5123,0.016744,0.000000,0.000000,0.000000,0.0000,0.0000,0.0000,0.261603,-0.261603,-0.000027,0.001594,-0.002634,0.5802,0.1895,-0.5907,0.262311,-0.262311,0.000000,0.572175,-0.562971,0.549165,-0.587515,0.567573,-0.556835
1.5291,0.016744,0.000000,0.000000,0.000000,0.0000,0.0000,0.0000,0.260707,-0.260707,0.000022,0.001564,-0.002649,0.5402,0.2090,-0.6331,0.262311,-0.260777,0.000000,0.570641,-0.562971,0.549165,-0.587515,0.567573,-0.556835
1.5458,0.016748,0.000000,0.000000,0.000000,0.0000,0.0000,0.0000,0.259090,-0.259090,-0.000024,0.001606,-0.002636,0.5946,0.1912,-0.5752,0.257709,-0.259243,0.000000,0.572175,-0.562971,0.549165,-0.587515,0.567573,-0.556835
1.5626,0.016744,0.000000,0.000000,0.000000,0.0000,0.0000,0.0000,0.256756,-0.256756,-0.000019,0.001601,-0.002637,0.5889,0.1931,-0.5812,0.263845,-0.263845,0.000000,0.572175,-0.562971,0.549165,-0.587515,0.567573,-0.556835
1.5793,0.016750,0.000000,0.000000,0.000000,0.0000,0.0000,0.0000,0.253711,-0.253711,-0.000019,0.001601,-0.002637,0.5889,0.1931,-0.5812,0.262311,-0.260777,0.000000,0.572175,-0.562971,0.549165,-0.587515,0.567573,-0.556835
1.5961,0.016775,0.000000,0.000000,0.000000,0.0000,0.0000,0.0000,0.249958,-0.249958,-0.000019,0.001601,-0.002637,0.5889,0.1931,-0.5812,0.256175,-0.257709,0.000000,0.572175,-0.562971,0.549165,-0.587515,0.567573,-0.556835
1.6129,0.016748,0.000000,0.000000,0.000000,0.0000,0.0000,0.0000,0.245518,-0.245518,-0.000019,0.001601,-0.002637,0.5889,0.1931,-0.5812,0.256175,-0.257709,0.000000,0.572175,-0.562971,0.549165,-0.587515,0.567573,-0.556835
1.6296,0.016753,0.000000,0.000000,0.000000,0.0000,0.0000,0.0000,0.240396,-0.240396,-0.000019,0.001601,-0.002637,0.5889,0.1931,-0.5812,0.257709,-0.259243,0.000000,0.572175,-0.562971,0.549165,-0.587515,0.567573,-0.556835
1.6464,0.016746,0.000000,0.000000,0.000000,0.0000,0.0000,0.0000,0.234612,-0.234612,-0.000019,0.001601,-0.002637,0.5889,0.1931,-0.5812,0.256175,-0.257709,0.000000,0.572175,-0.562971,0.549165,-0.587515,0.567573,-0.556835
1.6631,0.016772,0.000000,0.000000,0.000000,0.0000,0.0000,0.0000,0.228168,-0.228168,-0.000019,0.001601,-0.002637,0.5889,0.1931,-0.5812,0.253107,-0.254641,0.000000,0.572175,-0.562971,0.549165,-0.587515,0.567573,-0.556835
1.6799,0.016757,0.000000,0.000000,0.000000,0.0000,0.0000,0.0000,0.221097,-0.221097,-0.000019,0.001601,-0.002637,0.5889,0.1931,-0.5812,0.246971,-0.250039,0.000000,0.572175,-0.562971,0.549165,-0.587515,0.567573,-0.556835
1.6967,0.016788,0.000000,0.000000,0.000000,0.0000,0.0000,0.0000,0.213399,-0.213399,-0.000019,0.001601,-0.002637,0.5889,0.1931,-0.5812,0.243903,-0.242369,0.000000,0.570641,-0.562971,0.549165,-0.587515,0.567573,-0.556835
1.7134,0.016763,0.000000,0.000000,0.000000,0.0000,0.0000,0.0000,0.205121,-0.205121,0.000021,0.001563,-0.002649,0.5393,0.2087,-0.6341,0.243903,-0.242369,0.000000,0.570641,-0.562971,0.549165,-0.587515,0.567573,-0.556835
1.7302,0.016757,0.000000,0.000000,0.000000,0.0000,0.0000,0.0000,0.196276,-0.196276,-0.000024,0.001606,-0.002636,0.5947,0.1912,-0.5751,0.234699,-0.231631,0.000000,0.572175,-0.562971,0.549165,-0.587515,0.567573,-0.556835
1.7470,0.016772,0.000000,0.000000,0.000000,0.0000,0.0000,0.0000,0.186880,-0.186880,-0.000019,0.001601,-0.002637,0.5889,0.1931,-0.5812,0.225495,-0.225495,0.000000,0.572175,-0.562971,0.549165,-0.587515,0.567573,-0.556835
1.7637,0.016774,0.000000,0.000000,0.000000,0.0000,0.0000,0.0000,0.176963,-0.176963,-0.000019,0.001601,-0.002637,0.5889,0.1931,-0.5812,0.216291,-0.219359,0.000000,0.572175,-0.562971,0.549165,-0.587515,0.567573,-0.556835
1.7805,0.016755,0.000000,0.000000,0.000000,0.0000,0.0000,0.0000,0.166567,-0.166567,-0.000019,0.001601,-0.002637,0.5889,0.1931,-0.5812,0.207087,-0.210155,0.000000,0.572175,-0.562971,0.549165,-0.587515,0.567573,-0.556835
1.7973,0.016779,0.000000,0.000000,0.000000,0.0000,0.0000,0.0000,0.155694,-0.155694,0.000021,0.001563,-0.002649,0.5393,0.2087,-0.6341,0.193282,-0.197884,0.000000,0.570641,-0.562971,0.549165,-0.587515,0.567573,-0.556835
1.8140,0.016755,0.000000,0.000000,0.000000,0.0000,0.0000,0.0000,0.144405,-0.144405,0.000021,0.001563,-0.002649,0.5393,0.2087,-0.6341,0.193282,-0.197884,0.000000,0.570641,-0.562971,0.549165,-0.587515,0.567573,-0.556835
1.8308,0.016762,0.000000,0.000000,0.000000,0.0000,0.0000,0.0000,0.132711,-0.132711,-0.000024,0.001606,-0.002636,0.5947,0.1912,-0.5751,0.179476,-0.188680,0.000000,0.572175,-0.562971,0.549165,-0.587515,0.567573,-0.556835
1.8476,0.016818,0.000000,0.000000,0.000000,0.0000,0.0000,0.0000,0.120608,-0.120608,-0.000019,0.001601,-0.002637,0.5889,0.1931,-0.5812,0.168738,-0.179476,0.000000,0.572175,-0.562971,0.549165,-0.587515,0.567573,-0.556835
1.8644,0.016808,0.000000,0.000000,0.000000,0.0000,0.0000,0.0000,0.108175,-0.108175,-0.000019,0.001601,-0.002637,0.5889,0.1931,-0.5812,0.168738,-0.179476,0.000000,0.572175,-0.562971,0.549165,-0.587515,0.567573,-0.556835
1.8812,0.016783,0.000000,0.000000,0.000000,0.0000,0.0000,0.0000,0.095461,-0.095461,-0.000019,0.001601,-0.002637,0.5889,0.1931,-0.5812,0.168738,-0.179476,0.000000,0.572175,-0.562971,0.549165,-0.587515,0.567573,-0.556835
1.8981,0.016870,0.000000,0.000000,0.000000,0.0000,0.0000,0.0000,0.082413,-0.082413,-0.000019,0.001601,-0.002637,0.5889,0.1931,-0.5812,0.168738,-0.179476,0.000000,0.572175,-0.562971,0.549165,-0.587515,0.567573,-0.556835
1.9148,0.016755,0.000000,0.000000,0.000000,0.0000,0.0000,0.0000,0.069225,-0.069225,-0.000019,0.001601,-0.002637,0.5889,0.1931,-0.5812,0.168738,-0.179476,0.000000,0.572175,-0.562971,0.549165,-0.587515,0.567573,-0.556835
1.9316,0.016765,0.000000,0.000000,0.000000,0.0000,0.0000,0.0000,0.055838,-0.055838,-0.000019,0.001601,-0.002637,0.5889,0.1931,-0.5812,0.168738,-0.179476,0.000000,0.572175,-0.562971,0.549165,-0.587515,0.567573,-0.556835
1.9483,0.016756,0.000000,0.000000,0.000000,0.0000,0.0000,0.0000,0.042302,-0.042302,-0.000019,0.001601,-0.002637,0.5889,0.1931,-0.5812,0.133456,-0.133456,0.000000,0.572175,-0.562971,0.549165,-0.587515,0.567573,-0.556835
1.9651,0.016756,0.000000,0.000000,0.000000,0.0000,0.0000,0.0000,0.028650,-0.028650,0.000021,0.001563,-0.002649,0.5393,0.2087,-0.6341,0.133456,-0.133456,0.000000,0.570641,-0.562971,0.549165,-0.587515,0.567573,-0.556835
1.9818,0.016743,0.000000,0.000000,0.000000,0.0000,0.0000,0.0000,0.014929,-0.014929,-0.000024,0.001606,-0.002636,0.5947,0.1912,-0.5751,0.127320,-0.130388,0.000000,0.572175,-0.562971,0.549165,-0.587515,0.567573,-0.556835
1.9986,0.016745,0.000000,0.000000,0.000000,0.0000,0.0000,0.0000,0.001165,-0.001165,-0.000019,0.001601,-0.002637,0.5889,0.1931,-0.5812,0.101243,-0.104311,0.000000,0.572175,-0.562971,0.549165,-0.587515,0.567573,-0.556835
2.0153,0.016762,0.000000,0.000000,0.000000,0.0000,0.0000,0.0000,-0.012616,0.012616,-0.000019,0.001601,-0.002637,0.5889,0.1931,-0.5812,0.062893,-0.065961,0.000000,0.572175,-0.562971,0.549165,-0.587515,0.567573,-0.556835
2.0321,0.016746,0.000000,0.000000,0.000000,0.0000,0.0000,0.0000,-0.026349,0.026349,-0.000019,0.001601,-0.002637,0.5889,0.1931,-0.5812,0.024544,-0.026078,0.000000,0.572175,-0.562971,0.549165,-0.587515,0.567573,-0.556835
2.0489,0.016769,0.000000,0.000000,0.000000,0.0000,0.0000,0.0000,-0.040028,0.040028,-0.000019,0.001601,-0.002637,0.5889,0.1931,-0.5812,-0.010738,0.009204,0.000000,0.572175,-0.562971,0.549165,-0.587515,0.567573,-0.556835
2.0656,0.016742,0.000000,0.000000,0.000000,0.0000,0.0000,0.0000,-0.053575,0.053575,-0.000019,0.001601,-0.002637,0.5889,0.1931,-0.5812,-0.010738,0.009204,0.000000,0.572175,-0.562971,0.549165,-0.587515,0.567573,-0.556835
2.0824,0.016755,0.000000,0.000000,0.000000,0.0000,0.0000,0.0000,-0.066984,0.066984,-0.000019,0.001601,-0.002637,0.5889,0.1931,-0.5812,-0.030680,0.029146,0.000000,0.572175,-0.562971,0.549165,-0.587515,0.567573,-0.556835
2.0991,0.016750,0.000000,0.000000,0.000000,0.0000,0.0000,0.0000,-0.080203,0.080203,0.000021,0.001563,-0.002649,0.5393,0.2087,-0.6341,-0.030680,0.029146,0.000000,0.570641,-0.562971,0.549165,-0.587515,0.567573,-0.556835
2.1159,0.016757,0.000000,0.000000,0.000000,0.0000,0.0000,0.0000,-0.093205,0.093205,-0.000024,0.001606,-0.002636,0.5947,0.1912,-0.5751,-0.030680,0.033748,0.000000,0.572175,-0.562971,0.549165,-0.587515,0.567573,-0.556835
2.1326,0.016751,0.000000,0.000000,0.000000,0.0000,0.0000,0.0000,-0.105944,0.105944,-0.000019,0.001601,-0.002637,0.5889,0.1931,-0.5812,-0.047553,0.052155,0.000000,0.572175,-0.562971,0.549165,-0.587515,0.567573,-0.556835
2.1494,0.016764,0.000000,0.000000,0.000000,0.0000,0.0000,0.0000,-0.118400,0.118400,-0.000019,0.001601,-0.002637,0.5889,0.1931,-0.5812,-0.047553,0.052155,0.000000,0.572175,-0.562971,0.549165,-0.587515,0.567573,-0.556835
2.1661,0.016740,0.000000,0.000000,0.000000,0.0000,0.0000,0.0000,-0.130511,0.130511,-0.000019,0.001601,-0.002637,0.5889,0.1931,-0.5812,-0.072097,0.076699,0.000000,0.572175,-0.562971,0.549165,-0.587515,0.567573,-0.556835
2.1829,0.016756,0.000000,0.000000,0.000000,0.0000,0.0000,0.0000,-0.142271,0.142271,-0.000019,0.001601,-0.002637,0.5889,0.1931,-0.5812,-0.095107,0.099709,0.000000,0.572175,-0.562971,0.549165,-0.587515,0.567573,-0.556835
2.1996,0.016742,0.000000,0.000000,0.000000,0.0000,0.0000,0.0000,-0.153628,0.153628,-0.000019,0.001601,-0.002637,0.5889,0.1931,-0.5812,-0.116583,0.111981,0.000000,0.572175,-0.562971,0.549165,-0.587515,0.567573,-0.556835
2.2164,0.016750,0.000000,0.000000,0.000000,0.0000,0.0000,0.0000,-0.164565,0.164565,0.000021,0.001563,-0.002649,0.5393,0.2087,-0.6341,-0.134990,0.124252,0.000000,0.570641,-0.562971,0.549165,-0.587515,0.567573,-0.556835
2.2331,0.016744,0.000000,0.000000,0.000000,0.0000,0.0000,0.0000,-0.175043,0.175043,0.000017,0.001567,-0.002648,0.5445,0.2071,-0.6286,-0.150330,0.142660,0.000000,0.570641,-0.562971,0.549165,-0.587515,0.567573,-0.556835
2.2499,0.016746,0.000000,0.000000,0.000000,0.0000,0.0000,0.0000,-0.185038,0.185038,0.000017,0.001567,-0.002648,0.5445,0.2071,-0.6286,-0.150330,0.142660,0.000000,0.570641,-0.562971,0.549165,-0.587515,0.567573,-0.556835
2.2666,0.016742,0.000000,0.000000,0.000000,0.0000,0.0000,0.0000,-0.194518,0.194518,-0.000023,0.001605,-0.002636,0.5942,0.1914,-0.5757,-0.164136,0.161068,0.000000,0.572175,-0.562971,0.549165,-0.587515,0.567573,-0.556835
2.2833,0.016747,0.000000,0.000000,0.000000,0.0000,0.0000,0.0000,-0.203464,0.203464,-0.000019,0.001601,-0.002637,0.5890,0.1931,-0.5812,-0.168738,0.168738,0.000000,0.572175,-0.562971,0.549165,-0.587515,0.567573,-0.556835
2.3001,0.016786,0.000000,0.000000,0.000000,0.0000,0.0000,0.0000,-0.211865,0.211865,-0.000019,0.001601,-0.002637,0.5890,0.1931,-0.5812,-0.170272,0.173340,0.000000,0.572175,-0.562971,0.549165,-0.587515,0.567573,-0.556835
2.3169,0.016747,0.000000,0.000000,0.000000,0.0000,0.0000,0.0000,-0.219659,0.219659,-0.000019,0.001601,-0.002637,0.5890,0.1931,-0.5812,-0.182544,0.185612,0.000000,0.572175,-0.562971,0.549165,-0.587515,0.567573,-0.556835
2.3337,0.016843,0.000000,0.000000,0.000000,0.0000,0.0000,0.0000,-0.226885,0.226885,-0.000019,0.001601,-0.002637,0.5890,0.1931,-0.5812,-0.205553,0.207087,0.000000,0.572175,-0.562971,0.549165,-0.587515,0.567573,-0.556835
2.3505,0.016744,0.000000,0.000000,0.000000,0.0000,0.0000,0.0000,-0.233439,0.233439,-0.000019,0.001601,-0.002637,0.5890,0.1931,-0.5812,-0.205553,0.207087,0.000000,0.572175,-0.562971,0.549165,-0.587515,0.567573,-0.556835
2.3672,0.016743,0.000000,0.000000,0.000000,0.0000,0.0000,0.0000,-0.239347,0.239347,-0.000019,0.001601,-0.002637,0.5890,0.1931,-0.5812,-0.222427,0.219359,0.000000,0.572175,-0.562971,0.549165,-0.587515,0.567573,-0.556835
2.3840,0.016750,0.000000,0.000000,0.000000,0.0000,0.0000,0.0000,-0.244595,0.244595,-0.000019,0.001601,-0.002637,0.5890,0.1931,-0.5812,-0.222427,0.220893,0.000000,0.572175,-0.562971,0.549165,-0.587515,0.567573,-0.556835
2.4007,0.016749,0.000000,0.000000,0.000000,0.0000,0.0000,0.0000,-0.249166,0.249166,-0.000019,0.001601,-0.002637,0.5890,0.1931,-0.5812,-0.222427,0.223961,0.000000,0.572175,-0.562971,0.549165,-0.587515,0.567573,-0.556835
2.4175,0.016750,0.000000,0.000000,0.000000,0.0000,0.0000,0.0000,-0.253047,0.253047,-0.000019,0.001601,-0.002637,0.5890,0.1931,-0.5812,-0.234699,0.240835,0.000000,0.572175,-0.562971,0.549165,-0.587515,0.567573,-0.556835
2.4344,0.016931,0.000000,0.000000,0.000000,0.0000,0.0000,0.0000,-0.256258,0.256258,-0.000019,0.001601,-0.002637,0.5890,0.1931,-0.5812,-0.250039,0.248505,0.000000,0.572175,-0.562971,0.549165,-0.587515,0.567573,-0.556835
2.4511,0.016751,0.000000,0.000000,0.000000,0.0000,0.0000,0.0000,-0.258722,0.258722,-0.000019,0.001601,-0.002637,0.5890,0.1931,-0.5812,-0.250039,0.248505,0.000000,0.572175,-0.562971,0.549165,-0.587515,0.567573,-0.556835
2.4679,0.016750,0.000000,0.000000,0.000000,0.0000,0.0000,0.0000,-0.260469,0.260469,-0.000019,0.001601,-0.002637,0.5890,0.1931,-0.5812,-0.254641,0.248505,0.000000,0.572175,-0.562971,0.549165,-0.587515,0.567573,-0.556835
2.4846,0.016756,0.000000,0.000000,0.000000,0.0000,0.0000,0.0000,-0.261495,0.261495,-0.000019,0.001601,-0.002637,0.5890,0.1931,-0.5812,-0.251573,0.251573,0.000000,0.572175,-0.562971,0.549165,-0.587515,0.567573,-0.556835
2.5014,0.016750,0.000000,0.000000,0.000000,0.0000,0.0000,0.0000,-0.261797,0.261797,-0.000019,0.001601,-0.002637,0.5890,0.1931,-0.5812,-0.257709,0.260777,0.000000,0.572175,-0.562971,0.549165,-0.587515,0.567573,-0.556835
2.5182,0.016758,0.000000,0.000000,0.000000,0.0000,0.0000,0.0000,-0.261374,0.261374,-0.000019,0.001601,-0.002637,0.5890,0.1931,-0.5812,-0.263845,0.260777,0.000000,0.572175,-0.562971,0.549165,-0.587515,0.567573,-0.556835
2.5352,0.016993,0.000000,0.000000,0.000000,0.0000,0.0000,0.0000,-0.260205,0.260205,-0.000019,0.001601,-0.002637,0.5890,0.1931,-0.5812,-0.262311,0.259243,0.000000,0.572175,-0.562971,0.549165,-0.587515,0.567573,-0.556835
2.5519,0.016757,0.000000,0.000000,0.000000,0.0000,0.0000,0.0000,-0.258326,0.258326,-0.000019,0.001601,-0.002637,0.5890,0.1931,-0.5812,-0.262311,0.259243,0.000000,0.572175,-0.562971,0.549165,-0.587515,0.567573,-0.556835
2.5687,0.016752,0.000000,0.000000,0.000000,0.0000,0.0000,0.0000,-0.255733,0.255733,0.000021,0.001563,-0.002649,0.5393,0.2087,-0.6341,-0.260777,0.260777,0.000000,0.570641,-0.562971,0.549165,-0.587515,0.567573,-0.556835
2.5854,0.016753,0.000000,0.000000,0.000000,0.0000,0.0000,0.0000,-0.252431,0.252431,-0.000024,0.001606,-0.002636,0.5947,0.1912,-0.5751,-0.263845,0.260777,0.000000,0.572175,-0.562971,0.549165,-0.587515,0.567573,-0.556835
2.6022,0.016745,0.000000,0.000000,0.000000,0.0000,0.0000,0.0000,-0.248432,0.248432,-0.000019,0.001601,-0.002637,0.5889,0.1931,-0.5812,-0.260777,0.259243,0.000000,0.572175,-0.562971,0.549165,-0.587515,0.567573,-0.556835
2.6189,0.016747,0.000000,0.000000,0.000000,0.0000,0.0000,0.0000,-0.243745,0.243745,-0.000019,0.001601,-0.002637,0.5889,0.1931,-0.5812,-0.259243,0.259243,0.000000,0.572175,-0.562971,0.549165,-0.587515,0.567573,-0.556835
2.6357,0.016834,0.000000,0.000000,0.000000,0.0000,0.0000,0.0000,-0.238354,0.238354,-0.000019,0.001601,-0.002637,0.5889,0.1931,-0.5812,-0.256175,0.256175,0.000000,0.572175,-0.562971,0.549165,-0.587515,0.567573,-0.556835
2.6525,0.016755,0.000000,0.000000,0.000000,0.0000,0.0000,0.0000,-0.232327,0.232327,-0.000019,0.001601,-0.002637,0.5889,0.1931,-0.5812,-0.256175,0.256175,0.000000,0.572175,-0.562971,0.549165,-0.587515,0.567573,-0.556835
2.6692,0.016746,0.000000,0.000000,0.000000,0.0000,0.0000,0.0000,-0.225660,0.225660,-0.000019,0.001601,-0.002637,0.5889,0.1931,-0.5812,-0.256175,0.254641,0.000000,0.572175,-0.562971,0.549165,-0.587515,0.567573,-0.556835
2.6860,0.016751,0.000000,0.000000,0.000000,0.0000,0.0000,0.0000,-0.218366,0.218366,-0.000019,0.001601,-0.002637,0.5889,0.1931,-0.5812,-0.256175,0.253107,0.000000,0.572175,-0.562971,0.549165,-0.587515,0.567573,-0.556835
2.7027,0.016745,0.000000,0.000000,0.000000,0.0000,0.0000,0.0000,-0.210470,0.210470,-0.000019,0.001601,-0.002637,0.5889,0.1931,-0.5812,-0.254641,0.251573,0.000000,0.572175,-0.562971,0.549165,-0.587515,0.567573,-0.556835
2.7195,0.016755,0.000000,0.000000,0.000000,0.0000,0.0000,0.0000,-0.201987,0.201987,-0.000019,0.001601,-0.002637,0.5889,0.1931,-0.5812,-0.250039,0.246971,0.000000,0.572175,-0.562971,0.549165,-0.587515,0.567573,-0.556835
2.7365,0.017032,0.000000,0.000000,0.000000,0.0000,0.0000,0.0000,-0.192790,0.192790,-0.000019,0.001601,-0.002637,0.5889,0.1931,-0.5812,-0.236233,0.237767,0.000000,0.572175,-0.562971,0.549165,-0.587515,0.567573,-0.556835
2.7533,0.016753,0.000000,0.000000,0.000000,0.0000,0.0000,0.0000,-0.183206,0.183206,-0.000019,0.001601,-0.002637,0.5889,0.1931,-0.5812,-0.236233,0.237767,0.000000,0.572175,-0.562971,0.549165,-0.587515,0.567573,-0.556835
2.7700,0.016743,0.000000,0.000000,0.000000,0.0000,0.0000,0.0000,-0.173120,0.173120,-0.000019,0.001601,-0.002637,0.5889,0.1931,-0.5812,-0.220893,0.225495,0.000000,0.572175,-0.562971,0.549165,-0.587515,0.567573,-0.556835
2.7868,0.016758,0.000000,0.000000,0.000000,0.0000,0.0000,0.0000,-0.162546,0.162546,0.000021,0.001563,-0.002649,0.5393,0.2087,-0.6341,-0.205553,0.216291,0.000000,0.570641,-0.562971,0.549165,-0.587515,0.567573,-0.556835
2.8035,0.016748,0.000000,0.000000,0.000000,0.0000,0.0000,0.0000,-0.151528,0.151528,-0.000024,0.001606,-0.002636,0.5947,0.1912,-0.5751,-0.193282,0.205553,0.000000,0.572175,-0.562971,0.549165,-0.587515,0.567573,-0.556835
2.8203,0.016746,0.000000,0.000000,0.000000,0.0000,0.0000,0.0000,-0.140092,0.140092,-0.000019,0.001601,-0.002637,0.5889,0.1931,-0.5812,-0.184078,0.194816,0.000000,0.572175,-0.562971,0.549165,-0.587515,0.567573,-0.556835
2.8372,0.016958,0.000000,0.000000,0.000000,0.0000,0.0000,0.0000,-0.128116,0.128116,0.000021,0.001563,-0.002649,0.5393,0.2087,-0.6341,-0.170272,0.176408,0.000000,0.570641,-0.562971,0.549165,-0.587515,0.567573,-0.556835
2.8540,0.016744,0.000000,0.000000,0.000000,0.0000,0.0000,0.0000,-0.115935,0.115935,0.000021,0.001563,-0.002649,0.5393,0.2087,-0.6341,-0.170272,0.176408,0.000000,0.570641,-0.562971,0.549165,-0.587515,0.567573,-0.556835
2.8707,0.016741,0.000000,0.000000,0.000000,0.0000,0.0000,0.0000,-0.103435,0.103435,0.000017,0.001567,-0.002648,0.5445,0.2071,-0.6286,-0.158000,0.162602,0.000000,0.570641,-0.562971,0.549165,-0.587515,0.567573,-0.556835
2.8875,0.016753,0.000000,0.000000,0.000000,0.0000,0.0000,0.0000,-0.090640,0.090640,-0.000023,0.001605,-0.002636,0.5942,0.1914,-0.5757,-0.145728,0.148796,0.000000,0.572175,-0.562971,0.549165,-0.587515,0.567573,-0.556835
2.9042,0.016750,0.000000,0.000000,0.000000,0.0000,0.0000,0.0000,-0.077596,0.077596,-0.000019,0.001601,-0.002637,0.5890,0.1931,-0.5812,-0.134990,0.134990,0.000000,0.572175,-0.562971,0.549165,-0.587515,0.567573,-0.556835
2.9210,0.016753,0.000000,0.000000,0.000000,0.0000,0.0000,0.0000,-0.064335,0.064335,0.000021,0.001563,-0.002649,0.5393,0.2087,-0.6341,-0.118117,0.118117,0.000000,0.570641,-0.562971,0.549165,-0.587515,0.567573,-0.556835
2.9378,0.016877,0.000000,0.000000,0.000000,0.0000,0.0000,0.0000,-0.050795,0.050795,0.000021,0.001563,-0.002649,0.5393,0.2087,-0.6341,-0.118117,0.118117,0.000000,0.570641,-0.562971,0.549165,-0.587515,0.567573,-0.556835
2.9546,0.016743,0.000000,0.000000,0.000000,0.0000,0.0000,0.0000,-0.037222,0.037222,0.000021,0.001563,-0.002649,0.5393,0.2087,-0.6341,-0.118117,0.118117,0.000000,0.570641,-0.562971,0.549165,-0.587515,0.567573,-0.556835
2.9713,0.016743,0.000000,0.000000,0.000000,0.0000,0.0000,0.0000,-0.023546,0.023546,-0.000024,0.001606,-0.002636,0.5947,0.1912,-0.5751,-0.070563,0.070563,0.000000,0.572175,-0.562971,0.549165,-0.587515,0.567573,-0.556835
2.9881,0.016768,0.000000,0.000000,0.000000,0.0000,0.0000,0.0000,-0.009785,0.009785,-0.000019,0.001601,-0.002637,0.5889,0.1931,-0.5812,-0.069029,0.069029,0.000000,0.572175,-0.562971,0.549165,-0.587515,0.567573,-0.556835
3.0048,0.016738,0.000000,0.000000,0.000000,0.0000,0.0000,0.0000,0.003980,-0.003980,-0.000019,0.001601,-0.002637,0.5889,0.1931,-0.5812,-0.069029,0.069029,0.000000,0.572175,-0.562971,0.549165,-0.587515,0.567573,-0.556835
3.0216,0.016754,0.000000,0.000000,0.000000,0.0000,0.0000,0.0000,0.017746,-0.017746,0.000021,0.001563,-0.002649,0.5393,0.2087,-0.6341,-0.061359,0.058291,0.000000,0.570641,-0.562971,0.549165,-0.587515,0.567573,-0.556835
3.0383,0.016743,0.000000,0.000000,0.000000,0.0000,0.0000,0.0000,0.031454,-0.031454,0.000017,0.001567,-0.002648,0.5445,0.2071,-0.6286,-0.038350,0.038350,0.000000,0.570641,-0.562971,0.549165,-0.587515,0.567573,-0.556835
3.0551,0.016751,0.000000,0.000000,0.000000,0.0000,0.0000,0.0000,0.045082,-0.045082,0.000017,0.001567,-0.002648,0.5445,0.2071,-0.6286,-0.010738,0.016874,0.000000,0.570641,-0.562971,0.549165,-0.587515,0.567573,-0.556835
3.0718,0.016742,0.000000,0.000000,0.000000,0.0000,0.0000,0.0000,0.058577,-0.058577,-0.000023,0.001605,-0.002636,0.5942,0.1914,-0.5757,0.013806,-0.006136,0.000000,0.572175,-0.562971,0.549165,-0.587515,0.567573,-0.556835
3.0886,0.016756,0.000000,0.000000,0.000000,0.0000,0.0000,0.0000,0.071922,-0.071922,-0.000023,0.001605,-0.002636,0.5942,0.1914,-0.5757,0.013806,-0.006136,0.000000,0.572175,-0.562971,0.549165,-0.587515,0.567573,-0.556835
3.1053,0.016743,0.000000,0.000000,0.000000,0.0000,0.0000,0.0000,0.085057,-0.085057,-0.000019,0.001601,-0.002637,0.5890,0.1931,-0.5812,0.039884,-0.030680,0.000000,0.572175,-0.562971,0.549165,-0.587515,0.567573,-0.556835
3.1221,0.016752,0.000000,0.000000,0.000000,0.0000,0.0000,0.0000,0.097964,-0.097964,0.000021,0.001563,-0.002649,0.5393,0.2087,-0.6341,0.056757,-0.052155,0.000000,0.570641,-0.562971,0.549165,-0.587515,0.567573,-0.556835
3.1388,0.016742,0.000000,0.000000,0.000000,0.0000,0.0000,0.0000,0.110592,-0.110592,-0.000024,0.001606,-0.002636,0.5947,0.1912,-0.5751,0.062893,-0.065961,0.000000,0.572175,-0.562971,0.549165,-0.587515,0.567573,-0.556835
3.1555,0.016706,0.000000,0.000000,0.000000,0.0000,0.0000,0.0000,0.122888,-0.122888,0.000022,0.001563,-0.002649,0.5387,0.2089,-0.6347,0.069029,-0.081301,0.000000,0.570641,-0.562971,0.549165,-0.587515,0.567573,-0.556835
3.1723,0.016744,0.000000,0.000000,0.000000,0.0000,0.0000,0.0000,0.134873,-0.134873,-0.000024,0.001606,-0.002636,0.5948,0.1912,-0.5750,0.084369,-0.093573,0.000000,0.572175,-0.562971,0.549165,-0.587515,0.567573,-0.556835
3.1890,0.016769,0.000000,0.000000,0.000000,0.0000,0.0000,0.0000,0.146501,-0.146501,-0.000024,0.001606,-0.002636,0.5948,0.1912,-0.5750,0.084369,-0.093573,0.000000,0.572175,-0.562971,0.549165,-0.587515,0.567573,-0.556835
3.2058,0.016745,0.000000,0.000000,0.000000,0.0000,0.0000,0.0000,0.157707,-0.157707,0.000022,0.001563,-0.002649,0.5387,0.2089,-0.6347,0.108913,-0.107379,0.000000,0.570641,-0.562971,0.549165,-0.587515,0.567573,-0.556835
3.2225,0.016753,0.000000,0.000000,0.000000,0.0000,0.0000,0.0000,0.168481,-0.168481,-0.000024,0.001606,-0.002636,0.5948,0.1912,-0.5750,0.131922,-0.122718,0.000000,0.572175,-0.562971,0.549165,-0.587515,0.567573,-0.556835
3.2393,0.016744,0.000000,0.000000,0.000000,0.0000,0.0000,0.0000,0.178784,-0.178784,0.000022,0.001563,-0.002649,0.5387,0.2089,-0.6347,0.141126,-0.133456,0.000000,0.570641,-0.562971,0.549165,-0.587515,0.567573,-0.556835
3.2560,0.016753,0.000000,0.000000,0.000000,0.0000,0.0000,0.0000,0.188597,-0.188597,-0.000024,0.001606,-0.002636,0.5948,0.1912,-0.5750,0.147262,-0.148796,0.000000,0.572175,-0.562971,0.549165,-0.587515,0.567573,-0.556835
3.2729,0.016877,0.000000,0.000000,0.000000,0.0000,0.0000,0.0000,0.197955,-0.197955,-0.000019,0.001601,-0.002637,0.5889,0.1931,-0.5812,0.161068,-0.165670,0.000000,0.572175,-0.562971,0.549165,-0.587515,0.567573,-0.556835
3.2897,0.016755,0.000000,0.000000,0.000000,0.0000,0.0000,0.0000,0.206695,-0.206695,-0.000019,0.001601,-0.002637,0.5889,0.1931,-0.5812,0.161068,-0.165670,0.000000,0.572175,-0.562971,0.549165,-0.587515,0.567573,-0.556835
3.3064,0.016741,0.000000,0.000000,0.000000,0.0000,0.0000,0.0000,0.214856,-0.214856,-0.000019,0.001601,-0.002637,0.5889,0.1931,-0.5812,0.182544,-0.182544,0.000000,0.572175,-0.562971,0.549165,-0.587515,0.567573,-0.556835
3.3232,0.016751,0.000000,0.000000,0.000000,0.0000,0.0000,0.0000,0.222426,-0.222426,-0.000019,0.001601,-0.002637,0.5889,0.1931,-0.5812,0.196350,-0.193282,0.000000,0.572175,-0.562971,0.549165,-0.587515,0.567573,-0.556835
3.3401,0.016983,0.000000,0.000000,0.000000,0.0000,0.0000,0.0000,0.229473,-0.229473,-0.000019,0.001601,-0.002637,0.5889,0.1931,-0.5812,0.199418,-0.200951,0.000000,0.572175,-0.562971,0.549165,-0.587515,0.567573,-0.556835
3.3569,0.016752,0.000000,0.000000,0.000000,0.0000,0.0000,0.0000,0.235785,-0.235785,0.000021,0.001563,-0.002649,0.5393,0.2087,-0.6341,0.204019,-0.211689,0.000000,0.570641,-0.562971,0.549165,-0.587515,0.567573,-0.556835
3.3736,0.016753,0.000000,0.000000,0.000000,0.0000,0.0000,0.0000,0.241444,-0.241444,-0.000024,0.001606,-0.002636,0.5947,0.1912,-0.5751,0.220893,-0.223961,0.000000,0.572175,-0.562971,0.549165,-0.587515,0.567573,-0.556835
3.3904,0.016763,0.000000,0.000000,0.000000,0.0000,0.0000,0.0000,0.246436,-0.246436,-0.000024,0.001606,-0.002636,0.5947,0.1912,-0.5751,0.220893,-0.223961,0.000000,0.572175,-0.562971,0.549165,-0.587515,0.567573,-0.556835
3.4072,0.016753,0.000000,0.000000,0.000000,0.0000,0.0000,0.0000,0.250744,-0.250744,-0.000019,0.001601,-0.002637,0.5889,0.1931,-0.5812,0.234699,-0.233165,0.000000,0.572175,-0.562971,0.549165,-0.587515,0.567573,-0.556835
3.4239,0.016750,0.000000,0.000000,0.000000,0.0000,0.0000,0.0000,0.254356,-0.254356,0.000021,0.001563,-0.002649,0.5393,0.2087,-0.6341,0.234699,-0.239301,0.000000,0.570641,-0.562971,0.549165,-0.587515,0.567573,-0.556835
3.4407,0.016745,0.000000,0.000000,0.000000,0.0000,0.0000,0.0000,0.257263,-0.257263,-0.000024,0.001606,-0.002636,0.5947,0.1912,-0.5751,0.231631,-0.240835,0.000000,0.572175,-0.562971,0.549165,-0.587515,0.567573,-0.556835
3.4574,0.016751,0.000000,0.000000,0.000000,0.0000,0.0000,0.0000,0.259459,-0.259459,-0.000019,0.001601,-0.002637,0.5889,0.1931,-0.5812,0.243903,-0.243903,0.000000,0.572175,-0.562971,0.549165,-0.587515,0.567573,-0.556835
3.4743,0.016891,0.000000,0.000000,0.000000,0.0000,0.0000,0.0000,0.260947,-0.260947,-0.000019,0.001601,-0.002637,0.5889,0.1931,-0.5812,0.259243,-0.253107,0.000000,0.572175,-0.562971,0.549165,-0.587515,0.567573,-0.556835
3.4911,0.016762,0.000000,0.000000,0.000000,0.0000,0.0000,0.0000,0.261696,-0.261696,-0.000019,0.001601,-0.002637,0.5889,0.1931,-0.5812,0.259243,-0.253107,0.000000,0.572175,-0.562971,0.549165,-0.587515,0.567573,-0.556835
3.5078,0.016741,0.000000,0.000000,0.000000,0.0000,0.0000,0.0000,0.261721,-0.261721,0.000021,0.001563,-0.002649,0.5393,0.2087,-0.6341,0.259243,-0.260777,0.000000,0.570641,-0.562971,0.549165,-0.587515,0.567573,-0.556835
3.5246,0.016757,0.000000,0.000000,0.000000,0.0000,0.0000,0.0000,0.261020,-0.261020,-0.000024,0.001606,-0.002636,0.5947,0.1912,-0.5751,0.256175,-0.262311,0.000000,0.572175,-0.562971,0.549165,-0.587515,0.567573,-0.556835
3.5413,0.016740,0.000000,0.000000,0.000000,0.0000,0.0000,0.0000,0.259599,-0.259599,-0.000019,0.001601,-0.002637,0.5889,0.1931,-0.5812,0.260777,-0.259243,0.000000,0.572175,-0.562971,0.549165,-0.587515,0.567573,-0.556835
3.5581,0.016759,0.000000,0.000000,0.000000,0.0000,0.0000,0.0000,0.257456,-0.257456,-0.000019,0.001601,-0.002637,0.5889,0.1931,-0.5812,0.262311,-0.262311,0.000000,0.572175,-0.562971,0.549165,-0.587515,0.567573,-0.556835
3.5748,0.016786,0.000000,0.000000,0.000000,0.0000,0.0000,0.0000,0.254595,-0.254595,0.000021,0.001563,-0.002649,0.5393,0.2087,-0.6341,0.259243,-0.262311,0.000000,0.570641,-0.562971,0.549165,-0.587515,0.567573,-0.556835
3.5916,0.016727,0.000000,0.000000,0.000000,0.0000,0.0000,0.0000,0.251040,-0.251040,0.000021,0.001563,-0.002649,0.5393,0.2087,-0.6341,0.259243,-0.262311,0.000000,0.570641,-0.562971,0.549165,-0.587515,0.567573,-0.556835
3.6083,0.016747,0.000000,0.000000,0.000000,0.0000,0.0000,0.0000,0.246787,-0.246787,-0.000024,0.001606,-0.002636,0.5947,0.1912,-0.5751,0.259243,-0.260777,0.000000,0.572175,-0.562971,0.549165,-0.587515,0.567573,-0.556835
3.6251,0.016757,0.000000,0.000000,0.000000,0.0000,0.0000,0.0000,0.241847,-0.241847,-0.000019,0.001601,-0.002637,0.5889,0.1931,-0.5812,0.257709,-0.259243,0.000000,0.572175,-0.562971,0.549165,-0.587515,0.567573,-0.556835
3.6418,0.016739,0.000000,0.000000,0.000000,0.0000,0.0000,0.0000,0.236244,-0.236244,0.000021,0.001563,-0.002649,0.5393,0.2087,-0.6341,0.254641,-0.257709,0.000000,0.570641,-0.562971,0.549165,-0.587515,0.567573,-0.556835
3.6586,0.016753,0.000000,0.000000,0.000000,0.0000,0.0000,0.0000,0.229981,-0.229981,-0.000024,0.001606,-0.002636,0.5947,0.1912,-0.5751,0.250039,-0.254641,0.000000,0.572175,-0.562971,0.549165,-0.587515,0.567573,-0.556835
3.6753,0.016749,0.000000,0.000000,0.000000,0.0000,0.0000,0.0000,0.223084,-0.223084,-0.000019,0.001601,-0.002637,0.5889,0.1931,-0.5812,0.246971,-0.250039,0.000000,0.572175,-0.562971,0.549165,-0.587515,0.567573,-0.556835
3.6921,0.016757,0.000000,0.000000,0.000000,0.0000,0.0000,0.0000,0.215565,-0.215565,-0.000019,0.001601,-0.002637,0.5889,0.1931,-0.5812,0.246971,-0.250039,0.000000,0.572175,-0.562971,0.549165,-0.587515,0.567573,-0.556835
3.7088,0.016748,0.000000,0.000000,0.000000,0.0000,0.0000,0.0000,0.207454,-0.207454,-0.000019,0.001601,-0.002637,0.5889,0.1931,-0.5812,0.242369,-0.240835,0.000000,0.572175,-0.562971,0.549165,-0.587515,0.567573,-0.556835
3.7256,0.016745,0.000000,0.000000,0.000000,0.0000,0.0000,0.0000,0.198770,-0.198770,-0.000019,0.001601,-0.002637,0.5889,0.1931,-0.5812,0.236233,-0.233165,0.000000,0.572175,-0.562971,0.549165,-0.587515,0.567573,-0.556835
3.7423,0.016743,0.000000,0.000000,0.000000,0.0000,0.0000,0.0000,0.189538,-0.189538,-0.000019,0.001601,-0.002637,0.5889,0.1931,-0.5812,0.227029,-0.227029,0.000000,0.572175,-0.562971,0.549165,-0.587515,0.567573,-0.556835
3.7591,0.016752,0.000000,0.000000,0.000000,0.0000,0.0000,0.0000,0.179775,-0.179775,-0.000019,0.001601,-0.002637,0.5889,0.1931,-0.5812,0.217825,-0.219359,0.000000,0.572175,-0.562971,0.549165,-0.587515,0.567573,-0.556835
3.7758,0.016751,0.000000,0.000000,0.000000,0.0000,0.0000,0.0000,0.169516,-0.169516,-0.000019,0.001601,-0.002637,0.5889,0.1931,-0.5812,0.204019,-0.207087,0.000000,0.572175,-0.562971,0.549165,-0.587515,0.567573,-0.556835
3.7926,0.016751,0.000000,0.000000,0.000000,0.0000,0.0000,0.0000,0.158787,-0.158787,-0.000019,0.001601,-0.002637,0.5889,0.1931,-0.5812,0.204019,-0.207087,0.000000,0.572175,-0.562971,0.549165,-0.587515,0.567573,-0.556835
3.8093,0.016752,0.000000,0.000000,0.000000,0.0000,0.0000,0.0000,0.147618,-0.147618,-0.000019,0.001601,-0.002637,0.5889,0.1931,-0.5812,0.191748,-0.197884,0.000000,0.572175,-0.562971,0.549165,-0.587515,0.567573,-0.556835
3.8261,0.016749,0.000000,0.000000,0.000000,0.0000,0.0000,0.0000,0.136042,-0.136042,-0.000019,0.001601,-0.002637,0.5889,0.1931,-0.5812,0.179476,-0.190214,0.000000,0.572175,-0.562971,0.549165,-0.587515,0.567573,-0.556835
3.8428,0.016743,0.000000,0.000000,0.000000,0.0000,0.0000,0.0000,0.124094,-0.124094,-0.000019,0.001601,-0.002637,0.5889,0.1931,-0.5812,0.168738,-0.179476,0.000000,0.572175,-0.562971,0.549165,-0.587515,0.567573,-0.556835
3.8596,0.016781,0.000000,0.000000,0.000000,0.0000,0.0000,0.0000,0.111774,-0.111774,-0.000019,0.001601,-0.002637,0.5889,0.1931,-0.5812,0.156466,-0.165670,0.000000,0.572175,-0.562971,0.549165,-0.587515,0.567573,-0.556835
3.8765,0.016866,0.000000,0.000000,0.000000,0.0000,0.0000,0.0000,0.099079,-0.099079,-0.000019,0.001601,-0.002637,0.5889,0.1931,-0.5812,0.142660,-0.148796,0.000000,0.572175,-0.562971,0.549165,-0.587515,0.567573,-0.556835
3.8932,0.016747,0.000000,0.000000,0.000000,0.0000,0.0000,0.0000,0.086199,-0.086199,-0.000019,0.001601,-0.002637,0.5889,0.1931,-0.5812,0.142660,-0.148796,0.000000,0.572175,-0.562971,0.549165,-0.587515,0.567573,-0.556835
3.9100,0.016752,0.000000,0.000000,0.000000,0.0000,0.0000,0.0000,0.073076,-0.073076,-0.000019,0.001601,-0.002637,0.5889,0.1931,-0.5812,0.127320,-0.133456,0.000000,0.572175,-0.562971,0.549165,-0.587515,0.567573,-0.556835
3.9267,0.016740,0.000000,0.000000,0.000000,0.0000,0.0000,0.0000,0.059760,-0.059760,-0.000019,0.001601,-0.002637,0.5889,0.1931,-0.5812,0.113515,-0.121184,0.000000,0.572175,-0.562971,0.549165,-0.587515,0.567573,-0.556835
3.9434,0.016752,0.000000,0.000000,0.000000,0.0000,0.0000,0.0000,0.046269,-0.046269,0.000021,0.001563,-0.002649,0.5393,0.2087,-0.6341,0.098175,-0.105845,0.000000,0.570641,-0.562971,0.549165,-0.587515,0.567573,-0.556835
3.9602,0.016751,0.000000,0.000000,0.000000,0.0000,0.0000,0.0000,0.032652,-0.032652,-0.000024,0.001606,-0.002636,0.5947,0.1912,-0.5751,0.081301,-0.088971,0.000000,0.572175,-0.562971,0.549165,-0.587515,0.567573,-0.556835
3.9771,0.016910,0.000000,0.000000,0.000000,0.0000,0.0000,0.0000,0.018813,-0.018813,-0.000024,0.001606,-0.002636,0.5947,0.1912,-0.5751,0.081301,-0.088971,0.000000,0.572175,-0.562971,0.549165,-0.587515,0.567573,-0.556835
3.9939,0.016762,0.000000,0.000000,0.000000,0.0000,0.0000,0.0000,0.005042,-0.005042,-0.000024,0.001606,-0.002636,0.5947,0.1912,-0.5751,0.081301,-0.088971,0.000000,0.572175,-0.562971,0.549165,-0.587515,0.567573,-0.556835
4.0107,0.016816,0.000000,0.000000,0.000000,0.0000,0.0000,0.0000,-0.008786,0.008786,-0.000019,0.001601,-0.002637,0.5889,0.1931,-0.5812,0.038350,-0.038350,0.000000,0.572175,-0.562971,0.549165,-0.587515,0.567573,-0.556835
4.0275,0.016787,0.000000,0.000000,0.000000,0.0000,0.0000,0.0000,-0.022567,0.022567,-0.000019,0.001601,-0.002637,0.5889,0.1931,-0.5812,0.038350,-0.038350,0.000000,0.572175,-0.562971,0.549165,-0.587515,0.567573,-0.556835
4.0442,0.016743,0.000000,0.000000,0.000000,0.0000,0.0000,0.0000,-0.036249,0.036249,-0.000019,0.001601,-0.002637,0.5889,0.1931,-0.5812,0.038350,-0.038350,0.000000,0.572175,-0.562971,0.549165,-0.587515,0.567573,-0.556835
4.0610,0.016748,0.000000,0.000000,0.000000,0.0000,0.0000,0.0000,-0.049835,0.049835,-0.000019,0.001601,-0.002637,0.5889,0.1931,-0.5812,0.035282,-0.038350,0.000000,0.572175,-0.562971,0.549165,-0.587515,0.567573,-0.556835
4.0777,0.016742,0.000000,0.000000,0.000000,0.0000,0.0000,0.0000,-0.063278,0.063278,-0.000019,0.001601,-0.002637,0.5889,0.1931,-0.5812,0.016874,-0.018408,0.000000,0.572175,-0.562971,0.549165,-0.587515,0.567573,-0.556835
4.0945,0.016750,0.000000,0.000000,0.000000,0.0000,0.0000,0.0000,-0.076552,0.076552,-0.000019,0.001601,-0.002637,0.5889,0.1931,-0.5812,-0.012272,0.009204,0.000000,0.572175,-0.562971,0.549165,-0.587515,0.567573,-0.556835
4.1112,0.016740,0.000000,0.000000,0.000000,0.0000,0.0000,0.0000,-0.089606,0.089606,0.000021,0.001563,-0.002649,0.5393,0.2087,-0.6341,-0.042951,0.042951,0.000000,0.570641,-0.562971,0.549165,-0.587515,0.567573,-0.556835
4.1280,0.016758,0.000000,0.000000,0.000000,0.0000,0.0000,0.0000,-0.102427,0.102427,0.000021,0.001563,-0.002649,0.5393,0.2087,-0.6341,-0.042951,0.042951,0.000000,0.570641,-0.562971,0.549165,-0.587515,0.567573,-0.556835
4.1447,0.016744,0.000000,0.000000,0.000000,0.0000,0.0000,0.0000,-0.114953,0.114953,-0.000024,0.001606,-0.002636,0.5947,0.1912,-0.5751,-0.075165,0.076699,0.000000,0.572175,-0.562971,0.549165,-0.587515,0.567573,-0.556835
4.1615,0.016754,0.000000,0.000000,0.000000,0.0000,0.0000,0.0000,-0.127168,0.127168,-0.000019,0.001601,-0.002637,0.5889,0.1931,-0.5812,-0.088971,0.088971,0.000000,0.572175,-0.562971,0.549165,-0.587515,0.567573,-0.556835
4.1782,0.016742,0.000000,0.000000,0.000000,0.0000,0.0000,0.0000,-0.139023,0.139023,-0.000019,0.001601,-0.002637,0.5889,0.1931,-0.5812,-0.092039,0.090505,0.000000,0.572175,-0.562971,0.549165,-0.587515,0.567573,-0.556835
4.1949,0.016744,0.000000,0.000000,0.000000,0.0000,0.0000,0.0000,-0.150494,0.150494,-0.000019,0.001601,-0.002637,0.5889,0.1931,-0.5812,-0.102777,0.096641,0.000000,0.572175,-0.562971,0.549165,-0.587515,0.567573,-0.556835
4.2117,0.016738,0.000000,0.000000,0.000000,0.0000,0.0000,0.0000,-0.161545,0.161545,-0.000033,0.001657,-0.002626,0.6003,0.2433,-0.6342,-0.124252,0.118117,0.000000,0.572175,-0.562971,0.549165,-0.589049,0.567573,-0.556835
4.2287,0.017032,0.000000,0.000000,0.000000,0.0000,0.0000,0.0000,-0.172332,0.172332,-0.000033,0.001657,-0.002626,0.6003,0.2433,-0.6342,-0.124252,0.118117,0.000000,0.572175,-0.562971,0.549165,-0.589049,0.567573,-0.556835
4.2455,0.016743,0.000000,0.000000,0.000000,0.0000,0.0000,0.0000,-0.182455,0.182455,-0.000031,0.001651,-0.002627,0.5991,0.2381,-0.6287,-0.145728,0.142660,0.000000,0.572175,-0.562971,0.549165,-0.589049,0.567573,-0.556835
4.2622,0.016747,0.000000,0.000000,0.000000,0.0000,0.0000,0.0000,-0.192076,0.192076,-0.000004,0.001668,-0.002627,0.5598,0.3048,-0.7364,-0.164136,0.162602,0.000000,0.570641,-0.562971,0.549165,-0.590583,0.567573,-0.556835
4.2789,0.016747,0.000000,0.000000,0.000000,0.0000,0.0000,0.0000,-0.201165,0.201165,-0.000007,0.001666,-0.002627,0.5639,0.2978,-0.7252,-0.168738,0.165670,0.000000,0.570641,-0.562971,0.549165,-0.590583,0.567573,-0.556835
4.2957,0.016748,0.000000,0.000000,0.000000,0.0000,0.0000,0.0000,-0.209698,0.209698,-0.000007,0.001666,-0.002627,0.5639,0.2978,-0.7252,-0.173340,0.171806,0.000000,0.570641,-0.562971,0.549165,-0.590583,0.567573,-0.556835
4.3124,0.016747,0.000000,0.000000,0.000000,0.0000,0.0000,0.0000,-0.217650,0.217650,-0.000047,0.001705,-0.002616,0.6137,0.2828,-0.6728,-0.187146,0.187146,0.000000,0.572175,-0.562971,0.549165,-0.590583,0.567573,-0.556835
4.3292,0.016747,0.000000,0.000000,0.000000,0.0000,0.0000,0.0000,-0.225000,0.225000,-0.000047,0.001705,-0.002616,0.6137,0.2828,-0.6728,-0.187146,0.187146,0.000000,0.572175,-0.562971,0.549165,-0.590583,0.567573,-0.556835
4.3459,0.016745,0.000000,0.000000,0.000000,0.0000,0.0000,0.0000,-0.231726,0.231726,-0.000002,0.001662,-0.002629,0.5583,0.3001,-0.7318,-0.208621,0.207087,0.000000,0.570641,-0.562971,0.549165,-0.590583,0.567573,-0.556835
4.3627,0.016745,0.000000,0.000000,0.000000,0.0000,0.0000,0.0000,-0.237812,0.237812,-0.000007,0.001667,-0.002627,0.5640,0.2983,-0.7257,-0.217825,0.214757,0.000000,0.570641,-0.562971,0.549165,-0.590583,0.567573,-0.556835
4.3794,0.016749,0.000000,0.000000,0.000000,0.0000,0.0000,0.0000,-0.243240,0.243240,-0.000047,0.001705,-0.002616,0.6137,0.2827,-0.6728,-0.216291,0.213223,0.000000,0.572175,-0.562971,0.549165,-0.590583,0.567573,-0.556835
4.3962,0.016746,0.000000,0.000000,0.000000,0.0000,0.0000,0.0000,-0.247995,0.247995,-0.000002,0.001662,-0.002629,0.5583,0.3001,-0.7318,-0.219359,0.217825,0.000000,0.570641,-0.562971,0.549165,-0.590583,0.567573,-0.556835
4.4129,0.016758,0.000000,0.000000,0.000000,0.0000,0.0000,0.0000,-0.252066,0.252066,-0.000048,0.001705,-0.002615,0.6143,0.2825,-0.6721,-0.236233,0.236233,0.000000,0.572175,-0.562971,0.549165,-0.590583,0.567573,-0.556835
4.4297,0.016745,0.000000,0.000000,0.000000,0.0000,0.0000,0.0000,-0.255436,0.255436,-0.000048,0.001705,-0.002615,0.6143,0.2825,-0.6721,-0.236233,0.236233,0.000000,0.572175,-0.562971,0.549165,-0.590583,0.567573,-0.556835
4.4464,0.016749,0.000000,0.000000,0.000000,0.0000,0.0000,0.0000,-0.258100,0.258100,-0.000043,0.001701,-0.002617,0.6085,0.2844,-0.6784,-0.251573,0.248505,0.000000,0.572175,-0.562971,0.549165,-0.590583,0.567573,-0.556835
4.4632,0.016756,0.000000,0.000000,0.000000,0.0000,0.0000,0.0000,-0.260050,0.260050,-0.000043,0.001701,-0.002617,0.6085,0.2844,-0.6784,-0.251573,0.248505,0.000000,0.572175,-0.562971,0.549165,-0.590583,0.567573,-0.556835
4.4799,0.016747,0.000000,0.000000,0.000000,0.0000,0.0000,0.0000,-0.261279,0.261279,-0.000043,0.001701,-0.002617,0.6085,0.2844,-0.6784,-0.246971,0.250039,0.000000,0.572175,-0.562971,0.549165,-0.590583,0.567573,-0.556835
4.4967,0.016744,0.000000,0.000000,0.000000,0.0000,0.0000,0.0000,-0.261785,0.261785,-0.000043,0.001701,-0.002617,0.6085,0.2844,-0.6784,-0.257709,0.262311,0.000000,0.572175,-0.562971,0.549165,-0.590583,0.567573,-0.556835
4.5134,0.016760,0.000000,0.000000,0.000000,0.0000,0.0000,0.0000,-0.261566,0.261566,-0.000043,0.001701,-0.002617,0.6085,0.2844,-0.6784,-0.257709,0.262311,0.000000,0.572175,-0.562971,0.549165,-0.590583,0.567573,-0.556835
4.5302,0.016744,0.000000,0.000000,0.000000,0.0000,0.0000,0.0000,-0.260624,0.260624,-0.000043,0.001701,-0.002617,0.6085,0.2844,-0.6784,-0.265379,0.260777,0.000000,0.572175,-0.562971,0.549165,-0.590583,0.567573,-0.556835
