t,loop_dt,cmd_x,cmd_y,cmd_z,cmd_roll,cmd_pitch,cmd_yaw,cmd_ant_l,cmd_ant_r,pres_x,pres_y,pres_z,pres_roll,pres_pitch,pres_yaw,pres_ant_l,pres_ant_r,pres_j0,pres_j1,pres_j2,pres_j3,pres_j4,pres_j5,pres_j6
0.0000,0.000001,0.000430,0.000239,-0.002207,0.0229,0.6869,0.8242,-0.001534,0.000000,0.000430,0.000239,-0.002207,0.0229,0.6869,0.8242,-0.001534,0.000000,0.000000,0.570641,-0.570641,0.585981,-0.582913,0.582913,-0.559903
0.0168,0.016750,0.000423,0.000235,-0.002170,0.0225,0.6754,0.8104,-0.001508,0.000000,0.000430,0.000239,-0.002207,0.0229,0.6869,0.8242,-0.001534,0.000000,0.000000,0.570641,-0.570641,0.585981,-0.582913,0.582913,-0.559903
0.0335,0.016744,0.000416,0.000231,-0.002133,0.0220,0.6639,0.7966,-0.001483,0.000000,0.000430,0.000239,-0.002207,0.0229,0.6869,0.8242,-0.001534,0.000000,0.000000,0.570641,-0.570641,0.585981,-0.582913,0.582913,-0.559903
0.0502,0.016754,0.000408,0.000227,-0.002096,0.0216,0.6524,0.7828,-0.001457,0.000000,0.000430,0.000239,-0.002207,0.0229,0.6869,0.8242,-0.001534,0.000000,0.000000,0.570641,-0.570641,0.585981,-0.582913,0.582913,-0.559903
0.0670,0.016758,0.000401,0.000223,-0.002059,0.0211,0.6409,0.7690,-0.001431,0.000000,0.000458,0.000254,-0.002245,-0.0165,0.7551,0.8766,-0.001534,0.000000,0.000000,0.569107,-0.569107,0.585981,-0.582913,0.582913,-0.558369
0.0838,0.016751,0.000394,0.000219,-0.002022,0.0206,0.6294,0.7552,-0.001405,0.000000,0.000458,0.000254,-0.002245,-0.0165,0.7551,0.8766,-0.001534,0.000000,0.000000,0.569107,-0.569107,0.585981,-0.582913,0.582913,-0.558369
0.1005,0.016746,0.000387,0.000215,-0.001985,0.0202,0.6179,0.7414,-0.001380,0.000000,0.000673,0.000252,-0.002367,-0.0111,0.9499,0.8698,-0.001534,0.000000,0.000000,0.562971,-0.567573,0.585981,-0.582913,0.581379,-0.552233
0.1172,0.016746,0.000380,0.000211,-0.001948,0.0197,0.6064,0.7276,-0.001354,0.000000,0.000732,0.000283,-0.002380,-0.0891,0.9632,0.9767,-0.001534,0.000000,0.000000,0.561437,-0.566039,0.585981,-0.582913,0.582913,-0.550699
0.1340,0.016743,0.000372,0.000207,-0.001911,0.0193,0.5949,0.7138,-0.001328,0.000000,0.000766,0.000318,-0.002392,-0.0306,0.9790,1.0189,-0.001534,0.000000,0.000000,0.561437,-0.566039,0.585981,-0.582913,0.582913,-0.549165
0.1507,0.016754,0.000365,0.000203,-0.001874,0.0189,0.5834,0.7000,-0.001303,0.000000,0.000763,0.000315,-0.002391,-0.0367,0.9773,1.0145,-0.003068,0.000000,0.000000,0.561437,-0.566039,0.585981,-0.582913,0.582913,-0.549165
0.1677,0.016971,0.000358,0.000199,-0.001837,0.0184,0.5717,0.6860,-0.001277,0.000000,0.000763,0.000315,-0.002391,-0.0367,0.9773,1.0145,-0.003068,0.000000,0.000000,0.561437,-0.566039,0.585981,-0.582913,0.582913,-0.549165
0.1845,0.016754,0.000351,0.000195,-0.001800,0.0180,0.5602,0.6722,-0.001251,0.000000,0.000763,0.000315,-0.002391,-0.0367,0.9773,1.0145,-0.003068,0.000000,0.000000,0.561437,-0.566039,0.585981,-0.582913,0.582913,-0.549165
0.2012,0.016742,0.000344,0.000191,-0.001763,0.0175,0.5487,0.6584,-0.001225,0.000000,0.000763,0.000315,-0.002391,-0.0367,0.9773,1.0145,-0.003068,0.000000,0.000000,0.561437,-0.566039,0.585981,-0.582913,0.582913,-0.549165
0.2180,0.016751,0.000336,0.000187,-0.001726,0.0171,0.5372,0.6446,-0.001200,0.000000,0.000723,0.000277,-0.002378,-0.0865,0.9604,0.9616,-0.003068,0.000000,0.000000,0.561437,-0.566039,0.585981,-0.582913,0.582913,-0.550699
0.2347,0.016738,0.000329,0.000183,-0.001689,0.0167,0.5257,0.6308,-0.001174,0.000000,0.000767,0.000319,-0.002392,-0.0309,0.9793,1.0205,-0.003068,0.000000,0.000000,0.561437,-0.566039,0.585981,-0.582913,0.582913,-0.549165
0.2514,0.016745,0.000322,0.000179,-0.001652,0.0162,0.5142,0.6170,-0.001148,0.000000,0.000763,0.000315,-0.002391,-0.0367,0.9773,1.0143,-0.003068,0.000000,0.000000,0.561437,-0.566039,0.585981,-0.582913,0.582913,-0.549165
0.2683,0.016859,0.000315,0.000175,-0.001615,0.0158,0.5027,0.6031,-0.001122,0.000000,0.000763,0.000315,-0.002391,-0.0367,0.9773,1.0143,-0.003068,0.000000,0.000000,0.561437,-0.566039,0.585981,-0.582913,0.582913,-0.549165
0.2851,0.016749,0.000307,0.000171,-0.001578,0.0154,0.4912,0.5893,-0.001097,0.000000,0.000763,0.000315,-0.002391,-0.0367,0.9773,1.0143,-0.003068,0.000000,0.000000,0.561437,-0.566039,0.585981,-0.582913,0.582913,-0.549165
0.3018,0.016748,0.000300,0.000167,-0.001541,0.0150,0.4797,0.5755,-0.001071,0.000000,0.000763,0.000315,-0.002391,-0.0367,0.9773,1.0143,-0.003068,0.000000,0.000000,0.561437,-0.566039,0.585981,-0.582913,0.582913,-0.549165
0.3185,0.016748,0.000293,0.000163,-0.001504,0.0146,0.4682,0.5617,-0.001045,0.000000,0.000763,0.000315,-0.002391,-0.0367,0.9773,1.0143,-0.003068,0.000000,0.000000,0.561437,-0.566039,0.585981,-0.582913,0.582913,-0.549165
0.3353,0.016744,0.000286,0.000159,-0.001467,0.0142,0.4567,0.5479,-0.001020,0.000000,0.000763,0.000315,-0.002391,-0.0367,0.9773,1.0143,-0.003068,0.000000,0.000000,0.561437,-0.566039,0.585981,-0.582913,0.582913,-0.549165
0.3520,0.016753,0.000279,0.000155,-0.001430,0.0137,0.4451,0.5341,-0.000994,0.000000,0.000709,0.000299,-0.002403,0.0024,1.0121,0.9616,-0.003068,0.000000,0.000000,0.561437,-0.566039,0.585981,-0.582913,0.581379,-0.549165
0.3689,0.016813,0.000271,0.000151,-0.001393,0.0133,0.4336,0.5202,-0.000968,0.000000,0.000769,0.000317,-0.002390,-0.0402,0.9739,1.0205,-0.003068,0.000000,0.000000,0.561437,-0.566039,0.585981,-0.582913,0.582913,-0.549165
0.3856,0.016754,0.000264,0.000147,-0.001356,0.0129,0.4221,0.5064,-0.000942,0.000000,0.000769,0.000317,-0.002390,-0.0402,0.9739,1.0205,-0.003068,0.000000,0.000000,0.561437,-0.566039,0.585981,-0.582913,0.582913,-0.549165
0.4024,0.016743,0.000257,0.000143,-0.001319,0.0125,0.4106,0.4926,-0.000917,0.000000,0.000762,0.000315,-0.002391,-0.0357,0.9779,1.0143,-0.003068,0.000000,0.000000,0.561437,-0.566039,0.585981,-0.582913,0.582913,-0.549165
0.4191,0.016740,0.000250,0.000139,-0.001282,0.0121,0.3991,0.4788,-0.000891,0.000000,0.000762,0.000315,-0.002391,-0.0357,0.9779,1.0143,-0.003068,0.000000,0.000000,0.561437,-0.566039,0.585981,-0.582913,0.582913,-0.549165
0.4358,0.016742,0.000243,0.000135,-0.001245,0.0117,0.3876,0.4650,-0.000865,0.000000,0.000762,0.000315,-0.002391,-0.0357,0.9779,1.0143,-0.003068,0.000000,0.000000,0.561437,-0.566039,0.585981,-0.582913,0.582913,-0.549165
0.4526,0.016749,0.000235,0.000131,-0.001208,0.0113,0.3761,0.4512,-0.000840,0.000000,0.000762,0.000315,-0.002391,-0.0357,0.9779,1.0143,-0.003068,0.000000,0.000000,0.561437,-0.566039,0.585981,-0.582913,0.582913,-0.549165
0.4697,0.017145,0.000228,0.000127,-0.001170,0.0109,0.3643,0.4371,-0.000813,0.000000,0.000709,0.000299,-0.002403,0.0023,1.0121,0.9616,-0.003068,0.000000,0.000000,0.561437,-0.566039,0.585981,-0.582913,0.581379,-0.549165
0.4865,0.016781,0.000221,0.000123,-0.001133,0.0106,0.3528,0.4232,-0.000788,0.000000,0.000709,0.000299,-0.002403,0.0023,1.0121,0.9616,-0.003068,0.000000,0.000000,0.561437,-0.566039,0.585981,-0.582913,0.581379,-0.549165
0.5060,0.019481,0.000212,0.000118,-0.001090,0.0101,0.3394,0.4072,-0.000758,0.000000,0.000709,0.000299,-0.002403,0.0023,1.0121,0.9616,-0.003068,0.000000,0.000000,0.561437,-0.566039,0.585981,-0.582913,0.581379,-0.549165
0.5227,0.016743,0.000205,0.000114,-0.001053,0.0097,0.3279,0.3934,-0.000732,0.000000,0.000709,0.000299,-0.002403,0.0023,1.0121,0.9616,-0.003068,0.000000,0.000000,0.561437,-0.566039,0.585981,-0.582913,0.581379,-0.549165
0.5395,0.016755,0.000198,0.000110,-0.001016,0.0093,0.3164,0.3796,-0.000706,0.000000,0.000769,0.000317,-0.002390,-0.0402,0.9739,1.0205,-0.003068,0.000000,0.000000,0.561437,-0.566039,0.585981,-0.582913,0.582913,-0.549165
0.5563,0.016855,0.000191,0.000106,-0.000979,0.0090,0.3048,0.3657,-0.000681,0.000000,0.000762,0.000315,-0.002391,-0.0357,0.9779,1.0143,-0.003068,0.000000,0.000000,0.561437,-0.566039,0.585981,-0.582913,0.582913,-0.549165
0.5731,0.016749,0.000184,0.000102,-0.000942,0.0086,0.2933,0.3519,-0.000655,0.000000,0.000762,0.000315,-0.002391,-0.0357,0.9779,1.0143,-0.003068,0.000000,0.000000,0.561437,-0.566039,0.585981,-0.582913,0.582913,-0.549165
0.5898,0.016743,0.000176,0.000098,-0.000905,0.0082,0.2818,0.3381,-0.000629,0.000000,0.000709,0.000299,-0.002403,0.0023,1.0121,0.9616,-0.003068,0.000000,0.000000,0.561437,-0.566039,0.585981,-0.582913,0.581379,-0.549165
0.6066,0.016754,0.000169,0.000094,-0.000868,0.0079,0.2703,0.3243,-0.000603,0.000000,0.000769,0.000317,-0.002390,-0.0402,0.9739,1.0205,-0.003068,0.000000,0.000000,0.561437,-0.566039,0.585981,-0.582913,0.582913,-0.549165
0.6234,0.016823,0.000162,0.000090,-0.000831,0.0075,0.2587,0.3104,-0.000578,0.000000,0.000762,0.000315,-0.002391,-0.0357,0.9779,1.0143,-0.003068,0.000000,0.000000,0.561437,-0.566039,0.585981,-0.582913,0.582913,-0.549165
0.6402,0.016752,0.000155,0.000086,-0.000794,0.0071,0.2472,0.2966,-0.000552,0.000000,0.000762,0.000315,-0.002391,-0.0357,0.9779,1.0143,-0.003068,0.000000,0.000000,0.561437,-0.566039,0.585981,-0.582913,0.582913,-0.549165
0.6573,0.017127,0.000147,0.000082,-0.000756,0.0068,0.2355,0.2825,-0.000526,0.000000,0.000762,0.000315,-0.002391,-0.0357,0.9779,1.0143,-0.003068,0.000000,0.000000,0.561437,-0.566039,0.585981,-0.582913,0.582913,-0.549165
0.6741,0.016773,0.000140,0.000078,-0.000719,0.0064,0.2240,0.2686,-0.000500,0.000000,0.000762,0.000315,-0.002391,-0.0357,0.9779,1.0143,-0.003068,0.000000,0.000000,0.561437,-0.566039,0.585981,-0.582913,0.582913,-0.549165
0.6908,0.016747,0.000133,0.000074,-0.000682,0.0060,0.2124,0.2548,-0.000474,0.000000,0.000722,0.000354,-0.002379,0.0136,0.9616,1.0686,-0.003068,0.000000,0.000000,0.562971,-0.566039,0.585981,-0.582913,0.582913,-0.549165
0.7076,0.016772,0.000126,0.000070,-0.000645,0.0057,0.2009,0.2410,-0.000449,0.000000,0.000727,0.000350,-0.002380,0.0084,0.9633,1.0630,-0.003068,0.000000,0.000000,0.562971,-0.566039,0.585981,-0.582913,0.582913,-0.549165
0.7243,0.016744,0.000119,0.000066,-0.000608,0.0053,0.1894,0.2272,-0.000423,0.000000,0.000727,0.000350,-0.002380,0.0084,0.9633,1.0630,-0.003068,0.000000,0.000000,0.562971,-0.566039,0.585981,-0.582913,0.582913,-0.549165
0.7411,0.016756,0.000111,0.000062,-0.000571,0.0050,0.1779,0.2134,-0.000397,0.000000,0.000727,0.000350,-0.002380,0.0084,0.9633,1.0630,-0.003068,0.000000,0.000000,0.562971,-0.566039,0.585981,-0.582913,0.582913,-0.549165
0.7578,0.016746,0.000104,0.000058,-0.000534,0.0047,0.1664,0.1996,-0.000371,0.000000,0.000727,0.000350,-0.002380,0.0084,0.9633,1.0630,-0.003068,0.000000,0.000000,0.562971,-0.566039,0.585981,-0.582913,0.582913,-0.549165
0.7746,0.016758,0.000097,0.000054,-0.000497,0.0043,0.1549,0.1858,-0.000346,0.000000,0.000727,0.000350,-0.002380,0.0084,0.9633,1.0630,-0.003068,0.000000,0.000000,0.562971,-0.566039,0.585981,-0.582913,0.582913,-0.549165
0.7913,0.016749,0.000090,0.000050,-0.000461,0.0040,0.1434,0.1720,-0.000320,0.000000,0.000727,0.000350,-0.002380,0.0084,0.9633,1.0630,-0.003068,0.000000,0.000000,0.562971,-0.566039,0.585981,-0.582913,0.582913,-0.549165
0.8081,0.016757,0.000083,0.000046,-0.000424,0.0036,0.1319,0.1582,-0.000294,0.000000,0.000727,0.000350,-0.002380,0.0084,0.9633,1.0630,-0.003068,0.000000,0.000000,0.562971,-0.566039,0.585981,-0.582913,0.582913,-0.549165
0.8248,0.016744,0.000075,0.000042,-0.000387,0.0033,0.1204,0.1444,-0.000269,0.000000,0.000727,0.000350,-0.002380,0.0084,0.9633,1.0630,-0.003068,0.000000,0.000000,0.562971,-0.566039,0.585981,-0.582913,0.582913,-0.549165
0.8416,0.016754,0.000068,0.000038,-0.000350,0.0030,0.1088,0.1306,-0.000243,0.000000,0.000727,0.000350,-0.002380,0.0084,0.9633,1.0630,-0.003068,0.000000,0.000000,0.562971,-0.566039,0.585981,-0.582913,0.582913,-0.549165
0.8584,0.016773,0.000061,0.000034,-0.000313,0.0027,0.0973,0.1167,-0.000217,0.000000,0.000727,0.000350,-0.002380,0.0084,0.9633,1.0630,-0.003068,0.000000,0.000000,0.562971,-0.566039,0.585981,-0.582913,0.582913,-0.549165
0.8751,0.016759,0.000054,0.000030,-0.000276,0.0023,0.0858,0.1029,-0.000192,0.000000,0.000727,0.000350,-0.002380,0.0084,0.9633,1.0630,-0.003068,0.000000,0.000000,0.562971,-0.566039,0.585981,-0.582913,0.582913,-0.549165
0.8919,0.016761,0.000046,0.000026,-0.000239,0.0020,0.0743,0.0891,-0.000166,0.000000,0.000632,0.000296,-0.002378,-0.0029,0.9805,0.9568,-0.003068,0.000000,0.000000,0.562971,-0.566039,0.585981,-0.582913,0.581379,-0.550699
0.9086,0.016756,0.000039,0.000022,-0.000202,0.0017,0.0628,0.0753,-0.000140,0.000000,0.000655,0.000356,-0.002354,0.0094,0.9282,1.0750,-0.003068,0.000000,0.000000,0.564505,-0.566039,0.585981,-0.582913,0.582913,-0.550699
0.9254,0.016751,0.000032,0.000018,-0.000165,0.0014,0.0513,0.0615,-0.000114,0.000000,0.000693,0.000311,-0.002369,-0.0415,0.9496,1.0089,-0.003068,0.000000,0.000000,0.562971,-0.566039,0.585981,-0.582913,0.582913,-0.550699
0.9422,0.016759,0.000025,0.000014,-0.000128,0.0011,0.0397,0.0477,-0.000089,0.000000,0.000730,0.000354,-0.002381,0.0142,0.9645,1.0692,-0.003068,0.000000,0.000000,0.562971,-0.566039,0.585981,-0.582913,0.582913,-0.549165
0.9591,0.016919,0.000018,0.000010,-0.000090,0.0007,0.0281,0.0337,-0.000063,0.000000,0.000685,0.000389,-0.002367,0.0581,0.9472,1.1166,-0.003068,0.000000,0.000000,0.564505,-0.566039,0.585981,-0.582913,0.582913,-0.549165
0.9758,0.016749,0.000010,0.000006,-0.000053,0.0004,0.0166,0.0199,-0.000037,0.000000,0.000685,0.000389,-0.002367,0.0581,0.9472,1.1166,-0.003068,0.000000,0.000000,0.564505,-0.566039,0.585981,-0.582913,0.582913,-0.549165
0.9926,0.016745,0.000003,0.000002,-0.000016,0.0001,0.0051,0.0061,-0.000011,0.000000,0.000730,0.000346,-0.002381,0.0038,0.9648,1.0580,-0.003068,0.000000,0.000000,0.562971,-0.566039,0.585981,-0.582913,0.582913,-0.549165
1.0093,0.016755,0.000000,0.000000,0.000029,0.0000,0.0000,0.0000,0.007667,-0.007667,0.000645,0.000351,-0.002354,0.0088,0.9299,1.0644,-0.003068,0.000000,0.000000,0.564505,-0.566039,0.585981,-0.582913,0.582913,-0.550699
1.0261,0.016752,0.000000,0.000000,0.000082,0.0000,0.0000,0.0000,0.021423,-0.021423,0.000694,0.000312,-0.002369,-0.0415,0.9494,1.0100,-0.003068,0.000000,0.000000,0.562971,-0.566039,0.585981,-0.582913,0.582913,-0.550699
1.0439,0.017862,0.000000,0.000000,0.000138,0.0000,0.0000,0.0000,0.036023,-0.036023,0.000648,0.000354,-0.002355,0.0135,0.9315,1.0694,-0.003068,0.000000,0.000000,0.564505,-0.566039,0.585981,-0.582913,0.582913,-0.550699
1.0607,0.016744,0.000000,0.000000,0.000191,0.0000,0.0000,0.0000,0.049607,-0.049607,0.000694,0.000389,-0.002370,0.0581,0.9506,1.1166,0.001534,-0.003068,0.000000,0.564505,-0.566039,0.585981,-0.582913,0.582913,-0.549165
1.0774,0.016758,0.000000,0.000000,0.000243,0.0000,0.0000,0.0000,0.063065,-0.063065,0.000694,0.000389,-0.002370,0.0581,0.9506,1.1166,0.001534,-0.003068,0.000000,0.564505,-0.566039,0.585981,-0.582913,0.582913,-0.549165
1.0942,0.016749,0.000000,0.000000,0.000296,0.0000,0.0000,0.0000,0.076342,-0.076342,0.000648,0.000346,-0.002355,0.0031,0.9314,1.0583,0.009204,-0.007670,0.000000,0.564505,-0.566039,0.585981,-0.582913,0.582913,-0.550699
1.1109,0.016752,0.000000,0.000000,0.000348,0.0000,0.0000,0.0000,0.089409,-0.089409,0.000694,0.000389,-0.002370,0.0592,0.9506,1.1177,0.023010,-0.019942,0.000000,0.564505,-0.566039,0.585981,-0.582913,0.582913,-0.549165
1.1277,0.016746,0.000000,0.000000,0.000401,0.0000,0.0000,0.0000,0.102224,-0.102224,0.000648,0.000346,-0.002355,0.0030,0.9314,1.0582,0.041417,-0.036816,0.000000,0.564505,-0.566039,0.585981,-0.582913,0.582913,-0.550699
1.1444,0.016747,0.000000,0.000000,0.000453,0.0000,0.0000,0.0000,0.114757,-0.114757,0.000653,0.000351,-0.002357,0.0088,0.9334,1.0644,0.061359,-0.056757,0.000000,0.564505,-0.566039,0.585981,-0.582913,0.582913,-0.550699
1.1612,0.016750,0.000000,0.000000,0.000506,0.0000,0.0000,0.0000,0.126975,-0.126975,0.000625,0.000258,-0.002318,-0.0529,0.8636,0.9039,0.082835,-0.079767,0.000000,0.564505,-0.567573,0.585981,-0.582913,0.582913,-0.553767
1.1779,0.016755,0.000000,0.000000,0.000558,0.0000,0.0000,0.0000,0.138845,-0.138845,0.000625,0.000258,-0.002318,-0.0529,0.8636,0.9039,0.082835,-0.079767,0.000000,0.564505,-0.567573,0.585981,-0.582913,0.582913,-0.553767
1.1947,0.016736,0.000000,0.000000,0.000610,0.0000,0.0000,0.0000,0.150317,-0.150317,0.000613,0.000198,-0.002259,-0.0183,0.7507,0.7611,0.102777,-0.098175,0.000000,0.566039,-0.570641,0.585981,-0.582913,0.582913,-0.556835
1.2114,0.016747,0.000000,0.000000,0.000662,0.0000,0.0000,0.0000,0.161381,-0.161381,0.000412,0.000166,-0.002201,-0.0731,0.6794,0.7230,0.119651,-0.110447,0.000000,0.569107,-0.570641,0.585981,-0.582913,0.582913,-0.561437
1.2282,0.016745,0.000000,0.000000,0.000714,0.0000,0.0000,0.0000,0.171998,-0.171998,0.000270,0.000170,-0.002157,-0.0683,0.6208,0.7274,0.130388,-0.122718,0.000000,0.572175,-0.570641,0.585981,-0.582913,0.582913,-0.564505
1.2449,0.016753,0.000000,0.000000,0.000766,0.0000,0.0000,0.0000,0.182143,-0.182143,0.000109,0.000224,-0.002099,-0.0594,0.6123,0.6736,0.134990,-0.136524,0.000000,0.575243,-0.570641,0.585981,-0.584447,0.582913,-0.567573
1.2617,0.016782,0.000000,0.000000,0.000818,0.0000,0.0000,0.0000,0.191799,-0.191799,-0.000038,0.000297,-0.002056,0.0382,0.5479,0.7872,0.145728,-0.153398,0.000000,0.579845,-0.570641,0.585981,-0.584447,0.582913,-0.569107
1.2785,0.016751,0.000000,0.000000,0.000870,0.0000,0.0000,0.0000,0.200907,-0.200907,-0.000038,0.000297,-0.002056,0.0382,0.5479,0.7872,0.145728,-0.153398,0.000000,0.579845,-0.570641,0.585981,-0.584447,0.582913,-0.569107
1.2952,0.016741,0.000000,0.000000,0.000922,0.0000,0.0000,0.0000,0.209453,-0.209453,-0.000226,0.000328,-0.001999,0.0763,0.4726,0.8298,0.165670,-0.167204,0.000000,0.584447,-0.570641,0.585981,-0.584447,0.582913,-0.572175
1.3119,0.016738,0.000000,0.000000,0.000974,0.0000,0.0000,0.0000,0.217419,-0.217419,-0.000478,0.000513,-0.001908,0.1912,0.4854,0.8266,0.185612,-0.184078,0.000000,0.590583,-0.570641,0.585981,-0.587515,0.582913,-0.575243
1.3287,0.016746,0.000000,0.000000,0.001025,0.0000,0.0000,0.0000,0.224787,-0.224787,-0.000642,0.000605,-0.001844,0.1999,0.5205,0.7200,0.194816,-0.194816,0.000000,0.593651,-0.570641,0.585981,-0.590583,0.582913,-0.578311
1.3454,0.016759,0.000000,0.000000,0.001077,0.0000,0.0000,0.0000,0.231538,-0.231538,-0.000802,0.000651,-0.001791,0.2093,0.5018,0.6779,0.202485,-0.207087,0.000000,0.596719,-0.570641,0.585981,-0.592117,0.582913,-0.581379
1.3622,0.016807,0.000000,0.000000,0.001128,0.0000,0.0000,0.0000,0.237663,-0.237663,-0.000839,0.000662,-0.001772,0.1699,0.5376,0.5744,0.213223,-0.217825,0.000000,0.596719,-0.570641,0.585981,-0.593651,0.582913,-0.582913
1.3790,0.016755,0.000000,0.000000,0.001179,0.0000,0.0000,0.0000,0.243111,-0.243111,-0.000839,0.000662,-0.001772,0.1699,0.5376,0.5744,0.213223,-0.217825,0.000000,0.596719,-0.570641,0.585981,-0.593651,0.582913,-0.582913
1.3957,0.016746,0.000000,0.000000,0.001230,0.0000,0.0000,0.0000,0.247883,-0.247883,-0.000931,0.000795,-0.001739,0.2835,0.5534,0.6400,0.227029,-0.225495,0.000000,0.599786,-0.570641,0.585981,-0.595185,0.582913,-0.582913
1.4125,0.016749,0.000000,0.000000,0.001281,0.0000,0.0000,0.0000,0.251969,-0.251969,-0.001016,0.000836,-0.001707,0.2825,0.5697,0.5796,0.231631,-0.231631,0.000000,0.601320,-0.570641,0.585981,-0.596719,0.582913,-0.584447
1.4292,0.016746,0.000000,0.000000,0.001332,0.0000,0.0000,0.0000,0.255358,-0.255358,-0.001116,0.000943,-0.001663,0.3051,0.6369,0.4783,0.230097,-0.237767,0.000000,0.602854,-0.570641,0.585981,-0.599786,0.582913,-0.585981
1.4460,0.016746,0.000000,0.000000,0.001383,0.0000,0.0000,0.0000,0.258039,-0.258039,-0.001118,0.000987,-0.001656,0.3141,0.6807,0.4349,0.236233,-0.242369,0.000000,0.602854,-0.570641,0.585981,-0.601320,0.582913,-0.585981
1.4629,0.016871,0.000000,0.000000,0.001434,0.0000,0.0000,0.0000,0.260019,-0.260019,-0.001144,0.001094,-0.001634,0.3360,0.7778,0.3314,0.250039,-0.248505,0.000000,0.602854,-0.570641,0.585981,-0.604388,0.582913,-0.585981
1.4796,0.016762,0.000000,0.000000,0.001484,0.0000,0.0000,0.0000,0.261263,-0.261263,-0.001144,0.001094,-0.001634,0.3360,0.7778,0.3314,0.250039,-0.248505,0.000000,0.602854,-0.570641,0.585981,-0.604388,0.582913,-0.585981
1.4964,0.016745,0.000000,0.000000,0.001534,0.0000,0.0000,0.0000,0.261782,-0.261782,-0.001196,0.001178,-0.001614,0.3944,0.8027,0.3427,0.257709,-0.257709,0.000000,0.604388,-0.570641,0.585981,-0.605922,0.582913,-0.585981
1.5131,0.016748,0.000000,0.000000,0.001584,0.0000,0.0000,0.0000,0.261577,-0.261577,-0.001001,0.001169,-0.001576,0.3900,0.7622,0.1796,0.257709,-0.259243,0.000000,0.602854,-0.573709,0.585981,-0.607456,0.584447,-0.585981
1.5300,0.016862,0.000000,0.000000,0.001634,0.0000,0.0000,0.0000,0.260639,-0.260639,-0.000780,0.001265,-0.001492,0.4518,0.6944,0.0348,0.257709,-0.259243,0.000000,0.602854,-0.578311,0.585981,-0.610524,0.587515,-0.585981
1.5468,0.016831,0.000000,0.000000,0.001684,0.0000,0.0000,0.0000,0.258974,-0.258974,-0.000780,0.001265,-0.001492,0.4518,0.6944,0.0348,0.257709,-0.259243,0.000000,0.602854,-0.578311,0.585981,-0.610524,0.587515,-0.585981
1.5636,0.016808,0.000000,0.000000,0.001734,0.0000,0.0000,0.0000,0.256589,-0.256589,-0.000780,0.001265,-0.001492,0.4518,0.6944,0.0348,0.257709,-0.259243,0.000000,0.602854,-0.578311,0.585981,-0.610524,0.587515,-0.585981
1.5804,0.016753,0.000000,0.000000,0.001783,0.0000,0.0000,0.0000,0.253499,-0.253499,-0.000780,0.001265,-0.001492,0.4518,0.6944,0.0348,0.257709,-0.259243,0.000000,0.602854,-0.578311,0.585981,-0.610524,0.587515,-0.585981
1.5971,0.016747,0.000000,0.000000,0.001832,0.0000,0.0000,0.0000,0.249709,-0.249709,0.000088,0.001426,-0.001226,0.6015,0.2128,-0.1673,0.260777,-0.262311,0.000000,0.604388,-0.593651,0.585981,-0.615126,0.599786,-0.585981
1.6139,0.016756,0.000000,0.000000,0.001881,0.0000,0.0000,0.0000,0.245226,-0.245226,0.000200,0.001543,-0.001159,0.6928,0.1746,-0.2550,0.260777,-0.262311,0.000000,0.605922,-0.598253,0.585981,-0.618194,0.602854,-0.585981
1.6306,0.016745,0.000000,0.000000,0.001930,0.0000,0.0000,0.0000,0.240066,-0.240066,0.000393,0.001586,-0.001107,0.6919,0.0900,-0.3007,0.257709,-0.259243,0.000000,0.605922,-0.601320,0.585981,-0.619728,0.605922,-0.585981
1.6474,0.016768,0.000000,0.000000,0.001978,0.0000,0.0000,0.0000,0.234234,-0.234234,0.000468,0.001573,-0.001039,0.8564,0.0787,-0.4052,0.253107,-0.256175,0.000000,0.607456,-0.605922,0.587515,-0.621262,0.605922,-0.585981
1.6641,0.016744,0.000000,0.000000,0.002026,0.0000,0.0000,0.0000,0.227762,-0.227762,0.000468,0.001573,-0.001039,0.8564,0.0787,-0.4052,0.253107,-0.256175,0.000000,0.607456,-0.605922,0.587515,-0.621262,0.605922,-0.585981
1.6809,0.016752,0.000000,0.000000,0.002074,0.0000,0.0000,0.0000,0.220656,-0.220656,0.000461,0.001465,-0.000933,0.8191,0.0838,-0.1232,0.251573,-0.251573,0.000000,0.610524,-0.607456,0.592117,-0.621262,0.608990,-0.587515
1.6976,0.016746,0.000000,0.000000,0.002122,0.0000,0.0000,0.0000,0.212942,-0.212942,0.000504,0.001439,-0.000845,0.7737,0.1006,-0.0442,0.250039,-0.245437,0.000000,0.612058,-0.608990,0.595185,-0.622796,0.612058,-0.589049
1.7144,0.016763,0.000000,0.000000,0.002170,0.0000,0.0000,0.0000,0.204630,-0.204630,0.000432,0.001373,-0.000705,0.8068,0.1837,-0.0522,0.248505,-0.239301,0.000000,0.615126,-0.612058,0.599786,-0.625864,0.613592,-0.592117
1.7311,0.016750,0.000000,0.000000,0.002217,0.0000,0.0000,0.0000,0.195758,-0.195758,0.000263,0.001201,-0.000594,0.8115,0.3300,0.0586,0.242369,-0.231631,0.000000,0.618194,-0.613592,0.605922,-0.627398,0.613592,-0.595185
1.7479,0.016776,0.000000,0.000000,0.002264,0.0000,0.0000,0.0000,0.186329,-0.186329,0.000213,0.001149,-0.000531,0.8392,0.3993,0.0476,0.233165,-0.225495,0.000000,0.619728,-0.615126,0.608990,-0.628932,0.613592,-0.596719
1.7647,0.016752,0.000000,0.000000,0.002311,0.0000,0.0000,0.0000,0.176397,-0.176397,0.000213,0.001149,-0.000531,0.8392,0.3993,0.0476,0.233165,-0.225495,0.000000,0.619728,-0.615126,0.608990,-0.628932,0.613592,-0.596719
1.7814,0.016750,0.000000,0.000000,0.002357,0.0000,0.0000,0.0000,0.165978,-0.165978,-0.000002,0.001061,-0.000426,0.7767,0.3632,0.2134,0.216291,-0.214757,0.000000,0.624330,-0.615126,0.612058,-0.628932,0.615126,-0.601320
1.7982,0.016826,0.000000,0.000000,0.002404,0.0000,0.0000,0.0000,0.155048,-0.155048,-0.000088,0.000960,-0.000387,0.7619,0.4363,0.3060,0.205553,-0.205553,0.000000,0.625864,-0.615126,0.615126,-0.628932,0.615126,-0.602854
1.8150,0.016762,0.000000,0.000000,0.002450,0.0000,0.0000,0.0000,0.143730,-0.143730,-0.000119,0.000852,-0.000340,0.6154,0.4113,0.2963,0.194816,-0.197884,0.000000,0.625864,-0.615126,0.616660,-0.628932,0.616660,-0.605922
1.8318,0.016835,0.000000,0.000000,0.002496,0.0000,0.0000,0.0000,0.131962,-0.131962,-0.000158,0.000903,-0.000333,0.6798,0.3987,0.3522,0.184078,-0.194816,0.000000,0.627398,-0.615126,0.616660,-0.628932,0.616660,-0.605922
1.8486,0.016764,0.000000,0.000000,0.002541,0.0000,0.0000,0.0000,0.119876,-0.119876,-0.000158,0.000903,-0.000333,0.6798,0.3987,0.3522,0.171806,-0.182544,0.000000,0.630466,-0.616660,0.618194,-0.628932,0.618194,-0.608990
1.8654,0.016751,0.000000,0.000000,0.002587,0.0000,0.0000,0.0000,0.107468,-0.107468,-0.000224,0.000843,-0.000248,0.6618,0.3172,0.4016,0.171806,-0.182544,0.000000,0.630466,-0.616660,0.618194,-0.628932,0.618194,-0.608990
1.8821,0.016759,0.000000,0.000000,0.002632,0.0000,0.0000,0.0000,0.094756,-0.094756,-0.000218,0.000961,-0.000148,0.6847,0.3269,0.4515,0.159534,-0.165670,0.000000,0.633534,-0.618194,0.619728,-0.632000,0.621262,-0.610524
1.8989,0.016752,0.000000,0.000000,0.002676,0.0000,0.0000,0.0000,0.081787,-0.081787,-0.000218,0.000982,-0.000085,0.6057,0.3235,0.2272,0.147262,-0.150330,0.000000,0.633534,-0.619728,0.619728,-0.635068,0.622796,-0.613592
1.9156,0.016761,0.000000,0.000000,0.002720,0.0000,0.0000,0.0000,0.068584,-0.068584,-0.000218,0.000981,-0.000019,0.6137,0.3238,0.2508,0.133456,-0.138058,0.000000,0.635068,-0.621262,0.621262,-0.636602,0.624330,-0.615126
1.9324,0.016751,0.000000,0.000000,0.002764,0.0000,0.0000,0.0000,0.055199,-0.055199,-0.000218,0.000981,0.000011,0.6124,0.3253,0.4128,0.119651,-0.122718,0.000000,0.636602,-0.621262,0.622796,-0.636602,0.625864,-0.615126
1.9492,0.016780,0.000000,0.000000,0.002808,0.0000,0.0000,0.0000,0.041638,-0.041638,-0.000218,0.000981,0.000011,0.6124,0.3253,0.4128,0.102777,-0.104311,0.000000,0.638136,-0.622796,0.622796,-0.638136,0.628932,-0.616660
1.9659,0.016749,0.000000,0.000000,0.002852,0.0000,0.0000,0.0000,0.027986,-0.027986,-0.000150,0.001053,0.000080,0.5847,0.2407,0.3958,0.102777,-0.104311,0.000000,0.638136,-0.622796,0.622796,-0.638136,0.628932,-0.616660
1.9827,0.016757,0.000000,0.000000,0.002895,0.0000,0.0000,0.0000,0.014250,-0.014250,-0.000199,0.001119,0.000121,0.5598,0.2340,0.3977,0.084369,-0.084369,0.000000,0.639670,-0.622796,0.622796,-0.639670,0.630466,-0.618194
1.9994,0.016753,0.000000,0.000000,0.002937,0.0000,0.0000,0.0000,0.000479,-0.000479,-0.000071,0.001280,0.000236,0.5942,0.1167,0.3977,0.050621,-0.049087,0.000000,0.642738,-0.625864,0.622796,-0.642738,0.635068,-0.619728
2.0162,0.016763,0.000000,0.000000,0.002980,0.0000,0.0000,0.0000,-0.013303,0.013303,-0.000140,0.001360,0.000247,0.6504,0.1643,0.3980,0.036816,-0.032214,0.000000,0.644272,-0.625864,0.622796,-0.644272,0.635068,-0.619728
2.0329,0.016750,0.000000,0.000000,0.003022,0.0000,0.0000,0.0000,-0.027037,0.027037,-0.000188,0.001368,0.000270,0.6065,0.1922,0.2881,0.019942,-0.013806,0.000000,0.644272,-0.625864,0.622796,-0.645806,0.635068,-0.621262
2.0497,0.016787,0.000000,0.000000,0.003064,0.0000,0.0000,0.0000,-0.040726,0.040726,-0.000188,0.001368,0.000270,0.6065,0.1922,0.2881,0.000000,0.006136,0.000000,0.644272,-0.625864,0.622796,-0.647340,0.635068,-0.622796
2.0665,0.016755,0.000000,0.000000,0.003105,0.0000,0.0000,0.0000,-0.054276,0.054276,-0.000238,0.001385,0.000291,0.5732,0.2222,0.1897,0.000000,0.006136,0.000000,0.644272,-0.625864,0.622796,-0.647340,0.635068,-0.622796
2.0832,0.016750,0.000000,0.000000,0.003146,0.0000,0.0000,0.0000,-0.067671,0.067671,-0.000123,0.001462,0.000349,0.6743,0.1501,0.1450,-0.015340,0.024544,0.000000,0.645806,-0.628932,0.622796,-0.648874,0.636602,-0.622796
2.1000,0.016752,0.000000,0.000000,0.003187,0.0000,0.0000,0.0000,-0.080881,0.080881,-0.000136,0.001567,0.000377,0.6850,0.1592,0.2047,-0.030680,0.033748,0.000000,0.647340,-0.628932,0.622796,-0.650408,0.638136,-0.622796
2.1167,0.016757,0.000000,0.000000,0.003227,0.0000,0.0000,0.0000,-0.093871,0.093871,-0.000191,0.001653,0.000397,0.7438,0.1935,0.1987,-0.046019,0.044485,0.000000,0.648874,-0.628932,0.622796,-0.651942,0.638136,-0.622796
2.1335,0.016749,0.000000,0.000000,0.003267,0.0000,0.0000,0.0000,-0.106595,0.106595,-0.000186,0.001724,0.000429,0.8357,0.1898,0.1445,-0.062893,0.061359,0.000000,0.650408,-0.630466,0.622796,-0.653476,0.638136,-0.622796
2.1502,0.016767,0.000000,0.000000,0.003307,0.0000,0.0000,0.0000,-0.119036,0.119036,-0.000186,0.001724,0.000429,0.8357,0.1898,0.1445,-0.062893,0.061359,0.000000,0.650408,-0.630466,0.622796,-0.653476,0.638136,-0.622796
2.1670,0.016748,0.000000,0.000000,0.003346,0.0000,0.0000,0.0000,-0.131135,0.131135,-0.000187,0.001829,0.000460,0.8474,0.1920,0.2052,-0.081301,0.085903,0.000000,0.651942,-0.630466,0.622796,-0.655010,0.639670,-0.622796
2.1837,0.016751,0.000000,0.000000,0.003385,0.0000,0.0000,0.0000,-0.142872,0.142872,-0.000090,0.001875,0.000492,0.8565,0.1727,0.1434,-0.102777,0.105845,0.000000,0.651942,-0.632000,0.622796,-0.656544,0.641204,-0.622796
2.2005,0.016744,0.000000,0.000000,0.003424,0.0000,0.0000,0.0000,-0.154208,0.154208,-0.000115,0.001895,0.000537,0.9427,0.2253,0.1501,-0.118117,0.113515,0.000000,0.653476,-0.633534,0.624330,-0.658078,0.641204,-0.622796
2.2172,0.016754,0.000000,0.000000,0.003462,0.0000,0.0000,0.0000,-0.165125,0.165125,-0.000071,0.001822,0.000630,0.9607,0.2350,0.1495,-0.128854,0.124252,0.000000,0.655010,-0.636602,0.627398,-0.659612,0.642738,-0.624330
2.2340,0.016744,0.000000,0.000000,0.003500,0.0000,0.0000,0.0000,-0.175579,0.175579,-0.000019,0.001799,0.000657,1.0350,0.3668,0.2047,-0.142660,0.142660,0.000000,0.655010,-0.638136,0.630466,-0.661146,0.642738,-0.622796
2.2507,0.016759,0.000000,0.000000,0.003537,0.0000,0.0000,0.0000,-0.185555,0.185555,-0.000019,0.001799,0.000657,1.0350,0.3668,0.2047,-0.142660,0.142660,0.000000,0.655010,-0.638136,0.630466,-0.661146,0.642738,-0.622796
2.2675,0.016769,0.000000,0.000000,0.003574,0.0000,0.0000,0.0000,-0.195022,0.195022,-0.000052,0.001771,0.000715,1.1037,0.4540,0.2548,-0.161068,0.161068,0.000000,0.656544,-0.639670,0.633534,-0.662680,0.642738,-0.622796
2.2843,0.016747,0.000000,0.000000,0.003611,0.0000,0.0000,0.0000,-0.203937,0.203937,0.000009,0.001631,0.000785,1.1511,0.5752,0.2502,-0.174874,0.170272,0.000000,0.656544,-0.642738,0.638136,-0.664214,0.642738,-0.622796
2.3010,0.016740,0.000000,0.000000,0.003647,0.0000,0.0000,0.0000,-0.212284,0.212284,0.000060,0.001503,0.000852,1.2007,0.6927,0.2516,-0.182544,0.177942,0.000000,0.656544,-0.645806,0.642738,-0.665748,0.642738,-0.622796
2.3178,0.016749,0.000000,0.000000,0.003683,0.0000,0.0000,0.0000,-0.220049,0.220049,0.000292,0.001443,0.000943,1.2216,0.6577,0.2505,-0.193282,0.190214,0.000000,0.656544,-0.650408,0.645806,-0.667282,0.645806,-0.622796
2.3345,0.016743,0.000000,0.000000,0.003718,0.0000,0.0000,0.0000,-0.227201,0.227201,0.000256,0.001380,0.001007,1.2471,0.8757,0.2521,-0.207087,0.207087,0.000000,0.656544,-0.651942,0.650408,-0.670350,0.645806,-0.622796
2.3513,0.016756,0.000000,0.000000,0.003753,0.0000,0.0000,0.0000,-0.233730,0.233730,0.000256,0.001380,0.001007,1.2471,0.8757,0.2521,-0.207087,0.207087,0.000000,0.656544,-0.651942,0.650408,-0.670350,0.645806,-0.622796
2.3680,0.016741,0.000000,0.000000,0.003788,0.0000,0.0000,0.0000,-0.239607,0.239607,0.000203,0.001452,0.001059,1.3800,0.8884,0.3086,-0.219359,0.219359,0.000000,0.659612,-0.653476,0.651942,-0.671884,0.645806,-0.622796
2.3847,0.016746,0.000000,0.000000,0.003822,0.0000,0.0000,0.0000,-0.244823,0.244823,0.000237,0.001430,0.001125,1.4039,0.9536,0.4142,-0.223961,0.222427,0.000000,0.661146,-0.655010,0.655010,-0.673418,0.647340,-0.622796
2.4015,0.016744,0.000000,0.000000,0.003856,0.0000,0.0000,0.0000,-0.249360,0.249360,0.000275,0.001473,0.001178,1.4498,0.9631,0.4589,-0.228563,0.227029,0.000000,0.662680,-0.656544,0.656544,-0.674952,0.648874,-0.622796
2.4182,0.016749,0.000000,0.000000,0.003889,0.0000,0.0000,0.0000,-0.253209,0.253209,0.000244,0.001471,0.001196,1.4453,1.0614,0.4550,-0.239301,0.242369,0.000000,0.662680,-0.656544,0.658078,-0.676486,0.648874,-0.622796
2.4350,0.016749,0.000000,0.000000,0.003922,0.0000,0.0000,0.0000,-0.256357,0.256357,0.000235,0.001415,0.001207,1.4352,1.1010,0.5115,-0.250039,0.248505,0.000000,0.662680,-0.656544,0.659612,-0.676486,0.648874,-0.622796
2.4517,0.016746,0.000000,0.000000,0.003954,0.0000,0.0000,0.0000,-0.258795,0.258795,0.000235,0.001415,0.001207,1.4352,1.1010,0.5115,-0.250039,0.248505,0.000000,0.662680,-0.656544,0.659612,-0.676486,0.648874,-0.622796
2.4685,0.016748,0.000000,0.000000,0.003986,0.0000,0.0000,0.0000,-0.260517,0.260517,0.000247,0.001445,0.001229,1.5226,1.0475,0.5060,-0.250039,0.246971,0.000000,0.664214,-0.658078,0.659612,-0.676486,0.648874,-0.622796
2.4852,0.016744,0.000000,0.000000,0.004018,0.0000,0.0000,0.0000,-0.261517,0.261517,0.000233,0.001499,0.001238,1.5243,1.1024,0.4513,-0.250039,0.254641,0.000000,0.664214,-0.658078,0.659612,-0.678020,0.648874,-0.622796
2.5020,0.016744,0.000000,0.000000,0.004049,0.0000,0.0000,0.0000,-0.261794,0.261794,0.000191,0.001535,0.001285,1.5722,1.0795,0.3465,-0.259243,0.260777,0.000000,0.665748,-0.659612,0.659612,-0.679553,0.648874,-0.624330
2.5187,0.016742,0.000000,0.000000,0.004079,0.0000,0.0000,0.0000,-0.261347,0.261347,0.000111,0.001532,0.001304,1.5669,1.0506,0.3580,-0.263845,0.259243,0.000000,0.667282,-0.659612,0.659612,-0.679553,0.648874,-0.625864
2.5355,0.016788,0.000000,0.000000,0.004110,0.0000,0.0000,0.0000,-0.260174,0.260174,-0.000022,0.001631,0.001348,1.6268,1.0574,0.3581,-0.262311,0.260777,0.000000,0.670350,-0.659612,0.659612,-0.681087,0.648874,-0.627398
2.5522,0.016744,0.000000,0.000000,0.004139,0.0000,0.0000,0.0000,-0.258282,0.258282,-0.000022,0.001631,0.001348,1.6268,1.0574,0.3581,-0.262311,0.260777,0.000000,0.670350,-0.659612,0.659612,-0.681087,0.648874,-0.627398
2.5690,0.016747,0.000000,0.000000,0.004169,0.0000,0.0000,0.0000,-0.255675,0.255675,-0.000175,0.001541,0.001394,1.5226,0.9910,0.2475,-0.262311,0.262311,0.000000,0.671884,-0.659612,0.659612,-0.681087,0.648874,-0.632000
2.5859,0.016961,0.000000,0.000000,0.004198,0.0000,0.0000,0.0000,-0.252314,0.252314,-0.000396,0.001625,0.001435,1.5068,1.0195,0.2605,-0.262311,0.259243,0.000000,0.674952,-0.658078,0.659612,-0.682621,0.648874,-0.635068
2.6027,0.016777,0.000000,0.000000,0.004226,0.0000,0.0000,0.0000,-0.248285,0.248285,-0.000396,0.001625,0.001435,1.5068,1.0195,0.2605,-0.262311,0.259243,0.000000,0.674952,-0.658078,0.659612,-0.682621,0.648874,-0.635068
2.6196,0.016836,0.000000,0.000000,0.004254,0.0000,0.0000,0.0000,-0.243548,0.243548,-0.000396,0.001625,0.001435,1.5068,1.0195,0.2605,-0.262311,0.259243,0.000000,0.674952,-0.658078,0.659612,-0.682621,0.648874,-0.635068
2.6364,0.016807,0.000000,0.000000,0.004282,0.0000,0.0000,0.0000,-0.238140,0.238140,-0.000396,0.001625,0.001435,1.5068,1.0195,0.2605,-0.262311,0.259243,0.000000,0.674952,-0.658078,0.659612,-0.682621,0.648874,-0.635068
2.6531,0.016753,0.000000,0.000000,0.004309,0.0000,0.0000,0.0000,-0.232089,0.232089,-0.000396,0.001625,0.001435,1.5068,1.0195,0.2605,-0.262311,0.259243,0.000000,0.674952,-0.658078,0.659612,-0.682621,0.648874,-0.635068
2.6699,0.016805,0.000000,0.000000,0.004335,0.0000,0.0000,0.0000,-0.225374,0.225374,-0.000857,0.001586,0.001621,1.5827,0.7273,0.1513,-0.259243,0.256175,0.000000,0.685689,-0.661146,0.659612,-0.682621,0.648874,-0.645806
2.6867,0.016751,0.000000,0.000000,0.004361,0.0000,0.0000,0.0000,-0.218055,0.218055,-0.000767,0.001630,0.001589,1.6231,0.7751,0.2185,-0.259243,0.256175,0.000000,0.685689,-0.661146,0.659612,-0.682621,0.648874,-0.644272
2.7034,0.016745,0.000000,0.000000,0.004387,0.0000,0.0000,0.0000,-0.210135,0.210135,-0.000776,0.001625,0.001592,1.6189,0.7702,0.2115,-0.256175,0.253107,0.000000,0.685689,-0.661146,0.659612,-0.682621,0.648874,-0.644272
2.7202,0.016746,0.000000,0.000000,0.004412,0.0000,0.0000,0.0000,-0.201633,0.201633,-0.000776,0.001625,0.001592,1.6189,0.7702,0.2115,-0.256175,0.253107,0.000000,0.685689,-0.661146,0.659612,-0.682621,0.648874,-0.644272
2.7369,0.016740,0.000000,0.000000,0.004436,0.0000,0.0000,0.0000,-0.192577,0.192577,-0.000762,0.001569,0.001617,1.6086,0.7186,0.1005,-0.250039,0.246971,0.000000,0.685689,-0.662680,0.659612,-0.682621,0.648874,-0.645806
2.7536,0.016744,0.000000,0.000000,0.004460,0.0000,0.0000,0.0000,-0.182986,0.182986,-0.000680,0.001656,0.001625,1.7072,0.7552,0.0565,-0.239301,0.239301,0.000000,0.685689,-0.664214,0.659612,-0.684155,0.648874,-0.644272
2.7704,0.016748,0.000000,0.000000,0.004484,0.0000,0.0000,0.0000,-0.172886,0.172886,-0.000634,0.001630,0.001637,1.7344,0.7165,0.0051,-0.227029,0.228563,0.000000,0.685689,-0.665748,0.659612,-0.684155,0.648874,-0.644272
2.7871,0.016745,0.000000,0.000000,0.004507,0.0000,0.0000,0.0000,-0.162309,0.162309,-0.000652,0.001691,0.001646,1.7431,0.7694,-0.0449,-0.213223,0.219359,0.000000,0.685689,-0.665748,0.659612,-0.685689,0.648874,-0.644272
2.8039,0.016751,0.000000,0.000000,0.004529,0.0000,0.0000,0.0000,-0.151279,0.151279,-0.000652,0.001691,0.001646,1.7431,0.7694,-0.0449,-0.213223,0.219359,0.000000,0.685689,-0.665748,0.659612,-0.685689,0.648874,-0.644272
2.8206,0.016738,0.000000,0.000000,0.004551,0.0000,0.0000,0.0000,-0.139840,0.139840,-0.000552,0.001775,0.001717,1.6768,0.7430,-0.1533,-0.199418,0.205553,0.000000,0.685689,-0.667282,0.659612,-0.688757,0.651942,-0.645806
2.8374,0.016741,0.000000,0.000000,0.004573,0.0000,0.0000,0.0000,-0.128012,0.128012,-0.000353,0.001822,0.001769,1.6921,0.6581,-0.2003,-0.185612,0.188680,0.000000,0.685689,-0.670350,0.659612,-0.690291,0.655010,-0.645806
2.8541,0.016744,0.000000,0.000000,0.004594,0.0000,0.0000,0.0000,-0.115828,0.115828,-0.000276,0.001874,0.001799,1.7002,0.6473,-0.2523,-0.176408,0.176408,0.000000,0.685689,-0.671884,0.659612,-0.691825,0.656544,-0.645806
2.8709,0.016744,0.000000,0.000000,0.004614,0.0000,0.0000,0.0000,-0.103323,0.103323,-0.000102,0.002072,0.001840,1.6543,0.6632,-0.1378,-0.162602,0.161068,0.000000,0.685689,-0.671884,0.659612,-0.694893,0.661146,-0.644272
2.8876,0.016780,0.000000,0.000000,0.004634,0.0000,0.0000,0.0000,-0.090505,0.090505,-0.000022,0.002141,0.001869,1.5933,0.6440,-0.0955,-0.148796,0.144194,0.000000,0.685689,-0.671884,0.659612,-0.696427,0.664214,-0.644272
2.9044,0.016748,0.000000,0.000000,0.004654,0.0000,0.0000,0.0000,-0.077461,0.077461,-0.000022,0.002141,0.001869,1.5933,0.6440,-0.0955,-0.148796,0.144194,0.000000,0.685689,-0.671884,0.659612,-0.696427,0.664214,-0.644272
2.9211,0.016744,0.000000,0.000000,0.004673,0.0000,0.0000,0.0000,-0.064205,0.064205,0.000069,0.002224,0.001900,1.5340,0.6285,-0.0455,-0.133456,0.127320,0.000000,0.685689,-0.671884,0.659612,-0.697961,0.667282,-0.644272
2.9379,0.016744,0.000000,0.000000,0.004691,0.0000,0.0000,0.0000,-0.050771,0.050771,0.000103,0.002323,0.001954,1.4373,0.6440,-0.1079,-0.118117,0.111981,0.000000,0.685689,-0.671884,0.659612,-0.701029,0.670350,-0.645806
2.9546,0.016744,0.000000,0.000000,0.004709,0.0000,0.0000,0.0000,-0.037197,0.037197,0.000198,0.002402,0.001982,1.3817,0.6250,-0.0468,-0.104311,0.098175,0.000000,0.685689,-0.671884,0.659612,-0.702563,0.673418,-0.645806
2.9714,0.016757,0.000000,0.000000,0.004727,0.0000,0.0000,0.0000,-0.023510,0.023510,0.000245,0.002410,0.001991,1.3493,0.5941,0.0022,-0.087437,0.082835,0.000000,0.685689,-0.671884,0.659612,-0.702563,0.674952,-0.645806
2.9882,0.016786,0.000000,0.000000,0.004744,0.0000,0.0000,0.0000,-0.009734,0.009734,0.000296,0.002425,0.002001,1.3145,0.5645,0.0524,-0.070563,0.065961,0.000000,0.685689,-0.671884,0.659612,-0.702563,0.676486,-0.645806
3.0049,0.016750,0.000000,0.000000,0.004760,0.0000,0.0000,0.0000,0.004040,-0.004040,0.000296,0.002425,0.002001,1.3145,0.5645,0.0524,-0.070563,0.065961,0.000000,0.685689,-0.671884,0.659612,-0.702563,0.676486,-0.645806
3.0217,0.016742,0.000000,0.000000,0.004776,0.0000,0.0000,0.0000,0.017796,-0.017796,0.000431,0.002521,0.002021,1.3761,0.5649,0.0462,-0.052155,0.049087,0.000000,0.685689,-0.673418,0.659612,-0.704097,0.678020,-0.644272
3.0384,0.016754,0.000000,0.000000,0.004791,0.0000,0.0000,0.0000,0.031513,-0.031513,0.000388,0.002526,0.002018,1.3328,0.5058,0.2707,-0.035282,0.032214,0.000000,0.687223,-0.671884,0.659612,-0.702563,0.679553,-0.644272
3.0552,0.016755,0.000000,0.000000,0.004806,0.0000,0.0000,0.0000,0.045143,-0.045143,0.000264,0.002567,0.002054,1.3862,0.4680,0.3043,-0.016874,0.018408,0.000000,0.690291,-0.671884,0.659612,-0.702563,0.679553,-0.645806
3.0719,0.016760,0.000000,0.000000,0.004820,0.0000,0.0000,0.0000,0.058652,-0.058652,0.000233,0.002604,0.002061,1.4292,0.4588,0.3571,-0.003068,0.003068,0.000000,0.691825,-0.671884,0.659612,-0.702563,0.679553,-0.645806
3.0887,0.016749,0.000000,0.000000,0.004834,0.0000,0.0000,0.0000,0.071990,-0.071990,0.000277,0.002608,0.002083,1.5482,0.4785,0.4637,0.016874,-0.016874,0.000000,0.693359,-0.673418,0.661146,-0.702563,0.679553,-0.644272
3.1054,0.016754,0.000000,0.000000,0.004847,0.0000,0.0000,0.0000,0.085133,-0.085133,0.000277,0.002608,0.002083,1.5482,0.4785,0.4637,0.016874,-0.016874,0.000000,0.693359,-0.673418,0.661146,-0.702563,0.679553,-0.644272
3.1222,0.016743,0.000000,0.000000,0.004860,0.0000,0.0000,0.0000,0.098031,-0.098031,0.000117,0.002537,0.002142,1.5632,0.5326,0.6225,0.035282,-0.035282,0.000000,0.696427,-0.673418,0.664214,-0.702563,0.679553,-0.645806
3.1389,0.016749,0.000000,0.000000,0.004872,0.0000,0.0000,0.0000,0.110663,-0.110663,0.000063,0.002587,0.002170,1.6102,0.6125,0.6629,0.052155,-0.053689,0.000000,0.697961,-0.673418,0.665748,-0.704097,0.679553,-0.645806
3.1557,0.016741,0.000000,0.000000,0.004883,0.0000,0.0000,0.0000,0.122983,-0.122983,0.000081,0.002492,0.002193,1.6690,0.5566,0.7714,0.067495,-0.069029,0.000000,0.699495,-0.674952,0.667282,-0.702563,0.679553,-0.645806
3.1724,0.016753,0.000000,0.000000,0.004894,0.0000,0.0000,0.0000,0.134971,-0.134971,0.000037,0.002429,0.002240,1.6889,0.5459,0.7611,0.079767,-0.082835,0.000000,0.701029,-0.676486,0.668816,-0.702563,0.679553,-0.647340
3.1892,0.016742,0.000000,0.000000,0.004905,0.0000,0.0000,0.0000,0.146578,-0.146578,0.000096,0.002386,0.002284,1.7985,0.5128,0.7626,0.095107,-0.098175,0.000000,0.702563,-0.679553,0.670350,-0.702563,0.679553,-0.647340
3.2059,0.016751,0.000000,0.000000,0.004915,0.0000,0.0000,0.0000,0.157785,-0.157785,0.000096,0.002386,0.002284,1.7985,0.5128,0.7626,0.095107,-0.098175,0.000000,0.702563,-0.679553,0.670350,-0.702563,0.679553,-0.647340
3.2227,0.016749,0.000000,0.000000,0.004924,0.0000,0.0000,0.0000,0.168554,-0.168554,0.000033,0.002376,0.002339,1.8239,0.5486,0.7076,0.111981,-0.108913,0.000000,0.704097,-0.681087,0.671884,-0.704097,0.679553,-0.648874
3.2394,0.016756,0.000000,0.000000,0.004933,0.0000,0.0000,0.0000,0.178861,-0.178861,0.000038,0.002345,0.002369,1.8956,0.5461,0.7702,0.130388,-0.124252,0.000000,0.705631,-0.682621,0.673418,-0.704097,0.679553,-0.648874
3.2562,0.016747,0.000000,0.000000,0.004941,0.0000,0.0000,0.0000,0.188667,-0.188667,0.000106,0.002241,0.002440,1.9878,0.4594,0.6514,0.145728,-0.139592,0.000000,0.707165,-0.687223,0.674952,-0.704097,0.679553,-0.650408
3.2729,0.016752,0.000000,0.000000,0.004949,0.0000,0.0000,0.0000,0.197953,-0.197953,0.000028,0.002195,0.002482,1.9659,0.3852,0.5520,0.148796,-0.151864,0.000000,0.708699,-0.688757,0.674952,-0.704097,0.679553,-0.653476
3.2897,0.016813,0.000000,0.000000,0.004956,0.0000,0.0000,0.0000,0.206722,-0.206722,0.000092,0.002183,0.002490,2.0049,0.3578,0.5056,0.154932,-0.168738,0.000000,0.708699,-0.690291,0.674952,-0.704097,0.679553,-0.653476
3.3065,0.016750,0.000000,0.000000,0.004963,0.0000,0.0000,0.0000,0.214885,-0.214885,0.000092,0.002183,0.002490,2.0049,0.3578,0.5056,0.154932,-0.168738,0.000000,0.708699,-0.690291,0.674952,-0.704097,0.679553,-0.653476
3.3232,0.016748,0.000000,0.000000,0.004969,0.0000,0.0000,0.0000,0.222452,-0.222452,0.000086,0.002070,0.002528,1.9784,0.3578,0.4545,0.170272,-0.185612,0.000000,0.708699,-0.691825,0.676486,-0.704097,0.679553,-0.655010
3.3400,0.016750,0.000000,0.000000,0.004975,0.0000,0.0000,0.0000,0.229405,-0.229405,0.000074,0.002026,0.002573,1.9697,0.4037,0.3481,0.193282,-0.196350,0.000000,0.708699,-0.693359,0.678020,-0.705631,0.679553,-0.656544
3.3568,0.016786,0.000000,0.000000,0.004980,0.0000,0.0000,0.0000,0.235735,-0.235735,0.000062,0.002090,0.002579,1.9817,0.4474,0.3033,0.208621,-0.205553,0.000000,0.708699,-0.693359,0.678020,-0.707165,0.679553,-0.656544
3.3735,0.016743,0.000000,0.000000,0.004984,0.0000,0.0000,0.0000,0.241396,-0.241396,0.000078,0.002025,0.002603,1.9687,0.3906,0.1951,0.211689,-0.211689,0.000000,0.708699,-0.694893,0.678020,-0.707165,0.679553,-0.658078
3.3903,0.016759,0.000000,0.000000,0.004988,0.0000,0.0000,0.0000,0.246394,-0.246394,0.000078,0.002025,0.002603,1.9687,0.3906,0.1951,0.211689,-0.220893,0.000000,0.708699,-0.694893,0.678020,-0.707165,0.679553,-0.659612
3.4070,0.016755,0.000000,0.000000,0.004991,0.0000,0.0000,0.0000,0.250708,-0.250708,0.000034,0.001991,0.002614,1.9217,0.3795,0.1503,0.211689,-0.220893,0.000000,0.708699,-0.694893,0.678020,-0.707165,0.679553,-0.659612
3.4238,0.016743,0.000000,0.000000,0.004994,0.0000,0.0000,0.0000,0.254325,-0.254325,-0.000003,0.001955,0.002626,1.8783,0.3636,0.0990,0.240835,-0.242369,0.000000,0.708699,-0.694893,0.678020,-0.707165,0.679553,-0.661146
3.4405,0.016751,0.000000,0.000000,0.004997,0.0000,0.0000,0.0000,0.257240,-0.257240,-0.000053,0.001862,0.002651,1.8239,0.3980,0.1051,0.243903,-0.245437,0.000000,0.708699,-0.694893,0.679553,-0.707165,0.679553,-0.662680
3.4573,0.016800,0.000000,0.000000,0.004998,0.0000,0.0000,0.0000,0.259448,-0.259448,-0.000117,0.001832,0.002649,1.7823,0.4790,0.2181,0.242369,-0.245437,0.000000,0.708699,-0.693359,0.681087,-0.707165,0.679553,-0.662680
3.4741,0.016751,0.000000,0.000000,0.004999,0.0000,0.0000,0.0000,0.260930,-0.260930,-0.000055,0.001818,0.002661,1.8232,0.4356,0.1495,0.250039,-0.250039,0.000000,0.708699,-0.694893,0.681087,-0.707165,0.679553,-0.662680
3.4908,0.016747,0.000000,0.000000,0.005000,0.0000,0.0000,0.0000,0.261690,-0.261690,-0.000074,0.001763,0.002673,1.8082,0.4897,0.2135,0.260777,-0.262311,0.000000,0.708699,-0.694893,0.682621,-0.707165,0.679553,-0.662680
3.5076,0.016756,0.000000,0.000000,0.005000,0.0000,0.0000,0.0000,0.261726,-0.261726,-0.000074,0.001763,0.002673,1.8082,0.4897,0.2135,0.260777,-0.262311,0.000000,0.708699,-0.694893,0.682621,-0.707165,0.679553,-0.662680
3.5243,0.016747,0.000000,0.000000,0.004999,0.0000,0.0000,0.0000,0.261036,-0.261036,-0.000072,0.001769,0.002672,1.8097,0.4841,0.2069,0.260777,-0.262311,0.000000,0.708699,-0.694893,0.682621,-0.707165,0.679553,-0.662680
3.5411,0.016752,0.000000,0.000000,0.004998,0.0000,0.0000,0.0000,0.259624,-0.259624,-0.000059,0.001825,0.002659,1.8203,0.4351,0.1507,0.259243,-0.263845,0.000000,0.708699,-0.694893,0.681087,-0.707165,0.679553,-0.662680
3.5578,0.016750,0.000000,0.000000,0.004997,0.0000,0.0000,0.0000,0.257494,-0.257494,-0.000047,0.001760,0.002650,1.8080,0.3918,0.2124,0.263845,-0.262311,0.000000,0.708699,-0.694893,0.681087,-0.705631,0.679553,-0.662680
3.5746,0.016749,0.000000,0.000000,0.004995,0.0000,0.0000,0.0000,0.254650,-0.254650,-0.000117,0.001729,0.002687,1.7615,0.4774,0.1508,0.262311,-0.262311,0.000000,0.708699,-0.694893,0.682621,-0.707165,0.679553,-0.664214
3.5913,0.016781,0.000000,0.000000,0.004992,0.0000,0.0000,0.0000,0.251094,-0.251094,-0.000066,0.001691,0.002672,1.7184,0.4821,0.1005,0.257709,-0.259243,0.000000,0.707165,-0.694893,0.682621,-0.707165,0.679553,-0.664214
3.6081,0.016753,0.000000,0.000000,0.004988,0.0000,0.0000,0.0000,0.246849,-0.246849,-0.000066,0.001691,0.002672,1.7184,0.4821,0.1005,0.257709,-0.259243,0.000000,0.707165,-0.694893,0.682621,-0.707165,0.679553,-0.664214
3.6248,0.016715,0.000000,0.000000,0.004985,0.0000,0.0000,0.0000,0.241931,-0.241931,-0.000157,0.001695,0.002698,1.7227,0.4512,0.1063,0.256175,-0.257709,0.000000,0.708699,-0.694893,0.682621,-0.707165,0.679553,-0.665748
3.6416,0.016754,0.000000,0.000000,0.004980,0.0000,0.0000,0.0000,0.236333,-0.236333,-0.000134,0.001751,0.002682,1.7330,0.4049,0.0489,0.254641,-0.256175,0.000000,0.708699,-0.694893,0.681087,-0.707165,0.679553,-0.665748
3.6584,0.016868,0.000000,0.000000,0.004975,0.0000,0.0000,0.0000,0.230035,-0.230035,-0.000136,0.001745,0.002684,1.7319,0.4097,0.0548,0.253107,-0.254641,0.000000,0.708699,-0.694893,0.681087,-0.707165,0.679553,-0.665748
3.6752,0.016804,0.000000,0.000000,0.004970,0.0000,0.0000,0.0000,0.223119,-0.223119,-0.000136,0.001745,0.002684,1.7319,0.4097,0.0548,0.253107,-0.254641,0.000000,0.708699,-0.694893,0.681087,-0.707165,0.679553,-0.665748
3.6920,0.016775,0.000000,0.000000,0.004964,0.0000,0.0000,0.0000,0.215595,-0.215595,-0.000136,0.001745,0.002684,1.7319,0.4097,0.0548,0.253107,-0.254641,0.000000,0.708699,-0.694893,0.681087,-0.707165,0.679553,-0.665748
3.7088,0.016750,0.000000,0.000000,0.004957,0.0000,0.0000,0.0000,0.207485,-0.207485,-0.000136,0.001745,0.002684,1.7319,0.4097,0.0548,0.253107,-0.254641,0.000000,0.708699,-0.694893,0.681087,-0.707165,0.679553,-0.665748
3.7255,0.016747,0.000000,0.000000,0.004950,0.0000,0.0000,0.0000,0.198802,-0.198802,-0.000149,0.001690,0.002696,1.7213,0.4588,0.1111,0.250039,-0.237767,0.000000,0.708699,-0.694893,0.682621,-0.707165,0.679553,-0.665748
3.7426,0.017132,0.000000,0.000000,0.004942,0.0000,0.0000,0.0000,0.189351,-0.189351,-0.000148,0.001696,0.002695,1.7224,0.4537,0.1052,0.248505,-0.237767,0.000000,0.708699,-0.694893,0.682621,-0.707165,0.679553,-0.665748
3.7594,0.016746,0.000000,0.000000,0.004934,0.0000,0.0000,0.0000,0.179582,-0.179582,-0.000135,0.001751,0.002682,1.7331,0.4046,0.0490,0.245437,-0.236233,0.000000,0.708699,-0.694893,0.681087,-0.707165,0.679553,-0.665748
3.7772,0.017798,0.000000,0.000000,0.004924,0.0000,0.0000,0.0000,0.168655,-0.168655,-0.000149,0.001689,0.002697,1.7211,0.4593,0.1117,0.233165,-0.227029,0.000000,0.708699,-0.694893,0.682621,-0.707165,0.679553,-0.665748
3.7939,0.016744,0.000000,0.000000,0.004915,0.0000,0.0000,0.0000,0.157894,-0.157894,-0.000149,0.001689,0.002697,1.7211,0.4593,0.1117,0.233165,-0.227029,0.000000,0.708699,-0.694893,0.682621,-0.707165,0.679553,-0.665748
3.8107,0.016754,0.000000,0.000000,0.004905,0.0000,0.0000,0.0000,0.146689,-0.146689,-0.000135,0.001752,0.002682,1.7332,0.4040,0.0483,0.213223,-0.208621,0.000000,0.708699,-0.694893,0.681087,-0.707165,0.679553,-0.665748
3.8274,0.016745,0.000000,0.000000,0.004895,0.0000,0.0000,0.0000,0.135083,-0.135083,-0.000136,0.001745,0.002684,1.7319,0.4098,0.0549,0.190214,-0.191748,0.000000,0.708699,-0.694893,0.681087,-0.707165,0.679553,-0.665748
3.8442,0.016821,0.000000,0.000000,0.004883,0.0000,0.0000,0.0000,0.123049,-0.123049,-0.000205,0.001707,0.002684,1.6846,0.4936,0.1678,0.170272,-0.174874,0.000000,0.708699,-0.693359,0.682621,-0.707165,0.679553,-0.665748
3.8610,0.016745,0.000000,0.000000,0.004872,0.0000,0.0000,0.0000,0.110729,-0.110729,-0.000129,0.001750,0.002683,1.7370,0.4005,0.0424,0.153398,-0.161068,0.000000,0.708699,-0.694893,0.681087,-0.707165,0.679553,-0.665748
3.8778,0.016766,0.000000,0.000000,0.004860,0.0000,0.0000,0.0000,0.098086,-0.098086,-0.000137,0.001746,0.002684,1.7315,0.4102,0.0555,0.138058,-0.144194,0.000000,0.708699,-0.694893,0.681087,-0.707165,0.679553,-0.665748
3.8945,0.016742,0.000000,0.000000,0.004847,0.0000,0.0000,0.0000,0.085189,-0.085189,-0.000137,0.001746,0.002684,1.7315,0.4102,0.0555,0.138058,-0.144194,0.000000,0.708699,-0.694893,0.681087,-0.707165,0.679553,-0.665748
3.9113,0.016757,0.000000,0.000000,0.004834,0.0000,0.0000,0.0000,0.072046,-0.072046,-0.000137,0.001746,0.002684,1.7315,0.4102,0.0555,0.124252,-0.130388,0.000000,0.708699,-0.694893,0.681087,-0.707165,0.679553,-0.665748
3.9280,0.016743,0.000000,0.000000,0.004820,0.0000,0.0000,0.0000,0.058713,-0.058713,-0.000178,0.001705,0.002661,1.6842,0.3955,0.1669,0.111981,-0.118117,0.000000,0.708699,-0.693359,0.681087,-0.705631,0.679553,-0.665748
3.9448,0.016755,0.000000,0.000000,0.004806,0.0000,0.0000,0.0000,0.045209,-0.045209,-0.000118,0.001692,0.002675,1.7258,0.3622,0.0985,0.101243,-0.105845,0.000000,0.708699,-0.694893,0.681087,-0.705631,0.679553,-0.665748
3.9615,0.016747,0.000000,0.000000,0.004791,0.0000,0.0000,0.0000,0.031586,-0.031586,-0.000124,0.001693,0.002674,1.7215,0.3657,0.1056,0.085903,-0.088971,0.000000,0.708699,-0.694893,0.681087,-0.705631,0.679553,-0.665748
3.9783,0.016765,0.000000,0.000000,0.004776,0.0000,0.0000,0.0000,0.017861,-0.017861,-0.000137,0.001752,0.002685,1.7331,0.4138,0.0489,0.070563,-0.069029,0.000000,0.708699,-0.694893,0.681087,-0.707165,0.679553,-0.665748
3.9950,0.016751,0.000000,0.000000,0.004760,0.0000,0.0000,0.0000,0.004097,-0.004097,-0.000137,0.001752,0.002685,1.7331,0.4138,0.0489,0.070563,-0.069029,0.000000,0.708699,-0.694893,0.681087,-0.707165,0.679553,-0.665748
4.0118,0.016744,0.000000,0.000000,0.004744,0.0000,0.0000,0.0000,-0.009672,0.009672,-0.000161,0.001665,0.002673,1.6365,0.5068,0.1117,0.052155,-0.049087,0.000000,0.707165,-0.693359,0.682621,-0.707165,0.679553,-0.665748
4.0285,0.016744,0.000000,0.000000,0.004727,0.0000,0.0000,0.0000,-0.023415,0.023415,-0.000175,0.001713,0.002662,1.6941,0.3854,0.1610,0.035282,-0.029146,0.000000,0.708699,-0.693359,0.681087,-0.705631,0.679553,-0.665748
4.0453,0.016779,0.000000,0.000000,0.004709,0.0000,0.0000,0.0000,-0.037121,0.037121,-0.000145,0.001693,0.002699,1.7252,0.4613,0.1000,0.019942,-0.012272,0.000000,0.708699,-0.694893,0.682621,-0.707165,0.679553,-0.665748
4.0620,0.016758,0.000000,0.000000,0.004691,0.0000,0.0000,0.0000,-0.050707,0.050707,-0.000204,0.001712,0.002683,1.6853,0.4882,0.1631,0.004602,0.000000,0.000000,0.708699,-0.693359,0.682621,-0.707165,0.679553,-0.665748
4.0788,0.016779,0.000000,0.000000,0.004673,0.0000,0.0000,0.0000,-0.064169,0.064169,-0.000204,0.001712,0.002683,1.6853,0.4882,0.1631,-0.015340,0.019942,0.000000,0.708699,-0.694893,0.682621,-0.707165,0.679553,-0.665748
4.0956,0.016744,0.000000,0.000000,0.004654,0.0000,0.0000,0.0000,-0.077426,0.077426,-0.000142,0.001693,0.002697,1.7261,0.4506,0.0998,-0.015340,0.019942,0.000000,0.708699,-0.694893,0.682621,-0.707165,0.679553,-0.665748
4.1123,0.016752,0.000000,0.000000,0.004634,0.0000,0.0000,0.0000,-0.090474,0.090474,-0.000135,0.001637,0.002684,1.7106,0.4061,0.1623,-0.033748,0.038350,0.000000,0.708699,-0.694893,0.682621,-0.705631,0.679553,-0.665748
4.1291,0.016744,0.000000,0.000000,0.004614,0.0000,0.0000,0.0000,-0.103266,0.103266,-0.000149,0.001701,0.002696,1.7235,0.4592,0.0999,-0.052155,0.055223,0.000000,0.708699,-0.694893,0.682621,-0.707165,0.679553,-0.665748
4.1461,0.017033,0.000000,0.000000,0.004594,0.0000,0.0000,0.0000,-0.115986,0.115986,-0.000204,0.001712,0.002683,1.6855,0.4884,0.1631,-0.065961,0.067495,0.000000,0.708699,-0.693359,0.682621,-0.707165,0.679553,-0.665748
4.1629,0.016792,0.000000,0.000000,0.004573,0.0000,0.0000,0.0000,-0.128200,0.128200,-0.000185,0.001767,0.002671,1.7003,0.4358,0.0997,-0.079767,0.079767,0.000000,0.708699,-0.693359,0.681087,-0.707165,0.679553,-0.665748
4.1797,0.016806,0.000000,0.000000,0.004551,0.0000,0.0000,0.0000,-0.140067,0.140067,-0.000185,0.001767,0.002671,1.7003,0.4358,0.0997,-0.096641,0.095107,0.000000,0.707165,-0.694893,0.681087,-0.707165,0.679553,-0.665748
4.1964,0.016746,0.000000,0.000000,0.004529,0.0000,0.0000,0.0000,-0.151504,0.151504,-0.000087,0.001703,0.002674,1.6874,0.4201,-0.0072,-0.096641,0.095107,0.000000,0.707165,-0.694893,0.681087,-0.707165,0.679553,-0.665748
4.2132,0.016744,0.000000,0.000000,0.004506,0.0000,0.0000,0.0000,-0.162521,0.162521,-0.000210,0.001711,0.002685,1.6893,0.4925,0.1743,-0.116583,0.116583,0.000000,0.708699,-0.693359,0.682621,-0.707165,0.679553,-0.665748
4.2299,0.016752,0.000000,0.000000,0.004483,0.0000,0.0000,0.0000,-0.173092,0.173092,-0.000128,0.001750,0.002683,1.7366,0.4006,0.0418,-0.133456,0.133456,0.000000,0.708699,-0.694893,0.681087,-0.707165,0.679553,-0.665748
4.2467,0.016753,0.000000,0.000000,0.004460,0.0000,0.0000,0.0000,-0.183185,0.183185,-0.000206,0.001706,0.002684,1.6842,0.4946,0.1692,-0.144194,0.144194,0.000000,0.708699,-0.693359,0.682621,-0.707165,0.679553,-0.665748
4.2635,0.016816,0.000000,0.000000,0.004436,0.0000,0.0000,0.0000,-0.192806,0.192806,-0.000142,0.001694,0.002696,1.7263,0.4499,0.0991,-0.154932,0.151864,0.000000,0.708699,-0.694893,0.682621,-0.707165,0.679553,-0.665748
4.2809,0.017359,0.000000,0.000000,0.004410,0.0000,0.0000,0.0000,-0.202173,0.202173,-0.000135,0.001751,0.002682,1.7327,0.4050,0.0496,-0.168738,0.167204,0.000000,0.708699,-0.694893,0.681087,-0.707165,0.679553,-0.665748
4.2976,0.016749,0.000000,0.000000,0.004385,0.0000,0.0000,0.0000,-0.210641,0.210641,-0.000135,0.001751,0.002682,1.7327,0.4050,0.0496,-0.168738,0.167204,0.000000,0.708699,-0.694893,0.681087,-0.707165,0.679553,-0.665748
4.3144,0.016754,0.000000,0.000000,0.004360,0.0000,0.0000,0.0000,-0.218528,0.218528,-0.000149,0.001689,0.002697,1.7212,0.4593,0.1116,-0.185612,0.185612,0.000000,0.708699,-0.694893,0.682621,-0.707165,0.679553,-0.665748
4.3311,0.016749,0.000000,0.000000,0.004334,0.0000,0.0000,0.0000,-0.225808,0.225808,-0.000204,0.001713,0.002683,1.6857,0.4884,0.1619,-0.197884,0.196350,0.000000,0.708699,-0.693359,0.682621,-0.707165,0.679553,-0.665748
4.3479,0.016799,0.000000,0.000000,0.004307,0.0000,0.0000,0.0000,-0.232482,0.232482,-0.000198,0.001710,0.002684,1.6894,0.4854,0.1567,-0.204019,0.202485,0.000000,0.708699,-0.693359,0.682621,-0.707165,0.679553,-0.665748
4.3647,0.016751,0.000000,0.000000,0.004280,0.0000,0.0000,0.0000,-0.238492,0.238492,-0.000185,0.001767,0.002671,1.6999,0.4362,0.1004,-0.208621,0.210155,0.000000,0.708699,-0.693359,0.681087,-0.707165,0.679553,-0.665748
4.3814,0.016770,0.000000,0.000000,0.004253,0.0000,0.0000,0.0000,-0.243848,0.243848,-0.000185,0.001767,0.002671,1.6999,0.4362,0.1004,-0.223961,0.223961,0.000000,0.708699,-0.694893,0.682621,-0.707165,0.679553,-0.665748
4.3982,0.016744,0.000000,0.000000,0.004225,0.0000,0.0000,0.0000,-0.248520,0.248520,-0.000144,0.001687,0.002698,1.7246,0.4560,0.1063,-0.223961,0.223961,0.000000,0.708699,-0.694893,0.682621,-0.707165,0.679553,-0.665748
4.4149,0.016749,0.000000,0.000000,0.004196,0.0000,0.0000,0.0000,-0.252505,0.252505,-0.000204,0.001713,0.002683,1.6854,0.4888,0.1625,-0.236233,0.236233,0.000000,0.708699,-0.693359,0.682621,-0.707165,0.679553,-0.665748
4.4317,0.016761,0.000000,0.000000,0.004167,0.0000,0.0000,0.0000,-0.255794,0.255794,-0.000185,0.001767,0.002671,1.7003,0.4358,0.0998,-0.242369,0.236233,0.000000,0.708699,-0.693359,0.681087,-0.707165,0.679553,-0.665748
4.4485,0.016765,0.000000,0.000000,0.004138,0.0000,0.0000,0.0000,-0.258374,0.258374,-0.000131,0.001744,0.002685,1.7354,0.4065,0.0495,-0.242369,0.234699,0.000000,0.708699,-0.694893,0.681087,-0.707165,0.679553,-0.665748
4.4652,0.016748,0.000000,0.000000,0.004108,0.0000,0.0000,0.0000,-0.260237,0.260237,-0.000192,0.001763,0.002671,1.6951,0.4444,0.1116,-0.243903,0.246971,0.000000,0.708699,-0.693359,0.681087,-0.707165,0.679553,-0.665748
4.4820,0.016777,0.000000,0.000000,0.004078,0.0000,0.0000,0.0000,-0.261380,0.261380,-0.000192,0.001763,0.002671,1.6951,0.4444,0.1116,-0.250039,0.259243,0.000000,0.708699,-0.694893,0.682621,-0.707165,0.679553,-0.665748
4.4987,0.016751,0.000000,0.000000,0.004047,0.0000,0.0000,0.0000,-0.261797,0.261797,-0.000143,0.001688,0.002698,1.7251,0.4552,0.1052,-0.250039,0.259243,0.000000,0.708699,-0.694893,0.682621,-0.707165,0.679553,-0.665748
4.5155,0.016762,0.000000,0.000000,0.004016,0.0000,0.0000,0.0000,-0.261489,0.261489,-0.000191,0.001769,0.002670,1.6961,0.4393,0.1058,-0.257709,0.259243,0.000000,0.708699,-0.693359,0.681087,-0.707165,0.679553,-0.665748
4.5323,0.016756,0.000000,0.000000,0.003985,0.0000,0.0000,0.0000,-0.260457,0.260457,-0.000130,0.001744,0.002685,1.7358,0.4061,0.0489,-0.262311,0.257709,0.000000,0.708699,-0.694893,0.681087,-0.707165,0.679553,-0.665748
4.5501,0.017837,0.000000,0.000000,0.003951,0.0000,0.0000,0.0000,-0.258565,0.258565,-0.000192,0.001764,0.002671,1.6950,0.4444,0.1116,-0.262311,0.259243,0.000000,0.708699,-0.693359,0.681087,-0.707165,0.679553,-0.665748
4.5668,0.016753,0.000000,0.000000,0.003918,0.0000,0.0000,0.0000,-0.256049,0.256049,-0.000130,0.001744,0.002685,1.7359,0.4056,0.0483,-0.262311,0.259243,0.000000,0.708699,-0.694893,0.681087,-0.707165,0.679553,-0.665748
