t,loop_dt,cmd_x,cmd_y,cmd_z,cmd_roll,cmd_pitch,cmd_yaw,cmd_ant_l,cmd_ant_r,pres_x,pres_y,pres_z,pres_roll,pres_pitch,pres_yaw,pres_ant_l,pres_ant_r,pres_j0,pres_j1,pres_j2,pres_j3,pres_j4,pres_j5,pres_j6
0.0000,0.000001,0.000338,0.001548,-0.002578,0.4650,-0.1184,-0.2462,-0.001534,0.000000,0.000397,0.001451,-0.002603,0.3991,-0.1518,-0.2514,0.004602,0.000000,0.001534,0.570641,-0.566039,0.549165,-0.582913,0.575243,-0.556835
0.0167,0.016747,0.000333,0.001522,-0.002535,0.4572,-0.1164,-0.2420,-0.001508,0.000000,0.000391,0.001461,-0.002600,0.4060,-0.1483,-0.2508,0.004602,0.000000,0.001534,0.570641,-0.566039,0.549165,-0.582913,0.575243,-0.556835
0.0335,0.016752,0.000327,0.001496,-0.002492,0.4494,-0.1144,-0.2379,-0.001483,0.000000,0.000391,0.001461,-0.002600,0.4060,-0.1483,-0.2508,0.004602,0.000000,0.001534,0.570641,-0.566039,0.549165,-0.582913,0.575243,-0.556835
0.0502,0.016748,0.000321,0.001470,-0.002449,0.4416,-0.1125,-0.2338,-0.001457,0.000000,0.000378,0.001515,-0.002589,0.4156,-0.0980,-0.3045,-0.004602,0.000000,0.001534,0.570641,-0.566039,0.549165,-0.584447,0.575243,-0.556835
0.0670,0.016747,0.000316,0.001444,-0.002406,0.4338,-0.1105,-0.2296,-0.001431,0.000000,0.000380,0.001509,-0.002590,0.4146,-0.1032,-0.2989,-0.003068,0.000000,0.001534,0.570641,-0.566039,0.549165,-0.584447,0.575243,-0.556835
0.0837,0.016753,0.000310,0.001418,-0.002362,0.4260,-0.1085,-0.2255,-0.001406,0.000000,0.000460,0.001509,-0.002653,0.4147,-0.0670,-0.1396,0.001534,0.000000,0.001534,0.569107,-0.564505,0.549165,-0.582913,0.575243,-0.553767
0.1005,0.016749,0.000304,0.001392,-0.002319,0.4182,-0.1066,-0.2214,-0.001380,0.000000,0.000493,0.001563,-0.002747,0.4253,0.1186,-0.0504,0.003068,0.000000,0.001534,0.566039,-0.561437,0.549165,-0.582913,0.573709,-0.549165
0.1172,0.016748,0.000299,0.001367,-0.002276,0.4104,-0.1046,-0.2173,-0.001354,0.000000,0.000623,0.001649,-0.002752,0.4843,0.1007,0.0997,-0.001534,0.000000,0.001534,0.566039,-0.561437,0.549165,-0.582913,0.575243,-0.546097
0.1340,0.016738,0.000293,0.001341,-0.002233,0.4027,-0.1026,-0.2131,-0.001328,0.000000,0.000623,0.001649,-0.002752,0.4843,0.1007,0.0997,-0.001534,0.000000,0.001534,0.566039,-0.561437,0.549165,-0.582913,0.575243,-0.546097
0.1507,0.016743,0.000287,0.001315,-0.002190,0.3949,-0.1007,-0.2090,-0.001303,0.000000,0.000649,0.001678,-0.002765,0.5281,0.1204,0.1370,-0.004602,0.000000,0.001534,0.566039,-0.561437,0.549165,-0.582913,0.575243,-0.544563
0.1675,0.016743,0.000282,0.001289,-0.002147,0.3871,-0.0987,-0.2049,-0.001277,0.000000,0.000647,0.001675,-0.002764,0.5235,0.1183,0.1331,-0.003068,0.000000,0.001534,0.566039,-0.561437,0.549165,-0.582913,0.575243,-0.544563
0.1842,0.016744,0.000276,0.001263,-0.002103,0.3793,-0.0967,-0.2007,-0.001251,0.000000,0.000647,0.001675,-0.002764,0.5235,0.1183,0.1331,0.003068,0.000000,0.001534,0.566039,-0.561437,0.549165,-0.582913,0.575243,-0.544563
0.2010,0.016746,0.000270,0.001237,-0.002060,0.3715,-0.0947,-0.1966,-0.001226,0.000000,0.000647,0.001675,-0.002764,0.5235,0.1183,0.1331,-0.001534,0.000000,0.001534,0.566039,-0.561437,0.549165,-0.582913,0.575243,-0.544563
0.2177,0.016759,0.000265,0.001211,-0.002017,0.3637,-0.0928,-0.1925,-0.001200,0.000000,0.000647,0.001675,-0.002764,0.5235,0.1183,0.1331,-0.001534,0.000000,0.001534,0.566039,-0.561437,0.549165,-0.582913,0.575243,-0.544563
0.2346,0.016841,0.000259,0.001185,-0.001974,0.3559,-0.0908,-0.1883,-0.001174,0.000000,0.000647,0.001675,-0.002764,0.5235,0.1183,0.1331,-0.004602,0.000000,0.001534,0.566039,-0.561437,0.549165,-0.582913,0.575243,-0.544563
0.2514,0.016810,0.000253,0.001159,-0.001930,0.3481,-0.0888,-0.1842,-0.001148,0.000000,0.000647,0.001675,-0.002764,0.5235,0.1183,0.1331,-0.004602,0.000000,0.001534,0.566039,-0.561437,0.549165,-0.582913,0.575243,-0.544563
0.2681,0.016761,0.000248,0.001133,-0.001887,0.3403,-0.0868,-0.1801,-0.001123,0.000000,0.000647,0.001675,-0.002764,0.5235,0.1183,0.1331,-0.004602,0.000000,0.001534,0.566039,-0.561437,0.549165,-0.582913,0.575243,-0.544563
0.2849,0.016741,0.000242,0.001107,-0.001844,0.3325,-0.0849,-0.1759,-0.001097,0.000000,0.000647,0.001675,-0.002764,0.5235,0.1183,0.1331,0.000000,0.000000,0.001534,0.566039,-0.561437,0.549165,-0.582913,0.575243,-0.544563
0.3016,0.016743,0.000236,0.001081,-0.001801,0.3247,-0.0829,-0.1718,-0.001071,0.000000,0.000647,0.001675,-0.002764,0.5235,0.1183,0.1331,-0.007670,0.000000,0.001534,0.566039,-0.561437,0.549165,-0.582913,0.575243,-0.544563
0.3184,0.016743,0.000231,0.001055,-0.001757,0.3169,-0.0809,-0.1677,-0.001046,0.000000,0.000647,0.001675,-0.002764,0.5235,0.1183,0.1331,-0.003068,0.000000,0.001534,0.566039,-0.561437,0.549165,-0.582913,0.575243,-0.544563
0.3351,0.016749,0.000225,0.001029,-0.001714,0.3091,-0.0789,-0.1636,-0.001020,0.000000,0.000647,0.001675,-0.002764,0.5235,0.1183,0.1331,0.004602,0.000000,0.001534,0.566039,-0.561437,0.549165,-0.582913,0.575243,-0.544563
0.3519,0.016743,0.000219,0.001003,-0.001671,0.3013,-0.0770,-0.1594,-0.000994,0.000000,0.000647,0.001675,-0.002764,0.5235,0.1183,0.1331,0.001534,0.000000,0.001534,0.566039,-0.561437,0.549165,-0.582913,0.575243,-0.544563
0.3686,0.016748,0.000214,0.000977,-0.001628,0.2935,-0.0750,-0.1553,-0.000969,0.000000,0.000647,0.001675,-0.002764,0.5235,0.1183,0.1331,0.001534,0.000000,0.001534,0.566039,-0.561437,0.549165,-0.582913,0.575243,-0.544563
0.3853,0.016745,0.000208,0.000952,-0.001585,0.2858,-0.0730,-0.1512,-0.000943,0.000000,0.000647,0.001675,-0.002764,0.5235,0.1183,0.1331,-0.004602,0.000000,0.001534,0.566039,-0.561437,0.549165,-0.582913,0.575243,-0.544563
0.4021,0.016742,0.000202,0.000926,-0.001542,0.2780,-0.0710,-0.1471,-0.000917,0.000000,0.000647,0.001675,-0.002764,0.5235,0.1183,0.1331,-0.003068,0.000000,0.001534,0.566039,-0.561437,0.549165,-0.582913,0.575243,-0.544563
0.4188,0.016742,0.000197,0.000900,-0.001498,0.2702,-0.0690,-0.1430,-0.000892,0.000000,0.000647,0.001675,-0.002764,0.5235,0.1183,0.1331,0.001534,0.000000,0.001534,0.566039,-0.561437,0.549165,-0.582913,0.575243,-0.544563
0.4356,0.016742,0.000191,0.000874,-0.001455,0.2624,-0.0671,-0.1388,-0.000866,0.000000,0.000647,0.001675,-0.002764,0.5235,0.1183,0.1331,0.001534,0.000000,0.001534,0.566039,-0.561437,0.549165,-0.582913,0.575243,-0.544563
0.4523,0.016744,0.000185,0.000848,-0.001412,0.2546,-0.0651,-0.1347,-0.000840,0.000000,0.000647,0.001675,-0.002764,0.5235,0.1183,0.1331,-0.003068,0.000000,0.001534,0.566039,-0.561437,0.549165,-0.582913,0.575243,-0.544563
0.4691,0.016740,0.000180,0.000822,-0.001369,0.2468,-0.0631,-0.1306,-0.000814,0.000000,0.000647,0.001675,-0.002764,0.5235,0.1183,0.1331,-0.003068,0.000000,0.001534,0.566039,-0.561437,0.549165,-0.582913,0.575243,-0.544563
0.4858,0.016746,0.000174,0.000796,-0.001326,0.2390,-0.0611,-0.1265,-0.000789,0.000000,0.000647,0.001675,-0.002764,0.5235,0.1183,0.1331,-0.004602,0.000000,0.001534,0.566039,-0.561437,0.549165,-0.582913,0.575243,-0.544563
0.5025,0.016741,0.000168,0.000770,-0.001283,0.2313,-0.0591,-0.1223,-0.000763,0.000000,0.000647,0.001675,-0.002764,0.5235,0.1183,0.1331,0.000000,0.000000,0.001534,0.566039,-0.561437,0.549165,-0.582913,0.575243,-0.544563
0.5193,0.016745,0.000163,0.000744,-0.001239,0.2235,-0.0572,-0.1182,-0.000737,0.000000,0.000647,0.001675,-0.002764,0.5235,0.1183,0.1331,0.003068,0.000000,0.001534,0.566039,-0.561437,0.549165,-0.582913,0.575243,-0.544563
0.5360,0.016742,0.000157,0.000718,-0.001196,0.2157,-0.0552,-0.1141,-0.000712,0.000000,0.000647,0.001675,-0.002764,0.5235,0.1183,0.1331,-0.003068,0.000000,0.001534,0.566039,-0.561437,0.549165,-0.582913,0.575243,-0.544563
0.5528,0.016746,0.000151,0.000692,-0.001153,0.2079,-0.0532,-0.1100,-0.000686,0.000000,0.000647,0.001675,-0.002764,0.5235,0.1183,0.1331,-0.004602,0.000000,0.001534,0.566039,-0.561437,0.549165,-0.582913,0.575243,-0.544563
0.5695,0.016739,0.000146,0.000666,-0.001110,0.2001,-0.0512,-0.1059,-0.000660,0.000000,0.000647,0.001675,-0.002764,0.5235,0.1183,0.1331,-0.004602,0.000000,0.001534,0.566039,-0.561437,0.549165,-0.582913,0.575243,-0.544563
0.5863,0.016761,0.000140,0.000640,-0.001067,0.1923,-0.0492,-0.1017,-0.000635,0.000000,0.000647,0.001675,-0.002764,0.5235,0.1183,0.1331,0.000000,0.000000,0.001534,0.566039,-0.561437,0.549165,-0.582913,0.575243,-0.544563
0.6030,0.016745,0.000134,0.000615,-0.001024,0.1845,-0.0472,-0.0976,-0.000609,0.000000,0.000647,0.001675,-0.002764,0.5235,0.1183,0.1331,0.003068,0.000000,0.001534,0.566039,-0.561437,0.549165,-0.582913,0.575243,-0.544563
0.6200,0.016950,0.000129,0.000588,-0.000980,0.1767,-0.0452,-0.0934,-0.000583,0.000000,0.000647,0.001675,-0.002764,0.5235,0.1183,0.1331,-0.001534,0.000000,0.001534,0.566039,-0.561437,0.549165,-0.582913,0.575243,-0.544563
0.6367,0.016743,0.000123,0.000562,-0.000937,0.1689,-0.0432,-0.0893,-0.000557,0.000000,0.000647,0.001675,-0.002764,0.5235,0.1183,0.1331,-0.006136,0.000000,0.001534,0.566039,-0.561437,0.549165,-0.582913,0.575243,-0.544563
0.6535,0.016769,0.000117,0.000536,-0.000893,0.1611,-0.0413,-0.0852,-0.000532,0.000000,0.000606,0.001714,-0.002752,0.5743,0.1031,0.1868,-0.001534,0.000000,0.001534,0.567573,-0.561437,0.549165,-0.582913,0.575243,-0.544563
0.6702,0.016743,0.000112,0.000511,-0.000850,0.1533,-0.0393,-0.0811,-0.000506,0.000000,0.000606,0.001714,-0.002752,0.5743,0.1031,0.1868,-0.001534,0.000000,0.001534,0.567573,-0.561437,0.549165,-0.582913,0.575243,-0.544563
0.6870,0.016753,0.000106,0.000485,-0.000807,0.1455,-0.0373,-0.0770,-0.000480,0.000000,0.000651,0.001672,-0.002765,0.5187,0.1201,0.1279,0.004602,0.000000,0.001534,0.566039,-0.561437,0.549165,-0.582913,0.575243,-0.544563
0.7037,0.016744,0.000100,0.000459,-0.000764,0.1377,-0.0353,-0.0728,-0.000454,0.000000,0.000605,0.001714,-0.002752,0.5748,0.1029,0.1874,-0.001534,0.000000,0.001534,0.567573,-0.561437,0.549165,-0.582913,0.575243,-0.544563
0.7206,0.016851,0.000095,0.000433,-0.000720,0.1299,-0.0333,-0.0687,-0.000429,0.000000,0.000570,0.001672,-0.002740,0.5191,0.0869,0.1282,-0.006136,0.000000,0.001534,0.567573,-0.561437,0.549165,-0.582913,0.575243,-0.546097
0.7373,0.016741,0.000089,0.000407,-0.000677,0.1221,-0.0313,-0.0646,-0.000403,0.000000,0.000614,0.001714,-0.002755,0.5747,0.1064,0.1873,-0.003068,0.000000,0.001534,0.567573,-0.561437,0.549165,-0.582913,0.575243,-0.544563
0.7541,0.016751,0.000083,0.000381,-0.000634,0.1143,-0.0293,-0.0605,-0.000377,0.000000,0.000609,0.001710,-0.002753,0.5689,0.1044,0.1812,0.003068,0.000000,0.001534,0.567573,-0.561437,0.549165,-0.582913,0.575243,-0.544563
0.7708,0.016740,0.000078,0.000355,-0.000591,0.1065,-0.0273,-0.0563,-0.000352,0.000000,0.000609,0.001710,-0.002753,0.5689,0.1044,0.1812,0.003068,0.000000,0.001534,0.567573,-0.561437,0.549165,-0.582913,0.575243,-0.544563
0.7876,0.016755,0.000072,0.000329,-0.000548,0.0987,-0.0253,-0.0522,-0.000326,0.000000,0.000570,0.001672,-0.002740,0.5197,0.0868,0.1289,-0.001534,0.000000,0.001534,0.567573,-0.561437,0.549165,-0.582913,0.575243,-0.546097
0.8043,0.016744,0.000066,0.000303,-0.000505,0.0910,-0.0233,-0.0481,-0.000300,0.000000,0.000574,0.001676,-0.002741,0.5248,0.0886,0.1343,-0.006136,0.000000,0.001534,0.567573,-0.561437,0.549165,-0.582913,0.575243,-0.546097
0.8210,0.016744,0.000061,0.000277,-0.000461,0.0832,-0.0213,-0.0440,-0.000275,0.000000,0.000574,0.001676,-0.002741,0.5248,0.0886,0.1343,-0.003068,0.000000,0.001534,0.567573,-0.561437,0.549165,-0.582913,0.575243,-0.546097
0.8378,0.016743,0.000055,0.000251,-0.000418,0.0754,-0.0193,-0.0399,-0.000249,0.000000,0.000574,0.001676,-0.002741,0.5248,0.0886,0.1343,0.003068,0.000000,0.001534,0.567573,-0.561437,0.549165,-0.582913,0.575243,-0.546097
0.8546,0.016769,0.000049,0.000225,-0.000375,0.0676,-0.0173,-0.0357,-0.000223,0.000000,0.000574,0.001676,-0.002741,0.5248,0.0886,0.1343,0.003068,0.000000,0.001534,0.567573,-0.561437,0.549165,-0.582913,0.575243,-0.546097
0.8713,0.016744,0.000044,0.000199,-0.000332,0.0598,-0.0153,-0.0316,-0.000197,0.000000,0.000574,0.001676,-0.002741,0.5248,0.0886,0.1343,0.000000,0.000000,0.001534,0.567573,-0.561437,0.549165,-0.582913,0.575243,-0.546097
0.8881,0.016774,0.000038,0.000173,-0.000289,0.0520,-0.0134,-0.0275,-0.000172,0.000000,0.000574,0.001676,-0.002741,0.5248,0.0886,0.1343,-0.006136,0.000000,0.001534,0.567573,-0.561437,0.549165,-0.582913,0.575243,-0.546097
0.9048,0.016745,0.000032,0.000147,-0.000245,0.0442,-0.0114,-0.0234,-0.000146,0.000000,0.000574,0.001676,-0.002741,0.5248,0.0886,0.1343,-0.003068,0.000000,0.001534,0.567573,-0.561437,0.549165,-0.582913,0.575243,-0.546097
0.9216,0.016775,0.000027,0.000121,-0.000202,0.0364,-0.0094,-0.0193,-0.000120,0.000000,0.000574,0.001676,-0.002741,0.5248,0.0886,0.1343,0.004602,0.000000,0.001534,0.567573,-0.561437,0.549165,-0.582913,0.575243,-0.546097
0.9383,0.016749,0.000021,0.000095,-0.000159,0.0287,-0.0074,-0.0152,-0.000095,0.000000,0.000627,0.001660,-0.002729,0.5630,0.0526,0.0804,0.001534,0.000000,0.001534,0.567573,-0.562971,0.549165,-0.582913,0.575243,-0.546097
0.9551,0.016761,0.000015,0.000069,-0.000116,0.0209,-0.0054,-0.0110,-0.000069,0.000000,0.000627,0.001660,-0.002729,0.5630,0.0526,0.0804,-0.006136,0.000000,0.001534,0.567573,-0.561437,0.549165,-0.582913,0.575243,-0.546097
0.9719,0.016746,0.000010,0.000044,-0.000073,0.0131,-0.0034,-0.0069,-0.000043,0.000000,0.000568,0.001677,-0.002742,0.5203,0.0922,0.1394,-0.006136,0.000000,0.001534,0.567573,-0.561437,0.549165,-0.582913,0.575243,-0.546097
0.9886,0.016750,0.000004,0.000018,-0.000029,0.0053,-0.0014,-0.0028,-0.000017,0.000000,0.000628,0.001660,-0.002728,0.5635,0.0522,0.0799,-0.003068,0.000000,0.001534,0.567573,-0.562971,0.549165,-0.582913,0.575243,-0.546097
1.0053,0.016744,0.000000,0.000000,0.000017,0.0000,0.0000,0.0000,0.004399,-0.004399,0.000621,0.001662,-0.002730,0.5590,0.0564,0.0861,0.004602,0.000000,0.001534,0.567573,-0.562971,0.549165,-0.582913,0.575243,-0.546097
1.0222,0.016813,0.000000,0.000000,0.000070,0.0000,0.0000,0.0000,0.018212,-0.018212,0.000621,0.001662,-0.002730,0.5590,0.0564,0.0861,0.001534,0.000000,0.001534,0.567573,-0.562971,0.549165,-0.582913,0.575243,-0.546097
1.0389,0.016745,0.000000,0.000000,0.000122,0.0000,0.0000,0.0000,0.031920,-0.031920,0.000621,0.001662,-0.002730,0.5590,0.0564,0.0861,-0.006136,0.000000,0.001534,0.567573,-0.562971,0.549165,-0.582913,0.575243,-0.546097
1.0557,0.016765,0.000000,0.000000,0.000175,0.0000,0.0000,0.0000,0.045555,-0.045555,0.000621,0.001662,-0.002730,0.5590,0.0564,0.0861,-0.006136,0.000000,0.001534,0.567573,-0.562971,0.549165,-0.582913,0.575243,-0.546097
1.0724,0.016746,0.000000,0.000000,0.000227,0.0000,0.0000,0.0000,0.059049,-0.059049,0.000621,0.001662,-0.002730,0.5590,0.0564,0.0861,-0.003068,-0.001534,0.001534,0.567573,-0.562971,0.549165,-0.582913,0.575243,-0.546097
1.0892,0.016760,0.000000,0.000000,0.000280,0.0000,0.0000,0.0000,0.072390,-0.072390,0.000621,0.001662,-0.002730,0.5590,0.0564,0.0861,0.007670,-0.006136,0.001534,0.567573,-0.562971,0.549165,-0.582913,0.575243,-0.546097
1.1059,0.016742,0.000000,0.000000,0.000333,0.0000,0.0000,0.0000,0.085516,-0.085516,0.000621,0.001662,-0.002730,0.5590,0.0564,0.0861,0.021476,-0.016874,0.001534,0.567573,-0.562971,0.549165,-0.582913,0.575243,-0.546097
1.1227,0.016750,0.000000,0.000000,0.000385,0.0000,0.0000,0.0000,0.098413,-0.098413,0.000542,0.001585,-0.002703,0.4598,0.0204,-0.0205,0.041417,-0.035282,0.001534,0.567573,-0.562971,0.549165,-0.582913,0.575243,-0.549165
1.1394,0.016746,0.000000,0.000000,0.000437,0.0000,0.0000,0.0000,0.111034,-0.111034,0.000456,0.001648,-0.002669,0.4810,0.0418,-0.0627,0.064427,-0.056757,0.001534,0.569107,-0.562971,0.549165,-0.584447,0.575243,-0.550699
1.1562,0.016757,0.000000,0.000000,0.000490,0.0000,0.0000,0.0000,0.123355,-0.123355,0.000456,0.001648,-0.002669,0.4810,0.0418,-0.0627,0.064427,-0.056757,0.001534,0.569107,-0.562971,0.549165,-0.584447,0.575243,-0.550699
1.1729,0.016743,0.000000,0.000000,0.000542,0.0000,0.0000,0.0000,0.135325,-0.135325,0.000384,0.001642,-0.002647,0.4793,0.0064,-0.0580,0.087437,-0.079767,0.001534,0.570641,-0.562971,0.549165,-0.584447,0.575243,-0.552233
1.1897,0.016761,0.000000,0.000000,0.000594,0.0000,0.0000,0.0000,0.146933,-0.146933,0.000231,0.001566,-0.002597,0.3808,-0.0585,-0.1644,0.102777,-0.095107,0.001534,0.572175,-0.562971,0.549165,-0.584447,0.575243,-0.556835
1.2064,0.016747,0.000000,0.000000,0.000647,0.0000,0.0000,0.0000,0.158124,-0.158124,0.000004,0.001575,-0.002527,0.3930,-0.1513,-0.1525,0.110447,-0.108913,0.001534,0.576777,-0.562971,0.549165,-0.584447,0.575243,-0.561437
1.2232,0.016751,0.000000,0.000000,0.000699,0.0000,0.0000,0.0000,0.168880,-0.168880,-0.000135,0.001574,-0.002485,0.3930,-0.2081,-0.1532,0.119651,-0.122718,0.001534,0.579845,-0.562971,0.549165,-0.584447,0.575243,-0.564505
1.2399,0.016744,0.000000,0.000000,0.000751,0.0000,0.0000,0.0000,0.179165,-0.179165,-0.000310,0.001685,-0.002418,0.4159,-0.1672,-0.2600,0.138058,-0.138058,0.001534,0.582913,-0.562971,0.549165,-0.587515,0.575243,-0.567573
1.2567,0.016760,0.000000,0.000000,0.000803,0.0000,0.0000,0.0000,0.188963,-0.188963,-0.000310,0.001685,-0.002418,0.4159,-0.1672,-0.2600,0.138058,-0.138058,0.001534,0.582913,-0.562971,0.549165,-0.587515,0.575243,-0.567573
1.2735,0.016856,0.000000,0.000000,0.000855,0.0000,0.0000,0.0000,0.198289,-0.198289,-0.000496,0.001713,-0.002327,0.4656,-0.2563,-0.3553,0.161068,-0.154932,0.001534,0.587515,-0.564505,0.549165,-0.589049,0.575243,-0.572175
1.2907,0.017183,0.000000,0.000000,0.000908,0.0000,0.0000,0.0000,0.207223,-0.207223,-0.000496,0.001713,-0.002327,0.4656,-0.2563,-0.3553,0.161068,-0.154932,0.001534,0.587515,-0.564505,0.549165,-0.589049,0.575243,-0.572175
1.3075,0.016798,0.000000,0.000000,0.000960,0.0000,0.0000,0.0000,0.215374,-0.215374,-0.000588,0.001774,-0.002128,0.6018,-0.3522,-0.6136,0.177942,-0.181010,0.001534,0.593651,-0.570641,0.550699,-0.593651,0.576777,-0.578311
1.3243,0.016752,0.000000,0.000000,0.001012,0.0000,0.0000,0.0000,0.222905,-0.222905,-0.000588,0.001774,-0.002128,0.6018,-0.3522,-0.6136,0.177942,-0.181010,0.001534,0.593651,-0.570641,0.550699,-0.593651,0.576777,-0.578311
1.3410,0.016745,0.000000,0.000000,0.001063,0.0000,0.0000,0.0000,0.229817,-0.229817,-0.000551,0.001537,-0.001921,0.5840,-0.2731,-0.5888,0.181010,-0.182544,0.001534,0.596719,-0.576777,0.558369,-0.596719,0.579845,-0.582913
1.3578,0.016753,0.000000,0.000000,0.001115,0.0000,0.0000,0.0000,0.236095,-0.236095,-0.000567,0.001400,-0.001816,0.5542,-0.2295,-0.5926,0.188680,-0.190214,0.001534,0.598253,-0.579845,0.562971,-0.598253,0.581379,-0.585981
1.3745,0.016748,0.000000,0.000000,0.001166,0.0000,0.0000,0.0000,0.241718,-0.241718,-0.000444,0.001314,-0.001676,0.6613,-0.1808,-0.3782,0.214757,-0.210155,0.001534,0.601320,-0.584447,0.569107,-0.599786,0.584447,-0.585981
1.3913,0.016749,0.000000,0.000000,0.001217,0.0000,0.0000,0.0000,0.246672,-0.246672,-0.000306,0.001161,-0.001576,0.6165,-0.0664,-0.2401,0.239301,-0.227029,0.001534,0.601320,-0.587515,0.575243,-0.601320,0.587515,-0.585981
1.4080,0.016750,0.000000,0.000000,0.001268,0.0000,0.0000,0.0000,0.250944,-0.250944,-0.000170,0.001093,-0.001436,0.6872,0.0398,-0.1475,0.243903,-0.245437,0.001534,0.602854,-0.592117,0.581379,-0.604388,0.590583,-0.585981
1.4248,0.016762,0.000000,0.000000,0.001319,0.0000,0.0000,0.0000,0.254523,-0.254523,-0.000170,0.001093,-0.001436,0.6872,0.0398,-0.1475,0.243903,-0.245437,0.001534,0.602854,-0.592117,0.581379,-0.604388,0.590583,-0.585981
1.4415,0.016744,0.000000,0.000000,0.001369,0.0000,0.0000,0.0000,0.257393,-0.257393,-0.000115,0.001015,-0.001351,0.7464,0.1136,-0.0494,0.237767,-0.246971,0.001534,0.604388,-0.595185,0.585981,-0.605922,0.592117,-0.585981
1.4583,0.016755,0.000000,0.000000,0.001420,0.0000,0.0000,0.0000,0.259553,-0.259553,0.000016,0.000897,-0.001296,0.7571,0.1043,-0.0061,0.243903,-0.245437,0.001534,0.604388,-0.598253,0.589049,-0.605922,0.593651,-0.585981
1.4750,0.016744,0.000000,0.000000,0.001470,0.0000,0.0000,0.0000,0.260993,-0.260993,0.000084,0.000800,-0.001215,0.7345,0.1400,0.2598,0.260777,-0.251573,0.001534,0.605922,-0.599786,0.593651,-0.605922,0.596719,-0.585981
1.4918,0.016750,0.000000,0.000000,0.001520,0.0000,0.0000,0.0000,0.261712,-0.261712,0.000092,0.000772,-0.001174,0.6876,0.2549,0.3406,0.260777,-0.262311,0.001534,0.605922,-0.599786,0.596719,-0.607456,0.598253,-0.585981
1.5085,0.016743,0.000000,0.000000,0.001570,0.0000,0.0000,0.0000,0.261706,-0.261706,0.000107,0.000705,-0.001128,0.7207,0.3606,0.3326,0.256175,-0.263845,0.001534,0.605922,-0.601320,0.599786,-0.608990,0.598253,-0.585981
1.5253,0.016750,0.000000,0.000000,0.001620,0.0000,0.0000,0.0000,0.260975,-0.260975,0.000107,0.000705,-0.001128,0.7207,0.3606,0.3326,0.256175,-0.263845,0.001534,0.605922,-0.601320,0.599786,-0.608990,0.598253,-0.585981
1.5420,0.016749,0.000000,0.000000,0.001670,0.0000,0.0000,0.0000,0.259523,-0.259523,0.000078,0.000681,-0.001071,0.7950,0.4515,0.3885,0.259243,-0.259243,0.001534,0.607456,-0.602854,0.602854,-0.610524,0.598253,-0.585981
1.5588,0.016745,0.000000,0.000000,0.001720,0.0000,0.0000,0.0000,0.257352,-0.257352,0.000055,0.000684,-0.001053,0.7873,0.5435,0.3832,0.263845,-0.262311,0.001534,0.607456,-0.602854,0.604388,-0.612058,0.598253,-0.585981
1.5755,0.016744,0.000000,0.000000,0.001769,0.0000,0.0000,0.0000,0.254470,-0.254470,-0.000010,0.000724,-0.001018,0.8375,0.6199,0.4388,0.260777,-0.262311,0.001534,0.608990,-0.602854,0.605922,-0.613592,0.598253,-0.585981
1.5922,0.016744,0.000000,0.000000,0.001818,0.0000,0.0000,0.0000,0.250884,-0.250884,0.000051,0.000703,-0.001010,0.8710,0.5769,0.3787,0.256175,-0.257709,0.001534,0.608990,-0.604388,0.605922,-0.613592,0.598253,-0.585981
1.6090,0.016754,0.000000,0.000000,0.001867,0.0000,0.0000,0.0000,0.246601,-0.246601,0.000016,0.000689,-0.000973,0.9060,0.5138,0.3309,0.256175,-0.256175,0.001534,0.610524,-0.605922,0.605922,-0.613592,0.598253,-0.587515
1.6257,0.016747,0.000000,0.000000,0.001916,0.0000,0.0000,0.0000,0.241637,-0.241637,0.000016,0.000689,-0.000973,0.9060,0.5138,0.3309,0.256175,-0.256175,0.001534,0.610524,-0.605922,0.605922,-0.613592,0.598253,-0.587515
1.6425,0.016743,0.000000,0.000000,0.001964,0.0000,0.0000,0.0000,0.236005,-0.236005,0.000061,0.000763,-0.000953,0.8741,0.5368,0.3355,0.253107,-0.256175,0.001534,0.610524,-0.605922,0.605922,-0.615126,0.599786,-0.587515
1.6592,0.016744,0.000000,0.000000,0.002012,0.0000,0.0000,0.0000,0.229721,-0.229721,0.000015,0.000827,-0.000907,0.8489,0.5182,0.3349,0.251573,-0.254641,0.001534,0.612058,-0.605922,0.605922,-0.616660,0.601320,-0.589049
1.6760,0.016741,0.000000,0.000000,0.002060,0.0000,0.0000,0.0000,0.222802,-0.222802,-0.000049,0.000765,-0.000862,0.8406,0.4356,0.2266,0.248505,-0.254641,0.001534,0.613592,-0.607456,0.605922,-0.616660,0.601320,-0.592117
1.6927,0.016744,0.000000,0.000000,0.002108,0.0000,0.0000,0.0000,0.215266,-0.215266,-0.000111,0.000780,-0.000817,0.6754,0.3615,0.3460,0.245437,-0.248505,0.001534,0.615126,-0.605922,0.605922,-0.616660,0.604388,-0.595185
1.7095,0.016750,0.000000,0.000000,0.002156,0.0000,0.0000,0.0000,0.207132,-0.207132,-0.000229,0.000850,-0.000749,0.6644,0.3207,0.3339,0.236233,-0.237767,0.001534,0.618194,-0.605922,0.605922,-0.618194,0.605922,-0.598253
1.7262,0.016753,0.000000,0.000000,0.002203,0.0000,0.0000,0.0000,0.198422,-0.198422,-0.000229,0.000850,-0.000749,0.6644,0.3207,0.3339,0.236233,-0.237767,0.001534,0.618194,-0.605922,0.605922,-0.618194,0.605922,-0.598253
1.7430,0.016741,0.000000,0.000000,0.002250,0.0000,0.0000,0.0000,0.189169,-0.189169,-0.000257,0.000869,-0.000633,0.4611,0.3083,0.3347,0.225495,-0.227029,0.001534,0.619728,-0.605922,0.607456,-0.621262,0.610524,-0.602854
1.7597,0.016756,0.000000,0.000000,0.002297,0.0000,0.0000,0.0000,0.179385,-0.179385,-0.000296,0.000940,-0.000524,0.4544,0.2936,0.3348,0.217825,-0.217825,0.001534,0.622796,-0.607456,0.608990,-0.624330,0.613592,-0.605922
1.7765,0.016743,0.000000,0.000000,0.002344,0.0000,0.0000,0.0000,0.169111,-0.169111,-0.000526,0.001005,-0.000488,0.4274,0.3158,0.3352,0.205553,-0.205553,0.001534,0.625864,-0.605922,0.608990,-0.625864,0.613592,-0.608990
1.7932,0.016746,0.000000,0.000000,0.002390,0.0000,0.0000,0.0000,0.158368,-0.158368,-0.000502,0.001142,-0.000420,0.3745,0.3142,0.3348,0.194816,-0.197884,0.001534,0.627398,-0.605922,0.608990,-0.628932,0.616660,-0.610524
1.8102,0.017029,0.000000,0.000000,0.002437,0.0000,0.0000,0.0000,0.146994,-0.146994,-0.000479,0.001240,-0.000343,0.4012,0.2146,0.3898,0.179476,-0.190214,0.001534,0.630466,-0.607456,0.608990,-0.630466,0.619728,-0.612058
1.8269,0.016713,0.000000,0.000000,0.002483,0.0000,0.0000,0.0000,0.135422,-0.135422,-0.000479,0.001240,-0.000343,0.4012,0.2146,0.3898,0.179476,-0.190214,0.001534,0.630466,-0.607456,0.608990,-0.630466,0.619728,-0.612058
1.8437,0.016744,0.000000,0.000000,0.002528,0.0000,0.0000,0.0000,0.123454,-0.123454,-0.000428,0.001325,-0.000303,0.4583,0.1913,0.3843,0.167204,-0.177942,0.001534,0.632000,-0.608990,0.608990,-0.632000,0.621262,-0.612058
1.8604,0.016743,0.000000,0.000000,0.002573,0.0000,0.0000,0.0000,0.111146,-0.111146,-0.000364,0.001374,-0.000210,0.4627,0.2784,0.4941,0.156466,-0.164136,0.001534,0.633534,-0.610524,0.612058,-0.635068,0.624330,-0.612058
1.8772,0.016743,0.000000,0.000000,0.002618,0.0000,0.0000,0.0000,0.098530,-0.098530,-0.000220,0.001409,-0.000135,0.5111,0.2176,0.5377,0.142660,-0.148796,0.001534,0.635068,-0.613592,0.613592,-0.636602,0.627398,-0.612058
1.8939,0.016745,0.000000,0.000000,0.002663,0.0000,0.0000,0.0000,0.085640,-0.085640,-0.000317,0.001391,-0.000094,0.5443,0.3607,0.6429,0.130388,-0.134990,0.001534,0.636602,-0.613592,0.616660,-0.638136,0.627398,-0.612058
1.9108,0.016893,0.000000,0.000000,0.002708,0.0000,0.0000,0.0000,0.072396,-0.072396,-0.000292,0.001322,-0.000048,0.5686,0.4619,0.6322,0.113515,-0.118117,0.001534,0.636602,-0.615126,0.619728,-0.639670,0.627398,-0.612058
1.9276,0.016765,0.000000,0.000000,0.002752,0.0000,0.0000,0.0000,0.059051,-0.059051,-0.000292,0.001322,-0.000048,0.5686,0.4619,0.6322,0.113515,-0.118117,0.001534,0.636602,-0.615126,0.619728,-0.639670,0.627398,-0.612058
1.9444,0.016814,0.000000,0.000000,0.002796,0.0000,0.0000,0.0000,0.045502,-0.045502,-0.000321,0.001298,0.000008,0.6427,0.5525,0.6889,0.096641,-0.102777,0.001534,0.638136,-0.616660,0.622796,-0.641204,0.627398,-0.612058
1.9611,0.016748,0.000000,0.000000,0.002839,0.0000,0.0000,0.0000,0.031880,-0.031880,-0.000291,0.001398,0.000074,0.6949,0.6102,0.6834,0.082835,-0.088971,0.001534,0.639670,-0.618194,0.624330,-0.644272,0.628932,-0.612058
1.9780,0.016865,0.000000,0.000000,0.002883,0.0000,0.0000,0.0000,0.018074,-0.018074,-0.000321,0.001357,0.000128,0.7661,0.7052,0.7399,0.069029,-0.072097,0.001534,0.641204,-0.619728,0.627398,-0.645806,0.628932,-0.612058
1.9948,0.016780,0.000000,0.000000,0.002926,0.0000,0.0000,0.0000,0.004288,-0.004288,-0.000193,0.001290,0.000196,0.7864,0.7420,0.7345,0.050621,-0.053689,0.001534,0.641204,-0.622796,0.630466,-0.647340,0.630466,-0.612058
2.0115,0.016756,0.000000,0.000000,0.002968,0.0000,0.0000,0.0000,-0.009491,0.009491,-0.000193,0.001290,0.000196,0.7864,0.7420,0.7345,0.030680,-0.032214,0.001534,0.641204,-0.625864,0.630466,-0.647340,0.630466,-0.612058
2.0283,0.016753,0.000000,0.000000,0.003010,0.0000,0.0000,0.0000,-0.023242,0.023242,-0.000097,0.001264,0.000215,0.8612,0.6678,0.6255,0.030680,-0.032214,0.001534,0.641204,-0.625864,0.630466,-0.647340,0.630466,-0.612058
2.0450,0.016701,0.000000,0.000000,0.003052,0.0000,0.0000,0.0000,-0.036885,0.036885,0.000044,0.001339,0.000260,0.8256,0.6230,0.6361,0.010738,-0.010738,0.001534,0.641204,-0.627398,0.630466,-0.648874,0.633534,-0.612058
2.0618,0.016780,0.000000,0.000000,0.003094,0.0000,0.0000,0.0000,-0.050491,0.050491,0.000113,0.001332,0.000304,0.8293,0.6591,0.6349,-0.003068,0.003068,0.001534,0.641204,-0.628932,0.632000,-0.650408,0.635068,-0.612058
2.0786,0.016812,0.000000,0.000000,0.003135,0.0000,0.0000,0.0000,-0.063982,0.063982,-0.000005,0.001414,0.000310,0.9270,0.7243,0.5809,-0.016874,0.015340,0.001534,0.642738,-0.628932,0.632000,-0.651942,0.633534,-0.612058
2.0953,0.016751,0.000000,0.000000,0.003176,0.0000,0.0000,0.0000,-0.077247,0.077247,-0.000074,0.001424,0.000394,0.8784,0.8525,0.6421,-0.029146,0.029146,0.001534,0.644272,-0.628932,0.635068,-0.655010,0.635068,-0.613592
2.1121,0.016754,0.000000,0.000000,0.003216,0.0000,0.0000,0.0000,-0.090300,0.090300,-0.000162,0.001400,0.000423,0.7962,0.8543,0.4705,-0.044485,0.046019,0.001534,0.644272,-0.628932,0.635068,-0.656544,0.635068,-0.616660
2.1288,0.016749,0.000000,0.000000,0.003256,0.0000,0.0000,0.0000,-0.103099,0.103099,-0.000162,0.001400,0.000423,0.7962,0.8543,0.4705,-0.044485,0.046019,0.001534,0.644272,-0.628932,0.635068,-0.656544,0.635068,-0.616660
2.1456,0.016745,0.000000,0.000000,0.003296,0.0000,0.0000,0.0000,-0.115610,0.115610,-0.000319,0.001388,0.000492,0.8430,0.9580,0.6000,-0.067495,0.065961,0.001534,0.647340,-0.628932,0.638136,-0.658078,0.635068,-0.618194
2.1623,0.016750,0.000000,0.000000,0.003336,0.0000,0.0000,0.0000,-0.127805,0.127805,-0.000385,0.001278,0.000547,0.8163,0.9132,0.5324,-0.084369,0.084369,0.001534,0.648874,-0.630466,0.639670,-0.658078,0.635068,-0.621262
2.1791,0.016757,0.000000,0.000000,0.003375,0.0000,0.0000,0.0000,-0.139650,0.139650,-0.000517,0.001306,0.000589,0.7813,0.9187,0.4295,-0.096641,0.096641,0.001534,0.650408,-0.630466,0.639670,-0.659612,0.635068,-0.624330
2.1958,0.016749,0.000000,0.000000,0.003413,0.0000,0.0000,0.0000,-0.151103,0.151103,-0.000533,0.001287,0.000621,0.8233,0.8512,0.3857,-0.111981,0.107379,0.001534,0.651942,-0.632000,0.639670,-0.659612,0.635068,-0.625864
2.2126,0.016756,0.000000,0.000000,0.003451,0.0000,0.0000,0.0000,-0.162143,0.162143,-0.000604,0.001426,0.000664,0.9283,0.7761,0.2808,-0.128854,0.122718,0.001534,0.655010,-0.633534,0.638136,-0.661146,0.635068,-0.627398
2.2294,0.016758,0.000000,0.000000,0.003489,0.0000,0.0000,0.0000,-0.172734,0.172734,-0.000604,0.001426,0.000664,0.9283,0.7761,0.2808,-0.128854,0.122718,0.001534,0.655010,-0.633534,0.638136,-0.661146,0.635068,-0.627398
2.2461,0.016754,0.000000,0.000000,0.003527,0.0000,0.0000,0.0000,-0.182845,0.182845,-0.000571,0.001379,0.000709,0.9938,0.6820,0.1820,-0.148796,0.144194,0.001534,0.656544,-0.636602,0.638136,-0.661146,0.635068,-0.628932
2.2629,0.016750,0.000000,0.000000,0.003564,0.0000,0.0000,0.0000,-0.192447,0.192447,-0.000671,0.001329,0.000740,0.9759,0.7104,0.2482,-0.162602,0.158000,0.001534,0.658078,-0.636602,0.639670,-0.661146,0.635068,-0.630466
2.2796,0.016785,0.000000,0.000000,0.003601,0.0000,0.0000,0.0000,-0.201534,0.201534,-0.000759,0.001358,0.000736,1.0652,0.7262,0.2427,-0.165670,0.162602,0.001534,0.659612,-0.636602,0.639670,-0.661146,0.633534,-0.630466
2.2964,0.016753,0.000000,0.000000,0.003637,0.0000,0.0000,0.0000,-0.210046,0.210046,-0.000793,0.001396,0.000747,1.1045,0.7099,0.2990,-0.170272,0.170272,0.001534,0.661146,-0.636602,0.639670,-0.661146,0.633534,-0.630466
2.3132,0.016828,0.000000,0.000000,0.003673,0.0000,0.0000,0.0000,-0.218010,0.218010,-0.000793,0.001396,0.000747,1.1045,0.7099,0.2990,-0.170272,0.170272,0.001534,0.661146,-0.636602,0.639670,-0.661146,0.633534,-0.630466
2.3301,0.016832,0.000000,0.000000,0.003709,0.0000,0.0000,0.0000,-0.225366,0.225366,-0.000793,0.001396,0.000747,1.1045,0.7099,0.2990,-0.170272,0.170272,0.001534,0.661146,-0.636602,0.639670,-0.661146,0.633534,-0.630466
2.3477,0.017634,0.000000,0.000000,0.003746,0.0000,0.0000,0.0000,-0.232397,0.232397,-0.000793,0.001396,0.000747,1.1045,0.7099,0.2990,-0.210155,0.207087,0.001534,0.662680,-0.636602,0.647340,-0.665748,0.635068,-0.632000
2.3644,0.016749,0.000000,0.000000,0.003780,0.0000,0.0000,0.0000,-0.238416,0.238416,-0.000923,0.001300,0.000879,1.0397,1.0464,0.4606,-0.210155,0.207087,0.001534,0.662680,-0.636602,0.647340,-0.665748,0.635068,-0.632000
2.3812,0.016747,0.000000,0.000000,0.003815,0.0000,0.0000,0.0000,-0.243773,0.243773,-0.000894,0.001351,0.000876,1.0951,1.1277,0.4997,-0.205553,0.202485,0.001534,0.662680,-0.636602,0.648874,-0.667282,0.635068,-0.630466
2.3979,0.016748,0.000000,0.000000,0.003848,0.0000,0.0000,0.0000,-0.248457,0.248457,-0.000745,0.001306,0.000963,1.0400,1.0648,0.4392,-0.213223,0.211689,0.001534,0.662680,-0.639670,0.650408,-0.668816,0.638136,-0.632000
2.4147,0.016753,0.000000,0.000000,0.003882,0.0000,0.0000,0.0000,-0.252453,0.252453,-0.000538,0.001296,0.001065,1.0834,1.0985,0.3899,-0.233165,0.231631,0.001534,0.662680,-0.644272,0.653476,-0.671884,0.641204,-0.632000
2.4314,0.016755,0.000000,0.000000,0.003915,0.0000,0.0000,0.0000,-0.255751,0.255751,-0.000322,0.001257,0.001152,1.0283,1.0738,0.5046,-0.251573,0.251573,0.001534,0.662680,-0.647340,0.656544,-0.673418,0.645806,-0.632000
2.4482,0.016765,0.000000,0.000000,0.003947,0.0000,0.0000,0.0000,-0.258342,0.258342,-0.000322,0.001257,0.001152,1.0283,1.0738,0.5046,-0.254641,0.253107,0.001534,0.662680,-0.650408,0.659612,-0.676486,0.647340,-0.633534
2.4650,0.016759,0.000000,0.000000,0.003979,0.0000,0.0000,0.0000,-0.260216,0.260216,-0.000273,0.001206,0.001241,1.0233,1.1544,0.3821,-0.254641,0.253107,0.001534,0.662680,-0.650408,0.659612,-0.676486,0.647340,-0.633534
2.4817,0.016750,0.000000,0.000000,0.004011,0.0000,0.0000,0.0000,-0.261368,0.261368,-0.000208,0.001270,0.001291,1.0346,1.2258,0.3391,-0.250039,0.251573,0.001534,0.662680,-0.651942,0.661146,-0.679553,0.648874,-0.633534
2.4985,0.016749,0.000000,0.000000,0.004042,0.0000,0.0000,0.0000,-0.261796,0.261796,-0.000130,0.001264,0.001334,1.0331,1.2488,0.3434,-0.256175,0.257709,0.001534,0.662680,-0.653476,0.662680,-0.681087,0.650408,-0.633534
2.5152,0.016749,0.000000,0.000000,0.004073,0.0000,0.0000,0.0000,-0.261500,0.261500,-0.000123,0.001307,0.001376,1.0824,1.3595,0.2324,-0.263845,0.259243,0.001534,0.662680,-0.655010,0.664214,-0.684155,0.650408,-0.633534
2.5320,0.016753,0.000000,0.000000,0.004103,0.0000,0.0000,0.0000,-0.260480,0.260480,-0.000137,0.001360,0.001383,1.0884,1.3970,0.1883,-0.262311,0.257709,0.001534,0.662680,-0.655010,0.664214,-0.685689,0.650408,-0.633534
2.5487,0.016755,0.000000,0.000000,0.004133,0.0000,0.0000,0.0000,-0.258738,0.258738,-0.000137,0.001360,0.001383,1.0884,1.3970,0.1883,-0.262311,0.257709,0.001534,0.662680,-0.655010,0.664214,-0.685689,0.650408,-0.633534
2.5655,0.016746,0.000000,0.000000,0.004163,0.0000,0.0000,0.0000,-0.256281,0.256281,-0.000067,0.001428,0.001454,1.0596,1.3087,0.1916,-0.262311,0.259243,0.001534,0.664214,-0.656544,0.664214,-0.687223,0.653476,-0.635068
2.5822,0.016747,0.000000,0.000000,0.004191,0.0000,0.0000,0.0000,-0.253114,0.253114,-0.000106,0.001486,0.001481,1.1976,1.2541,0.2481,-0.262311,0.259243,0.001534,0.667282,-0.658078,0.664214,-0.687223,0.653476,-0.635068
2.5990,0.016747,0.000000,0.000000,0.004220,0.0000,0.0000,0.0000,-0.249248,0.249248,-0.000202,0.001619,0.001511,1.2917,1.2802,0.2990,-0.260777,0.259243,0.001534,0.670350,-0.658078,0.664214,-0.688757,0.653476,-0.635068
2.6157,0.016752,0.000000,0.000000,0.004248,0.0000,0.0000,0.0000,-0.244689,0.244689,-0.000221,0.001621,0.001544,1.2433,1.2129,0.3489,-0.259243,0.256175,0.001534,0.671884,-0.658078,0.664214,-0.688757,0.655010,-0.636602
2.6325,0.016746,0.000000,0.000000,0.004275,0.0000,0.0000,0.0000,-0.239456,0.239456,-0.000249,0.001719,0.001611,1.3072,1.1551,0.3439,-0.259243,0.254641,0.001534,0.674952,-0.659612,0.664214,-0.690291,0.656544,-0.638136
2.6492,0.016748,0.000000,0.000000,0.004302,0.0000,0.0000,0.0000,-0.233559,0.233559,-0.000249,0.001719,0.001611,1.3072,1.1551,0.3439,-0.259243,0.254641,0.001534,0.674952,-0.659612,0.664214,-0.690291,0.656544,-0.638136
2.6659,0.016727,0.000000,0.000000,0.004329,0.0000,0.0000,0.0000,-0.227024,0.227024,-0.000278,0.001773,0.001638,1.4351,1.0980,0.4014,-0.256175,0.254641,0.001534,0.678020,-0.661146,0.664214,-0.690291,0.656544,-0.638136
2.6827,0.016748,0.000000,0.000000,0.004355,0.0000,0.0000,0.0000,-0.219853,0.219853,-0.000488,0.001809,0.001693,1.4700,1.0277,0.4530,-0.254641,0.253107,0.001534,0.682621,-0.661146,0.664214,-0.690291,0.656544,-0.641204
2.6994,0.016750,0.000000,0.000000,0.004381,0.0000,0.0000,0.0000,-0.212072,0.212072,-0.000581,0.001789,0.001747,1.5036,0.9376,0.3930,-0.251573,0.251573,0.001534,0.685689,-0.662680,0.664214,-0.690291,0.656544,-0.644272
2.7162,0.016751,0.000000,0.000000,0.004406,0.0000,0.0000,0.0000,-0.203705,0.203705,-0.000505,0.001799,0.001777,1.6235,0.8630,0.3439,-0.242369,0.246971,0.001534,0.687223,-0.665748,0.664214,-0.690291,0.656544,-0.644272
2.7330,0.016802,0.000000,0.000000,0.004431,0.0000,0.0000,0.0000,-0.194744,0.194744,-0.000610,0.001742,0.001811,1.5997,0.8895,0.4060,-0.228563,0.236233,0.001534,0.688757,-0.665748,0.665748,-0.690291,0.656544,-0.645806
2.7497,0.016752,0.000000,0.000000,0.004455,0.0000,0.0000,0.0000,-0.185270,0.185270,-0.000610,0.001742,0.001811,1.5997,0.8895,0.4060,-0.228563,0.236233,0.001534,0.688757,-0.665748,0.665748,-0.690291,0.656544,-0.645806
2.7665,0.016740,0.000000,0.000000,0.004478,0.0000,0.0000,0.0000,-0.175291,0.175291,-0.000614,0.001774,0.001854,1.6882,0.9365,0.4009,-0.216291,0.223961,0.001534,0.690291,-0.667282,0.667282,-0.691825,0.656544,-0.645806
2.7832,0.016744,0.000000,0.000000,0.004501,0.0000,0.0000,0.0000,-0.164824,0.164824,-0.000561,0.001836,0.001896,1.8137,0.8966,0.2902,-0.204019,0.214757,0.001534,0.691825,-0.670350,0.667282,-0.693359,0.656544,-0.645806
2.8000,0.016745,0.000000,0.000000,0.004524,0.0000,0.0000,0.0000,-0.153901,0.153901,-0.000514,0.001894,0.001902,1.9345,0.8692,0.3581,-0.194816,0.204019,0.001534,0.693359,-0.671884,0.667282,-0.693359,0.656544,-0.644272
2.8167,0.016748,0.000000,0.000000,0.004546,0.0000,0.0000,0.0000,-0.142550,0.142550,-0.000533,0.001946,0.001912,1.9335,0.9209,0.2955,-0.185612,0.190214,0.001534,0.693359,-0.671884,0.667282,-0.694893,0.656544,-0.644272
2.8335,0.016768,0.000000,0.000000,0.004568,0.0000,0.0000,0.0000,-0.130790,0.130790,-0.000528,0.001859,0.001913,1.8369,0.9119,0.1895,-0.173340,0.176408,0.001534,0.691825,-0.671884,0.667282,-0.694893,0.656544,-0.645806
2.8502,0.016749,0.000000,0.000000,0.004589,0.0000,0.0000,0.0000,-0.118681,0.118681,-0.000528,0.001859,0.001913,1.8369,0.9119,0.1895,-0.173340,0.176408,0.001534,0.691825,-0.671884,0.667282,-0.694893,0.656544,-0.645806
2.8670,0.016745,0.000000,0.000000,0.004610,0.0000,0.0000,0.0000,-0.106247,0.106247,-0.000529,0.001868,0.001913,1.8470,0.9129,0.2006,-0.159534,0.161068,0.001534,0.691825,-0.671884,0.667282,-0.694893,0.656544,-0.645806
2.8837,0.016742,0.000000,0.000000,0.004630,0.0000,0.0000,0.0000,-0.093521,0.093521,-0.000531,0.001949,0.001911,1.9426,0.9163,0.3119,-0.148796,0.147262,0.001534,0.693359,-0.671884,0.667282,-0.694893,0.656544,-0.644272
2.9005,0.016748,0.000000,0.000000,0.004649,0.0000,0.0000,0.0000,-0.080532,0.080532,-0.000531,0.001940,0.001911,1.9326,0.9160,0.3003,-0.134990,0.133456,0.001534,0.693359,-0.671884,0.667282,-0.694893,0.656544,-0.644272
2.9172,0.016749,0.000000,0.000000,0.004669,0.0000,0.0000,0.0000,-0.067319,0.067319,-0.000572,0.001901,0.001924,1.8853,0.8987,0.2456,-0.119651,0.118117,0.001534,0.693359,-0.671884,0.667282,-0.694893,0.656544,-0.645806
2.9340,0.016764,0.000000,0.000000,0.004687,0.0000,0.0000,0.0000,-0.053908,0.053908,-0.000568,0.001905,0.001922,1.8902,0.9005,0.2513,-0.102777,0.101243,0.001534,0.693359,-0.671884,0.667282,-0.694893,0.656544,-0.645806
2.9507,0.016749,0.000000,0.000000,0.004705,0.0000,0.0000,0.0000,-0.040359,0.040359,-0.000568,0.001905,0.001922,1.8902,0.9005,0.2513,-0.102777,0.101243,0.001534,0.693359,-0.671884,0.667282,-0.694893,0.656544,-0.645806
2.9675,0.016755,0.000000,0.000000,0.004723,0.0000,0.0000,0.0000,-0.026693,0.026693,-0.000568,0.001905,0.001922,1.8902,0.9005,0.2513,-0.084369,0.082835,0.001534,0.693359,-0.671884,0.667282,-0.694893,0.656544,-0.645806
2.9842,0.016751,0.000000,0.000000,0.004740,0.0000,0.0000,0.0000,-0.012957,0.012957,-0.000568,0.001905,0.001922,1.8902,0.9005,0.2513,-0.067495,0.067495,0.001534,0.693359,-0.671884,0.667282,-0.694893,0.656544,-0.645806
3.0010,0.016769,0.000000,0.000000,0.004756,0.0000,0.0000,0.0000,0.000829,-0.000829,-0.000512,0.001920,0.001935,1.8511,0.8672,0.3054,-0.053689,0.052155,0.001534,0.693359,-0.671884,0.667282,-0.694893,0.658078,-0.645806
3.0178,0.016753,0.000000,0.000000,0.004772,0.0000,0.0000,0.0000,0.014600,-0.014600,-0.000462,0.001934,0.001945,1.8166,0.8376,0.3545,-0.038350,0.038350,0.001534,0.693359,-0.671884,0.667282,-0.694893,0.659612,-0.645806
3.0345,0.016771,0.000000,0.000000,0.004788,0.0000,0.0000,0.0000,0.028346,-0.028346,-0.000411,0.001949,0.001956,1.7817,0.8077,0.4042,-0.019942,0.021476,0.001534,0.693359,-0.671884,0.667282,-0.694893,0.661146,-0.645806
3.0513,0.016747,0.000000,0.000000,0.004803,0.0000,0.0000,0.0000,0.041993,-0.041993,-0.000411,0.001949,0.001956,1.7817,0.8077,0.4042,-0.019942,0.021476,0.001534,0.693359,-0.671884,0.667282,-0.694893,0.661146,-0.645806
3.0680,0.016751,0.000000,0.000000,0.004817,0.0000,0.0000,0.0000,0.055527,-0.055527,-0.000304,0.001979,0.001979,1.7085,0.7447,0.5088,0.001534,0.003068,0.001534,0.693359,-0.671884,0.667282,-0.694893,0.664214,-0.645806
3.0848,0.016749,0.000000,0.000000,0.004831,0.0000,0.0000,0.0000,0.068906,-0.068906,-0.000202,0.002007,0.002001,1.6397,0.6852,0.6079,0.016874,-0.012272,0.001534,0.693359,-0.671884,0.667282,-0.694893,0.667282,-0.645806
3.1015,0.016763,0.000000,0.000000,0.004844,0.0000,0.0000,0.0000,0.082106,-0.082106,-0.000114,0.002094,0.002032,1.5819,0.6743,0.6521,0.029146,-0.027612,0.001534,0.693359,-0.671884,0.667282,-0.696427,0.670350,-0.645806
3.1183,0.016764,0.000000,0.000000,0.004857,0.0000,0.0000,0.0000,0.095078,-0.095078,-0.000052,0.002077,0.002066,1.4634,0.5922,0.7022,0.046019,-0.047553,0.001534,0.693359,-0.671884,0.667282,-0.696427,0.673418,-0.647340
3.1351,0.016768,0.000000,0.000000,0.004869,0.0000,0.0000,0.0000,0.107790,-0.107790,-0.000052,0.002077,0.002066,1.4634,0.5922,0.7022,0.064427,-0.065961,0.001534,0.693359,-0.671884,0.667282,-0.697961,0.674952,-0.648874
3.1518,0.016750,0.000000,0.000000,0.004881,0.0000,0.0000,0.0000,0.120189,-0.120189,-0.000057,0.002112,0.002098,1.4004,0.5993,0.6406,0.064427,-0.065961,0.001534,0.693359,-0.671884,0.667282,-0.697961,0.674952,-0.648874
3.1686,0.016763,0.000000,0.000000,0.004892,0.0000,0.0000,0.0000,0.132265,-0.132265,0.000028,0.002257,0.002138,1.3532,0.6304,0.6460,0.082835,-0.082835,0.001534,0.693359,-0.671884,0.667282,-0.701029,0.678020,-0.648874
3.1853,0.016757,0.000000,0.000000,0.004903,0.0000,0.0000,0.0000,0.143970,-0.143970,0.000018,0.002357,0.002167,1.3796,0.6298,0.7014,0.099709,-0.093573,0.001534,0.694893,-0.671884,0.667282,-0.702563,0.679553,-0.648874
3.2021,0.016733,0.000000,0.000000,0.004913,0.0000,0.0000,0.0000,0.155261,-0.155261,-0.000080,0.002405,0.002198,1.3878,0.6480,0.6403,0.110447,-0.104311,0.001534,0.696427,-0.671884,0.667282,-0.704097,0.679553,-0.650408
3.2190,0.016900,0.000000,0.000000,0.004922,0.0000,0.0000,0.0000,0.166228,-0.166228,-0.000210,0.002419,0.002242,1.3497,0.6465,0.5354,0.119651,-0.118117,0.001534,0.697961,-0.671884,0.667282,-0.705631,0.679553,-0.653476
3.2357,0.016769,0.000000,0.000000,0.004931,0.0000,0.0000,0.0000,0.176648,-0.176648,-0.000210,0.002419,0.002242,1.3497,0.6465,0.5354,0.136524,-0.134990,0.001534,0.699495,-0.671884,0.667282,-0.705631,0.679553,-0.656544
3.2525,0.016756,0.000000,0.000000,0.004940,0.0000,0.0000,0.0000,0.186569,-0.186569,-0.000324,0.002377,0.002274,1.3055,0.5985,0.4911,0.136524,-0.134990,0.001534,0.699495,-0.671884,0.667282,-0.705631,0.679553,-0.656544
3.2693,0.016759,0.000000,0.000000,0.004948,0.0000,0.0000,0.0000,0.195976,-0.195976,-0.000326,0.002440,0.002281,1.3215,0.6521,0.4396,0.158000,-0.153398,0.001534,0.699495,-0.671884,0.667282,-0.707165,0.679553,-0.656544
3.2860,0.016758,0.000000,0.000000,0.004955,0.0000,0.0000,0.0000,0.204839,-0.204839,-0.000369,0.002474,0.002291,1.3681,0.6332,0.5017,0.174874,-0.168738,0.001534,0.701029,-0.671884,0.667282,-0.707165,0.679553,-0.656544
3.3028,0.016767,0.000000,0.000000,0.004962,0.0000,0.0000,0.0000,0.213139,-0.213139,-0.000406,0.002430,0.002303,1.3151,0.6177,0.4392,0.177942,-0.181010,0.001534,0.701029,-0.671884,0.667282,-0.707165,0.679553,-0.658078
3.3195,0.016754,0.000000,0.000000,0.004968,0.0000,0.0000,0.0000,0.220841,-0.220841,-0.000573,0.002436,0.002348,1.3209,0.5579,0.4471,0.177942,-0.190214,0.001534,0.704097,-0.671884,0.667282,-0.707165,0.679553,-0.661146
3.3363,0.016766,0.000000,0.000000,0.004974,0.0000,0.0000,0.0000,0.227938,-0.227938,-0.000573,0.002436,0.002348,1.3209,0.5579,0.4471,0.177942,-0.190214,0.001534,0.704097,-0.671884,0.667282,-0.707165,0.679553,-0.661146
3.3531,0.016794,0.000000,0.000000,0.004979,0.0000,0.0000,0.0000,0.234411,-0.234411,-0.000641,0.002436,0.002367,1.3204,0.5335,0.4469,0.190214,-0.200951,0.001534,0.705631,-0.671884,0.667282,-0.707165,0.679553,-0.662680
3.3699,0.016818,0.000000,0.000000,0.004983,0.0000,0.0000,0.0000,0.240241,-0.240241,-0.000641,0.002436,0.002367,1.3204,0.5335,0.4469,0.190214,-0.200951,0.001534,0.705631,-0.671884,0.667282,-0.707165,0.679553,-0.662680
3.3867,0.016780,0.000000,0.000000,0.004987,0.0000,0.0000,0.0000,0.245389,-0.245389,-0.000641,0.002436,0.002367,1.3204,0.5335,0.4469,0.190214,-0.200951,0.001534,0.705631,-0.671884,0.667282,-0.707165,0.679553,-0.662680
3.4035,0.016770,0.000000,0.000000,0.004991,0.0000,0.0000,0.0000,0.249853,-0.249853,-0.000641,0.002436,0.002367,1.3204,0.5335,0.4469,0.190214,-0.200951,0.001534,0.705631,-0.671884,0.667282,-0.707165,0.679553,-0.662680
3.4202,0.016768,0.000000,0.000000,0.004994,0.0000,0.0000,0.0000,0.253623,-0.253623,-0.000641,0.002436,0.002367,1.3204,0.5335,0.4469,0.190214,-0.200951,0.001534,0.705631,-0.671884,0.667282,-0.707165,0.679553,-0.662680
3.4370,0.016743,0.000000,0.000000,0.004996,0.0000,0.0000,0.0000,0.256685,-0.256685,-0.000344,0.002375,0.002451,1.5911,0.3110,0.1657,0.219359,-0.222427,0.001534,0.707165,-0.681087,0.667282,-0.707165,0.679553,-0.662680
3.4537,0.016751,0.000000,0.000000,0.004998,0.0000,0.0000,0.0000,0.259038,-0.259038,-0.000375,0.002381,0.002442,1.5623,0.3342,0.1952,0.220893,-0.220893,0.001534,0.707165,-0.681087,0.667282,-0.707165,0.679553,-0.662680
3.4705,0.016742,0.000000,0.000000,0.004999,0.0000,0.0000,0.0000,0.260674,-0.260674,-0.000260,0.002346,0.002468,1.6388,0.2613,0.0791,0.228563,-0.227029,0.001534,0.707165,-0.684155,0.667282,-0.707165,0.679553,-0.662680
3.4872,0.016759,0.000000,0.000000,0.005000,0.0000,0.0000,0.0000,0.261589,-0.261589,-0.000160,0.002315,0.002490,1.7040,0.1985,-0.0221,0.242369,-0.243903,0.001534,0.707165,-0.687223,0.667282,-0.707165,0.679553,-0.662680
3.5040,0.016746,0.000000,0.000000,0.005000,0.0000,0.0000,0.0000,0.261779,-0.261779,-0.000115,0.002301,0.002500,1.7337,0.1699,-0.0683,0.263845,-0.262311,0.001534,0.707165,-0.688757,0.667282,-0.707165,0.679553,-0.662680
3.5207,0.016760,0.000000,0.000000,0.005000,0.0000,0.0000,0.0000,0.261244,-0.261244,-0.000115,0.002301,0.002500,1.7337,0.1699,-0.0683,0.263845,-0.262311,0.001534,0.707165,-0.688757,0.667282,-0.707165,0.679553,-0.662680
3.5375,0.016742,0.000000,0.000000,0.004999,0.0000,0.0000,0.0000,0.259987,-0.259987,-0.000063,0.002285,0.002511,1.7670,0.1376,-0.1202,0.265379,-0.265379,0.001534,0.707165,-0.690291,0.667282,-0.707165,0.679553,-0.662680
3.5542,0.016758,0.000000,0.000000,0.004997,0.0000,0.0000,0.0000,0.258008,-0.258008,0.000002,0.002211,0.002512,1.7886,0.0575,-0.1157,0.256175,-0.260777,0.001534,0.707165,-0.691825,0.667282,-0.705631,0.679553,-0.662680
3.5710,0.016740,0.000000,0.000000,0.004995,0.0000,0.0000,0.0000,0.255318,-0.255318,0.000037,0.002260,0.002534,1.8339,0.0790,-0.2290,0.259243,-0.262311,0.001534,0.707165,-0.693359,0.667282,-0.707165,0.679553,-0.662680
3.5877,0.016754,0.000000,0.000000,0.004992,0.0000,0.0000,0.0000,0.251919,-0.251919,0.000089,0.002238,0.002544,1.8654,0.0416,-0.2741,0.263845,-0.262311,0.001534,0.707165,-0.694893,0.667282,-0.707165,0.679553,-0.662680
3.6045,0.016745,0.000000,0.000000,0.004989,0.0000,0.0000,0.0000,0.247824,-0.247824,0.000084,0.002240,0.002543,1.8621,0.0455,-0.2694,0.259243,-0.259243,0.001534,0.707165,-0.694893,0.667282,-0.707165,0.679553,-0.662680
3.6212,0.016752,0.000000,0.000000,0.004986,0.0000,0.0000,0.0000,0.243041,-0.243041,0.000084,0.002240,0.002543,1.8621,0.0455,-0.2694,0.259243,-0.259243,0.001534,0.707165,-0.694893,0.667282,-0.707165,0.679553,-0.662680
3.6380,0.016728,0.000000,0.000000,0.004981,0.0000,0.0000,0.0000,0.237594,-0.237594,0.000028,0.002257,0.002531,1.8262,0.0803,-0.2130,0.254641,-0.259243,0.001534,0.707165,-0.693359,0.667282,-0.707165,0.679553,-0.662680
3.6547,0.016754,0.000000,0.000000,0.004976,0.0000,0.0000,0.0000,0.231481,-0.231481,0.000090,0.002238,0.002544,1.8662,0.0415,-0.2758,0.254641,-0.257709,0.001534,0.707165,-0.694893,0.667282,-0.707165,0.679553,-0.662680
3.6715,0.016743,0.000000,0.000000,0.004971,0.0000,0.0000,0.0000,0.224731,-0.224731,0.000140,0.002256,0.002554,1.8238,0.0126,-0.2137,0.254641,-0.254641,0.001534,0.707165,-0.694893,0.667282,-0.707165,0.681087,-0.662680
3.6882,0.016763,0.000000,0.000000,0.004965,0.0000,0.0000,0.0000,0.217351,-0.217351,0.000136,0.002288,0.002553,1.7539,0.0179,-0.1077,0.251573,-0.251573,0.001534,0.707165,-0.693359,0.667282,-0.707165,0.682621,-0.662680
3.7050,0.016744,0.000000,0.000000,0.004959,0.0000,0.0000,0.0000,0.209377,-0.209377,0.000136,0.002284,0.002553,1.7612,0.0174,-0.1187,0.246971,-0.243903,0.001534,0.707165,-0.693359,0.667282,-0.707165,0.682621,-0.662680
3.7217,0.016748,0.000000,0.000000,0.004952,0.0000,0.0000,0.0000,0.200822,-0.200822,0.000136,0.002284,0.002553,1.7612,0.0174,-0.1187,0.246971,-0.243903,0.001534,0.707165,-0.693359,0.667282,-0.707165,0.682621,-0.662680
3.7384,0.016743,0.000000,0.000000,0.004944,0.0000,0.0000,0.0000,0.191714,-0.191714,0.000136,0.002284,0.002553,1.7612,0.0174,-0.1187,0.239301,-0.236233,0.001534,0.707165,-0.693359,0.667282,-0.707165,0.682621,-0.662680
3.7552,0.016759,0.000000,0.000000,0.004936,0.0000,0.0000,0.0000,0.182066,-0.182066,0.000136,0.002284,0.002553,1.7612,0.0174,-0.1187,0.228563,-0.227029,0.001534,0.707165,-0.693359,0.667282,-0.707165,0.682621,-0.662680
3.7720,0.016745,0.000000,0.000000,0.004927,0.0000,0.0000,0.0000,0.171923,-0.171923,0.000193,0.002267,0.002565,1.7967,-0.0178,-0.1745,0.216291,-0.217825,0.001534,0.707165,-0.694893,0.667282,-0.707165,0.682621,-0.662680
3.7887,0.016750,0.000000,0.000000,0.004918,0.0000,0.0000,0.0000,0.161300,-0.161300,0.000187,0.002269,0.002564,1.7930,-0.0141,-0.1687,0.205553,-0.208621,0.001534,0.707165,-0.694893,0.667282,-0.707165,0.682621,-0.662680
3.8054,0.016744,0.000000,0.000000,0.004908,0.0000,0.0000,0.0000,0.150234,-0.150234,0.000187,0.002269,0.002564,1.7930,-0.0141,-0.1687,0.193282,-0.199418,0.001534,0.707165,-0.694893,0.667282,-0.707165,0.682621,-0.662680
3.8222,0.016761,0.000000,0.000000,0.004898,0.0000,0.0000,0.0000,0.138741,-0.138741,0.000187,0.002269,0.002564,1.7930,-0.0141,-0.1687,0.193282,-0.199418,0.001534,0.707165,-0.694893,0.667282,-0.707165,0.682621,-0.662680
3.8390,0.016744,0.000000,0.000000,0.004887,0.0000,0.0000,0.0000,0.126876,-0.126876,0.000187,0.002269,0.002564,1.7930,-0.0141,-0.1687,0.177942,-0.190214,0.001534,0.707165,-0.694893,0.667282,-0.707165,0.682621,-0.662680
3.8557,0.016756,0.000000,0.000000,0.004876,0.0000,0.0000,0.0000,0.114651,-0.114651,0.000187,0.002269,0.002564,1.7930,-0.0141,-0.1687,0.167204,-0.179476,0.001534,0.707165,-0.694893,0.667282,-0.707165,0.682621,-0.662680
3.8725,0.016745,0.000000,0.000000,0.004864,0.0000,0.0000,0.0000,0.102117,-0.102117,0.000131,0.002286,0.002552,1.7572,0.0207,-0.1124,0.156466,-0.167204,0.001534,0.707165,-0.693359,0.667282,-0.707165,0.682621,-0.662680
3.8892,0.016748,0.000000,0.000000,0.004851,0.0000,0.0000,0.0000,0.089298,-0.089298,0.000193,0.002267,0.002565,1.7971,-0.0181,-0.1752,0.130388,-0.139592,0.001534,0.707165,-0.694893,0.667282,-0.707165,0.682621,-0.662680
3.9060,0.016750,0.000000,0.000000,0.004838,0.0000,0.0000,0.0000,0.076231,-0.076231,0.000187,0.002269,0.002564,1.7929,-0.0141,-0.1686,0.130388,-0.139592,0.001534,0.707165,-0.694893,0.667282,-0.707165,0.682621,-0.662680
3.9227,0.016759,0.000000,0.000000,0.004825,0.0000,0.0000,0.0000,0.062945,-0.062945,0.000187,0.002269,0.002564,1.7929,-0.0141,-0.1686,0.130388,-0.139592,0.001534,0.707165,-0.694893,0.667282,-0.707165,0.682621,-0.662680
3.9395,0.016744,0.000000,0.000000,0.004811,0.0000,0.0000,0.0000,0.049497,-0.049497,0.000131,0.002286,0.002552,1.7572,0.0207,-0.1124,0.113515,-0.121184,0.001534,0.707165,-0.693359,0.667282,-0.707165,0.682621,-0.662680
3.9562,0.016755,0.000000,0.000000,0.004796,0.0000,0.0000,0.0000,0.035903,-0.035903,0.000193,0.002267,0.002565,1.7971,-0.0181,-0.1752,0.096641,-0.104311,0.001534,0.707165,-0.694893,0.667282,-0.707165,0.682621,-0.662680
3.9730,0.016756,0.000000,0.000000,0.004781,0.0000,0.0000,0.0000,0.022209,-0.022209,0.000187,0.002269,0.002564,1.7929,-0.0141,-0.1686,0.065961,-0.070563,0.001534,0.707165,-0.694893,0.667282,-0.707165,0.682621,-0.662680
3.9897,0.016756,0.000000,0.000000,0.004765,0.0000,0.0000,0.0000,0.008453,-0.008453,0.000187,0.002269,0.002564,1.7929,-0.0141,-0.1686,0.049087,-0.053689,0.001534,0.707165,-0.694893,0.667282,-0.707165,0.682621,-0.662680
4.0068,0.017066,0.000000,0.000000,0.004749,0.0000,0.0000,0.0000,-0.005582,0.005582,0.000187,0.002269,0.002564,1.7929,-0.0141,-0.1686,0.030680,-0.032214,0.001534,0.707165,-0.694893,0.667282,-0.707165,0.682621,-0.662680
4.0235,0.016753,0.000000,0.000000,0.004732,0.0000,0.0000,0.0000,-0.019343,0.019343,0.000187,0.002269,0.002564,1.7929,-0.0141,-0.1686,0.030680,-0.032214,0.001534,0.707165,-0.694893,0.667282,-0.707165,0.682621,-0.662680
4.0403,0.016740,0.000000,0.000000,0.004715,0.0000,0.0000,0.0000,-0.033041,0.033041,0.000187,0.002269,0.002564,1.7929,-0.0141,-0.1686,0.013806,-0.012272,0.001534,0.707165,-0.694893,0.667282,-0.707165,0.682621,-0.662680
4.0570,0.016747,0.000000,0.000000,0.004697,0.0000,0.0000,0.0000,-0.046652,0.046652,0.000187,0.002269,0.002564,1.7929,-0.0141,-0.1686,-0.003068,0.003068,0.001534,0.707165,-0.694893,0.667282,-0.707165,0.682621,-0.662680
4.0738,0.016742,0.000000,0.000000,0.004679,0.0000,0.0000,0.0000,-0.060130,0.060130,0.000187,0.002269,0.002564,1.7929,-0.0141,-0.1686,-0.016874,0.013806,0.001534,0.707165,-0.694893,0.667282,-0.707165,0.682621,-0.662680
4.0905,0.016747,0.000000,0.000000,0.004660,0.0000,0.0000,0.0000,-0.073447,0.073447,0.000187,0.002269,0.002564,1.7929,-0.0141,-0.1686,-0.033748,0.029146,0.001534,0.707165,-0.694893,0.667282,-0.707165,0.682621,-0.662680
4.1073,0.016751,0.000000,0.000000,0.004640,0.0000,0.0000,0.0000,-0.086563,0.086563,0.000131,0.002286,0.002552,1.7572,0.0207,-0.1124,-0.053689,0.047553,0.001534,0.707165,-0.693359,0.667282,-0.707165,0.682621,-0.662680
4.1240,0.016751,0.000000,0.000000,0.004621,0.0000,0.0000,0.0000,-0.099440,0.099440,0.000131,0.002286,0.002552,1.7572,0.0207,-0.1124,-0.053689,0.047553,0.001534,0.707165,-0.693359,0.667282,-0.707165,0.682621,-0.662680
4.1408,0.016743,0.000000,0.000000,0.004600,0.0000,0.0000,0.0000,-0.112035,0.112035,0.000193,0.002267,0.002565,1.7971,-0.0181,-0.1752,-0.072097,0.069029,0.001534,0.707165,-0.694893,0.667282,-0.707165,0.682621,-0.662680
4.1575,0.016753,0.000000,0.000000,0.004579,0.0000,0.0000,0.0000,-0.124327,0.124327,0.000187,0.002269,0.002564,1.7929,-0.0141,-0.1686,-0.084369,0.085903,0.001534,0.707165,-0.694893,0.667282,-0.707165,0.682621,-0.662680
4.1743,0.016744,0.000000,0.000000,0.004558,0.0000,0.0000,0.0000,-0.136270,0.136270,0.000187,0.002269,0.002564,1.7929,-0.0141,-0.1686,-0.090505,0.096641,0.001534,0.707165,-0.694893,0.667282,-0.707165,0.682621,-0.662680
4.1910,0.016756,0.000000,0.000000,0.004536,0.0000,0.0000,0.0000,-0.147842,0.147842,0.000187,0.002269,0.002564,1.7929,-0.0141,-0.1686,-0.105845,0.110447,0.001534,0.707165,-0.694893,0.667282,-0.707165,0.682621,-0.662680
4.2078,0.016762,0.000000,0.000000,0.004514,0.0000,0.0000,0.0000,-0.159010,0.159010,0.000131,0.002286,0.002552,1.7572,0.0207,-0.1124,-0.124252,0.125786,0.001534,0.707165,-0.693359,0.667282,-0.707165,0.682621,-0.662680
4.2245,0.016752,0.000000,0.000000,0.004491,0.0000,0.0000,0.0000,-0.169730,0.169730,0.000131,0.002286,0.002552,1.7572,0.0207,-0.1124,-0.124252,0.125786,0.001534,0.707165,-0.693359,0.667282,-0.707165,0.682621,-0.662680
4.2413,0.016745,0.000000,0.000000,0.004467,0.0000,0.0000,0.0000,-0.179976,0.179976,0.000193,0.002267,0.002565,1.7971,-0.0181,-0.1752,-0.147262,0.144194,0.001534,0.707165,-0.694893,0.667282,-0.707165,0.682621,-0.662680
4.2580,0.016746,0.000000,0.000000,0.004444,0.0000,0.0000,0.0000,-0.189725,0.189725,0.000130,0.002287,0.002552,1.7567,0.0211,-0.1117,-0.161068,0.153398,0.001534,0.707165,-0.693359,0.667282,-0.707165,0.682621,-0.662680
4.2748,0.016743,0.000000,0.000000,0.004419,0.0000,0.0000,0.0000,-0.198947,0.198947,0.000193,0.002267,0.002565,1.7971,-0.0182,-0.1752,-0.164136,0.159534,0.001534,0.707165,-0.694893,0.667282,-0.707165,0.682621,-0.662680
4.2915,0.016746,0.000000,0.000000,0.004394,0.0000,0.0000,0.0000,-0.207620,0.207620,0.000187,0.002269,0.002564,1.7929,-0.0141,-0.1686,-0.170272,0.171806,0.001534,0.707165,-0.694893,0.667282,-0.707165,0.682621,-0.662680
4.3083,0.016756,0.000000,0.000000,0.004369,0.0000,0.0000,0.0000,-0.215724,0.215724,0.000187,0.002269,0.002564,1.7929,-0.0141,-0.1686,-0.188680,0.191748,0.001534,0.707165,-0.694893,0.667282,-0.707165,0.682621,-0.662680
4.3250,0.016759,0.000000,0.000000,0.004343,0.0000,0.0000,0.0000,-0.223231,0.223231,0.000187,0.002269,0.002564,1.7929,-0.0141,-0.1686,-0.188680,0.191748,0.001534,0.707165,-0.694893,0.667282,-0.707165,0.682621,-0.662680
4.3418,0.016745,0.000000,0.000000,0.004317,0.0000,0.0000,0.0000,-0.230114,0.230114,0.000187,0.002269,0.002564,1.7929,-0.0141,-0.1686,-0.208621,0.208621,0.001534,0.707165,-0.694893,0.667282,-0.707165,0.682621,-0.662680
4.3585,0.016751,0.000000,0.000000,0.004290,0.0000,0.0000,0.0000,-0.236362,0.236362,0.000131,0.002286,0.002552,1.7572,0.0207,-0.1124,-0.217825,0.210155,0.001534,0.707165,-0.693359,0.667282,-0.707165,0.682621,-0.662680
4.3755,0.016947,0.000000,0.000000,0.004262,0.0000,0.0000,0.0000,-0.242017,0.242017,0.000137,0.002285,0.002553,1.7609,0.0171,-0.1182,-0.216291,0.211689,0.001534,0.707165,-0.693359,0.667282,-0.707165,0.682621,-0.662680
4.3922,0.016747,0.000000,0.000000,0.004235,0.0000,0.0000,0.0000,-0.246933,0.246933,0.000192,0.002267,0.002565,1.7967,-0.0178,-0.1746,-0.220893,0.223961,0.001534,0.707165,-0.694893,0.667282,-0.707165,0.682621,-0.662680
4.4090,0.016747,0.000000,0.000000,0.004206,0.0000,0.0000,0.0000,-0.251164,0.251164,0.000192,0.002267,0.002565,1.7967,-0.0178,-0.1746,-0.220893,0.223961,0.001534,0.707165,-0.694893,0.667282,-0.707165,0.682621,-0.662680
4.4258,0.016836,0.000000,0.000000,0.004178,0.0000,0.0000,0.0000,-0.254718,0.254718,0.000187,0.002269,0.002564,1.7930,-0.0141,-0.1687,-0.237767,0.242369,0.001534,0.707165,-0.694893,0.667282,-0.707165,0.682621,-0.662680
4.4426,0.016788,0.000000,0.000000,0.004148,0.0000,0.0000,0.0000,-0.257552,0.257552,0.000187,0.002269,0.002564,1.7930,-0.0141,-0.1687,-0.237767,0.242369,0.001534,0.707165,-0.694893,0.667282,-0.707165,0.682621,-0.662680
4.4597,0.017117,0.000000,0.000000,0.004118,0.0000,0.0000,0.0000,-0.259704,0.259704,0.000187,0.002269,0.002564,1.7930,-0.0141,-0.1687,-0.237767,0.242369,0.001534,0.707165,-0.694893,0.667282,-0.707165,0.682621,-0.662680
4.4764,0.016746,0.000000,0.000000,0.004088,0.0000,0.0000,0.0000,-0.261083,0.261083,0.000131,0.002286,0.002552,1.7572,0.0207,-0.1124,-0.246971,0.240835,0.001534,0.707165,-0.693359,0.667282,-0.707165,0.682621,-0.662680
4.4932,0.016750,0.000000,0.000000,0.004058,0.0000,0.0000,0.0000,-0.261740,0.261740,0.000193,0.002267,0.002565,1.7971,-0.0181,-0.1752,-0.242369,0.246971,0.001534,0.707165,-0.694893,0.667282,-0.707165,0.682621,-0.662680
4.5099,0.016747,0.000000,0.000000,0.004027,0.0000,0.0000,0.0000,-0.261672,0.261672,0.000187,0.002269,0.002564,1.7929,-0.0141,-0.1686,-0.251573,0.256175,0.001534,0.707165,-0.694893,0.667282,-0.707165,0.682621,-0.662680
4.5270,0.017041,0.000000,0.000000,0.003995,0.0000,0.0000,0.0000,-0.260859,0.260859,0.000187,0.002269,0.002564,1.7929,-0.0141,-0.1686,-0.265379,0.262311,0.001534,0.707165,-0.694893,0.667282,-0.707165,0.682621,-0.662680
4.5437,0.016747,0.000000,0.000000,0.003963,0.0000,0.0000,0.0000,-0.259332,0.259332,0.000131,0.002286,0.002552,1.7572,0.0207,-0.1124,-0.265379,0.260777,0.001534,0.707165,-0.693359,0.667282,-0.707165,0.682621,-0.662680
4.5605,0.016763,0.000000,0.000000,0.003930,0.0000,0.0000,0.0000,-0.257086,0.257086,0.000131,0.002286,0.002552,1.7572,0.0207,-0.1124,-0.265379,0.260777,0.001534,0.707165,-0.693359,0.667282,-0.707165,0.682621,-0.662680
