t,loop_dt,cmd_x,cmd_y,cmd_z,cmd_roll,cmd_pitch,cmd_yaw,cmd_ant_l,cmd_ant_r,pres_x,pres_y,pres_z,pres_roll,pres_pitch,pres_yaw,pres_ant_l,pres_ant_r,pres_j0,pres_j1,pres_j2,pres_j3,pres_j4,pres_j5,pres_j6
0.0000,0.000001,-0.000247,0.000612,-0.002399,0.5503,0.4661,0.2921,-0.185612,0.182544,-0.000247,0.000612,-0.002399,0.5503,0.4661,0.2921,-0.185612,0.182544,0.000000,0.578311,-0.567573,0.572175,-0.579845,0.567573,-0.561437
0.0169,0.016929,-0.000243,0.000602,-0.002358,0.5409,0.4582,0.2872,-0.185424,0.182408,-0.000247,0.000612,-0.002399,0.5503,0.4661,0.2921,-0.185612,0.182544,0.000000,0.578311,-0.567573,0.572175,-0.579845,0.567573,-0.561437
0.0337,0.016766,-0.000239,0.000591,-0.002318,0.5317,0.4504,0.2822,-0.185238,0.182274,-0.000247,0.000612,-0.002399,0.5503,0.4661,0.2921,-0.185612,0.182544,0.000000,0.578311,-0.567573,0.572175,-0.579845,0.567573,-0.561437
0.0504,0.016741,-0.000235,0.000581,-0.002278,0.5225,0.4427,0.2773,-0.185053,0.182140,-0.000247,0.000612,-0.002399,0.5503,0.4661,0.2921,-0.185612,0.182544,0.000000,0.578311,-0.567573,0.572175,-0.579845,0.567573,-0.561437
0.0672,0.016755,-0.000231,0.000571,-0.002237,0.5132,0.4349,0.2724,-0.184867,0.182005,-0.000247,0.000612,-0.002399,0.5503,0.4661,0.2921,-0.187146,0.182544,0.000000,0.578311,-0.567573,0.572175,-0.579845,0.567573,-0.561437
0.0839,0.016741,-0.000227,0.000561,-0.002197,0.5040,0.4271,0.2675,-0.184682,0.181871,-0.000260,0.000666,-0.002424,0.5611,0.5180,0.3984,-0.185612,0.181010,0.000000,0.578311,-0.566039,0.572175,-0.579845,0.567573,-0.559903
0.1007,0.016743,-0.000222,0.000550,-0.002157,0.4948,0.4193,0.2625,-0.184496,0.181737,0.000135,0.000745,-0.002608,0.4930,0.7312,0.4384,-0.185612,0.181010,0.000000,0.569107,-0.562971,0.570641,-0.579845,0.567573,-0.550699
0.1174,0.016742,-0.000218,0.000540,-0.002117,0.4855,0.4115,0.2576,-0.184311,0.181603,0.000081,0.000683,-0.002576,0.4896,0.7604,0.4879,-0.185612,0.181010,0.000000,0.569107,-0.562971,0.572175,-0.579845,0.567573,-0.550699
0.1345,0.017070,-0.000214,0.000530,-0.002076,0.4761,0.4036,0.2526,-0.184122,0.181466,0.000087,0.000689,-0.002580,0.4899,0.7573,0.4827,-0.187146,0.181010,0.000000,0.569107,-0.562971,0.572175,-0.579845,0.567573,-0.550699
0.1512,0.016746,-0.000210,0.000519,-0.002036,0.4669,0.3958,0.2477,-0.183936,0.181332,0.000087,0.000689,-0.002580,0.4899,0.7573,0.4827,-0.187146,0.181010,0.000000,0.569107,-0.562971,0.572175,-0.579845,0.567573,-0.550699
0.1681,0.016820,-0.000206,0.000509,-0.001995,0.4576,0.3880,0.2427,-0.183750,0.181197,0.000087,0.000689,-0.002580,0.4899,0.7573,0.4827,-0.187146,0.181010,0.000000,0.569107,-0.562971,0.572175,-0.579845,0.567573,-0.550699
0.1937,0.025614,-0.000199,0.000493,-0.001934,0.4435,0.3761,0.2352,-0.183466,0.180992,0.000087,0.000689,-0.002580,0.4899,0.7573,0.4827,-0.187146,0.181010,0.000000,0.569107,-0.562971,0.572175,-0.579845,0.567573,-0.550699
0.2104,0.016767,-0.000195,0.000483,-0.001894,0.4343,0.3683,0.2303,-0.183280,0.180858,0.000087,0.000689,-0.002580,0.4899,0.7573,0.4827,-0.187146,0.181010,0.000000,0.569107,-0.562971,0.572175,-0.579845,0.567573,-0.550699
0.2272,0.016745,-0.000191,0.000473,-0.001854,0.4251,0.3605,0.2254,-0.183095,0.180724,0.000087,0.000689,-0.002580,0.4899,0.7573,0.4827,-0.185612,0.181010,0.000000,0.569107,-0.562971,0.572175,-0.579845,0.567573,-0.550699
0.2439,0.016749,-0.000187,0.000463,-0.001813,0.4158,0.3527,0.2205,-0.182909,0.180590,0.000099,0.000743,-0.002592,0.5004,0.7064,0.4296,-0.187146,0.181010,0.000000,0.569107,-0.562971,0.570641,-0.579845,0.567573,-0.550699
0.2607,0.016752,-0.000183,0.000452,-0.001773,0.4066,0.3449,0.2156,-0.182724,0.180455,0.000085,0.000683,-0.002578,0.4888,0.7630,0.4888,-0.185612,0.181010,0.000000,0.569107,-0.562971,0.572175,-0.579845,0.567573,-0.550699
0.2774,0.016754,-0.000179,0.000442,-0.001733,0.3974,0.3371,0.2107,-0.182538,0.180321,0.000086,0.000689,-0.002580,0.4900,0.7571,0.4826,-0.187146,0.181010,0.000000,0.569107,-0.562971,0.572175,-0.579845,0.567573,-0.550699
0.2942,0.016767,-0.000175,0.000432,-0.001693,0.3881,0.3293,0.2057,-0.182352,0.180187,0.000086,0.000689,-0.002580,0.4900,0.7571,0.4826,-0.185612,0.179476,0.000000,0.569107,-0.562971,0.572175,-0.579845,0.567573,-0.550699
0.3110,0.016766,-0.000170,0.000422,-0.001653,0.3789,0.3215,0.2008,-0.182167,0.180053,0.000086,0.000689,-0.002580,0.4900,0.7571,0.4826,-0.185612,0.179476,0.000000,0.569107,-0.562971,0.572175,-0.579845,0.567573,-0.550699
0.3277,0.016745,-0.000166,0.000411,-0.001613,0.3697,0.3137,0.1959,-0.181981,0.179918,0.000086,0.000689,-0.002580,0.4900,0.7571,0.4826,-0.185612,0.179476,0.000000,0.569107,-0.562971,0.572175,-0.579845,0.567573,-0.550699
0.3445,0.016752,-0.000162,0.000401,-0.001572,0.3605,0.3059,0.1910,-0.181795,0.179784,0.000086,0.000689,-0.002580,0.4900,0.7571,0.4826,-0.185612,0.179476,0.000000,0.569107,-0.562971,0.572175,-0.579845,0.567573,-0.550699
0.3612,0.016743,-0.000158,0.000391,-0.001532,0.3512,0.2981,0.1861,-0.181610,0.179650,0.000099,0.000743,-0.002592,0.5004,0.7064,0.4296,-0.184078,0.179476,0.000000,0.569107,-0.562971,0.570641,-0.579845,0.567573,-0.550699
0.3780,0.016755,-0.000154,0.000381,-0.001492,0.3420,0.2903,0.1812,-0.181424,0.179516,0.000098,0.000737,-0.002591,0.4993,0.7117,0.4351,-0.185612,0.179476,0.000000,0.569107,-0.562971,0.570641,-0.579845,0.567573,-0.550699
0.3947,0.016739,-0.000150,0.000370,-0.001452,0.3328,0.2825,0.1763,-0.181239,0.179382,0.000085,0.000683,-0.002578,0.4889,0.7624,0.4882,-0.184078,0.179476,0.000000,0.569107,-0.562971,0.572175,-0.579845,0.567573,-0.550699
0.4115,0.016777,-0.000146,0.000360,-0.001412,0.3236,0.2747,0.1714,-0.181053,0.179247,0.000085,0.000683,-0.002578,0.4889,0.7624,0.4882,-0.184078,0.179476,0.000000,0.569107,-0.562971,0.572175,-0.579845,0.567573,-0.550699
0.4282,0.016743,-0.000141,0.000350,-0.001371,0.3144,0.2669,0.1665,-0.180868,0.179113,0.000099,0.000743,-0.002592,0.5005,0.7059,0.4290,-0.184078,0.179476,0.000000,0.569107,-0.562971,0.570641,-0.579845,0.567573,-0.550699
0.4450,0.016751,-0.000137,0.000340,-0.001331,0.3051,0.2591,0.1616,-0.180682,0.178979,0.000098,0.000737,-0.002591,0.4993,0.7118,0.4352,-0.184078,0.179476,0.000000,0.569107,-0.562971,0.570641,-0.579845,0.567573,-0.550699
0.4617,0.016741,-0.000133,0.000329,-0.001291,0.2959,0.2513,0.1567,-0.180496,0.178845,0.000098,0.000737,-0.002591,0.4993,0.7118,0.4352,-0.184078,0.179476,0.000000,0.569107,-0.562971,0.570641,-0.579845,0.567573,-0.550699
0.4787,0.017012,-0.000129,0.000319,-0.001250,0.2866,0.2433,0.1517,-0.180308,0.178709,0.000085,0.000683,-0.002578,0.4889,0.7624,0.4882,-0.182544,0.179476,0.000000,0.569107,-0.562971,0.572175,-0.579845,0.567573,-0.550699
0.4955,0.016741,-0.000125,0.000309,-0.001210,0.2773,0.2355,0.1469,-0.180123,0.178575,0.000099,0.000743,-0.002592,0.5005,0.7059,0.4290,-0.182544,0.179476,0.000000,0.569107,-0.562971,0.570641,-0.579845,0.567573,-0.550699
0.5122,0.016759,-0.000121,0.000299,-0.001170,0.2681,0.2277,0.1420,-0.179937,0.178440,0.000099,0.000743,-0.002592,0.5005,0.7059,0.4290,-0.182544,0.179476,0.000000,0.569107,-0.562971,0.570641,-0.579845,0.567573,-0.550699
0.5290,0.016743,-0.000116,0.000288,-0.001130,0.2589,0.2199,0.1371,-0.179751,0.178306,0.000085,0.000683,-0.002578,0.4888,0.7630,0.4888,-0.182544,0.179476,0.000000,0.569107,-0.562971,0.572175,-0.579845,0.567573,-0.550699
0.5457,0.016753,-0.000112,0.000278,-0.001090,0.2497,0.2121,0.1322,-0.179566,0.178172,0.000099,0.000743,-0.002592,0.5005,0.7058,0.4290,-0.182544,0.179476,0.000000,0.569107,-0.562971,0.570641,-0.579845,0.567573,-0.550699
0.5625,0.016748,-0.000108,0.000268,-0.001049,0.2405,0.2043,0.1273,-0.179380,0.178038,0.000098,0.000737,-0.002591,0.4993,0.7118,0.4352,-0.182544,0.179476,0.000000,0.569107,-0.562971,0.570641,-0.579845,0.567573,-0.550699
0.5792,0.016760,-0.000104,0.000258,-0.001009,0.2313,0.1965,0.1224,-0.179195,0.177904,0.000085,0.000683,-0.002578,0.4889,0.7624,0.4882,-0.182544,0.179476,0.000000,0.569107,-0.562971,0.572175,-0.579845,0.567573,-0.550699
0.5961,0.016851,-0.000100,0.000247,-0.000969,0.2220,0.1886,0.1175,-0.179008,0.177769,0.000086,0.000689,-0.002580,0.4900,0.7571,0.4827,-0.182544,0.179476,0.000000,0.569107,-0.562971,0.572175,-0.579845,0.567573,-0.550699
0.6128,0.016750,-0.000096,0.000237,-0.000929,0.2128,0.1808,0.1126,-0.178822,0.177634,0.000086,0.000689,-0.002580,0.4900,0.7571,0.4827,-0.182544,0.179476,0.000000,0.569107,-0.562971,0.572175,-0.579845,0.567573,-0.550699
0.6296,0.016741,-0.000092,0.000227,-0.000888,0.2036,0.1730,0.1077,-0.178637,0.177500,0.000086,0.000689,-0.002580,0.4900,0.7571,0.4827,-0.181010,0.179476,0.000000,0.569107,-0.562971,0.572175,-0.579845,0.567573,-0.550699
0.6463,0.016750,-0.000087,0.000216,-0.000848,0.1944,0.1652,0.1028,-0.178451,0.177366,0.000099,0.000743,-0.002592,0.5004,0.7064,0.4296,-0.181010,0.179476,0.000000,0.569107,-0.562971,0.570641,-0.579845,0.567573,-0.550699
0.6631,0.016741,-0.000083,0.000206,-0.000808,0.1852,0.1574,0.0979,-0.178266,0.177232,0.000098,0.000737,-0.002591,0.4993,0.7117,0.4351,-0.181010,0.179476,0.000000,0.569107,-0.562971,0.570641,-0.579845,0.567573,-0.550699
0.6798,0.016754,-0.000079,0.000196,-0.000768,0.1759,0.1496,0.0931,-0.178080,0.177098,0.000085,0.000683,-0.002578,0.4889,0.7624,0.4882,-0.181010,0.179476,0.000000,0.569107,-0.562971,0.572175,-0.579845,0.567573,-0.550699
0.6967,0.016853,-0.000075,0.000186,-0.000728,0.1667,0.1417,0.0882,-0.177893,0.176963,0.000086,0.000689,-0.002580,0.4900,0.7571,0.4827,-0.181010,0.177942,0.000000,0.569107,-0.562971,0.572175,-0.579845,0.567573,-0.550699
0.7134,0.016762,-0.000071,0.000175,-0.000687,0.1575,0.1339,0.0833,-0.177708,0.176829,0.000086,0.000689,-0.002580,0.4900,0.7571,0.4827,-0.181010,0.177942,0.000000,0.569107,-0.562971,0.572175,-0.579845,0.567573,-0.550699
0.7302,0.016806,-0.000067,0.000165,-0.000647,0.1482,0.1260,0.0784,-0.177522,0.176694,0.000099,0.000743,-0.002592,0.5004,0.7064,0.4296,-0.181010,0.179476,0.000000,0.569107,-0.562971,0.570641,-0.579845,0.567573,-0.550699
0.7470,0.016746,-0.000063,0.000155,-0.000607,0.1390,0.1182,0.0735,-0.177336,0.176560,0.000085,0.000683,-0.002578,0.4888,0.7630,0.4888,-0.181010,0.179476,0.000000,0.569107,-0.562971,0.572175,-0.579845,0.567573,-0.550699
0.7637,0.016746,-0.000058,0.000145,-0.000567,0.1298,0.1104,0.0686,-0.177151,0.176426,0.000059,0.000705,-0.002579,0.4505,0.6884,0.3756,-0.181010,0.177942,0.000000,0.569107,-0.562971,0.570641,-0.579845,0.567573,-0.552233
0.7805,0.016745,-0.000054,0.000134,-0.000527,0.1206,0.1026,0.0638,-0.176965,0.176291,0.000021,0.000741,-0.002567,0.5043,0.6803,0.4411,-0.181010,0.177942,0.000000,0.570641,-0.562971,0.570641,-0.579845,0.567573,-0.552233
0.7972,0.016764,-0.000050,0.000124,-0.000486,0.1114,0.0948,0.0589,-0.176779,0.176157,0.000021,0.000741,-0.002567,0.5043,0.6803,0.4411,-0.179476,0.177942,0.000000,0.570641,-0.562971,0.570641,-0.579845,0.567573,-0.552233
0.8140,0.016751,-0.000046,0.000114,-0.000446,0.1022,0.0869,0.0540,-0.176594,0.176023,0.000025,0.000738,-0.002569,0.4987,0.6812,0.4343,-0.179476,0.177942,0.000000,0.570641,-0.562971,0.570641,-0.579845,0.567573,-0.552233
0.8307,0.016746,-0.000042,0.000104,-0.000406,0.0930,0.0791,0.0491,-0.176408,0.175889,0.000012,0.000684,-0.002556,0.4887,0.7323,0.4886,-0.179476,0.177942,0.000000,0.570641,-0.562971,0.572175,-0.579845,0.567573,-0.552233
0.8475,0.016746,-0.000038,0.000093,-0.000366,0.0838,0.0713,0.0443,-0.176223,0.175755,0.000013,0.000689,-0.002557,0.4897,0.7270,0.4829,-0.179476,0.179476,0.000000,0.570641,-0.562971,0.572175,-0.579845,0.567573,-0.552233
0.8643,0.016815,-0.000034,0.000083,-0.000325,0.0745,0.0634,0.0394,-0.176036,0.175620,0.000025,0.000743,-0.002570,0.5002,0.6763,0.4299,-0.179476,0.177942,0.000000,0.570641,-0.562971,0.570641,-0.579845,0.567573,-0.552233
0.8810,0.016742,-0.000029,0.000073,-0.000285,0.0653,0.0556,0.0345,-0.175851,0.175486,0.000024,0.000737,-0.002568,0.4991,0.6816,0.4354,-0.179476,0.177942,0.000000,0.570641,-0.562971,0.570641,-0.579845,0.567573,-0.552233
0.8978,0.016758,-0.000025,0.000063,-0.000245,0.0561,0.0478,0.0297,-0.175665,0.175352,0.000012,0.000684,-0.002556,0.4887,0.7323,0.4885,-0.179476,0.177942,0.000000,0.570641,-0.562971,0.572175,-0.579845,0.567573,-0.552233
0.9145,0.016741,-0.000021,0.000052,-0.000205,0.0469,0.0400,0.0248,-0.175480,0.175218,0.000012,0.000684,-0.002556,0.4887,0.7323,0.4885,-0.179476,0.177942,0.000000,0.570641,-0.562971,0.572175,-0.579845,0.567573,-0.552233
0.9313,0.016750,-0.000017,0.000042,-0.000165,0.0377,0.0321,0.0199,-0.175294,0.175083,0.000013,0.000689,-0.002557,0.4898,0.7270,0.4829,-0.179476,0.177942,0.000000,0.570641,-0.562971,0.572175,-0.579845,0.567573,-0.552233
0.9480,0.016742,-0.000013,0.000032,-0.000125,0.0285,0.0243,0.0151,-0.175109,0.174949,0.000013,0.000689,-0.002557,0.4898,0.7270,0.4829,-0.179476,0.177942,0.000000,0.570641,-0.562971,0.572175,-0.579845,0.567573,-0.552233
0.9650,0.016950,-0.000009,0.000021,-0.000084,0.0192,0.0164,0.0102,-0.174921,0.174813,0.000013,0.000689,-0.002557,0.4898,0.7270,0.4829,-0.179476,0.177942,0.000000,0.570641,-0.562971,0.572175,-0.579845,0.567573,-0.552233
0.9817,0.016742,-0.000005,0.000011,-0.000044,0.0100,0.0085,0.0053,-0.174735,0.174679,0.000025,0.000743,-0.002570,0.5002,0.6763,0.4299,-0.179476,0.177942,0.000000,0.570641,-0.562971,0.570641,-0.579845,0.567573,-0.552233
0.9985,0.016772,-0.000000,0.000001,-0.000004,0.0008,0.0007,0.0004,-0.174550,0.174545,0.000024,0.000737,-0.002568,0.4991,0.6816,0.4354,-0.179476,0.177942,0.000000,0.570641,-0.562971,0.570641,-0.579845,0.567573,-0.552233
1.0152,0.016746,0.000000,0.000000,0.000077,0.0000,0.0000,0.0000,-0.171191,0.171191,0.000024,0.000737,-0.002568,0.4991,0.6816,0.4354,-0.179476,0.177942,0.000000,0.570641,-0.562971,0.570641,-0.579845,0.567573,-0.552233
1.0320,0.016750,0.000000,0.000000,0.000161,0.0000,0.0000,0.0000,-0.167524,0.167524,0.000012,0.000684,-0.002556,0.4887,0.7323,0.4885,-0.179476,0.177942,0.000000,0.570641,-0.562971,0.572175,-0.579845,0.567573,-0.552233
1.0487,0.016758,0.000000,0.000000,0.000245,0.0000,0.0000,0.0000,-0.163868,0.163868,-0.000027,0.000651,-0.002544,0.4398,0.7096,0.4295,-0.179476,0.177942,0.000000,0.570641,-0.562971,0.572175,-0.579845,0.567573,-0.553767
1.0655,0.016748,0.000000,0.000000,0.000329,0.0000,0.0000,0.0000,-0.160233,0.160233,-0.000023,0.000654,-0.002545,0.4449,0.7120,0.4357,-0.177942,0.177942,0.000000,0.570641,-0.562971,0.572175,-0.579845,0.567573,-0.553767
1.0822,0.016747,0.000000,0.000000,0.000413,0.0000,0.0000,0.0000,-0.156623,0.156623,-0.000023,0.000654,-0.002545,0.4449,0.7120,0.4357,-0.176408,0.176408,0.000000,0.570641,-0.562971,0.572175,-0.579845,0.567573,-0.553767
1.0990,0.016754,0.000000,0.000000,0.000497,0.0000,0.0000,0.0000,-0.153044,0.153044,-0.000023,0.000654,-0.002545,0.4449,0.7120,0.4357,-0.173340,0.171806,0.000000,0.570641,-0.564505,0.572175,-0.579845,0.567573,-0.552233
1.1157,0.016746,0.000000,0.000000,0.000581,0.0000,0.0000,0.0000,-0.149504,0.149504,0.000070,0.000677,-0.002545,0.5338,0.6939,0.4352,-0.173340,0.171806,0.000000,0.570641,-0.564505,0.572175,-0.579845,0.567573,-0.552233
1.1325,0.016743,0.000000,0.000000,0.000665,0.0000,0.0000,0.0000,-0.146009,0.146009,0.000073,0.000620,-0.002520,0.5140,0.6433,0.3287,-0.167204,0.168738,0.000000,0.570641,-0.566039,0.572175,-0.579845,0.567573,-0.553767
1.1494,0.016917,0.000000,0.000000,0.000750,0.0000,0.0000,0.0000,-0.142530,0.142530,0.000032,0.000665,-0.002510,0.5657,0.6326,0.3935,-0.159534,0.165670,0.000000,0.572175,-0.566039,0.572175,-0.579845,0.567573,-0.553767
1.1662,0.016767,0.000000,0.000000,0.000834,0.0000,0.0000,0.0000,-0.139138,0.139138,0.000076,0.000699,-0.002487,0.6102,0.6497,0.2800,-0.151864,0.161068,0.000000,0.572175,-0.567573,0.572175,-0.581379,0.567573,-0.553767
1.1829,0.016745,0.000000,0.000000,0.000917,0.0000,0.0000,0.0000,-0.135813,0.135813,0.000099,0.000790,-0.002453,0.6658,0.7149,0.1316,-0.148796,0.151864,0.000000,0.572175,-0.569107,0.572175,-0.584447,0.567573,-0.553767
1.1997,0.016761,0.000000,0.000000,0.001001,0.0000,0.0000,0.0000,-0.132554,0.132554,0.000099,0.000790,-0.002453,0.6658,0.7149,0.1316,-0.148796,0.151864,0.000000,0.572175,-0.569107,0.572175,-0.584447,0.567573,-0.553767
1.2165,0.016835,0.000000,0.000000,0.001085,0.0000,0.0000,0.0000,-0.129356,0.129356,-0.000025,0.000820,-0.002382,0.7098,0.6573,0.0408,-0.147262,0.145728,0.000000,0.575243,-0.570641,0.572175,-0.585981,0.567573,-0.556835
1.2333,0.016775,0.000000,0.000000,0.001168,0.0000,0.0000,0.0000,-0.126249,0.126249,-0.000025,0.000820,-0.002382,0.7098,0.6573,0.0408,-0.147262,0.145728,0.000000,0.575243,-0.570641,0.572175,-0.585981,0.567573,-0.556835
1.2501,0.016830,0.000000,0.000000,0.001252,0.0000,0.0000,0.0000,-0.123219,0.123219,-0.000025,0.000820,-0.002382,0.7098,0.6573,0.0408,-0.147262,0.145728,0.000000,0.575243,-0.570641,0.572175,-0.585981,0.567573,-0.556835
1.2669,0.016801,0.000000,0.000000,0.001335,0.0000,0.0000,0.0000,-0.120285,0.120285,-0.000025,0.000820,-0.002382,0.7098,0.6573,0.0408,-0.147262,0.145728,0.000000,0.575243,-0.570641,0.572175,-0.585981,0.567573,-0.556835
1.2838,0.016861,0.000000,0.000000,0.001419,0.0000,0.0000,0.0000,-0.117438,0.117438,-0.000025,0.000820,-0.002382,0.7098,0.6573,0.0408,-0.147262,0.145728,0.000000,0.575243,-0.570641,0.572175,-0.585981,0.567573,-0.556835
1.3005,0.016746,0.000000,0.000000,0.001502,0.0000,0.0000,0.0000,-0.114711,0.114711,-0.000317,0.001449,-0.001764,0.9107,0.4259,-0.2183,-0.138058,0.134990,0.000000,0.595185,-0.581379,0.575243,-0.602854,0.579845,-0.572175
1.3173,0.016754,0.000000,0.000000,0.001584,0.0000,0.0000,0.0000,-0.112090,0.112090,-0.000302,0.001455,-0.001658,0.8601,0.3311,-0.1917,-0.134990,0.134990,0.000000,0.599786,-0.584447,0.576777,-0.605922,0.584447,-0.576777
1.3340,0.016750,0.000000,0.000000,0.001667,0.0000,0.0000,0.0000,-0.109579,0.109579,-0.000330,0.001394,-0.001519,0.7265,0.2746,-0.0872,-0.136524,0.133456,0.000000,0.602854,-0.585981,0.579845,-0.607456,0.589049,-0.581379
1.3508,0.016757,0.000000,0.000000,0.001749,0.0000,0.0000,0.0000,-0.107183,0.107183,-0.000274,0.001385,-0.001484,0.7787,0.2474,0.0097,-0.133456,0.128854,0.000000,0.604388,-0.587515,0.581379,-0.607456,0.590583,-0.581379
1.3675,0.016751,0.000000,0.000000,0.001831,0.0000,0.0000,0.0000,-0.104908,0.104908,-0.000156,0.001238,-0.001374,0.7018,0.2992,0.0532,-0.124252,0.119651,0.000000,0.604388,-0.590583,0.585981,-0.608990,0.593651,-0.582913
1.3843,0.016757,0.000000,0.000000,0.001913,0.0000,0.0000,0.0000,-0.102754,0.102754,-0.000182,0.001311,-0.001189,0.7200,0.3461,0.1570,-0.113515,0.113515,0.000000,0.608990,-0.593651,0.590583,-0.613592,0.598253,-0.585981
1.4011,0.016782,0.000000,0.000000,0.001995,0.0000,0.0000,0.0000,-0.100725,0.100725,-0.000182,0.001311,-0.001189,0.7200,0.3461,0.1570,-0.113515,0.113515,0.000000,0.608990,-0.593651,0.590583,-0.613592,0.598253,-0.585981
1.4178,0.016747,0.000000,0.000000,0.002076,0.0000,0.0000,0.0000,-0.098832,0.098832,-0.000139,0.001234,-0.001072,0.7457,0.3590,0.3091,-0.105845,0.108913,0.000000,0.612058,-0.596719,0.595185,-0.615126,0.601320,-0.587515
1.4346,0.016762,0.000000,0.000000,0.002157,0.0000,0.0000,0.0000,-0.097070,0.097070,-0.000115,0.001118,-0.000898,0.7601,0.4241,0.3483,-0.105845,0.102777,0.000000,0.615126,-0.601320,0.601320,-0.618194,0.604388,-0.590583
1.4513,0.016754,0.000000,0.000000,0.002238,0.0000,0.0000,0.0000,-0.095447,0.095447,-0.000022,0.001076,-0.000731,0.7473,0.3986,0.3990,-0.105845,0.101243,0.000000,0.618194,-0.605922,0.605922,-0.621262,0.608990,-0.593651
1.4681,0.016756,0.000000,0.000000,0.002319,0.0000,0.0000,0.0000,-0.093965,0.093965,0.000038,0.001027,-0.000613,0.7378,0.4840,0.4486,-0.104311,0.099709,0.000000,0.619728,-0.608990,0.610524,-0.624330,0.612058,-0.595185
1.4849,0.016758,0.000000,0.000000,0.002400,0.0000,0.0000,0.0000,-0.092624,0.092624,0.000038,0.001027,-0.000613,0.7378,0.4840,0.4486,-0.099709,0.095107,0.000000,0.622796,-0.612058,0.613592,-0.625864,0.613592,-0.598253
1.5016,0.016759,0.000000,0.000000,0.002480,0.0000,0.0000,0.0000,-0.091429,0.091429,-0.000009,0.000962,-0.000502,0.7663,0.4580,0.4444,-0.099709,0.095107,0.000000,0.622796,-0.612058,0.613592,-0.625864,0.613592,-0.598253
1.5184,0.016745,0.000000,0.000000,0.002560,0.0000,0.0000,0.0000,-0.090382,0.090382,-0.000018,0.000915,-0.000354,0.7522,0.5108,0.5004,-0.095107,0.096641,0.000000,0.625864,-0.615126,0.618194,-0.628932,0.616660,-0.601320
1.5351,0.016753,0.000000,0.000000,0.002639,0.0000,0.0000,0.0000,-0.089484,0.089484,-0.000016,0.000953,-0.000259,0.6761,0.5043,0.4400,-0.096641,0.095107,0.000000,0.627398,-0.616660,0.619728,-0.632000,0.619728,-0.604388
1.5519,0.016750,0.000000,0.000000,0.002719,0.0000,0.0000,0.0000,-0.088737,0.088737,-0.000017,0.000918,-0.000159,0.7608,0.5050,0.5020,-0.093573,0.092039,0.000000,0.630466,-0.619728,0.622796,-0.633534,0.621262,-0.605922
1.5686,0.016758,0.000000,0.000000,0.002798,0.0000,0.0000,0.0000,-0.088141,0.088141,0.000037,0.001129,-0.000087,0.8328,0.4726,0.5503,-0.090505,0.092039,0.000000,0.633534,-0.621262,0.622796,-0.636602,0.624330,-0.605922
1.5854,0.016759,0.000000,0.000000,0.002877,0.0000,0.0000,0.0000,-0.087699,0.087699,0.000004,0.001012,-0.000020,0.7650,0.4083,0.5456,-0.090505,0.090505,0.000000,0.635068,-0.622796,0.624330,-0.636602,0.625864,-0.608990
1.6021,0.016757,0.000000,0.000000,0.002955,0.0000,0.0000,0.0000,-0.087411,0.087411,0.000004,0.001012,-0.000020,0.7650,0.4083,0.5456,-0.090505,0.090505,0.000000,0.635068,-0.622796,0.624330,-0.636602,0.625864,-0.608990
1.6189,0.016748,0.000000,0.000000,0.003033,0.0000,0.0000,0.0000,-0.087277,0.087277,0.000033,0.001136,0.000057,0.7930,0.3156,0.6011,-0.088971,0.090505,0.000000,0.638136,-0.624330,0.624330,-0.638136,0.628932,-0.610524
1.6356,0.016752,0.000000,0.000000,0.003111,0.0000,0.0000,0.0000,-0.087298,0.087298,-0.000055,0.001315,0.000107,0.9093,0.2934,0.4313,-0.085903,0.090505,0.000000,0.641204,-0.625864,0.622796,-0.641204,0.628932,-0.612058
1.6524,0.016750,0.000000,0.000000,0.003188,0.0000,0.0000,0.0000,-0.087473,0.087473,-0.000032,0.001386,0.000199,0.8308,0.2440,0.3392,-0.088971,0.090505,0.000000,0.642738,-0.627398,0.622796,-0.644272,0.632000,-0.615126
1.6691,0.016757,0.000000,0.000000,0.003265,0.0000,0.0000,0.0000,-0.087803,0.087803,-0.000007,0.001412,0.000274,0.7618,0.1476,0.2939,-0.087437,0.090505,0.000000,0.644272,-0.628932,0.622796,-0.645806,0.635068,-0.618194
1.6859,0.016748,0.000000,0.000000,0.003342,0.0000,0.0000,0.0000,-0.088286,0.088286,-0.000135,0.001450,0.000338,0.8181,0.1088,0.1894,-0.084369,0.088971,0.000000,0.647340,-0.630466,0.622796,-0.647340,0.635068,-0.621262
1.7026,0.016753,0.000000,0.000000,0.003418,0.0000,0.0000,0.0000,-0.088922,0.088922,-0.000135,0.001450,0.000338,0.8181,0.1088,0.1894,-0.084369,0.088971,0.000000,0.647340,-0.630466,0.622796,-0.647340,0.635068,-0.621262
1.7194,0.016744,0.000000,0.000000,0.003494,0.0000,0.0000,0.0000,-0.089710,0.089710,-0.000233,0.001560,0.000378,0.8343,0.1807,0.0907,-0.087437,0.088971,0.000000,0.648874,-0.630466,0.622796,-0.650408,0.635068,-0.622796
1.7361,0.016751,0.000000,0.000000,0.003570,0.0000,0.0000,0.0000,-0.090648,0.090648,-0.000223,0.001694,0.000444,0.7775,0.1738,0.1008,-0.090505,0.088971,0.000000,0.650408,-0.630466,0.622796,-0.653476,0.638136,-0.624330
1.7529,0.016754,0.000000,0.000000,0.003645,0.0000,0.0000,0.0000,-0.091735,0.091735,-0.000198,0.001760,0.000521,0.8809,0.0739,0.0449,-0.087437,0.088971,0.000000,0.653476,-0.633534,0.622796,-0.655010,0.639670,-0.625864
1.7697,0.016832,0.000000,0.000000,0.003720,0.0000,0.0000,0.0000,-0.092975,0.092975,-0.000175,0.001867,0.000632,0.8911,-0.0173,-0.0595,-0.085903,0.088971,0.000000,0.656544,-0.636602,0.622796,-0.658078,0.642738,-0.628932
1.7865,0.016759,0.000000,0.000000,0.003794,0.0000,0.0000,0.0000,-0.094355,0.094355,-0.000175,0.001867,0.000632,0.8911,-0.0173,-0.0595,-0.085903,0.088971,0.000000,0.656544,-0.636602,0.622796,-0.658078,0.642738,-0.628932
1.8032,0.016756,0.000000,0.000000,0.003868,0.0000,0.0000,0.0000,-0.095877,0.095877,-0.000109,0.001896,0.000728,0.9378,-0.0908,0.0064,-0.093573,0.088971,0.000000,0.659612,-0.639670,0.624330,-0.659612,0.645806,-0.630466
1.8200,0.016748,0.000000,0.000000,0.003942,0.0000,0.0000,0.0000,-0.097537,0.097537,-0.000062,0.001991,0.000837,0.9917,-0.1165,-0.0007,-0.093573,0.090505,0.000000,0.662680,-0.642738,0.625864,-0.662680,0.648874,-0.632000
1.8367,0.016761,0.000000,0.000000,0.004015,0.0000,0.0000,0.0000,-0.099335,0.099335,-0.000052,0.001913,0.000984,1.0129,-0.0013,-0.1663,-0.090505,0.090505,0.000000,0.664214,-0.647340,0.630466,-0.667282,0.650408,-0.635068
1.8535,0.016746,0.000000,0.000000,0.004087,0.0000,0.0000,0.0000,-0.101264,0.101264,0.000032,0.001810,0.001092,0.9882,0.0196,-0.0387,-0.095107,0.092039,0.000000,0.665748,-0.650408,0.635068,-0.668816,0.653476,-0.636602
1.8705,0.017003,0.000000,0.000000,0.004161,0.0000,0.0000,0.0000,-0.103356,0.103356,-0.000059,0.001729,0.001240,0.9316,0.1538,0.1147,-0.101243,0.098175,0.000000,0.668816,-0.651942,0.641204,-0.671884,0.656544,-0.639670
1.8872,0.016748,0.000000,0.000000,0.004232,0.0000,0.0000,0.0000,-0.105544,0.105544,-0.000059,0.001729,0.001240,0.9316,0.1538,0.1147,-0.101243,0.098175,0.000000,0.668816,-0.651942,0.641204,-0.671884,0.656544,-0.639670
1.9040,0.016760,0.000000,0.000000,0.004304,0.0000,0.0000,0.0000,-0.107856,0.107856,-0.000048,0.001579,0.001396,1.0290,0.3057,0.2105,-0.101243,0.098175,0.000000,0.671884,-0.656544,0.648874,-0.674952,0.658078,-0.641204
1.9208,0.016750,0.000000,0.000000,0.004374,0.0000,0.0000,0.0000,-0.110284,0.110284,0.000063,0.001548,0.001500,1.1314,0.3858,0.2006,-0.101243,0.098175,0.000000,0.673418,-0.661146,0.653476,-0.678020,0.659612,-0.641204
1.9375,0.016747,0.000000,0.000000,0.004445,0.0000,0.0000,0.0000,-0.112826,0.112826,0.000066,0.001595,0.001608,1.1690,0.4958,0.4250,-0.107379,0.102777,0.000000,0.676486,-0.662680,0.658078,-0.681087,0.662680,-0.641204
1.9542,0.016750,0.000000,0.000000,0.004514,0.0000,0.0000,0.0000,-0.115478,0.115478,0.000218,0.001598,0.001716,1.2879,0.4332,0.5129,-0.108913,0.104311,0.000000,0.679553,-0.667282,0.661146,-0.682621,0.665748,-0.641204
1.9713,0.017031,0.000000,0.000000,0.004585,0.0000,0.0000,0.0000,-0.118281,0.118281,0.000216,0.001493,0.001789,1.3776,0.5543,0.5610,-0.108913,0.107379,0.000000,0.681087,-0.670350,0.665748,-0.684155,0.665748,-0.641204
1.9880,0.016751,0.000000,0.000000,0.004653,0.0000,0.0000,0.0000,-0.121139,0.121139,0.000216,0.001493,0.001789,1.3776,0.5543,0.5610,-0.108913,0.107379,0.000000,0.681087,-0.670350,0.665748,-0.684155,0.665748,-0.641204
2.0048,0.016751,0.000000,0.000000,0.004722,0.0000,0.0000,0.0000,-0.124091,0.124091,0.000145,0.001514,0.001853,1.4919,0.6273,0.6695,-0.113515,0.111981,0.000000,0.684155,-0.671884,0.668816,-0.685689,0.665748,-0.641204
2.0215,0.016745,0.000000,0.000000,0.004789,0.0000,0.0000,0.0000,-0.127132,0.127132,0.000153,0.001513,0.001918,1.4791,0.6192,0.6586,-0.118117,0.111981,0.000000,0.685689,-0.673418,0.670350,-0.687223,0.667282,-0.642738
2.0383,0.016745,0.000000,0.000000,0.004857,0.0000,0.0000,0.0000,-0.130257,0.130257,0.000195,0.001441,0.002008,1.5062,0.6340,0.6605,-0.119651,0.116583,0.000000,0.687223,-0.676486,0.673418,-0.688757,0.668816,-0.644272
2.0550,0.016751,0.000000,0.000000,0.004923,0.0000,0.0000,0.0000,-0.133461,0.133461,0.000289,0.001392,0.002106,1.4915,0.6130,0.7163,-0.121184,0.121184,0.000000,0.688757,-0.679553,0.676486,-0.690291,0.671884,-0.645806
2.0719,0.016922,0.000000,0.000000,0.004990,0.0000,0.0000,0.0000,-0.136772,0.136772,0.000321,0.001439,0.002154,1.5410,0.6316,0.7668,-0.124252,0.121184,0.000000,0.690291,-0.681087,0.678020,-0.691825,0.673418,-0.645806
2.0887,0.016764,0.000000,0.000000,0.005056,0.0000,0.0000,0.0000,-0.140119,0.140119,0.000321,0.001439,0.002154,1.5410,0.6316,0.7668,-0.124252,0.121184,0.000000,0.690291,-0.681087,0.678020,-0.691825,0.673418,-0.645806
2.1055,0.016747,0.000000,0.000000,0.005120,0.0000,0.0000,0.0000,-0.143524,0.143524,0.000190,0.001575,0.002206,1.6430,0.7499,0.8198,-0.133456,0.125786,0.000000,0.693359,-0.681087,0.679553,-0.694893,0.673418,-0.645806
2.1222,0.016746,0.000000,0.000000,0.005185,0.0000,0.0000,0.0000,-0.146983,0.146983,0.000133,0.001604,0.002235,1.6806,0.8223,0.8718,-0.134990,0.131922,0.000000,0.694893,-0.681087,0.681087,-0.696427,0.673418,-0.645806
2.1390,0.016758,0.000000,0.000000,0.005249,0.0000,0.0000,0.0000,-0.150494,0.150494,0.000197,0.001504,0.002353,1.6158,0.7779,0.8668,-0.134990,0.133456,0.000000,0.696427,-0.684155,0.684155,-0.697961,0.676486,-0.648874
2.1557,0.016749,0.000000,0.000000,0.005312,0.0000,0.0000,0.0000,-0.154046,0.154046,0.000217,0.001582,0.002446,1.7557,0.8486,0.9252,-0.136524,0.136524,0.000000,0.699495,-0.687223,0.687223,-0.701029,0.678020,-0.648874
2.1726,0.016850,0.000000,0.000000,0.005375,0.0000,0.0000,0.0000,-0.157656,0.157656,0.000327,0.001573,0.002531,1.7396,0.7722,0.9185,-0.145728,0.142660,0.000000,0.701029,-0.690291,0.688757,-0.702563,0.681087,-0.650408
2.1893,0.016747,0.000000,0.000000,0.005437,0.0000,0.0000,0.0000,-0.161273,0.161273,0.000327,0.001573,0.002531,1.7396,0.7722,0.9185,-0.145728,0.142660,0.000000,0.701029,-0.690291,0.688757,-0.702563,0.681087,-0.650408
2.2061,0.016749,0.000000,0.000000,0.005499,0.0000,0.0000,0.0000,-0.164915,0.164915,0.000288,0.001593,0.002665,1.7010,0.7128,0.8073,-0.154932,0.150330,0.000000,0.704097,-0.693359,0.690291,-0.705631,0.684155,-0.655010
2.2228,0.016747,0.000000,0.000000,0.005559,0.0000,0.0000,0.0000,-0.168573,0.168573,0.000146,0.001821,0.002777,1.7453,0.5620,0.7633,-0.154932,0.150330,0.000000,0.710233,-0.694893,0.688757,-0.708699,0.687223,-0.659612
2.2397,0.016919,0.000000,0.000000,0.005620,0.0000,0.0000,0.0000,-0.172279,0.172279,0.000006,0.001875,0.002859,1.7131,0.6306,0.7698,-0.162602,0.156466,0.000000,0.713301,-0.694893,0.690291,-0.711767,0.688757,-0.662680
2.2565,0.016747,0.000000,0.000000,0.005680,0.0000,0.0000,0.0000,-0.175952,0.175952,-0.000024,0.001960,0.002944,1.6507,0.4445,0.6558,-0.170272,0.165670,0.000000,0.716369,-0.696427,0.688757,-0.713301,0.691825,-0.667282
2.2732,0.016769,0.000000,0.000000,0.005739,0.0000,0.0000,0.0000,-0.179627,0.179627,-0.000050,0.002084,0.003038,1.6403,0.4000,0.6114,-0.171806,0.171806,0.000000,0.719437,-0.697961,0.688757,-0.716369,0.694893,-0.670350
2.2901,0.016846,0.000000,0.000000,0.005798,0.0000,0.0000,0.0000,-0.183310,0.183310,-0.000050,0.002084,0.003038,1.6403,0.4000,0.6114,-0.171806,0.171806,0.000000,0.719437,-0.697961,0.688757,-0.716369,0.694893,-0.670350
2.3069,0.016817,0.000000,0.000000,0.005855,0.0000,0.0000,0.0000,-0.186971,0.186971,-0.000050,0.002084,0.003038,1.6403,0.4000,0.6114,-0.171806,0.171806,0.000000,0.719437,-0.697961,0.688757,-0.716369,0.694893,-0.670350
2.3236,0.016741,0.000000,0.000000,0.005912,0.0000,0.0000,0.0000,-0.190593,0.190593,-0.000050,0.002084,0.003038,1.6403,0.4000,0.6114,-0.171806,0.171806,0.000000,0.719437,-0.697961,0.688757,-0.716369,0.694893,-0.670350
2.3404,0.016744,0.000000,0.000000,0.005969,0.0000,0.0000,0.0000,-0.194187,0.194187,-0.000419,0.002275,0.003259,1.4751,0.2215,0.6187,-0.179476,0.173340,0.000000,0.728641,-0.697961,0.688757,-0.720971,0.701029,-0.681087
2.3571,0.016742,0.000000,0.000000,0.006025,0.0000,0.0000,0.0000,-0.197746,0.197746,-0.000481,0.002314,0.003269,1.5037,0.2585,0.5623,-0.177942,0.173340,0.000000,0.730175,-0.697961,0.688757,-0.722505,0.701029,-0.682621
2.3739,0.016776,0.000000,0.000000,0.006080,0.0000,0.0000,0.0000,-0.201271,0.201271,-0.000481,0.002314,0.003269,1.5037,0.2585,0.5623,-0.177942,0.173340,0.000000,0.730175,-0.697961,0.688757,-0.722505,0.701029,-0.682621
2.3906,0.016743,0.000000,0.000000,0.006134,0.0000,0.0000,0.0000,-0.204742,0.204742,-0.000474,0.002344,0.003303,1.4269,0.2533,0.5113,-0.188680,0.179476,0.000000,0.730175,-0.697961,0.688757,-0.724039,0.702563,-0.684155
2.4074,0.016755,0.000000,0.000000,0.006188,0.0000,0.0000,0.0000,-0.208162,0.208162,-0.000402,0.002333,0.003336,1.3123,0.1719,0.5724,-0.200951,0.193282,0.000000,0.730175,-0.697961,0.688757,-0.724039,0.705631,-0.685689
2.4241,0.016744,0.000000,0.000000,0.006241,0.0000,0.0000,0.0000,-0.211520,0.211520,-0.000464,0.002271,0.003393,1.1919,0.2113,0.5095,-0.202485,0.204019,0.000000,0.730175,-0.697961,0.690291,-0.725573,0.707165,-0.688757
2.4412,0.017041,0.000000,0.000000,0.006294,0.0000,0.0000,0.0000,-0.214870,0.214870,-0.000427,0.002180,0.003424,1.1449,0.2731,0.6862,-0.204019,0.204019,0.000000,0.730175,-0.697961,0.693359,-0.725573,0.708699,-0.688757
2.4579,0.016749,0.000000,0.000000,0.006346,0.0000,0.0000,0.0000,-0.218091,0.218091,-0.000372,0.002192,0.003492,1.1497,0.3935,0.6678,-0.208621,0.207087,0.000000,0.730175,-0.699495,0.696427,-0.728641,0.710233,-0.688757
2.4747,0.016779,0.000000,0.000000,0.006397,0.0000,0.0000,0.0000,-0.221240,0.221240,-0.000372,0.002192,0.003492,1.1497,0.3935,0.6678,-0.208621,0.207087,0.000000,0.730175,-0.699495,0.696427,-0.728641,0.710233,-0.688757
2.4915,0.016749,0.000000,0.000000,0.006447,0.0000,0.0000,0.0000,-0.224301,0.224301,-0.000219,0.002136,0.003592,1.1375,0.4890,0.7263,-0.216291,0.210155,0.000000,0.730175,-0.702563,0.701029,-0.731709,0.713301,-0.688757
2.5082,0.016750,0.000000,0.000000,0.006496,0.0000,0.0000,0.0000,-0.227274,0.227274,-0.000151,0.002077,0.003699,1.2845,0.5101,0.8353,-0.216291,0.216291,0.000000,0.733243,-0.707165,0.705631,-0.733243,0.714835,-0.688757
2.5250,0.016749,0.000000,0.000000,0.006545,0.0000,0.0000,0.0000,-0.230153,0.230153,-0.000045,0.002002,0.003841,1.4513,0.6007,0.8827,-0.216291,0.219359,0.000000,0.736311,-0.713301,0.711767,-0.736311,0.716369,-0.688757
2.5417,0.016758,0.000000,0.000000,0.006593,0.0000,0.0000,0.0000,-0.232935,0.232935,0.000116,0.001978,0.003884,1.5070,0.6506,0.9347,-0.225495,0.223961,0.000000,0.736311,-0.716369,0.714835,-0.737845,0.717903,-0.687223
2.5585,0.016746,0.000000,0.000000,0.006640,0.0000,0.0000,0.0000,-0.235611,0.235611,0.000129,0.001850,0.003987,1.5149,0.7065,0.9879,-0.233165,0.231631,0.000000,0.737845,-0.719437,0.719437,-0.739379,0.719437,-0.688757
2.5752,0.016754,0.000000,0.000000,0.006687,0.0000,0.0000,0.0000,-0.238181,0.238181,0.000129,0.001850,0.003987,1.5149,0.7065,0.9879,-0.233165,0.231631,0.000000,0.737845,-0.719437,0.719437,-0.739379,0.719437,-0.688757
2.5920,0.016759,0.000000,0.000000,0.006733,0.0000,0.0000,0.0000,-0.240638,0.240638,0.000187,0.001716,0.004049,1.5651,0.8236,0.9840,-0.233165,0.231631,0.000000,0.737845,-0.722505,0.724039,-0.740913,0.719437,-0.688757
2.6087,0.016748,0.000000,0.000000,0.006778,0.0000,0.0000,0.0000,-0.242977,0.242977,0.000236,0.001679,0.004123,1.6685,0.7799,1.1568,-0.231631,0.230097,0.000000,0.740913,-0.725573,0.727107,-0.740913,0.720971,-0.688757
2.6255,0.016746,0.000000,0.000000,0.006822,0.0000,0.0000,0.0000,-0.245194,0.245194,0.000285,0.001750,0.004195,1.7880,0.7531,1.1967,-0.237767,0.236233,0.000000,0.743981,-0.728641,0.728641,-0.742447,0.722505,-0.688757
2.6422,0.016751,0.000000,0.000000,0.006866,0.0000,0.0000,0.0000,-0.247287,0.247287,0.000251,0.001711,0.004245,1.8480,0.8525,1.2519,-0.242369,0.240835,0.000000,0.745515,-0.730175,0.731709,-0.743981,0.722505,-0.688757
2.6590,0.016753,0.000000,0.000000,0.006909,0.0000,0.0000,0.0000,-0.249251,0.249251,0.000170,0.001702,0.004252,1.8783,0.9706,1.1912,-0.242369,0.240835,0.000000,0.745515,-0.730175,0.733243,-0.745515,0.720971,-0.688757
2.6757,0.016763,0.000000,0.000000,0.006951,0.0000,0.0000,0.0000,-0.251083,0.251083,0.000170,0.001702,0.004252,1.8783,0.9706,1.1912,-0.242369,0.240835,0.000000,0.745515,-0.730175,0.733243,-0.745515,0.720971,-0.688757
2.6925,0.016748,0.000000,0.000000,0.006992,0.0000,0.0000,0.0000,-0.252779,0.252779,0.000118,0.001771,0.004306,2.0054,0.9944,1.2570,-0.243903,0.243903,0.000000,0.748583,-0.731709,0.734777,-0.747049,0.720971,-0.688757
2.7092,0.016747,0.000000,0.000000,0.007033,0.0000,0.0000,0.0000,-0.254335,0.254335,0.000123,0.001764,0.004334,1.9916,0.9946,1.4223,-0.246971,0.245437,0.000000,0.750117,-0.731709,0.736311,-0.747049,0.722505,-0.688757
2.7260,0.016746,0.000000,0.000000,0.007072,0.0000,0.0000,0.0000,-0.255750,0.255750,0.000076,0.001773,0.004343,2.1126,0.9803,1.3493,-0.250039,0.250039,0.000000,0.751651,-0.733243,0.736311,-0.747049,0.720971,-0.688757
2.7427,0.016752,0.000000,0.000000,0.007111,0.0000,0.0000,0.0000,-0.257022,0.257022,0.000125,0.001848,0.004364,2.0745,0.9970,1.3563,-0.251573,0.251573,0.000000,0.751651,-0.733243,0.736311,-0.748583,0.722505,-0.688757
2.7595,0.016758,0.000000,0.000000,0.007150,0.0000,0.0000,0.0000,-0.258148,0.258148,0.000074,0.001849,0.004372,2.1980,0.9811,1.2997,-0.253107,0.251573,0.000000,0.753185,-0.734777,0.736311,-0.748583,0.720971,-0.688757
2.7762,0.016755,0.000000,0.000000,0.007187,0.0000,0.0000,0.0000,-0.259125,0.259125,0.000074,0.001849,0.004372,2.1980,0.9811,1.2997,-0.253107,0.251573,0.000000,0.753185,-0.734777,0.736311,-0.748583,0.720971,-0.688757
2.7930,0.016750,0.000000,0.000000,0.007224,0.0000,0.0000,0.0000,-0.259953,0.259953,0.000089,0.001991,0.004425,2.2894,0.9389,1.3633,-0.256175,0.256175,0.000000,0.756253,-0.736311,0.736311,-0.750117,0.722505,-0.688757
2.8098,0.016762,0.000000,0.000000,0.007259,0.0000,0.0000,0.0000,-0.260629,0.260629,0.000027,0.002044,0.004441,2.4104,0.9770,1.2441,-0.256175,0.256175,0.000000,0.757787,-0.737845,0.736311,-0.751651,0.720971,-0.688757
2.8265,0.016745,0.000000,0.000000,0.007294,0.0000,0.0000,0.0000,-0.261152,0.261152,-0.000096,0.001998,0.004476,2.3483,0.9268,1.2004,-0.257709,0.256175,0.000000,0.759320,-0.737845,0.736311,-0.751651,0.720971,-0.691825
2.8433,0.016750,0.000000,0.000000,0.007329,0.0000,0.0000,0.0000,-0.261522,0.261522,-0.000097,0.002064,0.004552,2.3643,0.9789,1.1489,-0.260777,0.260777,0.000000,0.760854,-0.739379,0.737845,-0.754719,0.722505,-0.693359
2.8603,0.016999,0.000000,0.000000,0.007362,0.0000,0.0000,0.0000,-0.261739,0.261739,-0.000288,0.001982,0.004650,2.3828,0.8001,0.9840,-0.260777,0.259243,0.000000,0.765456,-0.742447,0.737845,-0.754719,0.722505,-0.699495
2.8770,0.016760,0.000000,0.000000,0.007395,0.0000,0.0000,0.0000,-0.261798,0.261798,-0.000288,0.001982,0.004650,2.3828,0.8001,0.9840,-0.260777,0.259243,0.000000,0.765456,-0.742447,0.737845,-0.754719,0.722505,-0.699495
2.8938,0.016754,0.000000,0.000000,0.007427,0.0000,0.0000,0.0000,-0.261702,0.261702,-0.000368,0.001935,0.004710,2.3680,0.8338,0.8884,-0.260777,0.259243,0.000000,0.766990,-0.743981,0.739379,-0.756253,0.722505,-0.702563
2.9105,0.016752,0.000000,0.000000,0.007458,0.0000,0.0000,0.0000,-0.261452,0.261452,-0.000648,0.001944,0.004796,2.3683,0.8315,0.5574,-0.260777,0.260777,0.000000,0.770058,-0.745515,0.739379,-0.759320,0.720971,-0.708699
2.9273,0.016748,0.000000,0.000000,0.007488,0.0000,0.0000,0.0000,-0.261048,0.261048,-0.000664,0.001987,0.004900,2.4132,0.8151,0.4781,-0.260777,0.260777,0.000000,0.773126,-0.748583,0.740913,-0.762388,0.722505,-0.711767
2.9440,0.016762,0.000000,0.000000,0.007517,0.0000,0.0000,0.0000,-0.260489,0.260489,-0.000793,0.001908,0.004925,2.4331,0.7695,0.3154,-0.260777,0.260777,0.000000,0.774660,-0.750117,0.740913,-0.762388,0.720971,-0.714835
2.9609,0.016821,0.000000,0.000000,0.007545,0.0000,0.0000,0.0000,-0.259776,0.259776,-0.000750,0.001831,0.004971,2.3349,0.6747,0.2151,-0.260777,0.260777,0.000000,0.774660,-0.751651,0.740913,-0.762388,0.722505,-0.717903
2.9776,0.016755,0.000000,0.000000,0.007573,0.0000,0.0000,0.0000,-0.258914,0.258914,-0.000750,0.001831,0.004971,2.3349,0.6747,0.2151,-0.260777,0.260777,0.000000,0.774660,-0.751651,0.740913,-0.762388,0.722505,-0.717903
2.9944,0.016753,0.000000,0.000000,0.007600,0.0000,0.0000,0.0000,-0.257902,0.257902,-0.000736,0.001695,0.004993,2.2399,0.6305,-0.0061,-0.260777,0.260777,0.000000,0.773126,-0.753185,0.740913,-0.762388,0.722505,-0.720971
3.0111,0.016758,0.000000,0.000000,0.007626,0.0000,0.0000,0.0000,-0.256742,0.256742,-0.000868,0.001621,0.005048,2.3111,0.7480,-0.0370,-0.260777,0.260777,0.000000,0.774660,-0.754719,0.743981,-0.763922,0.720971,-0.722505
3.0280,0.016845,0.000000,0.000000,0.007651,0.0000,0.0000,0.0000,-0.255430,0.255430,-0.000866,0.001606,0.005123,2.2205,0.7786,-0.2071,-0.260777,0.259243,0.000000,0.774660,-0.756253,0.745515,-0.766990,0.722505,-0.725573
3.0447,0.016751,0.000000,0.000000,0.007675,0.0000,0.0000,0.0000,-0.253981,0.253981,-0.000677,0.001549,0.005198,2.2148,0.7852,-0.1336,-0.259243,0.259243,0.000000,0.774660,-0.759320,0.748583,-0.768524,0.725573,-0.725573
3.0615,0.016766,0.000000,0.000000,0.007698,0.0000,0.0000,0.0000,-0.252389,0.252389,-0.000694,0.001506,0.005295,2.0458,0.7844,0.0303,-0.259243,0.257709,0.000000,0.776194,-0.759320,0.751651,-0.770058,0.730175,-0.728641
3.0782,0.016757,0.000000,0.000000,0.007721,0.0000,0.0000,0.0000,-0.250661,0.250661,-0.000694,0.001506,0.005295,2.0458,0.7844,0.0303,-0.259243,0.257709,0.000000,0.776194,-0.759320,0.751651,-0.770058,0.730175,-0.728641
3.0950,0.016757,0.000000,0.000000,0.007742,0.0000,0.0000,0.0000,-0.248797,0.248797,-0.000664,0.001648,0.005351,2.0483,0.8477,0.1284,-0.259243,0.256175,0.000000,0.777728,-0.759320,0.753185,-0.773126,0.733243,-0.728641
3.1117,0.016754,0.000000,0.000000,0.007763,0.0000,0.0000,0.0000,-0.246802,0.246802,-0.000463,0.001666,0.005415,1.9730,0.8040,0.2307,-0.257709,0.256175,0.000000,0.777728,-0.760854,0.754719,-0.774660,0.737845,-0.728641
3.1285,0.016745,0.000000,0.000000,0.007783,0.0000,0.0000,0.0000,-0.244680,0.244680,-0.000427,0.001799,0.005451,1.9656,0.7779,0.3344,-0.256175,0.256175,0.000000,0.779262,-0.760854,0.754719,-0.776194,0.740913,-0.728641
3.1452,0.016716,0.000000,0.000000,0.007802,0.0000,0.0000,0.0000,-0.242438,0.242438,-0.000301,0.001875,0.005492,1.9029,0.6714,0.5523,-0.256175,0.254641,0.000000,0.780796,-0.760854,0.754719,-0.776194,0.745515,-0.728641
3.1621,0.016859,0.000000,0.000000,0.007820,0.0000,0.0000,0.0000,-0.240055,0.240055,-0.000141,0.001882,0.005522,1.8719,0.5837,0.5850,-0.256175,0.254641,0.000000,0.780796,-0.762388,0.754719,-0.776194,0.748583,-0.728641
3.1788,0.016751,0.000000,0.000000,0.007838,0.0000,0.0000,0.0000,-0.237571,0.237571,-0.000141,0.001882,0.005522,1.8719,0.5837,0.5850,-0.256175,0.254641,0.000000,0.780796,-0.762388,0.754719,-0.776194,0.748583,-0.728641
3.1956,0.016742,0.000000,0.000000,0.007854,0.0000,0.0000,0.0000,-0.234977,0.234977,-0.000040,0.001914,0.005541,1.8028,0.5283,0.6956,-0.256175,0.254641,0.000000,0.780796,-0.762388,0.754719,-0.776194,0.751651,-0.728641
3.2123,0.016747,0.000000,0.000000,0.007870,0.0000,0.0000,0.0000,-0.232275,0.232275,-0.000108,0.001928,0.005528,1.7749,0.5683,0.7423,-0.256175,0.254641,0.000000,0.780796,-0.760854,0.754719,-0.776194,0.751651,-0.728641
3.2291,0.016742,0.000000,0.000000,0.007884,0.0000,0.0000,0.0000,-0.229471,0.229471,-0.000101,0.001927,0.005529,1.7778,0.5642,0.7375,-0.256175,0.254641,0.000000,0.780796,-0.760854,0.754719,-0.776194,0.751651,-0.728641
3.2458,0.016742,0.000000,0.000000,0.007898,0.0000,0.0000,0.0000,-0.226571,0.226571,-0.000045,0.001909,0.005541,1.8126,0.5304,0.6797,-0.254641,0.253107,0.000000,0.780796,-0.762388,0.754719,-0.776194,0.751651,-0.728641
3.2625,0.016747,0.000000,0.000000,0.007911,0.0000,0.0000,0.0000,-0.223577,0.223577,-0.000050,0.001911,0.005540,1.8090,0.5339,0.6857,-0.248505,0.248505,0.000000,0.780796,-0.762388,0.754719,-0.776194,0.751651,-0.728641
3.2793,0.016750,0.000000,0.000000,0.007923,0.0000,0.0000,0.0000,-0.220496,0.220496,-0.000050,0.001911,0.005540,1.8090,0.5339,0.6857,-0.248505,0.248505,0.000000,0.780796,-0.762388,0.754719,-0.776194,0.751651,-0.728641
3.2960,0.016751,0.000000,0.000000,0.007934,0.0000,0.0000,0.0000,-0.217333,0.217333,-0.000050,0.001911,0.005540,1.8090,0.5339,0.6857,-0.239301,0.243903,0.000000,0.780796,-0.762388,0.754719,-0.776194,0.751651,-0.728641
3.3128,0.016745,0.000000,0.000000,0.007945,0.0000,0.0000,0.0000,-0.214095,0.214095,-0.000107,0.001929,0.005528,1.7743,0.5678,0.7434,-0.230097,0.234699,0.000000,0.780796,-0.760854,0.754719,-0.776194,0.751651,-0.728641
3.3295,0.016747,0.000000,0.000000,0.007954,0.0000,0.0000,0.0000,-0.210787,0.210787,-0.000044,0.001909,0.005541,1.8130,0.5300,0.6791,-0.223961,0.230097,0.000000,0.780796,-0.762388,0.754719,-0.776194,0.751651,-0.728641
3.3463,0.016767,0.000000,0.000000,0.007963,0.0000,0.0000,0.0000,-0.207411,0.207411,-0.000044,0.001909,0.005541,1.8130,0.5300,0.6791,-0.223961,0.230097,0.000000,0.780796,-0.762388,0.754719,-0.776194,0.751651,-0.728641
3.3631,0.016832,0.000000,0.000000,0.007970,0.0000,0.0000,0.0000,-0.203963,0.203963,-0.000044,0.001909,0.005541,1.8130,0.5300,0.6791,-0.223961,0.230097,0.000000,0.780796,-0.762388,0.754719,-0.776194,0.751651,-0.728641
3.3799,0.016756,0.000000,0.000000,0.007977,0.0000,0.0000,0.0000,-0.200478,0.200478,-0.000044,0.001909,0.005541,1.8130,0.5300,0.6791,-0.223961,0.230097,0.000000,0.780796,-0.762388,0.754719,-0.776194,0.751651,-0.728641
3.3966,0.016745,0.000000,0.000000,0.007983,0.0000,0.0000,0.0000,-0.196950,0.196950,-0.000065,0.001971,0.005550,1.8203,0.5807,0.6282,-0.213223,0.225495,0.000000,0.780796,-0.762388,0.754719,-0.777728,0.751651,-0.728641
3.4134,0.016743,0.000000,0.000000,0.007988,0.0000,0.0000,0.0000,-0.193382,0.193382,-0.000077,0.002025,0.005559,1.8309,0.6222,0.5760,-0.214757,0.225495,0.000000,0.780796,-0.762388,0.754719,-0.779262,0.751651,-0.728641
3.4301,0.016741,0.000000,0.000000,0.007992,0.0000,0.0000,0.0000,-0.189781,0.189781,-0.000076,0.002020,0.005558,1.8298,0.6178,0.5814,-0.213223,0.223961,0.000000,0.780796,-0.762388,0.754719,-0.779262,0.751651,-0.728641
3.4469,0.016747,0.000000,0.000000,0.007996,0.0000,0.0000,0.0000,-0.186152,0.186152,-0.000076,0.002020,0.005558,1.8298,0.6178,0.5814,-0.213223,0.223961,0.000000,0.780796,-0.762388,0.754719,-0.779262,0.751651,-0.728641
3.4636,0.016746,0.000000,0.000000,0.007998,0.0000,0.0000,0.0000,-0.182503,0.182503,-0.000076,0.002020,0.005558,1.8298,0.6178,0.5814,-0.207087,0.219359,0.000000,0.780796,-0.762388,0.754719,-0.779262,0.751651,-0.728641
3.4804,0.016745,0.000000,0.000000,0.007999,0.0000,0.0000,0.0000,-0.178840,0.178840,-0.000076,0.002020,0.005558,1.8298,0.6178,0.5814,-0.200951,0.210155,0.000000,0.780796,-0.762388,0.754719,-0.779262,0.751651,-0.728641
3.4971,0.016741,0.000000,0.000000,0.008000,0.0000,0.0000,0.0000,-0.175170,0.175170,-0.000076,0.002020,0.005558,1.8298,0.6178,0.5814,-0.194816,0.199418,0.000000,0.780796,-0.762388,0.754719,-0.779262,0.751651,-0.728641
3.5138,0.016742,0.000000,0.000000,0.008000,0.0000,0.0000,0.0000,-0.171499,0.171499,-0.000076,0.002020,0.005558,1.8298,0.6178,0.5814,-0.188680,0.193282,0.000000,0.780796,-0.762388,0.754719,-0.779262,0.751651,-0.728641
3.5306,0.016743,0.000000,0.000000,0.007999,0.0000,0.0000,0.0000,-0.167832,0.167832,-0.000076,0.002020,0.005558,1.8298,0.6178,0.5814,-0.181010,0.185612,0.000000,0.780796,-0.762388,0.754719,-0.779262,0.751651,-0.728641
3.5473,0.016703,0.000000,0.000000,0.007996,0.0000,0.0000,0.0000,-0.164187,0.164187,-0.000076,0.002020,0.005558,1.8298,0.6178,0.5814,-0.181010,0.185612,0.000000,0.780796,-0.762388,0.754719,-0.779262,0.751651,-0.728641
3.5640,0.016747,0.000000,0.000000,0.007994,0.0000,0.0000,0.0000,-0.160550,0.160550,-0.000076,0.002020,0.005558,1.8298,0.6178,0.5814,-0.177942,0.179476,0.000000,0.780796,-0.762388,0.754719,-0.779262,0.751651,-0.728641
3.5808,0.016743,0.000000,0.000000,0.007990,0.0000,0.0000,0.0000,-0.156939,0.156939,-0.000076,0.002020,0.005558,1.8298,0.6178,0.5814,-0.177942,0.171806,0.000000,0.780796,-0.762388,0.754719,-0.779262,0.751651,-0.728641
3.5975,0.016746,0.000000,0.000000,0.007985,0.0000,0.0000,0.0000,-0.153358,0.153358,-0.000076,0.002020,0.005558,1.8298,0.6178,0.5814,-0.176408,0.170272,0.000000,0.780796,-0.762388,0.754719,-0.779262,0.751651,-0.728641
3.6143,0.016744,0.000000,0.000000,0.007979,0.0000,0.0000,0.0000,-0.149815,0.149815,-0.000076,0.002020,0.005558,1.8298,0.6178,0.5814,-0.173340,0.168738,0.000000,0.780796,-0.762388,0.754719,-0.779262,0.751651,-0.728641
3.6310,0.016749,0.000000,0.000000,0.007973,0.0000,0.0000,0.0000,-0.146315,0.146315,-0.000076,0.002020,0.005558,1.8298,0.6178,0.5814,-0.170272,0.167204,0.000000,0.780796,-0.762388,0.754719,-0.779262,0.751651,-0.728641
3.6478,0.016743,0.000000,0.000000,0.007966,0.0000,0.0000,0.0000,-0.142866,0.142866,-0.000076,0.002020,0.005558,1.8298,0.6178,0.5814,-0.170272,0.167204,0.000000,0.780796,-0.762388,0.754719,-0.779262,0.751651,-0.728641
3.6645,0.016745,0.000000,0.000000,0.007957,0.0000,0.0000,0.0000,-0.139473,0.139473,-0.000076,0.002020,0.005558,1.8298,0.6178,0.5814,-0.161068,0.162602,0.000000,0.780796,-0.762388,0.754719,-0.779262,0.751651,-0.728641
3.6812,0.016742,0.000000,0.000000,0.007948,0.0000,0.0000,0.0000,-0.136142,0.136142,-0.000076,0.002020,0.005558,1.8298,0.6178,0.5814,-0.153398,0.156466,0.000000,0.780796,-0.762388,0.754719,-0.779262,0.751651,-0.728641
3.6980,0.016743,0.000000,0.000000,0.007938,0.0000,0.0000,0.0000,-0.132880,0.132880,-0.000076,0.002020,0.005558,1.8298,0.6178,0.5814,-0.148796,0.150330,0.000000,0.780796,-0.762388,0.754719,-0.779262,0.751651,-0.728641
3.7147,0.016748,0.000000,0.000000,0.007927,0.0000,0.0000,0.0000,-0.129690,0.129690,-0.000076,0.002020,0.005558,1.8298,0.6178,0.5814,-0.148796,0.144194,0.000000,0.780796,-0.762388,0.754719,-0.779262,0.751651,-0.728641
3.7318,0.017038,0.000000,0.000000,0.007915,0.0000,0.0000,0.0000,-0.126526,0.126526,-0.000076,0.002020,0.005558,1.8298,0.6178,0.5814,-0.147262,0.141126,0.000000,0.780796,-0.762388,0.754719,-0.779262,0.751651,-0.728641
3.7485,0.016744,0.000000,0.000000,0.007903,0.0000,0.0000,0.0000,-0.123503,0.123503,-0.000076,0.002020,0.005558,1.8298,0.6178,0.5814,-0.147262,0.141126,0.000000,0.780796,-0.762388,0.754719,-0.779262,0.751651,-0.728641
3.7653,0.016772,0.000000,0.000000,0.007889,0.0000,0.0000,0.0000,-0.120565,0.120565,-0.000076,0.002020,0.005558,1.8298,0.6178,0.5814,-0.145728,0.138058,0.000000,0.780796,-0.762388,0.754719,-0.779262,0.751651,-0.728641
3.7820,0.016748,0.000000,0.000000,0.007875,0.0000,0.0000,0.0000,-0.117727,0.117727,-0.000076,0.002020,0.005558,1.8298,0.6178,0.5814,-0.144194,0.133456,0.000000,0.780796,-0.762388,0.754719,-0.779262,0.751651,-0.728641
3.7988,0.016748,0.000000,0.000000,0.007859,0.0000,0.0000,0.0000,-0.114990,0.114990,-0.000076,0.002020,0.005558,1.8298,0.6178,0.5814,-0.134990,0.127320,0.000000,0.780796,-0.762388,0.754719,-0.779262,0.751651,-0.728641
3.8155,0.016747,0.000000,0.000000,0.007843,0.0000,0.0000,0.0000,-0.112358,0.112358,-0.000076,0.002020,0.005558,1.8298,0.6178,0.5814,-0.125786,0.122718,0.000000,0.780796,-0.762388,0.754719,-0.779262,0.751651,-0.728641
3.8323,0.016757,0.000000,0.000000,0.007826,0.0000,0.0000,0.0000,-0.109835,0.109835,-0.000076,0.002020,0.005558,1.8298,0.6178,0.5814,-0.118117,0.118117,0.000000,0.780796,-0.762388,0.754719,-0.779262,0.751651,-0.728641
3.8490,0.016742,0.000000,0.000000,0.007808,0.0000,0.0000,0.0000,-0.107429,0.107429,-0.000076,0.002020,0.005558,1.8298,0.6178,0.5814,-0.118117,0.118117,0.000000,0.780796,-0.762388,0.754719,-0.779262,0.751651,-0.728641
3.8658,0.016758,0.000000,0.000000,0.007790,0.0000,0.0000,0.0000,-0.105139,0.105139,-0.000076,0.002020,0.005558,1.8298,0.6178,0.5814,-0.115049,0.115049,0.000000,0.780796,-0.762388,0.754719,-0.779262,0.751651,-0.728641
3.8825,0.016746,0.000000,0.000000,0.007770,0.0000,0.0000,0.0000,-0.102974,0.102974,-0.000076,0.002020,0.005558,1.8298,0.6178,0.5814,-0.111981,0.113515,0.000000,0.780796,-0.762388,0.754719,-0.779262,0.751651,-0.728641
3.8995,0.016917,0.000000,0.000000,0.007749,0.0000,0.0000,0.0000,-0.100916,0.100916,-0.000076,0.002020,0.005558,1.8298,0.6178,0.5814,-0.110447,0.111981,0.000000,0.780796,-0.762388,0.754719,-0.779262,0.751651,-0.728641
3.9162,0.016753,0.000000,0.000000,0.007728,0.0000,0.0000,0.0000,-0.099009,0.099009,-0.000076,0.002020,0.005558,1.8298,0.6178,0.5814,-0.107379,0.107379,0.000000,0.780796,-0.762388,0.754719,-0.779262,0.751651,-0.728641
3.9330,0.016765,0.000000,0.000000,0.007706,0.0000,0.0000,0.0000,-0.097234,0.097234,-0.000076,0.002020,0.005558,1.8298,0.6178,0.5814,-0.105845,0.101243,0.000000,0.780796,-0.762388,0.754719,-0.779262,0.751651,-0.728641
3.9497,0.016745,0.000000,0.000000,0.007683,0.0000,0.0000,0.0000,-0.095598,0.095598,-0.000076,0.002020,0.005558,1.8298,0.6178,0.5814,-0.105845,0.101243,0.000000,0.780796,-0.762388,0.754719,-0.779262,0.751651,-0.728641
3.9665,0.016748,0.000000,0.000000,0.007659,0.0000,0.0000,0.0000,-0.094102,0.094102,-0.000076,0.002020,0.005558,1.8298,0.6178,0.5814,-0.102777,0.096641,0.000000,0.780796,-0.762388,0.754719,-0.779262,0.751651,-0.728641
3.9832,0.016746,0.000000,0.000000,0.007634,0.0000,0.0000,0.0000,-0.092749,0.092749,-0.000076,0.002020,0.005558,1.8298,0.6178,0.5814,-0.102777,0.096641,0.000000,0.780796,-0.762388,0.754719,-0.779262,0.751651,-0.728641
4.0000,0.016765,0.000000,0.000000,0.007608,0.0000,0.0000,0.0000,-0.091539,0.091539,-0.000076,0.002020,0.005558,1.8298,0.6178,0.5814,-0.099709,0.096641,0.000000,0.780796,-0.762388,0.754719,-0.779262,0.751651,-0.728641
4.0167,0.016741,0.000000,0.000000,0.007582,0.0000,0.0000,0.0000,-0.090478,0.090478,-0.000076,0.002020,0.005558,1.8298,0.6178,0.5814,-0.096641,0.093573,0.000000,0.780796,-0.762388,0.754719,-0.779262,0.751651,-0.728641
4.0335,0.016767,0.000000,0.000000,0.007555,0.0000,0.0000,0.0000,-0.089565,0.089565,-0.000076,0.002020,0.005558,1.8298,0.6178,0.5814,-0.096641,0.093573,0.000000,0.780796,-0.762388,0.754719,-0.779262,0.751651,-0.728641
4.0502,0.016740,0.000000,0.000000,0.007527,0.0000,0.0000,0.0000,-0.088803,0.088803,-0.000076,0.002020,0.005558,1.8298,0.6178,0.5814,-0.093573,0.090505,0.000000,0.780796,-0.762388,0.754719,-0.779262,0.751651,-0.728641
4.0670,0.016759,0.000000,0.000000,0.007498,0.0000,0.0000,0.0000,-0.088193,0.088193,-0.000076,0.002020,0.005558,1.8298,0.6178,0.5814,-0.092039,0.090505,0.000000,0.780796,-0.762388,0.754719,-0.779262,0.751651,-0.728641
4.0837,0.016740,0.000000,0.000000,0.007468,0.0000,0.0000,0.0000,-0.087736,0.087736,-0.000076,0.002020,0.005558,1.8298,0.6178,0.5814,-0.092039,0.090505,0.000000,0.780796,-0.762388,0.754719,-0.779262,0.751651,-0.728641
4.1005,0.016762,0.000000,0.000000,0.007437,0.0000,0.0000,0.0000,-0.087432,0.087432,-0.000076,0.002020,0.005558,1.8298,0.6178,0.5814,-0.090505,0.090505,0.000000,0.780796,-0.762388,0.754719,-0.779262,0.751651,-0.728641
4.1172,0.016745,0.000000,0.000000,0.007406,0.0000,0.0000,0.0000,-0.087283,0.087283,-0.000076,0.002020,0.005558,1.8298,0.6178,0.5814,-0.087437,0.088971,0.000000,0.780796,-0.762388,0.754719,-0.779262,0.751651,-0.728641
4.1340,0.016774,0.000000,0.000000,0.007374,0.0000,0.0000,0.0000,-0.087289,0.087289,-0.000076,0.002020,0.005558,1.8298,0.6178,0.5814,-0.087437,0.088971,0.000000,0.780796,-0.762388,0.754719,-0.779262,0.751651,-0.728641
4.1508,0.016764,0.000000,0.000000,0.007341,0.0000,0.0000,0.0000,-0.087449,0.087449,-0.000076,0.002020,0.005558,1.8298,0.6178,0.5814,-0.087437,0.088971,0.000000,0.780796,-0.762388,0.754719,-0.779262,0.751651,-0.728641
4.1675,0.016760,0.000000,0.000000,0.007307,0.0000,0.0000,0.0000,-0.087764,0.087764,-0.000076,0.002020,0.005558,1.8298,0.6178,0.5814,-0.088971,0.088971,0.000000,0.780796,-0.762388,0.754719,-0.779262,0.751651,-0.728641
4.1843,0.016770,0.000000,0.000000,0.007272,0.0000,0.0000,0.0000,-0.088234,0.088234,-0.000076,0.002020,0.005558,1.8298,0.6178,0.5814,-0.087437,0.088971,0.000000,0.780796,-0.762388,0.754719,-0.779262,0.751651,-0.728641
4.2012,0.016854,0.000000,0.000000,0.007236,0.0000,0.0000,0.0000,-0.088860,0.088860,-0.000076,0.002020,0.005558,1.8298,0.6178,0.5814,-0.087437,0.088971,0.000000,0.780796,-0.762388,0.754719,-0.779262,0.751651,-0.728641
4.2179,0.016751,0.000000,0.000000,0.007200,0.0000,0.0000,0.0000,-0.089634,0.089634,-0.000076,0.002020,0.005558,1.8298,0.6178,0.5814,-0.087437,0.088971,0.000000,0.780796,-0.762388,0.754719,-0.779262,0.751651,-0.728641
4.2347,0.016760,0.000000,0.000000,0.007163,0.0000,0.0000,0.0000,-0.090560,0.090560,-0.000076,0.002020,0.005558,1.8298,0.6178,0.5814,-0.087437,0.088971,0.000000,0.780796,-0.762388,0.754719,-0.779262,0.751651,-0.728641
4.2514,0.016754,0.000000,0.000000,0.007125,0.0000,0.0000,0.0000,-0.091634,0.091634,-0.000076,0.002020,0.005558,1.8298,0.6178,0.5814,-0.087437,0.088971,0.000000,0.780796,-0.762388,0.754719,-0.779262,0.751651,-0.728641
4.2682,0.016765,0.000000,0.000000,0.007086,0.0000,0.0000,0.0000,-0.092856,0.092856,-0.000076,0.002020,0.005558,1.8298,0.6178,0.5814,-0.087437,0.088971,0.000000,0.780796,-0.762388,0.754719,-0.779262,0.751651,-0.728641
4.2849,0.016755,0.000000,0.000000,0.007047,0.0000,0.0000,0.0000,-0.094222,0.094222,-0.000076,0.002020,0.005558,1.8298,0.6178,0.5814,-0.088971,0.088971,0.000000,0.780796,-0.762388,0.754719,-0.779262,0.751651,-0.728641
4.3017,0.016769,0.000000,0.000000,0.007006,0.0000,0.0000,0.0000,-0.095732,0.095732,-0.000076,0.002020,0.005558,1.8298,0.6178,0.5814,-0.090505,0.088971,0.000000,0.780796,-0.762388,0.754719,-0.779262,0.751651,-0.728641
4.3185,0.016758,0.000000,0.000000,0.006965,0.0000,0.0000,0.0000,-0.097380,0.097380,-0.000076,0.002020,0.005558,1.8298,0.6178,0.5814,-0.093573,0.092039,0.000000,0.780796,-0.762388,0.754719,-0.779262,0.751651,-0.728641
4.3352,0.016758,0.000000,0.000000,0.006923,0.0000,0.0000,0.0000,-0.099166,0.099166,-0.000076,0.002020,0.005558,1.8298,0.6178,0.5814,-0.093573,0.092039,0.000000,0.780796,-0.762388,0.754719,-0.779262,0.751651,-0.728641
4.3520,0.016752,0.000000,0.000000,0.006881,0.0000,0.0000,0.0000,-0.101084,0.101084,-0.000076,0.002020,0.005558,1.8298,0.6178,0.5814,-0.093573,0.093573,0.000000,0.780796,-0.762388,0.754719,-0.779262,0.751651,-0.728641
4.3687,0.016759,0.000000,0.000000,0.006838,0.0000,0.0000,0.0000,-0.103134,0.103134,-0.000076,0.002020,0.005558,1.8298,0.6178,0.5814,-0.095107,0.092039,0.000000,0.780796,-0.762388,0.754719,-0.779262,0.751651,-0.728641
4.3855,0.016763,0.000000,0.000000,0.006793,0.0000,0.0000,0.0000,-0.105310,0.105310,-0.000076,0.002020,0.005558,1.8298,0.6178,0.5814,-0.099709,0.096641,0.000000,0.780796,-0.762388,0.754719,-0.779262,0.751651,-0.728641
4.4024,0.016875,0.000000,0.000000,0.006748,0.0000,0.0000,0.0000,-0.107625,0.107625,-0.000076,0.002020,0.005558,1.8298,0.6178,0.5814,-0.099709,0.096641,0.000000,0.780796,-0.762388,0.754719,-0.779262,0.751651,-0.728641
4.4192,0.016791,0.000000,0.000000,0.006703,0.0000,0.0000,0.0000,-0.110049,0.110049,-0.000076,0.002020,0.005558,1.8298,0.6178,0.5814,-0.099709,0.096641,0.000000,0.780796,-0.762388,0.754719,-0.779262,0.751651,-0.728641
4.4359,0.016756,0.000000,0.000000,0.006656,0.0000,0.0000,0.0000,-0.112581,0.112581,-0.000076,0.002020,0.005558,1.8298,0.6178,0.5814,-0.099709,0.096641,0.000000,0.780796,-0.762388,0.754719,-0.779262,0.751651,-0.728641
4.4528,0.016854,0.000000,0.000000,0.006609,0.0000,0.0000,0.0000,-0.115239,0.115239,-0.000076,0.002020,0.005558,1.8298,0.6178,0.5814,-0.105845,0.101243,0.000000,0.780796,-0.762388,0.754719,-0.779262,0.751651,-0.728641
4.4695,0.016748,0.000000,0.000000,0.006561,0.0000,0.0000,0.0000,-0.117986,0.117986,-0.000076,0.002020,0.005558,1.8298,0.6178,0.5814,-0.105845,0.101243,0.000000,0.780796,-0.762388,0.754719,-0.779262,0.751651,-0.728641
4.4863,0.016790,0.000000,0.000000,0.006512,0.0000,0.0000,0.0000,-0.120841,0.120841,-0.000076,0.002020,0.005558,1.8298,0.6178,0.5814,-0.108913,0.102777,0.000000,0.780796,-0.762388,0.754719,-0.779262,0.751651,-0.728641
4.5031,0.016758,0.000000,0.000000,0.006463,0.0000,0.0000,0.0000,-0.123785,0.123785,-0.000076,0.002020,0.005558,1.8298,0.6178,0.5814,-0.108913,0.102777,0.000000,0.780796,-0.762388,0.754719,-0.779262,0.751651,-0.728641
4.5198,0.016749,0.000000,0.000000,0.006413,0.0000,0.0000,0.0000,-0.126817,0.126817,-0.000076,0.002020,0.005558,1.8298,0.6178,0.5814,-0.115049,0.110447,0.000000,0.780796,-0.762388,0.754719,-0.779262,0.751651,-0.728641
4.5366,0.016751,0.000000,0.000000,0.006362,0.0000,0.0000,0.0000,-0.129935,0.129935,-0.000076,0.002020,0.005558,1.8298,0.6178,0.5814,-0.121184,0.119651,0.000000,0.780796,-0.762388,0.754719,-0.779262,0.751651,-0.728641
4.5533,0.016747,0.000000,0.000000,0.006311,0.0000,0.0000,0.0000,-0.133130,0.133130,-0.000030,0.001978,0.005548,1.7835,0.6303,0.5224,-0.121184,0.119651,0.000000,0.779262,-0.762388,0.754719,-0.779262,0.751651,-0.728641
4.5701,0.016748,0.000000,0.000000,0.006259,0.0000,0.0000,0.0000,-0.136400,0.136400,0.000010,0.001940,0.005539,1.7419,0.6411,0.4702,-0.122718,0.119651,0.000000,0.777728,-0.762388,0.754719,-0.779262,0.751651,-0.728641
