t,loop_dt,cmd_x,cmd_y,cmd_z,cmd_roll,cmd_pitch,cmd_yaw,cmd_ant_l,cmd_ant_r,pres_x,pres_y,pres_z,pres_roll,pres_pitch,pres_yaw,pres_ant_l,pres_ant_r,pres_j0,pres_j1,pres_j2,pres_j3,pres_j4,pres_j5,pres_j6
0.0000,0.000001,-0.000513,0.000965,-0.001450,0.5044,1.0155,-0.1459,-0.179476,0.176408,-0.000513,0.000965,-0.001450,0.5044,1.0155,-0.1459,-0.179476,0.176408,0.000000,0.596719,-0.584447,0.593651,-0.613592,0.585981,-0.582913
0.0168,0.016772,-0.000504,0.000949,-0.001425,0.4960,0.9984,-0.1435,-0.179393,0.176376,-0.000513,0.000965,-0.001450,0.5044,1.0155,-0.1459,-0.179476,0.176408,0.000000,0.596719,-0.584447,0.593651,-0.613592,0.585981,-0.582913
0.0335,0.016752,-0.000496,0.000933,-0.001401,0.4876,0.9814,-0.1411,-0.179310,0.176345,-0.000513,0.000965,-0.001450,0.5044,1.0155,-0.1459,-0.179476,0.176408,0.000000,0.596719,-0.584447,0.593651,-0.613592,0.585981,-0.582913
0.0503,0.016749,-0.000487,0.000917,-0.001377,0.4791,0.9644,-0.1388,-0.179227,0.176314,-0.000513,0.000965,-0.001450,0.5044,1.0155,-0.1459,-0.179476,0.176408,0.000000,0.596719,-0.584447,0.593651,-0.613592,0.585981,-0.582913
0.0670,0.016743,-0.000479,0.000901,-0.001353,0.4707,0.9474,-0.1364,-0.179144,0.176282,-0.000513,0.000965,-0.001450,0.5044,1.0155,-0.1459,-0.179476,0.176408,0.000000,0.596719,-0.584447,0.593651,-0.613592,0.585981,-0.582913
0.0838,0.016825,-0.000470,0.000884,-0.001328,0.4622,0.9303,-0.1340,-0.179061,0.176251,-0.000430,0.001075,-0.001512,0.5246,1.0496,-0.0930,-0.179476,0.176408,0.000000,0.595185,-0.582913,0.592117,-0.613592,0.585981,-0.579845
0.1006,0.016744,-0.000461,0.000868,-0.001304,0.4538,0.9133,-0.1316,-0.178979,0.176219,-0.000246,0.001077,-0.001629,0.4820,1.1821,0.1159,-0.179476,0.176408,0.000000,0.590583,-0.579845,0.592117,-0.612058,0.585981,-0.573709
0.1173,0.016752,-0.000453,0.000852,-0.001280,0.4454,0.8963,-0.1292,-0.178896,0.176188,-0.000246,0.001077,-0.001629,0.4820,1.1821,0.1159,-0.179476,0.176408,0.000000,0.590583,-0.579845,0.592117,-0.612058,0.585981,-0.573709
0.1341,0.016750,-0.000444,0.000836,-0.001255,0.4370,0.8793,-0.1268,-0.178813,0.176156,-0.000142,0.001148,-0.001655,0.4582,1.2162,-0.0686,-0.179476,0.176408,0.000000,0.587515,-0.579845,0.590583,-0.613592,0.585981,-0.572175
0.1508,0.016752,-0.000436,0.000820,-0.001231,0.4285,0.8623,-0.1244,-0.178730,0.176125,-0.000125,0.001125,-0.001652,0.4994,1.2811,0.0587,-0.179476,0.176408,0.000000,0.587515,-0.579845,0.592117,-0.613592,0.585981,-0.570641
0.1676,0.016742,-0.000427,0.000804,-0.001207,0.4201,0.8452,-0.1221,-0.178647,0.176094,-0.000127,0.001127,-0.001652,0.4951,1.2743,0.0455,-0.179476,0.176408,0.000000,0.587515,-0.579845,0.592117,-0.613592,0.585981,-0.570641
0.1843,0.016745,-0.000418,0.000787,-0.001183,0.4117,0.8282,-0.1197,-0.178565,0.176062,-0.000127,0.001127,-0.001652,0.4951,1.2743,0.0455,-0.179476,0.176408,0.000000,0.587515,-0.579845,0.592117,-0.613592,0.585981,-0.570641
0.2011,0.016756,-0.000410,0.000771,-0.001158,0.4032,0.8112,-0.1173,-0.178482,0.176031,-0.000127,0.001127,-0.001652,0.4951,1.2743,0.0455,-0.179476,0.176408,0.000000,0.587515,-0.579845,0.592117,-0.613592,0.585981,-0.570641
0.2178,0.016745,-0.000401,0.000755,-0.001134,0.3948,0.7942,-0.1149,-0.178399,0.175999,-0.000127,0.001127,-0.001652,0.4951,1.2743,0.0455,-0.179476,0.176408,0.000000,0.587515,-0.579845,0.592117,-0.613592,0.585981,-0.570641
0.2346,0.016742,-0.000393,0.000739,-0.001110,0.3864,0.7772,-0.1125,-0.178316,0.175968,-0.000225,0.001166,-0.001640,0.5452,1.1249,0.1015,-0.179476,0.176408,0.000000,0.590583,-0.579845,0.590583,-0.612058,0.585981,-0.572175
0.2513,0.016741,-0.000384,0.000723,-0.001085,0.3779,0.7602,-0.1101,-0.178234,0.175937,-0.000104,0.001067,-0.001665,0.4795,1.2402,0.0952,-0.179476,0.176408,0.000000,0.587515,-0.579845,0.592117,-0.612058,0.585981,-0.570641
0.2681,0.016745,-0.000375,0.000707,-0.001061,0.3695,0.7432,-0.1076,-0.178151,0.175905,-0.000129,0.001133,-0.001651,0.4972,1.2786,0.0417,-0.179476,0.176408,0.000000,0.587515,-0.579845,0.592117,-0.613592,0.585981,-0.570641
0.2848,0.016744,-0.000367,0.000690,-0.001037,0.3610,0.7262,-0.1052,-0.178068,0.175874,-0.000127,0.001126,-0.001652,0.4953,1.2746,0.0472,-0.179476,0.176408,0.000000,0.587515,-0.579845,0.592117,-0.613592,0.585981,-0.570641
0.3016,0.016761,-0.000358,0.000674,-0.001013,0.3526,0.7092,-0.1028,-0.177985,0.175842,-0.000127,0.001126,-0.001652,0.4953,1.2746,0.0472,-0.179476,0.176408,0.000000,0.587515,-0.579845,0.592117,-0.613592,0.585981,-0.570641
0.3183,0.016772,-0.000350,0.000658,-0.000988,0.3441,0.6921,-0.1004,-0.177902,0.175811,-0.000127,0.001126,-0.001652,0.4953,1.2746,0.0472,-0.179476,0.176408,0.000000,0.587515,-0.579845,0.592117,-0.613592,0.585981,-0.570641
0.3353,0.016975,-0.000341,0.000642,-0.000964,0.3356,0.6749,-0.0980,-0.177818,0.175779,-0.000127,0.001126,-0.001652,0.4953,1.2746,0.0472,-0.179476,0.176408,0.000000,0.587515,-0.579845,0.592117,-0.613592,0.585981,-0.570641
0.3521,0.016757,-0.000332,0.000626,-0.000939,0.3271,0.6579,-0.0955,-0.177736,0.175748,-0.000127,0.001126,-0.001652,0.4953,1.2746,0.0472,-0.179476,0.176408,0.000000,0.587515,-0.579845,0.592117,-0.613592,0.585981,-0.570641
0.3689,0.016869,-0.000324,0.000609,-0.000915,0.3186,0.6407,-0.0931,-0.177652,0.175716,-0.000114,0.001182,-0.001665,0.5062,1.2238,-0.0074,-0.179476,0.176408,0.000000,0.587515,-0.579845,0.590583,-0.613592,0.585981,-0.570641
0.3857,0.016761,-0.000315,0.000593,-0.000891,0.3102,0.6237,-0.0907,-0.177569,0.175685,-0.000114,0.001182,-0.001665,0.5062,1.2238,-0.0074,-0.179476,0.176408,0.000000,0.587515,-0.579845,0.592117,-0.613592,0.585981,-0.570641
0.4024,0.016750,-0.000306,0.000577,-0.000866,0.3018,0.6067,-0.0882,-0.177487,0.175653,-0.000128,0.001121,-0.001651,0.4944,1.2803,0.0524,-0.179476,0.176408,0.000000,0.587515,-0.579845,0.592117,-0.613592,0.585981,-0.570641
0.4192,0.016756,-0.000298,0.000561,-0.000842,0.2933,0.5897,-0.0858,-0.177404,0.175622,-0.000127,0.001128,-0.001652,0.4956,1.2744,0.0461,-0.179476,0.176408,0.000000,0.587515,-0.579845,0.592117,-0.613592,0.585981,-0.570641
0.4359,0.016748,-0.000289,0.000545,-0.000818,0.2849,0.5727,-0.0834,-0.177321,0.175590,-0.000127,0.001128,-0.001652,0.4956,1.2744,0.0461,-0.179476,0.176408,0.000000,0.587515,-0.579845,0.592117,-0.613592,0.585981,-0.570641
0.4527,0.016758,-0.000281,0.000528,-0.000793,0.2764,0.5557,-0.0809,-0.177238,0.175559,-0.000127,0.001128,-0.001652,0.4956,1.2744,0.0461,-0.179476,0.176408,0.000000,0.587515,-0.579845,0.592117,-0.613592,0.585981,-0.570641
0.4695,0.016751,-0.000272,0.000512,-0.000769,0.2680,0.5387,-0.0785,-0.177155,0.175528,-0.000127,0.001128,-0.001652,0.4956,1.2744,0.0461,-0.179476,0.176408,0.000000,0.587515,-0.579845,0.592117,-0.613592,0.585981,-0.570641
0.4863,0.016796,-0.000264,0.000496,-0.000745,0.2595,0.5216,-0.0760,-0.177072,0.175496,-0.000127,0.001128,-0.001652,0.4956,1.2744,0.0461,-0.179476,0.176408,0.000000,0.587515,-0.579845,0.590583,-0.613592,0.585981,-0.570641
0.5030,0.016754,-0.000255,0.000480,-0.000721,0.2510,0.5046,-0.0736,-0.176989,0.175465,-0.000114,0.001182,-0.001665,0.5061,1.2238,-0.0073,-0.179476,0.176408,0.000000,0.587515,-0.579845,0.590583,-0.613592,0.585981,-0.570641
0.5198,0.016758,-0.000246,0.000464,-0.000696,0.2426,0.4876,-0.0712,-0.176907,0.175433,-0.000128,0.001121,-0.001651,0.4944,1.2803,0.0523,-0.179476,0.176408,0.000000,0.587515,-0.579845,0.592117,-0.613592,0.585981,-0.570641
0.5366,0.016796,-0.000238,0.000447,-0.000672,0.2341,0.4705,-0.0687,-0.176824,0.175402,-0.000114,0.001072,-0.001664,0.4848,1.2240,0.1003,-0.179476,0.176408,0.000000,0.587515,-0.579845,0.592117,-0.612058,0.585981,-0.570641
0.5533,0.016783,-0.000229,0.000431,-0.000648,0.2256,0.4535,-0.0662,-0.176741,0.175370,-0.000128,0.001133,-0.001651,0.4966,1.2803,0.0411,-0.179476,0.176408,0.000000,0.587515,-0.579845,0.592117,-0.613592,0.585981,-0.570641
0.5701,0.016753,-0.000220,0.000415,-0.000623,0.2172,0.4365,-0.0638,-0.176658,0.175339,-0.000127,0.001126,-0.001652,0.4954,1.2744,0.0473,-0.179476,0.176408,0.000000,0.587515,-0.579845,0.592117,-0.613592,0.585981,-0.570641
0.5869,0.016769,-0.000212,0.000399,-0.000599,0.2087,0.4194,-0.0613,-0.176575,0.175307,-0.000127,0.001126,-0.001652,0.4954,1.2744,0.0473,-0.179476,0.176408,0.000000,0.587515,-0.579845,0.592117,-0.613592,0.585981,-0.570641
0.6036,0.016746,-0.000203,0.000383,-0.000575,0.2003,0.4024,-0.0589,-0.176492,0.175276,-0.000127,0.001126,-0.001652,0.4954,1.2744,0.0473,-0.179476,0.176408,0.000000,0.587515,-0.579845,0.592117,-0.613592,0.585981,-0.570641
0.6204,0.016752,-0.000195,0.000367,-0.000550,0.1918,0.3854,-0.0564,-0.176409,0.175245,-0.000127,0.001126,-0.001652,0.4954,1.2744,0.0473,-0.179476,0.176408,0.000000,0.587515,-0.579845,0.592117,-0.613592,0.585981,-0.570641
0.6371,0.016750,-0.000186,0.000350,-0.000526,0.1834,0.3684,-0.0540,-0.176327,0.175213,-0.000127,0.001126,-0.001652,0.4954,1.2744,0.0473,-0.179476,0.176408,0.000000,0.587515,-0.579845,0.592117,-0.613592,0.585981,-0.570641
0.6539,0.016760,-0.000178,0.000334,-0.000502,0.1749,0.3514,-0.0515,-0.176244,0.175182,-0.000210,0.001206,-0.001629,0.5949,1.2439,0.1554,-0.179476,0.176408,0.000000,0.590583,-0.579845,0.592117,-0.613592,0.585981,-0.570641
0.6708,0.016944,-0.000169,0.000318,-0.000477,0.1663,0.3342,-0.0490,-0.176160,0.175150,-0.000201,0.001198,-0.001631,0.5845,1.2471,0.1441,-0.179476,0.176408,0.000000,0.590583,-0.579845,0.592117,-0.613592,0.585981,-0.570641
0.6876,0.016764,-0.000160,0.000302,-0.000453,0.1579,0.3172,-0.0465,-0.176077,0.175119,-0.000201,0.001198,-0.001631,0.5845,1.2471,0.1441,-0.179476,0.176408,0.000000,0.590583,-0.579845,0.592117,-0.613592,0.585981,-0.570641
0.7049,0.017329,-0.000151,0.000285,-0.000428,0.1491,0.2996,-0.0440,-0.175992,0.175086,-0.000202,0.001199,-0.001631,0.5859,1.2467,0.1457,-0.179476,0.176408,0.000000,0.590583,-0.579845,0.592117,-0.613592,0.585981,-0.570641
0.7242,0.019254,-0.000141,0.000266,-0.000400,0.1394,0.2800,-0.0411,-0.175896,0.175050,-0.000202,0.001199,-0.001631,0.5859,1.2467,0.1457,-0.179476,0.176408,0.000000,0.590583,-0.579845,0.592117,-0.613592,0.585981,-0.570641
0.7409,0.016757,-0.000133,0.000250,-0.000376,0.1309,0.2630,-0.0386,-0.175814,0.175019,-0.000202,0.001199,-0.001631,0.5859,1.2467,0.1457,-0.179476,0.176408,0.000000,0.590583,-0.579845,0.592117,-0.613592,0.585981,-0.570641
0.7577,0.016754,-0.000124,0.000234,-0.000351,0.1225,0.2460,-0.0362,-0.175731,0.174987,-0.000202,0.001199,-0.001631,0.5859,1.2467,0.1457,-0.177942,0.176408,0.000000,0.590583,-0.579845,0.592117,-0.613592,0.585981,-0.570641
0.7744,0.016755,-0.000116,0.000218,-0.000327,0.1140,0.2290,-0.0337,-0.175648,0.174956,-0.000202,0.001199,-0.001631,0.5859,1.2467,0.1457,-0.177942,0.176408,0.000000,0.590583,-0.579845,0.592117,-0.613592,0.585981,-0.570641
0.7912,0.016756,-0.000107,0.000202,-0.000303,0.1056,0.2120,-0.0312,-0.175565,0.174924,-0.000202,0.001199,-0.001631,0.5859,1.2467,0.1457,-0.179476,0.176408,0.000000,0.590583,-0.579845,0.592117,-0.613592,0.585981,-0.570641
0.8079,0.016751,-0.000099,0.000185,-0.000278,0.0971,0.1950,-0.0287,-0.175482,0.174893,-0.000202,0.001199,-0.001631,0.5859,1.2467,0.1457,-0.179476,0.176408,0.000000,0.590583,-0.579845,0.592117,-0.613592,0.585981,-0.570641
0.8247,0.016745,-0.000090,0.000169,-0.000254,0.0886,0.1780,-0.0262,-0.175399,0.174862,-0.000189,0.001253,-0.001644,0.5961,1.1956,0.0910,-0.179476,0.176408,0.000000,0.590583,-0.579845,0.590583,-0.613592,0.585981,-0.570641
0.8414,0.016744,-0.000081,0.000153,-0.000230,0.0802,0.1610,-0.0237,-0.175317,0.174830,-0.000203,0.001193,-0.001630,0.5844,1.2521,0.1508,-0.177942,0.176408,0.000000,0.590583,-0.579845,0.592117,-0.613592,0.585981,-0.570641
0.8584,0.016996,-0.000073,0.000137,-0.000205,0.0716,0.1437,-0.0212,-0.175233,0.174798,-0.000202,0.001199,-0.001631,0.5856,1.2462,0.1446,-0.177942,0.176408,0.000000,0.590583,-0.579845,0.592117,-0.613592,0.585981,-0.570641
0.8752,0.016747,-0.000064,0.000121,-0.000181,0.0631,0.1267,-0.0187,-0.175150,0.174767,-0.000202,0.001199,-0.001631,0.5856,1.2462,0.1446,-0.179476,0.176408,0.000000,0.590583,-0.579845,0.592117,-0.613592,0.585981,-0.570641
0.8919,0.016751,-0.000055,0.000104,-0.000157,0.0546,0.1097,-0.0162,-0.175067,0.174736,-0.000202,0.001199,-0.001631,0.5856,1.2462,0.1446,-0.177942,0.176408,0.000000,0.590583,-0.579845,0.592117,-0.613592,0.585981,-0.570641
0.9086,0.016728,-0.000047,0.000088,-0.000132,0.0462,0.0927,-0.0137,-0.174984,0.174704,-0.000202,0.001199,-0.001631,0.5856,1.2462,0.1446,-0.177942,0.176408,0.000000,0.590583,-0.579845,0.592117,-0.613592,0.585981,-0.570641
0.9254,0.016744,-0.000038,0.000072,-0.000108,0.0377,0.0757,-0.0112,-0.174902,0.174673,-0.000202,0.001199,-0.001631,0.5856,1.2462,0.1446,-0.177942,0.176408,0.000000,0.590583,-0.579845,0.592117,-0.613592,0.585981,-0.570641
0.9421,0.016750,-0.000030,0.000056,-0.000084,0.0293,0.0587,-0.0087,-0.174819,0.174641,-0.000202,0.001199,-0.001631,0.5856,1.2462,0.1446,-0.179476,0.176408,0.000000,0.590583,-0.579845,0.592117,-0.613592,0.585981,-0.570641
0.9589,0.016792,-0.000021,0.000040,-0.000060,0.0208,0.0417,-0.0062,-0.174736,0.174610,-0.000202,0.001199,-0.001631,0.5856,1.2462,0.1446,-0.179476,0.176408,0.000000,0.590583,-0.579845,0.592117,-0.613592,0.585981,-0.570641
0.9757,0.016749,-0.000012,0.000023,-0.000035,0.0123,0.0247,-0.0037,-0.174653,0.174579,-0.000202,0.001199,-0.001631,0.5856,1.2462,0.1446,-0.177942,0.176408,0.000000,0.590583,-0.579845,0.592117,-0.613592,0.585981,-0.570641
0.9924,0.016767,-0.000004,0.000007,-0.000011,0.0038,0.0077,-0.0011,-0.174570,0.174547,-0.000202,0.001199,-0.001631,0.5856,1.2462,0.1446,-0.177942,0.176408,0.000000,0.590583,-0.579845,0.592117,-0.613592,0.585981,-0.570641
1.0092,0.016759,0.000000,0.000000,0.000023,0.0127,0.0000,0.0116,-0.173018,0.173018,-0.000202,0.001199,-0.001631,0.5856,1.2462,0.1446,-0.177942,0.176408,0.000000,0.590583,-0.579845,0.592117,-0.613592,0.585981,-0.570641
1.0259,0.016742,0.000000,0.000000,0.000065,0.0359,0.0000,0.0326,-0.170266,0.170266,-0.000202,0.001199,-0.001631,0.5856,1.2462,0.1446,-0.177942,0.176408,0.000000,0.590583,-0.579845,0.592117,-0.613592,0.585981,-0.570641
1.0427,0.016748,0.000000,0.000000,0.000107,0.0590,0.0000,0.0537,-0.167517,0.167517,-0.000202,0.001199,-0.001631,0.5856,1.2462,0.1446,-0.177942,0.176408,0.000000,0.590583,-0.579845,0.592117,-0.613592,0.585981,-0.570641
1.0594,0.016748,0.000000,0.000000,0.000149,0.0821,0.0000,0.0747,-0.164775,0.164775,-0.000202,0.001199,-0.001631,0.5856,1.2462,0.1446,-0.177942,0.176408,0.000000,0.590583,-0.579845,0.592117,-0.613592,0.585981,-0.570641
1.0762,0.016752,0.000000,0.000000,0.000191,0.1053,0.0000,0.0957,-0.162042,0.162042,-0.000202,0.001199,-0.001631,0.5856,1.2462,0.1446,-0.176408,0.176408,0.000000,0.590583,-0.579845,0.592117,-0.613592,0.585981,-0.570641
1.0929,0.016747,0.000000,0.000000,0.000233,0.1284,0.0000,0.1168,-0.159322,0.159322,-0.000242,0.001159,-0.001618,0.5360,1.2294,0.0912,-0.174874,0.174874,0.000000,0.590583,-0.579845,0.592117,-0.613592,0.585981,-0.572175
1.1097,0.016753,0.000000,0.000000,0.000275,0.1515,0.0000,0.1378,-0.156617,0.156617,-0.000242,0.001159,-0.001618,0.5360,1.2294,0.0912,-0.174874,0.174874,0.000000,0.590583,-0.579845,0.592117,-0.613592,0.585981,-0.572175
1.1264,0.016741,0.000000,0.000000,0.000317,0.1746,0.0000,0.1588,-0.153931,0.153931,-0.000198,0.001202,-0.001632,0.5906,1.2486,0.1508,-0.174874,0.171806,0.000000,0.590583,-0.579845,0.592117,-0.613592,0.585981,-0.570641
1.1432,0.016752,0.000000,0.000000,0.000359,0.1976,0.0000,0.1799,-0.151264,0.151264,-0.000243,0.001159,-0.001618,0.5355,1.2292,0.0905,-0.173340,0.170272,0.000000,0.590583,-0.579845,0.592117,-0.613592,0.585981,-0.572175
1.1599,0.016743,0.000000,0.000000,0.000401,0.2206,0.0000,0.2009,-0.148622,0.148622,-0.000185,0.001148,-0.001607,0.5803,1.1959,0.0433,-0.167204,0.170272,0.000000,0.590583,-0.581379,0.592117,-0.613592,0.585981,-0.572175
1.1768,0.016843,0.000000,0.000000,0.000443,0.2437,0.0000,0.2220,-0.145990,0.145990,-0.000191,0.001149,-0.001608,0.5756,1.1994,0.0483,-0.158000,0.165670,0.000000,0.590583,-0.581379,0.592117,-0.613592,0.585981,-0.572175
1.1935,0.016749,0.000000,0.000000,0.000485,0.2667,0.0000,0.2430,-0.143401,0.143401,-0.000191,0.001149,-0.001608,0.5756,1.1994,0.0483,-0.158000,0.165670,0.000000,0.590583,-0.581379,0.592117,-0.613592,0.585981,-0.572175
1.2103,0.016758,0.000000,0.000000,0.000527,0.2897,0.0000,0.2641,-0.140841,0.140841,-0.000203,0.001203,-0.001634,0.5865,1.2517,0.1553,-0.150330,0.161068,0.000000,0.590583,-0.579845,0.592117,-0.613592,0.585981,-0.570641
1.2270,0.016739,0.000000,0.000000,0.000569,0.3125,0.0000,0.2850,-0.138319,0.138319,-0.000148,0.001182,-0.001618,0.6244,1.2109,0.0907,-0.150330,0.153398,0.000000,0.590583,-0.581379,0.592117,-0.613592,0.585981,-0.570641
1.2438,0.016745,0.000000,0.000000,0.000610,0.3354,0.0000,0.3060,-0.135831,0.135831,-0.000195,0.001224,-0.001608,0.6701,1.1997,0.1518,-0.148796,0.147262,0.000000,0.592117,-0.581379,0.592117,-0.613592,0.585981,-0.570641
1.2605,0.016745,0.000000,0.000000,0.000652,0.3582,0.0000,0.3270,-0.133382,0.133382,-0.000191,0.001219,-0.001609,0.6653,1.2009,0.1454,-0.148796,0.144194,0.000000,0.592117,-0.581379,0.592117,-0.613592,0.585981,-0.570641
1.2773,0.016764,0.000000,0.000000,0.000693,0.3809,0.0000,0.3480,-0.130971,0.130971,-0.000191,0.001219,-0.001609,0.6653,1.2009,0.1454,-0.147262,0.142660,0.000000,0.592117,-0.581379,0.592117,-0.613592,0.585981,-0.570641
1.2940,0.016743,0.000000,0.000000,0.000735,0.4036,0.0000,0.3689,-0.128607,0.128607,-0.000191,0.001219,-0.001609,0.6653,1.2009,0.1454,-0.147262,0.142660,0.000000,0.592117,-0.581379,0.592117,-0.613592,0.585981,-0.570641
1.3108,0.016751,0.000000,0.000000,0.000776,0.4263,0.0000,0.3899,-0.126287,0.126287,-0.000232,0.001181,-0.001596,0.6164,1.1833,0.0920,-0.145728,0.141126,0.000000,0.592117,-0.581379,0.592117,-0.613592,0.585981,-0.572175
1.3275,0.016739,0.000000,0.000000,0.000817,0.4489,0.0000,0.4108,-0.124017,0.124017,-0.000240,0.001130,-0.001584,0.6108,1.2363,0.1517,-0.142660,0.138058,0.000000,0.592117,-0.581379,0.593651,-0.613592,0.585981,-0.572175
1.3443,0.016763,0.000000,0.000000,0.000859,0.4714,0.0000,0.4318,-0.121794,0.121794,-0.000239,0.001135,-0.001586,0.6113,1.2308,0.1455,-0.134990,0.134990,0.000000,0.592117,-0.581379,0.593651,-0.613592,0.585981,-0.572175
1.3610,0.016740,0.000000,0.000000,0.000900,0.4939,0.0000,0.4527,-0.119627,0.119627,-0.000199,0.001174,-0.001598,0.6608,1.2487,0.2003,-0.127320,0.130388,0.000000,0.592117,-0.581379,0.593651,-0.613592,0.585981,-0.570641
1.3778,0.016777,0.000000,0.000000,0.000941,0.5163,0.0000,0.4736,-0.117510,0.117510,-0.000285,0.001170,-0.001573,0.6557,1.2140,0.1949,-0.124252,0.124252,0.000000,0.593651,-0.581379,0.593651,-0.613592,0.585981,-0.572175
1.3945,0.016739,0.000000,0.000000,0.000981,0.5386,0.0000,0.4945,-0.115454,0.115454,-0.000285,0.001170,-0.001573,0.6557,1.2140,0.1949,-0.124252,0.124252,0.000000,0.593651,-0.581379,0.593651,-0.613592,0.585981,-0.572175
1.4113,0.016749,0.000000,0.000000,0.001022,0.5609,0.0000,0.5154,-0.113456,0.113456,-0.000317,0.001210,-0.001564,0.7058,1.2021,0.2499,-0.124252,0.121184,0.000000,0.595185,-0.581379,0.593651,-0.613592,0.585981,-0.572175
1.4280,0.016741,0.000000,0.000000,0.001063,0.5831,0.0000,0.5362,-0.111520,0.111520,-0.000314,0.001206,-0.001565,0.7005,1.2034,0.2442,-0.124252,0.118117,0.000000,0.595185,-0.581379,0.593651,-0.613592,0.585981,-0.572175
1.4448,0.016751,0.000000,0.000000,0.001103,0.6052,0.0000,0.5571,-0.109646,0.109646,-0.000343,0.001190,-0.001565,0.7396,1.1373,0.3533,-0.121184,0.118117,0.000000,0.596719,-0.581379,0.593651,-0.612058,0.585981,-0.572175
1.4615,0.016742,0.000000,0.000000,0.001144,0.6272,0.0000,0.5779,-0.107837,0.107837,-0.000436,0.001326,-0.001530,0.8454,1.1640,0.3970,-0.118117,0.116583,0.000000,0.599786,-0.581379,0.593651,-0.613592,0.585981,-0.572175
1.4783,0.016774,0.000000,0.000000,0.001184,0.6492,0.0000,0.5988,-0.106091,0.106091,-0.000436,0.001326,-0.001530,0.8454,1.1640,0.3970,-0.113515,0.116583,0.000000,0.601320,-0.581379,0.593651,-0.613592,0.585981,-0.572175
1.4950,0.016745,0.000000,0.000000,0.001224,0.6710,0.0000,0.6196,-0.104417,0.104417,-0.000468,0.001351,-0.001522,0.8837,1.1460,0.4470,-0.113515,0.116583,0.000000,0.601320,-0.581379,0.593651,-0.613592,0.585981,-0.572175
1.5118,0.016749,0.000000,0.000000,0.001264,0.6928,0.0000,0.6404,-0.102812,0.102812,-0.000507,0.001388,-0.001512,0.9291,1.1327,0.4963,-0.108913,0.116583,0.000000,0.602854,-0.581379,0.593651,-0.613592,0.585981,-0.572175
1.5285,0.016743,0.000000,0.000000,0.001304,0.7144,0.0000,0.6611,-0.101279,0.101279,-0.000544,0.001424,-0.001502,0.9737,1.1189,0.5458,-0.108913,0.116583,0.000000,0.604388,-0.581379,0.593651,-0.613592,0.585981,-0.572175
1.5453,0.016760,0.000000,0.000000,0.001344,0.7360,0.0000,0.6819,-0.099817,0.099817,-0.000624,0.001499,-0.001481,1.0676,1.0902,0.6500,-0.108913,0.116583,0.000000,0.607456,-0.581379,0.593651,-0.613592,0.585981,-0.572175
1.5620,0.016744,0.000000,0.000000,0.001383,0.7575,0.0000,0.7026,-0.098432,0.098432,-0.000593,0.001538,-0.001434,1.2349,0.9923,0.6410,-0.107379,0.113515,0.000000,0.610524,-0.584447,0.593651,-0.613592,0.585981,-0.572175
1.5788,0.016764,0.000000,0.000000,0.001423,0.7789,0.0000,0.7233,-0.097120,0.097120,-0.000593,0.001538,-0.001434,1.2349,0.9923,0.6410,-0.107379,0.113515,0.000000,0.610524,-0.584447,0.593651,-0.613592,0.585981,-0.572175
1.5955,0.016741,0.000000,0.000000,0.001462,0.8002,0.0000,0.7440,-0.095888,0.095888,-0.000585,0.001558,-0.001415,1.3059,0.9522,0.6428,-0.104311,0.110447,0.000000,0.612058,-0.585981,0.593651,-0.613592,0.585981,-0.572175
1.6123,0.016756,0.000000,0.000000,0.001501,0.8213,0.0000,0.7647,-0.094733,0.094733,-0.000467,0.001578,-0.001367,1.3867,0.8368,0.6425,-0.102777,0.102777,0.000000,0.613592,-0.589049,0.593651,-0.613592,0.587515,-0.572175
1.6290,0.016745,0.000000,0.000000,0.001540,0.8424,0.0000,0.7853,-0.093658,0.093658,-0.000402,0.001638,-0.001312,1.5155,0.7146,0.6969,-0.101243,0.096641,0.000000,0.616660,-0.592117,0.593651,-0.613592,0.589049,-0.572175
1.6458,0.016759,0.000000,0.000000,0.001579,0.8633,0.0000,0.8060,-0.092663,0.092663,-0.000318,0.001638,-0.001231,1.6286,0.5396,0.6369,-0.099709,0.095107,0.000000,0.619728,-0.596719,0.593651,-0.613592,0.590583,-0.573709
1.6625,0.016741,0.000000,0.000000,0.001617,0.8841,0.0000,0.8266,-0.091750,0.091750,-0.000262,0.001644,-0.001203,1.7437,0.4722,0.5889,-0.096641,0.095107,0.000000,0.621262,-0.599786,0.593651,-0.613592,0.590583,-0.573709
1.6793,0.016760,0.000000,0.000000,0.001656,0.9049,0.0000,0.8472,-0.090920,0.090920,-0.000262,0.001644,-0.001203,1.7437,0.4722,0.5889,-0.096641,0.095107,0.000000,0.621262,-0.599786,0.593651,-0.613592,0.590583,-0.573709
1.6960,0.016744,0.000000,0.000000,0.001694,0.9254,0.0000,0.8677,-0.090173,0.090173,-0.000298,0.001596,-0.001131,1.8473,0.4120,0.5949,-0.095107,0.093573,0.000000,0.624330,-0.602854,0.595185,-0.613592,0.590583,-0.575243
1.7128,0.016748,0.000000,0.000000,0.001732,0.9459,0.0000,0.8882,-0.089510,0.089510,-0.000242,0.001553,-0.001089,1.9524,0.3838,0.5945,-0.093573,0.092039,0.000000,0.625864,-0.605922,0.596719,-0.613592,0.590583,-0.575243
1.7295,0.016749,0.000000,0.000000,0.001770,0.9662,0.0000,0.9088,-0.088932,0.088932,-0.000178,0.001361,-0.001028,1.9868,0.4692,0.6500,-0.093573,0.090505,0.000000,0.625864,-0.608990,0.601320,-0.613592,0.590583,-0.575243
1.7463,0.016756,0.000000,0.000000,0.001808,0.9865,0.0000,0.9292,-0.088439,0.088439,-0.000186,0.001350,-0.000998,2.0603,0.4611,0.6992,-0.093573,0.090505,0.000000,0.627398,-0.610524,0.602854,-0.613592,0.590583,-0.575243
1.7631,0.016793,0.000000,0.000000,0.001845,1.0066,0.0000,0.9498,-0.088031,0.088031,-0.000186,0.001350,-0.000998,2.0603,0.4611,0.6992,-0.093573,0.090505,0.000000,0.627398,-0.610524,0.602854,-0.613592,0.590583,-0.575243
1.7799,0.016792,0.000000,0.000000,0.001883,1.0266,0.0000,0.9702,-0.087709,0.087709,-0.000186,0.001350,-0.000998,2.0603,0.4611,0.6992,-0.093573,0.090505,0.000000,0.627398,-0.610524,0.602854,-0.613592,0.590583,-0.575243
1.7967,0.016798,0.000000,0.000000,0.001920,1.0464,0.0000,0.9907,-0.087475,0.087475,-0.000186,0.001350,-0.000998,2.0603,0.4611,0.6992,-0.093573,0.090505,0.000000,0.627398,-0.610524,0.602854,-0.613592,0.590583,-0.575243
1.8134,0.016750,0.000000,0.000000,0.001956,1.0661,0.0000,1.0111,-0.087328,0.087328,-0.000186,0.001350,-0.000998,2.0603,0.4611,0.6992,-0.093573,0.090505,0.000000,0.627398,-0.610524,0.602854,-0.613592,0.590583,-0.575243
1.8305,0.017102,0.000000,0.000000,0.001994,1.0860,0.0000,1.0319,-0.087268,0.087268,-0.000338,0.000953,-0.000728,2.3057,0.6845,1.0302,-0.092039,0.088971,0.000000,0.635068,-0.618194,0.616660,-0.615126,0.590583,-0.578311
1.8475,0.017001,0.000000,0.000000,0.002031,1.1057,0.0000,1.0525,-0.087298,0.087298,-0.000323,0.000994,-0.000756,2.2797,0.6607,0.9953,-0.090505,0.088971,0.000000,0.635068,-0.618194,0.616660,-0.615126,0.590583,-0.578311
1.8643,0.016748,0.000000,0.000000,0.002067,1.1249,0.0000,1.0728,-0.087415,0.087415,-0.000323,0.000994,-0.000756,2.2797,0.6607,0.9953,-0.090505,0.088971,0.000000,0.635068,-0.618194,0.616660,-0.615126,0.590583,-0.578311
1.8810,0.016760,0.000000,0.000000,0.002103,1.1440,0.0000,1.0931,-0.087619,0.087619,-0.000393,0.001032,-0.000718,2.3312,0.7497,1.0561,-0.088971,0.088971,0.000000,0.636602,-0.618194,0.618194,-0.616660,0.590583,-0.578311
1.8978,0.016753,0.000000,0.000000,0.002139,1.1629,0.0000,1.1133,-0.087910,0.087910,-0.000399,0.000973,-0.000709,2.3148,0.7909,1.1054,-0.085903,0.088971,0.000000,0.636602,-0.618194,0.619728,-0.616660,0.590583,-0.578311
1.9145,0.016748,0.000000,0.000000,0.002174,1.1816,0.0000,1.1335,-0.088287,0.088287,-0.000508,0.001092,-0.000701,2.3373,0.8578,1.1569,-0.087437,0.088971,0.000000,0.638136,-0.616660,0.619728,-0.618194,0.590583,-0.578311
1.9313,0.016750,0.000000,0.000000,0.002209,1.2002,0.0000,1.1537,-0.088750,0.088750,-0.000542,0.001200,-0.000655,2.4823,0.8374,1.1534,-0.087437,0.088971,0.000000,0.641204,-0.618194,0.619728,-0.619728,0.590583,-0.578311
1.9481,0.016818,0.000000,0.000000,0.002244,1.2188,0.0000,1.1739,-0.089300,0.089300,-0.000582,0.001228,-0.000649,2.5157,0.8251,1.2091,-0.087437,0.087437,0.000000,0.642738,-0.618194,0.619728,-0.619728,0.590583,-0.578311
1.9648,0.016746,0.000000,0.000000,0.002279,1.2370,0.0000,1.1940,-0.089934,0.089934,-0.000582,0.001228,-0.000649,2.5157,0.8251,1.2091,-0.087437,0.087437,0.000000,0.642738,-0.618194,0.619728,-0.619728,0.590583,-0.578311
1.9816,0.016749,0.000000,0.000000,0.002314,1.2551,0.0000,1.2140,-0.090652,0.090652,-0.000647,0.001267,-0.000615,2.5609,0.9131,1.2608,-0.087437,0.087437,0.000000,0.644272,-0.618194,0.621262,-0.621262,0.590583,-0.578311
1.9983,0.016730,0.000000,0.000000,0.002348,1.2731,0.0000,1.2341,-0.091453,0.091453,-0.000586,0.001279,-0.000570,2.5155,0.8725,1.4725,-0.087437,0.088971,0.000000,0.645806,-0.618194,0.622796,-0.621262,0.593651,-0.578311
2.0151,0.016745,0.000000,0.000000,0.002382,1.2908,0.0000,1.2541,-0.092337,0.092337,-0.000582,0.001444,-0.000517,2.5506,0.8318,1.6137,-0.088971,0.088971,0.000000,0.648874,-0.618194,0.622796,-0.622796,0.596719,-0.578311
2.0318,0.016756,0.000000,0.000000,0.002415,1.3084,0.0000,1.2740,-0.093304,0.093304,-0.000486,0.001514,-0.000487,2.4805,0.8197,1.6516,-0.090505,0.088971,0.000000,0.648874,-0.618194,0.622796,-0.624330,0.599786,-0.578311
2.0486,0.016772,0.000000,0.000000,0.002449,1.3259,0.0000,1.2940,-0.094352,0.094352,-0.000486,0.001514,-0.000487,2.4805,0.8197,1.6516,-0.090505,0.088971,0.000000,0.648874,-0.618194,0.622796,-0.624330,0.599786,-0.578311
2.0653,0.016747,0.000000,0.000000,0.002482,1.3431,0.0000,1.3139,-0.095479,0.095479,-0.000486,0.001674,-0.000433,2.5184,0.7769,1.8113,-0.090505,0.088971,0.000000,0.651942,-0.618194,0.622796,-0.625864,0.602854,-0.578311
2.0821,0.016748,0.000000,0.000000,0.002515,1.3602,0.0000,1.3338,-0.096685,0.096685,-0.000446,0.001842,-0.000382,2.5077,0.8025,1.8493,-0.090505,0.090505,0.000000,0.653476,-0.618194,0.622796,-0.628932,0.605922,-0.578311
2.0988,0.016746,0.000000,0.000000,0.002547,1.3771,0.0000,1.3536,-0.097969,0.097969,-0.000397,0.001952,-0.000342,2.4912,0.7704,1.9539,-0.095107,0.093573,0.000000,0.655010,-0.618194,0.622796,-0.630466,0.608990,-0.578311
2.1159,0.017034,0.000000,0.000000,0.002580,1.3940,0.0000,1.3737,-0.099352,0.099352,-0.000402,0.002084,-0.000314,2.4363,0.7804,2.1067,-0.095107,0.092039,0.000000,0.656544,-0.616660,0.622796,-0.632000,0.612058,-0.578311
2.1326,0.016754,0.000000,0.000000,0.002612,1.4106,0.0000,1.3935,-0.100789,0.100789,-0.000373,0.002200,-0.000283,2.4255,0.8477,2.0364,-0.093573,0.092039,0.000000,0.656544,-0.616660,0.622796,-0.635068,0.613592,-0.578311
2.1494,0.016748,0.000000,0.000000,0.002644,1.4269,0.0000,1.4132,-0.102299,0.102299,-0.000373,0.002200,-0.000283,2.4255,0.8477,2.0364,-0.101243,0.098175,0.000000,0.659612,-0.618194,0.622796,-0.636602,0.615126,-0.578311
2.1661,0.016744,0.000000,0.000000,0.002675,1.4430,0.0000,1.4328,-0.103880,0.103880,-0.000367,0.002324,-0.000229,2.5352,0.7959,2.0996,-0.101243,0.098175,0.000000,0.659612,-0.618194,0.622796,-0.636602,0.615126,-0.578311
2.1829,0.016748,0.000000,0.000000,0.002707,1.4589,0.0000,1.4525,-0.105532,0.105532,-0.000368,0.002311,-0.000235,2.5237,0.8014,2.0930,-0.101243,0.098175,0.000000,0.659612,-0.618194,0.622796,-0.636602,0.615126,-0.578311
2.1996,0.016742,0.000000,0.000000,0.002737,1.4747,0.0000,1.4720,-0.107252,0.107252,-0.000411,0.002352,-0.000224,2.5734,0.7877,2.1494,-0.101243,0.096641,0.000000,0.661146,-0.618194,0.622796,-0.636602,0.615126,-0.578311
2.2165,0.016890,0.000000,0.000000,0.002768,1.4903,0.0000,1.4918,-0.109055,0.109055,-0.000409,0.002461,-0.000193,2.5892,0.7938,2.1989,-0.102777,0.101243,0.000000,0.662680,-0.618194,0.622796,-0.638136,0.616660,-0.578311
2.2332,0.016747,0.000000,0.000000,0.002798,1.5057,0.0000,1.5113,-0.110908,0.110908,-0.000478,0.002492,-0.000162,2.6359,0.8810,2.2514,-0.107379,0.102777,0.000000,0.664214,-0.618194,0.624330,-0.639670,0.616660,-0.578311
2.2500,0.016773,0.000000,0.000000,0.002828,1.5208,0.0000,1.5308,-0.112828,0.112828,-0.000474,0.002458,-0.000129,2.7073,0.8731,2.3026,-0.108913,0.108913,0.000000,0.665748,-0.619728,0.625864,-0.639670,0.616660,-0.578311
2.2668,0.016747,0.000000,0.000000,0.002858,1.5358,0.0000,1.5502,-0.114807,0.114807,-0.000474,0.002458,-0.000129,2.7073,0.8731,2.3026,-0.108913,0.108913,0.000000,0.665748,-0.619728,0.625864,-0.639670,0.616660,-0.578311
2.2835,0.016752,0.000000,0.000000,0.002887,1.5505,0.0000,1.5696,-0.116845,0.116845,-0.000479,0.002399,-0.000059,2.8524,0.8762,2.4107,-0.110447,0.108913,0.000000,0.668816,-0.622796,0.628932,-0.639670,0.616660,-0.578311
2.3003,0.016748,0.000000,0.000000,0.002916,1.5650,0.0000,1.5889,-0.118941,0.118941,-0.000506,0.002265,0.000034,2.8909,0.9725,2.4049,-0.113515,0.107379,0.000000,0.670350,-0.625864,0.633534,-0.641204,0.616660,-0.579845
2.3170,0.016751,0.000000,0.000000,0.002945,1.5793,0.0000,1.6082,-0.121092,0.121092,-0.000489,0.002068,0.000151,2.9683,1.0728,2.4120,-0.116583,0.113515,0.000000,0.671884,-0.630466,0.639670,-0.642738,0.616660,-0.581379
2.3338,0.016745,0.000000,0.000000,0.002973,1.5934,0.0000,1.6274,-0.123296,0.123296,-0.000491,0.002088,0.000139,2.9602,1.0623,2.4112,-0.116583,0.113515,0.000000,0.671884,-0.630466,0.639670,-0.642738,0.616660,-0.581379
2.3506,0.016881,0.000000,0.000000,0.003002,1.6074,0.0000,1.6468,-0.125569,0.125569,-0.000516,0.001875,0.000372,3.3290,1.1139,2.5896,-0.124252,0.119651,0.000000,0.679553,-0.639670,0.648874,-0.644272,0.616660,-0.582913
2.3674,0.016742,0.000000,0.000000,0.003029,1.6211,0.0000,1.6659,-0.127873,0.127873,-0.000516,0.001875,0.000372,3.3290,1.1139,2.5896,-0.124252,0.119651,0.000000,0.679553,-0.639670,0.648874,-0.644272,0.616660,-0.582913
2.3841,0.016746,0.000000,0.000000,0.003056,1.6345,0.0000,1.6850,-0.130223,0.130223,-0.000421,0.001777,0.000422,3.4325,1.0880,2.5734,-0.122718,0.119651,0.000000,0.681087,-0.644272,0.651942,-0.644272,0.616660,-0.582913
2.4009,0.016743,0.000000,0.000000,0.003083,1.6477,0.0000,1.7041,-0.132618,0.132618,-0.000462,0.001627,0.000529,3.5107,1.0195,2.5238,-0.127320,0.124252,0.000000,0.684155,-0.648874,0.655010,-0.644272,0.616660,-0.585981
2.4176,0.016753,0.000000,0.000000,0.003110,1.6608,0.0000,1.7231,-0.135055,0.135055,-0.000461,0.001611,0.000554,3.5778,1.0277,2.5863,-0.130388,0.125786,0.000000,0.685689,-0.650408,0.656544,-0.644272,0.616660,-0.585981
2.4344,0.016750,0.000000,0.000000,0.003136,1.6736,0.0000,1.7421,-0.137532,0.137532,-0.000520,0.001566,0.000575,3.6842,1.0613,2.5840,-0.130388,0.127320,0.000000,0.687223,-0.651942,0.658078,-0.644272,0.615126,-0.585981
2.4511,0.016758,0.000000,0.000000,0.003162,1.6861,0.0000,1.7610,-0.140046,0.140046,-0.000520,0.001566,0.000575,3.6842,1.0613,2.5840,-0.130388,0.127320,0.000000,0.687223,-0.651942,0.658078,-0.644272,0.615126,-0.585981
2.4679,0.016753,0.000000,0.000000,0.003188,1.6985,0.0000,1.7799,-0.142594,0.142594,-0.000484,0.001589,0.000608,3.6348,1.1243,2.6409,-0.134990,0.133456,0.000000,0.687223,-0.651942,0.659612,-0.645806,0.616660,-0.585981
2.4846,0.016745,0.000000,0.000000,0.003213,1.7106,0.0000,1.7987,-0.145173,0.145173,-0.000477,0.001642,0.000627,3.6495,1.0715,2.7446,-0.139592,0.134990,0.000000,0.688757,-0.651942,0.659612,-0.645806,0.618194,-0.585981
2.5014,0.016746,0.000000,0.000000,0.003238,1.7225,0.0000,1.8175,-0.147781,0.147781,-0.000426,0.001733,0.000671,3.7077,1.0464,2.7336,-0.139592,0.134990,0.000000,0.690291,-0.653476,0.659612,-0.647340,0.619728,-0.585981
2.5181,0.016748,0.000000,0.000000,0.003263,1.7341,0.0000,1.8362,-0.150417,0.150417,-0.000389,0.001796,0.000690,3.6747,1.0664,2.7343,-0.142660,0.138058,0.000000,0.690291,-0.653476,0.659612,-0.648874,0.621262,-0.585981
2.5349,0.016759,0.000000,0.000000,0.003287,1.7455,0.0000,1.8549,-0.153078,0.153078,-0.000395,0.001903,0.000721,3.6989,1.0691,2.7902,-0.151864,0.148796,0.000000,0.691825,-0.653476,0.659612,-0.650408,0.622796,-0.585981
2.5516,0.016757,0.000000,0.000000,0.003311,1.7567,0.0000,1.8735,-0.155760,0.155760,-0.000398,0.001973,0.000752,3.7940,1.0715,2.7309,-0.151864,0.150330,0.000000,0.693359,-0.655010,0.659612,-0.651942,0.622796,-0.585981
2.5684,0.016745,0.000000,0.000000,0.003334,1.7677,0.0000,1.8921,-0.158459,0.158459,-0.000398,0.001973,0.000752,3.7940,1.0715,2.7309,-0.151864,0.150330,0.000000,0.693359,-0.655010,0.659612,-0.651942,0.622796,-0.585981
2.5851,0.016748,0.000000,0.000000,0.003357,1.7784,0.0000,1.9106,-0.161174,0.161174,-0.000342,0.001981,0.000760,3.7460,1.0380,2.7904,-0.150330,0.147262,0.000000,0.693359,-0.655010,0.659612,-0.651942,0.624330,-0.585981
2.6019,0.016746,0.000000,0.000000,0.003380,1.7888,0.0000,1.9291,-0.163902,0.163902,-0.000292,0.001995,0.000771,3.7131,1.0084,2.8376,-0.158000,0.154932,0.000000,0.693359,-0.655010,0.659612,-0.651942,0.625864,-0.585981
2.6186,0.016743,0.000000,0.000000,0.003402,1.7991,0.0000,1.9475,-0.166641,0.166641,-0.000241,0.002008,0.000781,3.6787,0.9783,2.8861,-0.162602,0.156466,0.000000,0.693359,-0.655010,0.659612,-0.651942,0.627398,-0.585981
2.6354,0.016744,0.000000,0.000000,0.003424,1.8091,0.0000,1.9658,-0.169387,0.169387,-0.000273,0.002123,0.000803,3.7042,1.0827,2.7732,-0.162602,0.158000,0.000000,0.693359,-0.655010,0.659612,-0.655010,0.627398,-0.585981
2.6521,0.016747,0.000000,0.000000,0.003446,1.8188,0.0000,1.9841,-0.172139,0.172139,-0.000270,0.002111,0.000800,3.7016,1.0718,2.7850,-0.165670,0.165670,0.000000,0.693359,-0.655010,0.659612,-0.655010,0.627398,-0.585981
2.6689,0.016742,0.000000,0.000000,0.003467,1.8283,0.0000,2.0024,-0.174893,0.174893,-0.000270,0.002111,0.000800,3.7016,1.0718,2.7850,-0.165670,0.165670,0.000000,0.693359,-0.655010,0.659612,-0.655010,0.627398,-0.585981
2.6856,0.016744,0.000000,0.000000,0.003488,1.8376,0.0000,2.0206,-0.177647,0.177647,-0.000270,0.002113,0.000801,3.7020,1.0733,2.7834,-0.168738,0.168738,0.000000,0.693359,-0.655010,0.659612,-0.655010,0.627398,-0.585981
2.7025,0.016943,0.000000,0.000000,0.003508,1.8467,0.0000,2.0389,-0.180430,0.180430,-0.000270,0.002113,0.000801,3.7020,1.0733,2.7834,-0.170272,0.167204,0.000000,0.693359,-0.655010,0.659612,-0.655010,0.627398,-0.585981
2.7193,0.016748,0.000000,0.000000,0.003528,1.8555,0.0000,2.0570,-0.183175,0.183175,-0.000270,0.002113,0.000801,3.7020,1.0733,2.7834,-0.177942,0.171806,0.000000,0.693359,-0.655010,0.659612,-0.655010,0.627398,-0.585981
2.7361,0.016759,0.000000,0.000000,0.003548,1.8640,0.0000,2.0750,-0.185914,0.185914,-0.000270,0.002113,0.000801,3.7020,1.0733,2.7834,-0.182544,0.179476,0.000000,0.693359,-0.655010,0.659612,-0.655010,0.627398,-0.585981
2.7528,0.016747,0.000000,0.000000,0.003567,1.8723,0.0000,2.0930,-0.188639,0.188639,-0.000270,0.002113,0.000801,3.7020,1.0733,2.7834,-0.182544,0.179476,0.000000,0.693359,-0.655010,0.659612,-0.655010,0.627398,-0.585981
2.7696,0.016758,0.000000,0.000000,0.003586,1.8803,0.0000,2.1109,-0.191351,0.191351,-0.000310,0.002072,0.000815,3.6513,1.0536,2.7289,-0.181010,0.179476,0.000000,0.693359,-0.655010,0.659612,-0.655010,0.627398,-0.587515
2.7863,0.016746,0.000000,0.000000,0.003605,1.8880,0.0000,2.1288,-0.194046,0.194046,-0.000390,0.002077,0.000837,3.6539,1.0241,2.7361,-0.184078,0.179476,0.000000,0.694893,-0.655010,0.659612,-0.655010,0.627398,-0.589049
2.8030,0.016748,0.000000,0.000000,0.003623,1.8955,0.0000,2.1465,-0.196721,0.196721,-0.000426,0.002118,0.000845,3.7014,1.0148,2.7920,-0.191748,0.185612,0.000000,0.696427,-0.655010,0.659612,-0.655010,0.627398,-0.589049
2.8198,0.016744,0.000000,0.000000,0.003640,1.9028,0.0000,2.1643,-0.199373,0.199373,-0.000564,0.002213,0.000888,3.7525,1.0225,2.7905,-0.191748,0.190214,0.000000,0.699495,-0.655010,0.659612,-0.656544,0.627398,-0.590583
2.8367,0.016910,0.000000,0.000000,0.003658,1.9099,0.0000,2.1821,-0.202026,0.202026,-0.000564,0.002213,0.000888,3.7525,1.0225,2.7905,-0.191748,0.190214,0.000000,0.699495,-0.655010,0.659612,-0.656544,0.627398,-0.590583
2.8535,0.016825,0.000000,0.000000,0.003675,1.9166,-0.0000,2.1998,-0.204639,0.204639,-0.000564,0.002213,0.000888,3.7525,1.0225,2.7905,-0.191748,0.190214,0.000000,0.699495,-0.655010,0.659612,-0.656544,0.627398,-0.590583
2.8703,0.016753,0.000000,0.000000,0.003691,1.9231,0.0000,2.2173,-0.207210,0.207210,-0.000564,0.002213,0.000888,3.7525,1.0225,2.7905,-0.191748,0.190214,0.000000,0.699495,-0.655010,0.659612,-0.656544,0.627398,-0.590583
2.8870,0.016739,0.000000,0.000000,0.003707,1.9294,0.0000,2.2348,-0.209746,0.209746,-0.000729,0.002237,0.001052,3.9499,0.7917,2.5739,-0.200951,0.197884,0.000000,0.707165,-0.661146,0.659612,-0.658078,0.627398,-0.596719
2.9038,0.016765,0.000000,0.000000,0.003723,1.9353,0.0000,2.2523,-0.212252,0.212252,-0.000742,0.002217,0.001071,3.9649,0.7488,2.5415,-0.199418,0.196350,0.000000,0.708699,-0.662680,0.659612,-0.658078,0.627398,-0.598253
2.9205,0.016743,0.000000,0.000000,0.003738,1.9410,0.0000,2.2696,-0.214716,0.214716,-0.000711,0.002104,0.001124,3.9399,0.6441,2.3209,-0.200951,0.196350,0.000000,0.708699,-0.665748,0.659612,-0.658078,0.627398,-0.601320
2.9373,0.016751,0.000000,0.000000,0.003753,1.9465,0.0000,2.2869,-0.217141,0.217141,-0.000711,0.002104,0.001124,3.9399,0.6441,2.3209,-0.200951,0.196350,0.000000,0.708699,-0.665748,0.659612,-0.658078,0.627398,-0.601320
2.9540,0.016745,0.000000,0.000000,0.003767,1.9517,0.0000,2.3042,-0.219524,0.219524,-0.000699,0.002058,0.001145,3.9307,0.6008,2.2319,-0.207087,0.200951,0.000000,0.708699,-0.667282,0.659612,-0.658078,0.627398,-0.602854
2.9708,0.016748,0.000000,0.000000,0.003781,1.9566,0.0000,2.3213,-0.221861,0.221861,-0.000637,0.002068,0.001179,4.0556,0.5222,2.1842,-0.216291,0.211689,0.000000,0.710233,-0.670350,0.659612,-0.658078,0.627398,-0.602854
2.9875,0.016742,0.000000,0.000000,0.003794,1.9613,0.0000,2.3384,-0.224151,0.224151,-0.000673,0.002050,0.001212,4.0781,0.4637,2.1337,-0.217825,0.216291,0.000000,0.711767,-0.671884,0.659612,-0.658078,0.627398,-0.604388
3.0043,0.016752,0.000000,0.000000,0.003808,1.9657,0.0000,2.3555,-0.226393,0.226393,-0.000589,0.002133,0.001218,4.1753,0.5036,2.0834,-0.216291,0.214757,0.000000,0.711767,-0.673418,0.659612,-0.659612,0.627398,-0.602854
3.0210,0.016742,0.000000,0.000000,0.003820,1.9698,0.0000,2.3724,-0.228582,0.228582,-0.000682,0.002125,0.001241,4.1627,0.4681,2.0901,-0.223961,0.220893,0.000000,0.713301,-0.673418,0.659612,-0.659612,0.627398,-0.604388
3.0378,0.016796,0.000000,0.000000,0.003833,1.9737,0.0000,2.3894,-0.230723,0.230723,-0.000682,0.002125,0.001241,4.1627,0.4681,2.0901,-0.223961,0.220893,0.000000,0.713301,-0.673418,0.659612,-0.659612,0.627398,-0.604388
3.0545,0.016743,0.000000,0.000000,0.003844,1.9773,0.0000,2.4062,-0.232802,0.232802,-0.000677,0.002207,0.001272,4.2610,0.4742,2.0353,-0.225495,0.228563,0.000000,0.714835,-0.674952,0.659612,-0.661146,0.627398,-0.604388
3.0713,0.016762,0.000000,0.000000,0.003856,1.9807,0.0000,2.4230,-0.234825,0.234825,-0.000668,0.002222,0.001292,4.3362,0.4259,2.0407,-0.225495,0.227029,0.000000,0.716369,-0.676486,0.659612,-0.661146,0.627398,-0.604388
3.0881,0.016743,0.000000,0.000000,0.003867,1.9837,0.0000,2.4397,-0.236786,0.236786,-0.000630,0.002260,0.001276,4.3784,0.4499,2.0954,-0.231631,0.225495,0.000000,0.716369,-0.676486,0.659612,-0.661146,0.627398,-0.602854
3.1048,0.016753,0.000000,0.000000,0.003877,1.9865,0.0000,2.4564,-0.238686,0.238686,-0.000718,0.002257,0.001301,4.3715,0.4161,2.0912,-0.234699,0.234699,0.000000,0.717903,-0.676486,0.659612,-0.661146,0.627398,-0.604388
3.1216,0.016747,0.000000,0.000000,0.003887,1.9891,0.0000,2.4730,-0.240521,0.240521,-0.000754,0.002298,0.001308,4.4198,0.4074,2.1485,-0.234699,0.234699,0.000000,0.719437,-0.676486,0.659612,-0.661146,0.627398,-0.604388
3.1383,0.016752,0.000000,0.000000,0.003897,1.9914,0.0000,2.4895,-0.242291,0.242291,-0.000754,0.002298,0.001308,4.4198,0.4074,2.1485,-0.234699,0.234699,0.000000,0.719437,-0.676486,0.659612,-0.661146,0.627398,-0.604388
3.1551,0.016753,0.000000,0.000000,0.003906,1.9934,0.0000,2.5059,-0.243994,0.243994,-0.000751,0.002294,0.001307,4.4147,0.4084,2.1426,-0.237767,0.230097,0.000000,0.719437,-0.676486,0.659612,-0.661146,0.627398,-0.604388
3.1718,0.016756,0.000000,0.000000,0.003915,1.9951,0.0000,2.5223,-0.245627,0.245627,-0.000751,0.002294,0.001307,4.4147,0.4084,2.1426,-0.239301,0.236233,0.000000,0.719437,-0.676486,0.659612,-0.661146,0.627398,-0.604388
3.1886,0.016745,0.000000,0.000000,0.003924,1.9966,0.0000,2.5386,-0.247189,0.247189,-0.000796,0.002335,0.001317,4.4627,0.3961,2.2001,-0.239301,0.240835,0.000000,0.720971,-0.676486,0.659612,-0.661146,0.627398,-0.604388
3.2053,0.016758,0.000000,0.000000,0.003932,1.9978,0.0000,2.5548,-0.248679,0.248679,-0.000780,0.002387,0.001337,4.4668,0.3524,2.3044,-0.242369,0.242369,0.000000,0.722505,-0.676486,0.659612,-0.661146,0.628932,-0.604388
3.2222,0.016843,0.000000,0.000000,0.003939,1.9988,0.0000,2.5711,-0.250103,0.250103,-0.000575,0.002433,0.001358,4.4780,0.2751,2.3986,-0.248505,0.243903,0.000000,0.722505,-0.678020,0.659612,-0.661146,0.632000,-0.602854
3.2389,0.016757,0.000000,0.000000,0.003946,1.9995,0.0000,2.5872,-0.251443,0.251443,-0.000575,0.002433,0.001358,4.4780,0.2751,2.3986,-0.248505,0.243903,0.000000,0.722505,-0.678020,0.659612,-0.661146,0.632000,-0.602854
3.2557,0.016745,0.000000,0.000000,0.003953,1.9999,0.0000,2.6032,-0.252706,0.252706,-0.000531,0.002466,0.001390,4.5241,0.2029,2.4419,-0.246971,0.245437,0.000000,0.724039,-0.679553,0.659612,-0.661146,0.633534,-0.602854
3.2724,0.016757,0.000000,0.000000,0.003959,2.0000,0.0000,2.6191,-0.253892,0.253892,-0.000518,0.002438,0.001413,4.4310,0.1584,2.4357,-0.248505,0.248505,0.000000,0.724039,-0.679553,0.659612,-0.661146,0.635068,-0.604388
3.2892,0.016786,0.000000,0.000000,0.003965,1.9999,0.0000,2.6351,-0.255001,0.255001,-0.000480,0.002481,0.001396,4.4910,0.1822,2.4916,-0.251573,0.248505,0.000000,0.724039,-0.679553,0.659612,-0.661146,0.635068,-0.602854
3.3060,0.016750,0.000000,0.000000,0.003970,1.9995,0.0000,2.6509,-0.256027,0.256027,-0.000481,0.002510,0.001434,4.4078,0.1779,2.4303,-0.250039,0.250039,0.000000,0.724039,-0.679553,0.659612,-0.662680,0.636602,-0.604388
3.3227,0.016744,0.000000,0.000000,0.003975,1.9988,0.0000,2.6666,-0.256971,0.256971,-0.000368,0.002391,0.001457,4.3939,0.1093,2.5446,-0.253107,0.254641,0.000000,0.724039,-0.681087,0.661146,-0.661146,0.638136,-0.604388
3.3395,0.016757,0.000000,0.000000,0.003980,1.9979,0.0000,2.6822,-0.257834,0.257834,-0.000368,0.002391,0.001457,4.3939,0.1093,2.5446,-0.253107,0.254641,0.000000,0.724039,-0.681087,0.661146,-0.661146,0.638136,-0.604388
3.3562,0.016743,0.000000,0.000000,0.003984,1.9967,0.0000,2.6978,-0.258613,0.258613,-0.000474,0.002257,0.001481,4.3239,0.3001,2.7632,-0.257709,0.254641,0.000000,0.724039,-0.679553,0.665748,-0.661146,0.638136,-0.604388
3.3729,0.016745,0.000000,0.000000,0.003987,1.9952,0.0000,2.7133,-0.259309,0.259309,-0.000450,0.002315,0.001488,4.3813,0.3988,2.7996,-0.256175,0.254641,0.000000,0.724039,-0.679553,0.667282,-0.662680,0.638136,-0.602854
3.3897,0.016746,0.000000,0.000000,0.003990,1.9935,0.0000,2.7287,-0.259920,0.259920,-0.000465,0.002140,0.001501,4.3414,0.4364,2.9653,-0.256175,0.254641,0.000000,0.724039,-0.679553,0.670350,-0.661146,0.638136,-0.602854
3.4064,0.016748,0.000000,0.000000,0.003993,1.9915,0.0000,2.7441,-0.260446,0.260446,-0.000435,0.002031,0.001538,4.3610,0.4949,3.0065,-0.257709,0.256175,0.000000,0.724039,-0.681087,0.673418,-0.661146,0.638136,-0.602854
3.4232,0.016750,0.000000,0.000000,0.003995,1.9892,0.0000,2.7594,-0.260886,0.260886,-0.000477,0.001877,0.001572,4.3249,0.6353,3.1761,-0.259243,0.259243,0.000000,0.724039,-0.681087,0.678020,-0.661146,0.638136,-0.602854
3.4399,0.016753,0.000000,0.000000,0.003997,1.9867,0.0000,2.7746,-0.261241,0.261241,-0.000477,0.001877,0.001572,4.3249,0.6353,3.1761,-0.259243,0.259243,0.000000,0.724039,-0.681087,0.678020,-0.661146,0.638136,-0.602854
3.4567,0.016743,0.000000,0.000000,0.003999,1.9839,0.0000,2.7897,-0.261509,0.261509,-0.000538,0.001856,0.001606,4.2778,0.7006,3.1070,-0.259243,0.257709,0.000000,0.724039,-0.681087,0.679553,-0.662680,0.638136,-0.604388
3.4734,0.016752,0.000000,0.000000,0.003999,1.9808,0.0000,2.8047,-0.261690,0.261690,-0.000446,0.001777,0.001612,4.1858,0.7286,3.5042,-0.259243,0.259243,0.000000,0.724039,-0.679553,0.682621,-0.661146,0.641204,-0.602854
3.4902,0.016751,0.000000,0.000000,0.004000,1.9775,0.0000,2.8197,-0.261784,0.261784,-0.000456,0.001785,0.001611,4.1955,0.7255,3.4628,-0.262311,0.259243,0.000000,0.724039,-0.679553,0.682621,-0.661146,0.641204,-0.602854
3.5069,0.016747,0.000000,0.000000,0.004000,1.9739,0.0000,2.8346,-0.261792,0.261792,-0.000455,0.001785,0.001611,4.1948,0.7257,3.4658,-0.263845,0.259243,0.000000,0.724039,-0.679553,0.682621,-0.661146,0.641204,-0.602854
3.5237,0.016787,0.000000,0.000000,0.004000,1.9700,0.0000,2.8494,-0.261712,0.261712,-0.000455,0.001785,0.001611,4.1948,0.7257,3.4658,-0.262311,0.259243,0.000000,0.724039,-0.679553,0.682621,-0.661146,0.641204,-0.602854
3.5405,0.016759,0.000000,0.000000,0.003999,1.9659,0.0000,2.8642,-0.261545,0.261545,-0.000455,0.001785,0.001611,4.1948,0.7257,3.4658,-0.262311,0.259243,0.000000,0.724039,-0.679553,0.682621,-0.661146,0.641204,-0.602854
3.5572,0.016746,0.000000,0.000000,0.003997,1.9615,0.0000,2.8788,-0.261292,0.261292,-0.000440,0.001726,0.001638,4.1824,0.6714,3.3541,-0.262311,0.259243,0.000000,0.724039,-0.681087,0.682621,-0.661146,0.641204,-0.604388
3.5740,0.016751,0.000000,0.000000,0.003996,1.9568,0.0000,2.8934,-0.260952,0.260952,-0.000441,0.001732,0.001636,4.1837,0.6771,3.3658,-0.262311,0.259243,0.000000,0.724039,-0.681087,0.682621,-0.661146,0.641204,-0.604388
3.5907,0.016740,0.000000,0.000000,0.003994,1.9519,0.0000,2.9079,-0.260527,0.260527,-0.000456,0.001790,0.001609,4.1957,0.7308,3.4772,-0.262311,0.259243,0.000000,0.724039,-0.679553,0.682621,-0.661146,0.641204,-0.602854
3.6075,0.016748,0.000000,0.000000,0.003991,1.9467,0.0000,2.9223,-0.260015,0.260015,-0.000455,0.001784,0.001611,4.1944,0.7253,3.4656,-0.262311,0.259243,0.000000,0.724039,-0.679553,0.682621,-0.661146,0.641204,-0.602854
3.6243,0.016792,0.000000,0.000000,0.003988,1.9413,0.0000,2.9367,-0.259417,0.259417,-0.000400,0.001767,0.001624,4.2331,0.6906,3.4096,-0.262311,0.259243,0.000000,0.724039,-0.681087,0.682621,-0.661146,0.641204,-0.602854
3.6410,0.016752,0.000000,0.000000,0.003984,1.9356,0.0000,2.9509,-0.258735,0.258735,-0.000400,0.001767,0.001624,4.2331,0.6906,3.4096,-0.262311,0.259243,0.000000,0.724039,-0.681087,0.682621,-0.661146,0.641204,-0.602854
3.6577,0.016741,0.000000,0.000000,0.003980,1.9296,0.0000,2.9651,-0.257970,0.257970,-0.000460,0.001786,0.001610,4.1906,0.7295,3.4726,-0.262311,0.259243,0.000000,0.724039,-0.679553,0.682621,-0.661146,0.641204,-0.602854
3.6745,0.016746,0.000000,0.000000,0.003976,1.9234,0.0000,2.9792,-0.257121,0.257121,-0.000454,0.001784,0.001611,4.1950,0.7254,3.4661,-0.262311,0.259243,0.000000,0.724039,-0.679553,0.682621,-0.661146,0.641204,-0.602854
3.6912,0.016742,0.000000,0.000000,0.003971,1.9169,0.0000,2.9932,-0.256191,0.256191,-0.000508,0.001803,0.001637,4.1550,0.7574,3.3573,-0.260777,0.259243,0.000000,0.724039,-0.679553,0.682621,-0.662680,0.641204,-0.604388
3.7080,0.016746,0.000000,0.000000,0.003966,1.9102,0.0000,3.0071,-0.255179,0.255179,-0.000489,0.001742,0.001623,4.1480,0.7034,3.4226,-0.260777,0.257709,0.000000,0.724039,-0.679553,0.682621,-0.661146,0.641204,-0.604388
3.7247,0.016748,0.000000,0.000000,0.003960,1.9032,0.0000,3.0209,-0.254086,0.254086,-0.000491,0.001748,0.001624,4.1488,0.7090,3.4158,-0.260777,0.256175,0.000000,0.724039,-0.679553,0.682621,-0.661146,0.641204,-0.604388
3.7415,0.016750,0.000000,0.000000,0.003954,1.8960,0.0000,3.0347,-0.252914,0.252914,-0.000491,0.001748,0.001624,4.1488,0.7090,3.4158,-0.260777,0.256175,0.000000,0.724039,-0.679553,0.682621,-0.661146,0.641204,-0.604388
3.7582,0.016741,0.000000,0.000000,0.003947,1.8885,0.0000,3.0483,-0.251665,0.251665,-0.000491,0.001748,0.001624,4.1488,0.7090,3.4158,-0.260777,0.256175,0.000000,0.724039,-0.679553,0.682621,-0.661146,0.641204,-0.604388
3.7750,0.016750,0.000000,0.000000,0.003940,1.8807,0.0000,3.0619,-0.250338,0.250338,-0.000491,0.001748,0.001624,4.1488,0.7090,3.4158,-0.260777,0.256175,0.000000,0.724039,-0.679553,0.682621,-0.661146,0.641204,-0.604388
3.7917,0.016739,0.000000,0.000000,0.003933,1.8727,0.0000,3.0754,-0.248936,0.248936,-0.000436,0.001730,0.001637,4.1872,0.6732,3.3593,-0.260777,0.254641,0.000000,0.724039,-0.681087,0.682621,-0.661146,0.641204,-0.604388
3.8085,0.016747,0.000000,0.000000,0.003925,1.8645,0.0000,3.0888,-0.247460,0.247460,-0.000496,0.001750,0.001623,4.1447,0.7122,3.4223,-0.260777,0.254641,0.000000,0.724039,-0.679553,0.682621,-0.661146,0.641204,-0.604388
3.8252,0.016746,0.000000,0.000000,0.003917,1.8560,0.0000,3.1021,-0.245911,0.245911,-0.000445,0.001707,0.001614,4.1022,0.7200,3.3586,-0.259243,0.254641,0.000000,0.722505,-0.679553,0.682621,-0.661146,0.641204,-0.604388
3.8420,0.016753,0.000000,0.000000,0.003908,1.8472,0.0000,3.1154,-0.244290,0.244290,-0.000445,0.001707,0.001614,4.1022,0.7200,3.3586,-0.259243,0.254641,0.000000,0.722505,-0.679553,0.682621,-0.661146,0.641204,-0.604388
3.8587,0.016738,0.000000,0.000000,0.003899,1.8382,0.0000,3.1285,-0.242601,0.242601,-0.000495,0.001752,0.001625,4.1536,0.7073,3.4224,-0.257709,0.254641,0.000000,0.724039,-0.679553,0.682621,-0.661146,0.641204,-0.604388
3.8755,0.016840,0.000000,0.000000,0.003889,1.8289,0.0000,3.1417,-0.240834,0.240834,-0.000451,0.001788,0.001610,4.1988,0.7277,3.4713,-0.256175,0.254641,0.000000,0.724039,-0.679553,0.682621,-0.661146,0.641204,-0.602854
3.8939,0.018371,0.000000,0.000000,0.003878,1.8185,0.0000,3.1559,-0.238830,0.238830,-0.000451,0.001788,0.001610,4.1988,0.7277,3.4713,-0.256175,0.254641,0.000000,0.724039,-0.679553,0.682621,-0.661146,0.641204,-0.602854
3.9107,0.016824,0.000000,0.000000,0.003868,1.8087,0.0000,3.1689,-0.236926,0.236926,-0.000451,0.001788,0.001610,4.1988,0.7277,3.4713,-0.256175,0.254641,0.000000,0.724039,-0.679553,0.682621,-0.661146,0.641204,-0.602854
3.9275,0.016763,0.000000,0.000000,0.003857,1.7987,0.0000,3.1817,-0.234968,0.234968,-0.000451,0.001788,0.001610,4.1988,0.7277,3.4713,-0.256175,0.254641,0.000000,0.724039,-0.679553,0.682621,-0.661146,0.641204,-0.602854
3.9442,0.016755,0.000000,0.000000,0.003845,1.7884,0.0000,3.1944,-0.232950,0.232950,-0.000495,0.001744,0.001625,4.1435,0.7065,3.4107,-0.256175,0.253107,0.000000,0.724039,-0.679553,0.682621,-0.661146,0.641204,-0.604388
3.9611,0.016816,0.000000,0.000000,0.003833,1.7779,0.0000,3.2071,-0.230866,0.230866,-0.000490,0.001748,0.001624,4.1493,0.7087,3.4170,-0.256175,0.251573,0.000000,0.724039,-0.679553,0.682621,-0.661146,0.641204,-0.604388
3.9778,0.016754,0.000000,0.000000,0.003821,1.7672,0.0000,3.2196,-0.228733,0.228733,-0.000490,0.001748,0.001624,4.1493,0.7087,3.4170,-0.256175,0.251573,0.000000,0.724039,-0.679553,0.682621,-0.661146,0.641204,-0.604388
3.9946,0.016753,0.000000,0.000000,0.003808,1.7562,0.0000,3.2321,-0.226547,0.226547,-0.000451,0.001788,0.001610,4.1993,0.7276,3.4719,-0.256175,0.250039,0.000000,0.724039,-0.679553,0.682621,-0.661146,0.641204,-0.602854
4.0113,0.016759,0.000000,0.000000,0.003795,1.7450,0.0000,3.2444,-0.224308,0.224308,-0.000455,0.001784,0.001611,4.1941,0.7256,3.4661,-0.248505,0.239301,0.000000,0.724039,-0.679553,0.682621,-0.661146,0.641204,-0.602854
4.0280,0.016715,0.000000,0.000000,0.003782,1.7336,0.0000,3.2567,-0.222025,0.222025,-0.000455,0.001784,0.001611,4.1941,0.7256,3.4661,-0.237767,0.231631,0.000000,0.724039,-0.679553,0.682621,-0.661146,0.641204,-0.604388
4.0448,0.016758,0.000000,0.000000,0.003768,1.7219,0.0000,3.2688,-0.219689,0.219689,-0.000494,0.001744,0.001625,4.1440,0.7067,3.4112,-0.237767,0.231631,0.000000,0.724039,-0.679553,0.682621,-0.661146,0.641204,-0.604388
4.0615,0.016745,0.000000,0.000000,0.003754,1.7101,0.0000,3.2809,-0.217310,0.217310,-0.000451,0.001789,0.001610,4.1998,0.7278,3.4725,-0.228563,0.228563,0.000000,0.724039,-0.679553,0.682621,-0.661146,0.641204,-0.602854
4.0783,0.016752,0.000000,0.000000,0.003739,1.6979,0.0000,3.2929,-0.214887,0.214887,-0.000455,0.001784,0.001611,4.1940,0.7256,3.4661,-0.222427,0.227029,0.000000,0.724039,-0.679553,0.682621,-0.661146,0.641204,-0.602854
4.0950,0.016746,0.000000,0.000000,0.003724,1.6856,0.0000,3.3048,-0.212425,0.212425,-0.000494,0.001744,0.001625,4.1440,0.7067,3.4112,-0.220893,0.227029,0.000000,0.724039,-0.679553,0.682621,-0.661146,0.641204,-0.604388
4.1118,0.016763,0.000000,0.000000,0.003708,1.6730,0.0000,3.3166,-0.209923,0.209923,-0.000451,0.001789,0.001610,4.1998,0.7278,3.4725,-0.216291,0.227029,0.000000,0.724039,-0.679553,0.682621,-0.661146,0.641204,-0.602854
4.1286,0.016745,0.000000,0.000000,0.003692,1.6602,0.0000,3.3284,-0.207388,0.207388,-0.000451,0.001789,0.001610,4.1998,0.7278,3.4725,-0.214757,0.227029,0.000000,0.724039,-0.679553,0.682621,-0.661146,0.641204,-0.602854
4.1453,0.016754,0.000000,0.000000,0.003676,1.6472,0.0000,3.3400,-0.204818,0.204818,-0.000455,0.001784,0.001611,4.1940,0.7256,3.4661,-0.214757,0.227029,0.000000,0.724039,-0.679553,0.682621,-0.661146,0.641204,-0.602854
4.1620,0.016741,0.000000,0.000000,0.003659,1.6339,0.0000,3.3515,-0.202221,0.202221,-0.000494,0.001744,0.001625,4.1440,0.7067,3.4112,-0.214757,0.227029,0.000000,0.724039,-0.679553,0.682621,-0.661146,0.641204,-0.604388
4.1788,0.016751,0.000000,0.000000,0.003642,1.6205,0.0000,3.3630,-0.199595,0.199595,-0.000490,0.001748,0.001624,4.1492,0.7087,3.4169,-0.214757,0.223961,0.000000,0.724039,-0.679553,0.682621,-0.661146,0.641204,-0.604388
4.1955,0.016741,0.000000,0.000000,0.003624,1.6068,0.0000,3.3743,-0.196945,0.196945,-0.000490,0.001748,0.001624,4.1492,0.7087,3.4169,-0.213223,0.220893,0.000000,0.724039,-0.679553,0.682621,-0.661146,0.641204,-0.604388
4.2124,0.016869,0.000000,0.000000,0.003606,1.5928,0.0000,3.3856,-0.194252,0.194252,-0.000490,0.001748,0.001624,4.1492,0.7087,3.4169,-0.208621,0.211689,0.000000,0.724039,-0.679553,0.682621,-0.661146,0.641204,-0.604388
4.2292,0.016747,0.000000,0.000000,0.003588,1.5787,0.0000,3.3968,-0.191559,0.191559,-0.000490,0.001748,0.001624,4.1492,0.7087,3.4169,-0.208621,0.211689,0.000000,0.724039,-0.679553,0.682621,-0.661146,0.641204,-0.604388
4.2459,0.016749,0.000000,0.000000,0.003569,1.5644,0.0000,3.4079,-0.188849,0.188849,-0.000451,0.001788,0.001610,4.1993,0.7276,3.4719,-0.202485,0.205553,0.000000,0.724039,-0.679553,0.682621,-0.661146,0.641204,-0.602854
4.2627,0.016749,0.000000,0.000000,0.003549,1.5499,0.0000,3.4188,-0.186125,0.186125,-0.000455,0.001784,0.001611,4.1941,0.7256,3.4661,-0.200951,0.199418,0.000000,0.724039,-0.679553,0.682621,-0.661146,0.641204,-0.602854
4.2796,0.016942,0.000000,0.000000,0.003530,1.5350,0.0000,3.4298,-0.183357,0.183357,-0.000494,0.001744,0.001625,4.1440,0.7067,3.4112,-0.199418,0.196350,0.000000,0.724039,-0.679553,0.682621,-0.661146,0.641204,-0.604388
4.2964,0.016759,0.000000,0.000000,0.003510,1.5200,0.0000,3.4406,-0.180611,0.180611,-0.000490,0.001748,0.001624,4.1492,0.7087,3.4169,-0.199418,0.194816,0.000000,0.724039,-0.679553,0.682621,-0.661146,0.641204,-0.604388
4.3131,0.016770,0.000000,0.000000,0.003489,1.5048,0.0000,3.4513,-0.177856,0.177856,-0.000490,0.001748,0.001624,4.1492,0.7087,3.4169,-0.194816,0.193282,0.000000,0.722505,-0.679553,0.682621,-0.661146,0.641204,-0.604388
4.3299,0.016749,0.000000,0.000000,0.003468,1.4895,0.0000,3.4619,-0.175102,0.175102,-0.000445,0.001707,0.001614,4.1017,0.7204,3.3591,-0.194816,0.193282,0.000000,0.722505,-0.679553,0.682621,-0.661146,0.641204,-0.604388
4.3466,0.016748,0.000000,0.000000,0.003447,1.4739,0.0000,3.4724,-0.172347,0.172347,-0.000456,0.001792,0.001611,4.2042,0.7263,3.4779,-0.187146,0.188680,0.000000,0.724039,-0.679553,0.682621,-0.661146,0.641204,-0.602854
4.3634,0.016746,0.000000,0.000000,0.003426,1.4582,0.0000,3.4828,-0.169595,0.169595,-0.000409,0.001742,0.001602,4.1466,0.7376,3.4083,-0.181010,0.184078,0.000000,0.722505,-0.679553,0.682621,-0.661146,0.641204,-0.602854
4.3801,0.016746,0.000000,0.000000,0.003404,1.4423,0.0000,3.4931,-0.166848,0.166848,-0.000460,0.001789,0.001612,4.1996,0.7246,3.4728,-0.179476,0.177942,0.000000,0.724039,-0.679553,0.682621,-0.661146,0.641204,-0.602854
4.3971,0.016971,0.000000,0.000000,0.003381,1.4259,0.0000,3.5035,-0.164072,0.164072,-0.000454,0.001784,0.001611,4.1940,0.7259,3.4660,-0.177942,0.173340,0.000000,0.724039,-0.679553,0.682621,-0.661146,0.641204,-0.602854
4.4140,0.016909,0.000000,0.000000,0.003358,1.4094,0.0000,3.5137,-0.161316,0.161316,-0.000454,0.001784,0.001611,4.1940,0.7259,3.4660,-0.176408,0.168738,0.000000,0.724039,-0.679553,0.682621,-0.661146,0.641204,-0.602854
4.4307,0.016749,0.000000,0.000000,0.003335,1.3929,0.0000,3.5237,-0.158600,0.158600,-0.000454,0.001784,0.001611,4.1940,0.7259,3.4660,-0.176408,0.168738,0.000000,0.724039,-0.679553,0.682621,-0.661146,0.641204,-0.602854
4.4475,0.016752,0.000000,0.000000,0.003312,1.3762,0.0000,3.5336,-0.155899,0.155899,-0.000400,0.001767,0.001624,4.2331,0.6905,3.4096,-0.174874,0.167204,0.000000,0.724039,-0.681087,0.682621,-0.661146,0.641204,-0.602854
4.4642,0.016745,0.000000,0.000000,0.003288,1.3593,0.0000,3.5434,-0.153218,0.153218,-0.000460,0.001786,0.001610,4.1906,0.7295,3.4726,-0.174874,0.165670,0.000000,0.724039,-0.679553,0.682621,-0.661146,0.641204,-0.602854
4.4810,0.016743,0.000000,0.000000,0.003264,1.3422,0.0000,3.5531,-0.150558,0.150558,-0.000454,0.001784,0.001611,4.1950,0.7254,3.4661,-0.173340,0.164136,0.000000,0.724039,-0.679553,0.682621,-0.661146,0.641204,-0.602854
4.4977,0.016748,0.000000,0.000000,0.003239,1.3250,0.0000,3.5627,-0.147921,0.147921,-0.000494,0.001744,0.001625,4.1439,0.7067,3.4112,-0.168738,0.159534,0.000000,0.724039,-0.679553,0.682621,-0.661146,0.641204,-0.604388
4.5145,0.016753,0.000000,0.000000,0.003215,1.3075,0.0000,3.5723,-0.145311,0.145311,-0.000451,0.001789,0.001610,4.1998,0.7278,3.4725,-0.159534,0.153398,0.000000,0.724039,-0.679553,0.682621,-0.661146,0.641204,-0.602854
4.5312,0.016749,0.000000,0.000000,0.003189,1.2899,0.0000,3.5817,-0.142730,0.142730,-0.000451,0.001789,0.001610,4.1998,0.7278,3.4725,-0.159534,0.153398,0.000000,0.724039,-0.679553,0.682621,-0.661146,0.641204,-0.602854
4.5480,0.016748,0.000000,0.000000,0.003164,1.2722,0.0000,3.5910,-0.140180,0.140180,-0.000495,0.001744,0.001625,4.1434,0.7065,3.4106,-0.150330,0.148796,0.000000,0.724039,-0.679553,0.682621,-0.661146,0.641204,-0.604388
