t,loop_dt,cmd_x,cmd_y,cmd_z,cmd_roll,cmd_pitch,cmd_yaw,cmd_ant_l,cmd_ant_r,pres_x,pres_y,pres_z,pres_roll,pres_pitch,pres_yaw,pres_ant_l,pres_ant_r,pres_j0,pres_j1,pres_j2,pres_j3,pres_j4,pres_j5,pres_j6
0.0000,0.000001,0.000398,0.000490,-0.002018,0.7212,0.3218,0.9711,0.001534,0.000000,0.000398,0.000490,-0.002018,0.7212,0.3218,0.9711,0.001534,0.000000,0.000000,0.585981,-0.581379,0.585981,-0.582913,0.582913,-0.559903
0.0168,0.016832,0.000391,0.000482,-0.001984,0.7090,0.3165,0.9547,0.001508,0.000000,0.000398,0.000490,-0.002018,0.7212,0.3218,0.9711,0.001534,0.000000,0.000000,0.585981,-0.581379,0.585981,-0.582913,0.582913,-0.559903
0.0336,0.016747,0.000385,0.000473,-0.001950,0.6969,0.3112,0.9385,0.001482,0.000000,0.000398,0.000490,-0.002018,0.7212,0.3218,0.9711,0.001534,0.000000,0.000000,0.585981,-0.581379,0.585981,-0.582913,0.582913,-0.559903
0.0503,0.016757,0.000378,0.000465,-0.001917,0.6848,0.3059,0.9221,0.001457,0.000000,0.000398,0.000490,-0.002018,0.7212,0.3218,0.9711,-0.003068,0.000000,0.000000,0.585981,-0.581379,0.585981,-0.582913,0.582913,-0.559903
0.0671,0.016792,0.000371,0.000457,-0.001883,0.6726,0.3006,0.9058,0.001431,0.000000,0.000398,0.000490,-0.002018,0.7212,0.3218,0.9711,-0.003068,0.000000,0.000000,0.585981,-0.581379,0.585981,-0.582913,0.582913,-0.559903
0.0839,0.016742,0.000365,0.000449,-0.001849,0.6605,0.2953,0.8895,0.001405,0.000000,0.000468,0.000467,-0.002068,0.6328,0.4051,0.9713,0.001534,0.000000,0.000000,0.582913,-0.579845,0.585981,-0.582913,0.582913,-0.558369
0.1006,0.016745,0.000358,0.000441,-0.001815,0.6484,0.2900,0.8732,0.001380,0.000000,0.000583,0.000523,-0.002188,0.6544,0.6174,1.0773,0.004602,0.000000,0.000000,0.578311,-0.576777,0.585981,-0.582913,0.581379,-0.552233
0.1174,0.016754,0.000351,0.000432,-0.001781,0.6363,0.2847,0.8570,0.001354,0.000000,0.000707,0.000533,-0.002189,0.6145,0.5939,1.1192,0.001534,0.000000,0.000000,0.576777,-0.576777,0.585981,-0.582913,0.582913,-0.550699
0.1341,0.016738,0.000345,0.000424,-0.001747,0.6242,0.2794,0.8407,0.001328,0.000000,0.000707,0.000533,-0.002189,0.6145,0.5939,1.1192,0.001534,0.000000,0.000000,0.576777,-0.576777,0.585981,-0.582913,0.582913,-0.550699
0.1509,0.016751,0.000338,0.000416,-0.001714,0.6121,0.2741,0.8244,0.001303,0.000000,0.000680,0.000586,-0.002215,0.6297,0.6491,1.2217,-0.003068,0.000000,0.000000,0.576777,-0.575243,0.585981,-0.582913,0.582913,-0.549165
0.1676,0.016739,0.000331,0.000408,-0.001680,0.6000,0.2687,0.8081,0.001277,0.000000,0.000737,0.000565,-0.002200,0.6675,0.6080,1.1574,-0.001534,0.000000,0.000000,0.576777,-0.576777,0.585981,-0.582913,0.582913,-0.549165
0.1844,0.016755,0.000325,0.000400,-0.001646,0.5879,0.2634,0.7918,0.001251,0.000000,0.000731,0.000567,-0.002202,0.6636,0.6123,1.1641,0.003068,0.000000,0.000000,0.576777,-0.576777,0.585981,-0.582913,0.582913,-0.549165
0.2011,0.016744,0.000318,0.000391,-0.001612,0.5758,0.2581,0.7755,0.001226,0.000000,0.000637,0.000513,-0.002200,0.6520,0.6289,1.0568,0.001534,0.000000,0.000000,0.576777,-0.576777,0.585981,-0.582913,0.581379,-0.550699
0.2179,0.016786,0.000311,0.000383,-0.001578,0.5636,0.2528,0.7592,0.001200,0.000000,0.000701,0.000534,-0.002188,0.6147,0.5927,1.1213,-0.003068,0.000000,0.000000,0.576777,-0.576777,0.585981,-0.582913,0.582913,-0.550699
0.2346,0.016740,0.000305,0.000375,-0.001545,0.5515,0.2474,0.7429,0.001174,0.000000,0.000701,0.000534,-0.002188,0.6147,0.5927,1.1213,-0.003068,0.000000,0.000000,0.576777,-0.576777,0.585981,-0.582913,0.582913,-0.550699
0.2514,0.016752,0.000298,0.000367,-0.001511,0.5394,0.2421,0.7267,0.001148,0.000000,0.000735,0.000570,-0.002203,0.6691,0.6139,1.1679,-0.001534,0.000000,0.000000,0.576777,-0.576777,0.585981,-0.582913,0.582913,-0.549165
0.2681,0.016743,0.000291,0.000358,-0.001477,0.5273,0.2367,0.7104,0.001123,0.000000,0.000731,0.000566,-0.002201,0.6634,0.6117,1.1630,0.004602,0.000000,0.000000,0.576777,-0.576777,0.585981,-0.582913,0.582913,-0.549165
0.2849,0.016762,0.000285,0.000350,-0.001443,0.5152,0.2314,0.6941,0.001097,0.000000,0.000731,0.000566,-0.002201,0.6634,0.6117,1.1630,0.003068,0.000000,0.000000,0.576777,-0.576777,0.585981,-0.582913,0.582913,-0.549165
0.3016,0.016749,0.000278,0.000342,-0.001409,0.5031,0.2261,0.6778,0.001071,0.000000,0.000731,0.000566,-0.002201,0.6634,0.6117,1.1630,-0.003068,0.000000,0.000000,0.576777,-0.576777,0.585981,-0.582913,0.582913,-0.549165
0.3184,0.016776,0.000271,0.000334,-0.001376,0.4910,0.2207,0.6615,0.001046,0.000000,0.000731,0.000566,-0.002201,0.6634,0.6117,1.1630,-0.003068,0.000000,0.000000,0.576777,-0.576777,0.585981,-0.582913,0.582913,-0.549165
0.3351,0.016741,0.000265,0.000326,-0.001342,0.4789,0.2153,0.6452,0.001020,0.000000,0.000731,0.000566,-0.002201,0.6634,0.6117,1.1630,-0.003068,0.000000,0.000000,0.576777,-0.576777,0.585981,-0.582913,0.582913,-0.549165
0.3519,0.016746,0.000258,0.000317,-0.001308,0.4668,0.2100,0.6290,0.000994,0.000000,0.000691,0.000528,-0.002188,0.6135,0.5945,1.1102,0.004602,0.000000,0.000000,0.576777,-0.576777,0.585981,-0.582913,0.582913,-0.550699
0.3686,0.016751,0.000251,0.000309,-0.001274,0.4547,0.2046,0.6127,0.000968,0.000000,0.000736,0.000571,-0.002203,0.6692,0.6137,1.1690,0.004602,0.000000,0.000000,0.576777,-0.576777,0.585981,-0.582913,0.582913,-0.549165
0.3854,0.016762,0.000245,0.000301,-0.001240,0.4426,0.1993,0.5964,0.000943,0.000000,0.000677,0.000551,-0.002213,0.7018,0.6462,1.1096,0.000000,0.000000,0.000000,0.576777,-0.576777,0.585981,-0.582913,0.581379,-0.549165
0.4022,0.016782,0.000238,0.000293,-0.001206,0.4305,0.1939,0.5801,0.000917,0.000000,0.000683,0.000553,-0.002212,0.6984,0.6428,1.1158,-0.003068,0.000000,0.000000,0.576777,-0.576777,0.585981,-0.582913,0.581379,-0.549165
0.4190,0.016771,0.000231,0.000285,-0.001173,0.4184,0.1885,0.5638,0.000891,0.000000,0.000683,0.000553,-0.002212,0.6984,0.6428,1.1158,-0.003068,0.000000,0.000000,0.576777,-0.576777,0.585981,-0.582913,0.581379,-0.549165
0.4357,0.016746,0.000225,0.000276,-0.001139,0.4063,0.1831,0.5475,0.000866,0.000000,0.000736,0.000568,-0.002200,0.6603,0.6087,1.1685,-0.001534,0.000000,0.000000,0.576777,-0.576777,0.585981,-0.582913,0.582913,-0.549165
0.4525,0.016752,0.000218,0.000268,-0.001105,0.3942,0.1777,0.5313,0.000840,0.000000,0.000731,0.000566,-0.002202,0.6643,0.6122,1.1630,0.003068,0.000000,0.000000,0.576777,-0.576777,0.585981,-0.582913,0.582913,-0.549165
0.4692,0.016742,0.000211,0.000260,-0.001071,0.3822,0.1724,0.5150,0.000814,0.000000,0.000678,0.000583,-0.002214,0.6245,0.6472,1.2171,0.001534,0.000000,0.000000,0.576777,-0.575243,0.585981,-0.582913,0.582913,-0.549165
0.4859,0.016750,0.000205,0.000252,-0.001037,0.3701,0.1670,0.4987,0.000789,0.000000,0.000683,0.000581,-0.002213,0.6286,0.6435,1.2115,-0.003068,0.000000,0.000000,0.576777,-0.575243,0.585981,-0.582913,0.582913,-0.549165
0.5028,0.016839,0.000198,0.000244,-0.001003,0.3579,0.1616,0.4824,0.000763,0.000000,0.000736,0.000565,-0.002200,0.6676,0.6086,1.1585,-0.001534,0.000000,0.000000,0.576777,-0.576777,0.585981,-0.582913,0.582913,-0.549165
0.5196,0.016773,0.000191,0.000235,-0.000970,0.3458,0.1562,0.4661,0.000737,0.000000,0.000736,0.000565,-0.002200,0.6676,0.6086,1.1585,-0.001534,0.000000,0.000000,0.576777,-0.576777,0.585981,-0.582913,0.582913,-0.549165
0.5363,0.016739,0.000185,0.000227,-0.000936,0.3338,0.1508,0.4498,0.000711,0.000000,0.000731,0.000567,-0.002202,0.6635,0.6122,1.1640,0.001534,0.000000,0.000000,0.576777,-0.576777,0.585981,-0.582913,0.582913,-0.549165
0.5530,0.016750,0.000178,0.000219,-0.000902,0.3217,0.1454,0.4336,0.000686,0.000000,0.000731,0.000567,-0.002202,0.6635,0.6122,1.1640,0.001534,0.000000,0.000000,0.576777,-0.576777,0.585981,-0.582913,0.582913,-0.549165
0.5698,0.016746,0.000171,0.000211,-0.000868,0.3096,0.1400,0.4173,0.000660,0.000000,0.000731,0.000567,-0.002202,0.6635,0.6122,1.1640,0.000000,0.000000,0.000000,0.576777,-0.576777,0.585981,-0.582913,0.582913,-0.549165
0.5866,0.016764,0.000165,0.000203,-0.000834,0.2975,0.1346,0.4010,0.000634,0.000000,0.000731,0.000567,-0.002202,0.6635,0.6122,1.1640,-0.003068,0.000000,0.000000,0.576777,-0.576777,0.585981,-0.582913,0.582913,-0.549165
0.6033,0.016751,0.000158,0.000194,-0.000801,0.2855,0.1291,0.3848,0.000609,0.000000,0.000731,0.000567,-0.002202,0.6635,0.6122,1.1640,-0.001534,0.000000,0.000000,0.576777,-0.576777,0.585981,-0.582913,0.582913,-0.549165
0.6201,0.016761,0.000151,0.000186,-0.000767,0.2734,0.1237,0.3685,0.000583,0.000000,0.000731,0.000567,-0.002202,0.6635,0.6122,1.1640,-0.001534,0.000000,0.000000,0.576777,-0.576777,0.585981,-0.582913,0.582913,-0.549165
0.6368,0.016750,0.000145,0.000178,-0.000733,0.2613,0.1183,0.3522,0.000557,0.000000,0.000731,0.000567,-0.002202,0.6635,0.6122,1.1640,0.003068,0.000000,0.000000,0.576777,-0.576777,0.585981,-0.582913,0.582913,-0.549165
0.6536,0.016752,0.000138,0.000170,-0.000699,0.2492,0.1129,0.3360,0.000531,0.000000,0.000677,0.000551,-0.002213,0.7024,0.6463,1.1101,0.001534,0.000000,0.000000,0.576777,-0.576777,0.585981,-0.582913,0.581379,-0.549165
0.6703,0.016744,0.000131,0.000161,-0.000665,0.2372,0.1075,0.3197,0.000506,0.000000,0.000737,0.000568,-0.002200,0.6599,0.6083,1.1690,-0.004602,0.000000,0.000000,0.576777,-0.576777,0.585981,-0.582913,0.582913,-0.549165
0.6871,0.016748,0.000125,0.000153,-0.000632,0.2251,0.1020,0.3035,0.000480,0.000000,0.000731,0.000566,-0.002202,0.6644,0.6123,1.1629,-0.001534,0.000000,0.000000,0.576777,-0.576777,0.585981,-0.582913,0.582913,-0.549165
0.7038,0.016751,0.000118,0.000145,-0.000598,0.2131,0.0966,0.2872,0.000454,0.000000,0.000677,0.000551,-0.002213,0.7023,0.6463,1.1102,0.004602,0.000000,0.000000,0.576777,-0.576777,0.585981,-0.582913,0.581379,-0.549165
0.7206,0.016753,0.000111,0.000137,-0.000564,0.2010,0.0912,0.2710,0.000429,0.000000,0.000677,0.000551,-0.002213,0.7023,0.6463,1.1102,0.004602,0.000000,0.000000,0.576777,-0.576777,0.585981,-0.582913,0.581379,-0.549165
0.7373,0.016744,0.000105,0.000129,-0.000530,0.1889,0.0857,0.2547,0.000403,0.000000,0.000697,0.000530,-0.002187,0.6095,0.5909,1.1157,0.003068,0.000000,0.000000,0.576777,-0.576777,0.585981,-0.582913,0.582913,-0.550699
0.7541,0.016751,0.000098,0.000120,-0.000496,0.1769,0.0803,0.2385,0.000377,0.000000,0.000681,0.000555,-0.002215,0.7080,0.6485,1.1151,-0.003068,0.000000,0.000000,0.576777,-0.576777,0.585981,-0.582913,0.581379,-0.549165
0.7708,0.016739,0.000091,0.000112,-0.000463,0.1648,0.0749,0.2222,0.000352,0.000000,0.000737,0.000568,-0.002200,0.6593,0.6081,1.1685,-0.003068,0.000000,0.000000,0.576777,-0.576777,0.585981,-0.582913,0.582913,-0.549165
0.7876,0.016752,0.000085,0.000104,-0.000429,0.1528,0.0694,0.2060,0.000326,0.000000,0.000731,0.000567,-0.002202,0.6644,0.6123,1.1630,0.000000,0.000000,0.000000,0.576777,-0.576777,0.585981,-0.582913,0.582913,-0.549165
0.8044,0.016881,0.000078,0.000096,-0.000395,0.1406,0.0639,0.1896,0.000300,0.000000,0.000731,0.000567,-0.002202,0.6644,0.6123,1.1630,0.003068,0.000000,0.000000,0.576777,-0.576777,0.585981,-0.582913,0.582913,-0.549165
0.8212,0.016754,0.000071,0.000088,-0.000361,0.1286,0.0585,0.1734,0.000274,0.000000,0.000731,0.000567,-0.002202,0.6644,0.6123,1.1630,0.003068,0.000000,0.000000,0.576777,-0.576777,0.585981,-0.582913,0.582913,-0.549165
0.8379,0.016743,0.000065,0.000079,-0.000327,0.1165,0.0530,0.1571,0.000249,0.000000,0.000677,0.000551,-0.002213,0.7023,0.6463,1.1102,0.000000,0.000000,0.000000,0.576777,-0.576777,0.585981,-0.582913,0.581379,-0.549165
0.8547,0.016749,0.000058,0.000071,-0.000293,0.1045,0.0475,0.1409,0.000223,0.000000,0.000737,0.000568,-0.002200,0.6599,0.6083,1.1690,-0.003068,0.000000,0.000000,0.576777,-0.576777,0.585981,-0.582913,0.582913,-0.549165
0.8714,0.016741,0.000051,0.000063,-0.000259,0.0924,0.0421,0.1246,0.000197,0.000000,0.000731,0.000566,-0.002202,0.6643,0.6123,1.1629,-0.001534,0.000000,0.000000,0.576777,-0.576777,0.585981,-0.582913,0.582913,-0.549165
0.8882,0.016756,0.000045,0.000055,-0.000226,0.0804,0.0366,0.1084,0.000172,0.000000,0.000731,0.000566,-0.002202,0.6643,0.6123,1.1629,0.001534,0.000000,0.000000,0.576777,-0.576777,0.585981,-0.582913,0.582913,-0.549165
0.9050,0.016809,0.000038,0.000047,-0.000192,0.0683,0.0311,0.0921,0.000146,0.000000,0.000731,0.000566,-0.002202,0.6643,0.6123,1.1629,-0.003068,0.000000,0.000000,0.576777,-0.576777,0.585981,-0.582913,0.582913,-0.550699
0.9217,0.016749,0.000031,0.000038,-0.000158,0.0563,0.0256,0.0759,0.000120,0.000000,0.000691,0.000528,-0.002188,0.6134,0.5944,1.1102,-0.003068,0.000000,0.000000,0.576777,-0.576777,0.585981,-0.582913,0.582913,-0.550699
0.9385,0.016796,0.000024,0.000030,-0.000124,0.0442,0.0201,0.0596,0.000094,0.000000,0.000736,0.000571,-0.002203,0.6692,0.6137,1.1690,-0.001534,0.000000,0.000000,0.576777,-0.576777,0.585981,-0.582913,0.582913,-0.549165
0.9553,0.016796,0.000018,0.000022,-0.000090,0.0321,0.0146,0.0433,0.000069,0.000000,0.000736,0.000571,-0.002203,0.6692,0.6137,1.1690,-0.001534,0.000000,0.000000,0.576777,-0.576777,0.585981,-0.582913,0.582913,-0.549165
0.9721,0.016738,0.000011,0.000014,-0.000056,0.0201,0.0092,0.0271,0.000043,0.000000,0.000736,0.000571,-0.002203,0.6692,0.6137,1.1690,-0.001534,0.000000,0.000000,0.576777,-0.576777,0.585981,-0.582913,0.582913,-0.549165
0.9888,0.016730,0.000004,0.000005,-0.000023,0.0081,0.0037,0.0109,0.000017,0.000000,0.000731,0.000566,-0.002201,0.6634,0.6117,1.1629,0.003068,0.000000,0.000000,0.576777,-0.576777,0.585981,-0.582913,0.582913,-0.549165
1.0055,0.016740,0.000000,0.000000,0.000008,0.0000,0.0000,0.0035,0.000243,-0.000243,0.000731,0.000566,-0.002201,0.6634,0.6117,1.1629,-0.003068,0.000000,0.000000,0.576777,-0.576777,0.585981,-0.582913,0.582913,-0.549165
1.0223,0.016773,0.000000,0.000000,0.000034,0.0000,0.0000,0.0140,0.000978,-0.000978,0.000691,0.000528,-0.002188,0.6135,0.5945,1.1102,-0.001534,0.000000,0.000000,0.576777,-0.576777,0.585981,-0.582913,0.582913,-0.550699
1.0391,0.016744,0.000000,0.000000,0.000059,0.0000,0.0000,0.0245,0.001712,-0.001712,0.000691,0.000528,-0.002188,0.6135,0.5945,1.1102,-0.001534,0.000000,0.000000,0.576777,-0.576777,0.585981,-0.582913,0.582913,-0.550699
1.0558,0.016743,0.000000,0.000000,0.000084,0.0000,0.0000,0.0351,0.002445,-0.002445,0.000736,0.000571,-0.002203,0.6692,0.6137,1.1690,0.003068,0.000000,0.000000,0.576777,-0.576777,0.585981,-0.582913,0.582913,-0.549165
1.0725,0.016744,0.000000,0.000000,0.000109,0.0000,0.0000,0.0456,0.003178,-0.003178,0.000731,0.000566,-0.002201,0.6634,0.6117,1.1629,0.003068,-0.001534,0.000000,0.576777,-0.576777,0.585981,-0.582913,0.582913,-0.549165
1.0893,0.016747,0.000000,0.000000,0.000135,0.0000,0.0000,0.0561,0.003908,-0.003908,0.000731,0.000566,-0.002201,0.6634,0.6117,1.1629,-0.001534,-0.001534,0.000000,0.576777,-0.576777,0.585981,-0.582913,0.582913,-0.549165
1.1060,0.016745,0.000000,0.000000,0.000160,0.0000,0.0000,0.0666,0.004637,-0.004637,0.000731,0.000566,-0.002201,0.6634,0.6117,1.1629,-0.003068,-0.001534,0.000000,0.576777,-0.576777,0.585981,-0.582913,0.582913,-0.549165
1.1228,0.016750,0.000000,0.000000,0.000185,0.0000,0.0000,0.0771,0.005364,-0.005364,0.000731,0.000566,-0.002201,0.6634,0.6117,1.1629,0.001534,-0.001534,0.000000,0.576777,-0.576777,0.585981,-0.582913,0.582913,-0.549165
1.1395,0.016744,0.000000,0.000000,0.000210,0.0000,0.0000,0.0876,0.006089,-0.006089,0.000731,0.000566,-0.002201,0.6634,0.6117,1.1629,0.001534,-0.001534,0.000000,0.576777,-0.576777,0.585981,-0.582913,0.582913,-0.549165
1.1563,0.016783,0.000000,0.000000,0.000235,0.0000,0.0000,0.0982,0.006812,-0.006812,0.000650,0.000567,-0.002176,0.6631,0.5790,1.1640,0.006136,-0.003068,0.000000,0.578311,-0.576777,0.585981,-0.582913,0.582913,-0.550699
1.1731,0.016745,0.000000,0.000000,0.000261,0.0000,0.0000,0.1087,0.007531,-0.007531,0.000699,0.000605,-0.002192,0.7136,0.5999,1.2172,0.004602,-0.003068,0.000000,0.578311,-0.576777,0.585981,-0.582913,0.582913,-0.549165
1.1898,0.016749,0.000000,0.000000,0.000286,0.0000,0.0000,0.1192,0.008247,-0.008247,0.000694,0.000601,-0.002190,0.7083,0.5977,1.2117,0.000000,-0.003068,0.000000,0.578311,-0.576777,0.585981,-0.582913,0.582913,-0.549165
1.2066,0.016752,0.000000,0.000000,0.000311,0.0000,0.0000,0.1297,0.008959,-0.008959,0.000654,0.000563,-0.002177,0.6584,0.5804,1.1589,0.007670,-0.004602,0.000000,0.578311,-0.576777,0.585981,-0.582913,0.582913,-0.550699
1.2233,0.016758,0.000000,0.000000,0.000336,0.0000,0.0000,0.1402,0.009668,-0.009668,0.000654,0.000563,-0.002177,0.6584,0.5804,1.1589,0.007670,-0.004602,0.000000,0.578311,-0.576777,0.585981,-0.582913,0.582913,-0.550699
1.2401,0.016745,0.000000,0.000000,0.000361,0.0000,0.0000,0.1507,0.010371,-0.010371,0.000658,0.000567,-0.002179,0.6636,0.5822,1.1644,0.007670,-0.004602,0.000000,0.578311,-0.576777,0.585981,-0.582913,0.582913,-0.550699
1.2568,0.016743,0.000000,0.000000,0.000386,0.0000,0.0000,0.1612,0.011070,-0.011070,0.000578,0.000490,-0.002152,0.5623,0.5471,1.0571,0.006136,-0.007670,0.000000,0.578311,-0.576777,0.585981,-0.582913,0.582913,-0.553767
1.2735,0.016745,0.000000,0.000000,0.000411,0.0000,0.0000,0.1717,0.011764,-0.011764,0.000506,0.000421,-0.002128,0.4723,0.5162,0.9615,0.006136,-0.009204,0.000000,0.578311,-0.576777,0.585981,-0.582913,0.582913,-0.556835
1.2903,0.016745,0.000000,0.000000,0.000436,0.0000,0.0000,0.1821,0.012453,-0.012453,0.000473,0.000390,-0.002117,0.4314,0.5022,0.9181,0.009204,-0.009204,0.000000,0.578311,-0.576777,0.585981,-0.582913,0.582913,-0.558369
1.3071,0.016770,0.000000,0.000000,0.000461,0.0000,0.0000,0.1926,0.013137,-0.013137,0.000449,0.000300,-0.002080,0.3747,0.4342,0.7621,0.012272,-0.010738,0.000000,0.578311,-0.578311,0.585981,-0.582913,0.582913,-0.561437
1.3238,0.016752,0.000000,0.000000,0.000486,0.0000,0.0000,0.2031,0.013815,-0.013815,0.000449,0.000300,-0.002080,0.3747,0.4342,0.7621,0.012272,-0.010738,0.000000,0.578311,-0.578311,0.585981,-0.582913,0.582913,-0.561437
1.3406,0.016810,0.000000,0.000000,0.000511,0.0000,0.0000,0.2136,0.014489,-0.014489,0.000358,0.000286,-0.002083,0.2911,0.4593,0.7784,0.012272,-0.012272,0.000000,0.578311,-0.576777,0.585981,-0.582913,0.582913,-0.562971
1.3574,0.016741,0.000000,0.000000,0.000536,0.0000,0.0000,0.2241,0.015154,-0.015154,0.000380,0.000233,-0.002058,0.2891,0.4046,0.6697,0.007670,-0.012272,0.000000,0.578311,-0.578311,0.585981,-0.582913,0.582913,-0.564505
1.3741,0.016743,0.000000,0.000000,0.000561,0.0000,0.0000,0.2345,0.015812,-0.015812,0.000324,0.000255,-0.002073,0.2500,0.4453,0.7346,0.010738,-0.012272,0.000000,0.578311,-0.576777,0.585981,-0.582913,0.582913,-0.564505
1.3909,0.016747,0.000000,0.000000,0.000586,0.0000,0.0000,0.2450,0.016464,-0.016464,0.000384,0.000237,-0.002059,0.2934,0.4061,0.6742,0.016874,-0.013806,0.000000,0.578311,-0.578311,0.585981,-0.582913,0.582913,-0.564505
1.4079,0.017001,0.000000,0.000000,0.000611,0.0000,0.0000,0.2556,0.017117,-0.017117,0.000324,0.000254,-0.002073,0.2495,0.4452,0.7341,0.016874,-0.013806,0.000000,0.578311,-0.576777,0.585981,-0.582913,0.582913,-0.564505
1.4246,0.016744,0.000000,0.000000,0.000635,0.0000,0.0000,0.2660,0.017754,-0.017754,0.000324,0.000254,-0.002073,0.2495,0.4452,0.7341,0.016874,-0.013806,0.000000,0.578311,-0.576777,0.585981,-0.582913,0.582913,-0.564505
1.4413,0.016742,0.000000,0.000000,0.000660,0.0000,0.0000,0.2764,0.018382,-0.018382,0.000384,0.000237,-0.002059,0.2934,0.4061,0.6743,0.009204,-0.015340,0.000000,0.578311,-0.578311,0.585981,-0.582913,0.582913,-0.564505
1.4581,0.016741,0.000000,0.000000,0.000685,0.0000,0.0000,0.2868,0.019002,-0.019002,0.000378,0.000239,-0.002060,0.2888,0.4102,0.6805,0.010738,-0.016874,0.000000,0.578311,-0.578311,0.585981,-0.582913,0.582913,-0.564505
1.4748,0.016748,0.000000,0.000000,0.000709,0.0000,0.0000,0.2972,0.019614,-0.019614,0.000365,0.000293,-0.002048,0.2995,0.4612,0.6263,0.016874,-0.016874,0.000000,0.578311,-0.578311,0.585981,-0.584447,0.582913,-0.564505
1.4916,0.016746,0.000000,0.000000,0.000734,0.0000,0.0000,0.3076,0.020217,-0.020217,0.000231,0.000304,-0.002036,0.2586,0.4579,0.6857,0.018408,-0.016874,0.000000,0.579845,-0.576777,0.585981,-0.584447,0.582913,-0.566039
1.5087,0.017082,0.000000,0.000000,0.000759,0.0000,0.0000,0.3182,0.020824,-0.020824,0.000150,0.000436,-0.001963,0.3719,0.4770,0.5728,0.018408,-0.016874,0.000000,0.582913,-0.578311,0.585981,-0.587515,0.582913,-0.567573
1.5254,0.016736,0.000000,0.000000,0.000783,0.0000,0.0000,0.3286,0.021408,-0.021408,0.000150,0.000436,-0.001963,0.3719,0.4770,0.5728,0.018408,-0.016874,0.000000,0.582913,-0.578311,0.585981,-0.587515,0.582913,-0.567573
1.5421,0.016739,0.000000,0.000000,0.000807,0.0000,0.0000,0.3390,0.021983,-0.021983,0.000050,0.000610,-0.001923,0.4800,0.5457,0.5851,0.016874,-0.016874,0.000000,0.585981,-0.578311,0.585981,-0.590583,0.582913,-0.567573
1.5589,0.016746,0.000000,0.000000,0.000832,0.0000,0.0000,0.3494,0.022549,-0.022549,0.000061,0.000592,-0.001927,0.4687,0.5385,0.5838,0.016874,-0.016874,0.000000,0.585981,-0.578311,0.585981,-0.590583,0.582913,-0.567573
1.5756,0.016751,0.000000,0.000000,0.000856,0.0000,0.0000,0.3597,0.023105,-0.023105,-0.000226,0.000837,-0.001855,0.5997,0.5966,0.6928,0.018408,-0.016874,0.000000,0.592117,-0.576777,0.585981,-0.593651,0.582913,-0.569107
1.5924,0.016745,0.000000,0.000000,0.000880,0.0000,0.0000,0.3701,0.023650,-0.023650,-0.000156,0.000929,-0.001839,0.7351,0.6085,0.6820,0.018408,-0.016874,0.000000,0.593651,-0.578311,0.585981,-0.595185,0.582913,-0.567573
1.6092,0.016866,0.000000,0.000000,0.000904,0.0000,0.0000,0.3805,0.024189,-0.024189,-0.000205,0.000958,-0.001829,0.7703,0.5918,0.7373,0.018408,-0.016874,0.000000,0.595185,-0.578311,0.585981,-0.595185,0.582913,-0.567573
1.6260,0.016746,0.000000,0.000000,0.000928,0.0000,0.0000,0.3908,0.024713,-0.024713,-0.000205,0.000958,-0.001829,0.7703,0.5918,0.7373,0.018408,-0.016874,0.000000,0.595185,-0.578311,0.585981,-0.595185,0.582913,-0.567573
1.6427,0.016752,0.000000,0.000000,0.000952,0.0000,0.0000,0.4011,0.025227,-0.025227,-0.000266,0.001027,-0.001831,0.7380,0.6799,0.7315,0.016874,-0.018408,0.000000,0.595185,-0.576777,0.585981,-0.596719,0.582913,-0.567573
1.6595,0.016748,0.000000,0.000000,0.000976,0.0000,0.0000,0.4114,0.025729,-0.025729,-0.000220,0.001059,-0.001806,0.7915,0.6864,0.6247,0.016874,-0.019942,0.000000,0.595185,-0.578311,0.585981,-0.598253,0.582913,-0.567573
1.6762,0.016755,0.000000,0.000000,0.001000,0.0000,0.0000,0.4217,0.026220,-0.026220,-0.000224,0.001056,-0.001809,0.7859,0.6857,0.6359,0.018408,-0.023010,0.000000,0.595185,-0.578311,0.585981,-0.598253,0.582913,-0.567573
1.6930,0.016749,0.000000,0.000000,0.001024,0.0000,0.0000,0.4320,0.026699,-0.026699,-0.000237,0.001112,-0.001797,0.7972,0.7367,0.5810,0.026078,-0.024544,0.000000,0.595185,-0.578311,0.585981,-0.599786,0.582913,-0.567573
1.7098,0.016759,0.000000,0.000000,0.001048,0.0000,0.0000,0.4423,0.027167,-0.027167,-0.000237,0.001112,-0.001797,0.7972,0.7367,0.5810,0.026078,-0.024544,0.000000,0.595185,-0.578311,0.585981,-0.599786,0.582913,-0.567573
1.7265,0.016746,0.000000,0.000000,0.001071,0.0000,0.0000,0.4525,0.027622,-0.027622,-0.000236,0.001106,-0.001798,0.7960,0.7314,0.5867,0.029146,-0.026078,0.000000,0.595185,-0.578311,0.585981,-0.599786,0.582913,-0.567573
1.7432,0.016753,0.000000,0.000000,0.001095,0.0000,0.0000,0.4628,0.028065,-0.028065,-0.000236,0.001106,-0.001798,0.7960,0.7314,0.5867,0.026078,-0.026078,0.000000,0.595185,-0.578311,0.585981,-0.599786,0.582913,-0.567573
1.7600,0.016745,0.000000,0.000000,0.001118,0.0000,0.0000,0.4730,0.028495,-0.028495,-0.000236,0.001106,-0.001798,0.7960,0.7314,0.5867,0.023010,-0.026078,0.000000,0.595185,-0.578311,0.585981,-0.599786,0.582913,-0.567573
1.7767,0.016753,0.000000,0.000000,0.001142,0.0000,0.0000,0.4832,0.028914,-0.028914,-0.000249,0.001162,-0.001786,0.8069,0.7828,0.5323,0.026078,-0.026078,0.000000,0.595185,-0.578311,0.585981,-0.601320,0.582913,-0.567573
1.7935,0.016744,0.000000,0.000000,0.001165,0.0000,0.0000,0.4934,0.029319,-0.029319,-0.000248,0.001156,-0.001788,0.8058,0.7775,0.5380,0.030680,-0.027612,0.000000,0.595185,-0.578311,0.585981,-0.601320,0.582913,-0.567573
1.8103,0.016761,0.000000,0.000000,0.001188,0.0000,0.0000,0.5036,0.029711,-0.029711,-0.000248,0.001156,-0.001788,0.8058,0.7775,0.5380,0.030680,-0.027612,0.000000,0.595185,-0.578311,0.585981,-0.601320,0.582913,-0.567573
1.8270,0.016745,0.000000,0.000000,0.001211,0.0000,0.0000,0.5138,0.030090,-0.030090,-0.000301,0.001173,-0.001763,0.7671,0.8112,0.4297,0.029146,-0.027612,0.000000,0.595185,-0.578311,0.585981,-0.602854,0.582913,-0.569107
1.8438,0.016757,0.000000,0.000000,0.001235,0.0000,0.0000,0.5240,0.030456,-0.030456,-0.000295,0.001172,-0.001765,0.7712,0.8077,0.4410,0.024544,-0.029146,0.000000,0.595185,-0.578311,0.585981,-0.602854,0.582913,-0.569107
1.8605,0.016750,0.000000,0.000000,0.001258,0.0000,0.0000,0.5341,0.030808,-0.030808,-0.000336,0.001133,-0.001752,0.7212,0.7905,0.3859,0.026078,-0.029146,0.000000,0.595185,-0.578311,0.585981,-0.602854,0.582913,-0.570641
1.8773,0.016761,0.000000,0.000000,0.001280,0.0000,0.0000,0.5443,0.031147,-0.031147,-0.000373,0.001098,-0.001741,0.6769,0.7748,0.3378,0.032214,-0.029146,0.000000,0.595185,-0.578311,0.585981,-0.602854,0.582913,-0.572175
1.8940,0.016746,0.000000,0.000000,0.001303,0.0000,0.0000,0.5544,0.031472,-0.031472,-0.000302,0.001031,-0.001703,0.7104,0.6884,0.1816,0.032214,-0.029146,0.000000,0.595185,-0.581379,0.585981,-0.602854,0.582913,-0.573709
1.9118,0.017782,0.000000,0.000000,0.001327,0.0000,0.0000,0.5651,0.031801,-0.031801,-0.000378,0.000983,-0.001657,0.6965,0.6119,0.0905,0.026078,-0.030680,0.000000,0.596719,-0.582913,0.585981,-0.602854,0.582913,-0.576777
1.9285,0.016744,0.000000,0.000000,0.001350,0.0000,0.0000,0.5752,0.032097,-0.032097,-0.000378,0.000983,-0.001657,0.6965,0.6119,0.0905,0.026078,-0.030680,0.000000,0.596719,-0.582913,0.585981,-0.602854,0.582913,-0.576777
1.9453,0.016753,0.000000,0.000000,0.001372,0.0000,0.0000,0.5853,0.032379,-0.032379,-0.000427,0.000956,-0.001588,0.7762,0.4837,-0.0071,0.027612,-0.030680,0.000000,0.599786,-0.585981,0.585981,-0.602854,0.582913,-0.579845
1.9620,0.016753,0.000000,0.000000,0.001395,0.0000,0.0000,0.5953,0.032646,-0.032646,-0.000518,0.001094,-0.001523,0.8785,0.5146,-0.1040,0.033748,-0.030680,0.000000,0.602854,-0.587515,0.585981,-0.605922,0.582913,-0.581379
1.9791,0.017027,0.000000,0.000000,0.001418,0.0000,0.0000,0.6055,0.032903,-0.032903,-0.000335,0.001118,-0.001431,0.9165,0.3553,-0.2029,0.032214,-0.030680,0.000000,0.604388,-0.592117,0.585981,-0.607456,0.585981,-0.582913
1.9959,0.016857,0.000000,0.000000,0.001440,0.0000,0.0000,0.6156,0.033142,-0.033142,-0.000335,0.001118,-0.001431,0.9165,0.3553,-0.2029,0.032214,-0.030680,0.000000,0.604388,-0.592117,0.585981,-0.607456,0.585981,-0.582913
2.0128,0.016830,0.000000,0.000000,0.001462,0.0000,0.0000,0.6257,0.033367,-0.033367,-0.000335,0.001118,-0.001431,0.9165,0.3553,-0.2029,0.032214,-0.030680,0.000000,0.604388,-0.592117,0.585981,-0.607456,0.585981,-0.582913
2.0295,0.016744,0.000000,0.000000,0.001484,0.0000,0.0000,0.6356,0.033575,-0.033575,-0.000335,0.001118,-0.001431,0.9165,0.3553,-0.2029,0.032214,-0.030680,0.000000,0.604388,-0.592117,0.585981,-0.607456,0.585981,-0.582913
2.0463,0.016752,0.000000,0.000000,0.001506,0.0000,0.0000,0.6456,0.033769,-0.033769,-0.000196,0.001414,-0.001210,1.0514,0.1003,-0.1401,0.035282,-0.032214,0.000000,0.612058,-0.598253,0.585981,-0.612058,0.593651,-0.585981
2.0630,0.016743,0.000000,0.000000,0.001528,0.0000,0.0000,0.6556,0.033947,-0.033947,-0.000048,0.001509,-0.001161,1.0180,0.0254,-0.0396,0.030680,-0.032214,0.000000,0.613592,-0.599786,0.585981,-0.613592,0.598253,-0.585981
2.0797,0.016750,0.000000,0.000000,0.001549,0.0000,0.0000,0.6655,0.034111,-0.034111,-0.000009,0.001515,-0.001154,0.9823,-0.0005,0.0037,0.027612,-0.032214,0.000000,0.613592,-0.599786,0.585981,-0.613592,0.599786,-0.585981
2.0966,0.016836,0.000000,0.000000,0.001571,0.0000,0.0000,0.6755,0.034260,-0.034260,0.000070,0.001437,-0.001104,0.8868,0.0375,0.2157,0.030680,-0.033748,0.000000,0.613592,-0.599786,0.589049,-0.613592,0.602854,-0.585981
2.1133,0.016751,0.000000,0.000000,0.001593,0.0000,0.0000,0.6854,0.034393,-0.034393,0.000070,0.001437,-0.001104,0.8868,0.0375,0.2157,0.030680,-0.033748,0.000000,0.613592,-0.599786,0.589049,-0.613592,0.602854,-0.585981
2.1301,0.016741,0.000000,0.000000,0.001614,0.0000,0.0000,0.6952,0.034511,-0.034511,0.000049,0.001391,-0.001059,0.8864,0.0872,0.4106,0.038350,-0.033748,0.000000,0.615126,-0.599786,0.592117,-0.613592,0.604388,-0.585981
2.1468,0.016749,0.000000,0.000000,0.001635,0.0000,0.0000,0.7051,0.034614,-0.034614,0.000093,0.001357,-0.001039,0.8370,0.0993,0.4987,0.036816,-0.033748,0.000000,0.615126,-0.599786,0.593651,-0.613592,0.605922,-0.585981
2.1636,0.016742,0.000000,0.000000,0.001656,0.0000,0.0000,0.7149,0.034701,-0.034701,0.000062,0.001251,-0.001015,0.8212,0.2001,0.5984,0.029146,-0.033748,0.000000,0.615126,-0.599786,0.596719,-0.613592,0.605922,-0.585981
2.1803,0.016750,0.000000,0.000000,0.001677,0.0000,0.0000,0.7247,0.034773,-0.034773,-0.000029,0.001193,-0.000955,0.8510,0.3780,0.7519,0.029146,-0.033748,0.000000,0.616660,-0.599786,0.601320,-0.615126,0.605922,-0.585981
2.1971,0.016747,0.000000,0.000000,0.001698,0.0000,0.0000,0.7345,0.034829,-0.034829,-0.000059,0.001145,-0.000924,0.8371,0.5117,0.7909,0.035282,-0.033748,0.000000,0.616660,-0.599786,0.604388,-0.616660,0.605922,-0.585981
2.2138,0.016755,0.000000,0.000000,0.001719,0.0000,0.0000,0.7443,0.034871,-0.034871,-0.000059,0.001145,-0.000924,0.8371,0.5117,0.7909,0.035282,-0.033748,0.000000,0.616660,-0.599786,0.604388,-0.616660,0.605922,-0.585981
2.2306,0.016741,0.000000,0.000000,0.001740,0.0000,0.0000,0.7541,0.034896,-0.034896,-0.000123,0.001080,-0.000891,0.8662,0.5840,0.9509,0.035282,-0.033748,0.000000,0.618194,-0.599786,0.607456,-0.616660,0.605922,-0.585981
2.2473,0.016747,0.000000,0.000000,0.001760,0.0000,0.0000,0.7638,0.034906,-0.034906,-0.000075,0.001047,-0.000869,0.8137,0.5931,1.0428,0.030680,-0.033748,0.000000,0.618194,-0.599786,0.608990,-0.616660,0.607456,-0.585981
2.2642,0.016895,0.000000,0.000000,0.001781,0.0000,0.0000,0.7736,0.034901,-0.034901,-0.000051,0.000956,-0.000834,0.7591,0.6592,1.1966,0.029146,-0.033748,0.000000,0.618194,-0.599786,0.612058,-0.616660,0.608990,-0.585981
2.2809,0.016749,0.000000,0.000000,0.001801,0.0000,0.0000,0.7833,0.034880,-0.034880,-0.000053,0.000966,-0.000838,0.7648,0.6522,1.1806,0.035282,-0.033748,0.000000,0.618194,-0.599786,0.612058,-0.616660,0.608990,-0.585981
2.2979,0.016963,0.000000,0.000000,0.001821,0.0000,0.0000,0.7931,0.034843,-0.034843,-0.000011,0.000925,-0.000813,0.7150,0.6693,1.2910,0.036816,-0.033748,0.000000,0.618194,-0.599786,0.613592,-0.616660,0.610524,-0.585981
2.3147,0.016747,0.000000,0.000000,0.001841,0.0000,0.0000,0.8027,0.034791,-0.034791,-0.000011,0.000925,-0.000813,0.7150,0.6693,1.2910,0.036816,-0.033748,0.000000,0.618194,-0.599786,0.613592,-0.616660,0.610524,-0.585981
2.3314,0.016743,0.000000,0.000000,0.001861,0.0000,0.0000,0.8124,0.034724,-0.034724,0.000039,0.000945,-0.000804,0.6819,0.6336,1.3335,0.029146,-0.033748,0.000000,0.618194,-0.599786,0.613592,-0.616660,0.612058,-0.585981
2.3481,0.016742,0.000000,0.000000,0.001881,0.0000,0.0000,0.8220,0.034641,-0.034641,0.000021,0.000888,-0.000792,0.6746,0.6876,1.3839,0.029146,-0.033748,0.000000,0.618194,-0.599786,0.615126,-0.616660,0.612058,-0.585981
2.3649,0.016741,0.000000,0.000000,0.001900,0.0000,0.0000,0.8315,0.034543,-0.034543,0.000023,0.000894,-0.000794,0.6753,0.6819,1.3786,0.036816,-0.033748,0.000000,0.618194,-0.599786,0.615126,-0.616660,0.612058,-0.585981
2.3816,0.016752,0.000000,0.000000,0.001920,0.0000,0.0000,0.8411,0.034430,-0.034430,0.000077,0.000909,-0.000782,0.6370,0.6486,1.4333,0.036816,-0.033748,0.000000,0.618194,-0.599786,0.615126,-0.616660,0.613592,-0.585981
2.3985,0.016821,0.000000,0.000000,0.001939,0.0000,0.0000,0.8507,0.034301,-0.034301,0.000071,0.000907,-0.000783,0.6410,0.6520,1.4276,0.029146,-0.033748,0.000000,0.618194,-0.599786,0.615126,-0.616660,0.613592,-0.585981
2.4152,0.016749,0.000000,0.000000,0.001959,0.0000,0.0000,0.8602,0.034157,-0.034157,0.000071,0.000907,-0.000783,0.6410,0.6520,1.4276,0.029146,-0.033748,0.000000,0.618194,-0.599786,0.615126,-0.616660,0.613592,-0.585981
2.4319,0.016743,0.000000,0.000000,0.001978,0.0000,0.0000,0.8697,0.033998,-0.033998,0.000071,0.000907,-0.000783,0.6410,0.6520,1.4276,0.029146,-0.033748,0.000000,0.618194,-0.599786,0.615126,-0.616660,0.613592,-0.585981
2.4487,0.016748,0.000000,0.000000,0.001997,0.0000,0.0000,0.8791,0.033824,-0.033824,0.000071,0.000907,-0.000783,0.6410,0.6520,1.4276,0.035282,-0.033748,0.000000,0.618194,-0.599786,0.615126,-0.616660,0.613592,-0.585981
2.4654,0.016750,0.000000,0.000000,0.002015,0.0000,0.0000,0.8886,0.033635,-0.033635,0.000071,0.000907,-0.000783,0.6410,0.6520,1.4276,0.036816,-0.033748,0.000000,0.618194,-0.599786,0.615126,-0.616660,0.613592,-0.585981
2.4822,0.016713,0.000000,0.000000,0.002034,0.0000,0.0000,0.8980,0.033432,-0.033432,0.000017,0.000892,-0.000795,0.6788,0.6856,1.3741,0.030680,-0.033748,0.000000,0.618194,-0.599786,0.615126,-0.616660,0.612058,-0.585981
2.4990,0.016861,0.000000,0.000000,0.002053,0.0000,0.0000,0.9074,0.033211,-0.033211,0.000078,0.000909,-0.000782,0.6367,0.6482,1.4337,0.029146,-0.033748,0.000000,0.618194,-0.599786,0.615126,-0.616660,0.613592,-0.585981
2.5158,0.016759,0.000000,0.000000,0.002071,0.0000,0.0000,0.9168,0.032978,-0.032978,0.000078,0.000909,-0.000782,0.6367,0.6482,1.4337,0.029146,-0.033748,0.000000,0.618194,-0.599786,0.615126,-0.616660,0.613592,-0.585981
2.5325,0.016742,0.000000,0.000000,0.002089,0.0000,0.0000,0.9261,0.032730,-0.032730,0.000017,0.000892,-0.000795,0.6793,0.6860,1.3734,0.032214,-0.033748,0.000000,0.618194,-0.599786,0.615126,-0.616660,0.612058,-0.585981
2.5493,0.016748,0.000000,0.000000,0.002107,0.0000,0.0000,0.9355,0.032467,-0.032467,0.000078,0.000909,-0.000782,0.6366,0.6481,1.4338,0.035282,-0.033748,0.000000,0.618194,-0.599786,0.615126,-0.616660,0.613592,-0.585981
2.5660,0.016742,0.000000,0.000000,0.002125,0.0000,0.0000,0.9447,0.032190,-0.032190,0.000071,0.000907,-0.000783,0.6411,0.6521,1.4275,0.030680,-0.033748,0.000000,0.618194,-0.599786,0.615126,-0.616660,0.613592,-0.585981
2.5828,0.016749,0.000000,0.000000,0.002143,0.0000,0.0000,0.9540,0.031899,-0.031899,0.000071,0.000907,-0.000783,0.6411,0.6521,1.4275,0.027612,-0.033748,0.000000,0.618194,-0.599786,0.615126,-0.616660,0.613592,-0.585981
2.6000,0.017216,0.000000,0.000000,0.002161,0.0000,0.0000,0.9635,0.031585,-0.031585,0.000071,0.000907,-0.000783,0.6411,0.6521,1.4275,0.032214,-0.033748,0.000000,0.618194,-0.599786,0.615126,-0.616660,0.613592,-0.585981
2.6167,0.016768,0.000000,0.000000,0.002178,0.0000,0.0000,0.9727,0.031265,-0.031265,0.000071,0.000907,-0.000783,0.6411,0.6521,1.4275,0.032214,-0.033748,0.000000,0.618194,-0.599786,0.615126,-0.616660,0.613592,-0.585981
2.6335,0.016744,0.000000,0.000000,0.002196,0.0000,0.0000,0.9819,0.030931,-0.030931,0.000071,0.000907,-0.000783,0.6411,0.6521,1.4275,0.035282,-0.032214,0.000000,0.618194,-0.599786,0.615126,-0.616660,0.613592,-0.585981
2.6502,0.016748,0.000000,0.000000,0.002213,0.0000,0.0000,0.9910,0.030584,-0.030584,0.000017,0.000892,-0.000795,0.6788,0.6856,1.3741,0.029146,-0.030680,0.000000,0.618194,-0.599786,0.615126,-0.616660,0.612058,-0.585981
2.6670,0.016750,0.000000,0.000000,0.002230,0.0000,0.0000,1.0002,0.030223,-0.030223,0.000065,0.000965,-0.000770,0.6471,0.6992,1.3795,0.026078,-0.030680,0.000000,0.618194,-0.599786,0.615126,-0.618194,0.613592,-0.585981
2.6837,0.016751,0.000000,0.000000,0.002247,0.0000,0.0000,1.0093,0.029849,-0.029849,0.000046,0.001013,-0.000760,0.6609,0.7488,1.3246,0.030680,-0.032214,0.000000,0.618194,-0.599786,0.615126,-0.619728,0.613592,-0.585981
2.7006,0.016887,0.000000,0.000000,0.002263,0.0000,0.0000,1.0184,0.029458,-0.029458,0.000022,0.001009,-0.000737,0.6592,0.8448,1.3308,0.033748,-0.030680,0.000000,0.618194,-0.599786,0.616660,-0.621262,0.613592,-0.585981
2.7174,0.016751,0.000000,0.000000,0.002280,0.0000,0.0000,1.0275,0.029057,-0.029057,0.000022,0.001009,-0.000737,0.6592,0.8448,1.3308,0.033748,-0.030680,0.000000,0.618194,-0.599786,0.616660,-0.621262,0.613592,-0.585981
2.7341,0.016744,0.000000,0.000000,0.002296,0.0000,0.0000,1.0365,0.028644,-0.028644,0.000038,0.001065,-0.000752,0.6702,0.7845,1.2753,0.029146,-0.030680,0.000000,0.618194,-0.599786,0.615126,-0.621262,0.613592,-0.585981
2.7509,0.016746,0.000000,0.000000,0.002312,0.0000,0.0000,1.0455,0.028218,-0.028218,0.000010,0.001171,-0.000727,0.6901,0.8925,1.1724,0.026078,-0.030680,0.000000,0.618194,-0.599786,0.615126,-0.624330,0.613592,-0.585981
2.7676,0.016783,0.000000,0.000000,0.002328,0.0000,0.0000,1.0544,0.027778,-0.027778,-0.000000,0.001105,-0.000717,0.6773,0.9315,1.2379,0.029146,-0.030680,0.000000,0.618194,-0.599786,0.616660,-0.624330,0.613592,-0.585981
2.7844,0.016748,0.000000,0.000000,0.002344,0.0000,0.0000,1.0634,0.027327,-0.027327,-0.000025,0.001224,-0.000694,0.6998,1.0290,1.1222,0.030680,-0.029146,0.000000,0.618194,-0.599786,0.616660,-0.627398,0.613592,-0.585981
2.8011,0.016751,0.000000,0.000000,0.002360,0.0000,0.0000,1.0723,0.026864,-0.026864,-0.000025,0.001224,-0.000694,0.6998,1.0290,1.1222,0.027612,-0.029146,0.000000,0.619728,-0.601320,0.616660,-0.627398,0.613592,-0.585981
2.8179,0.016741,0.000000,0.000000,0.002375,0.0000,0.0000,1.0811,0.026389,-0.026389,-0.000011,0.001235,-0.000673,0.7857,0.9686,1.1352,0.027612,-0.029146,0.000000,0.619728,-0.601320,0.616660,-0.627398,0.613592,-0.585981
2.8346,0.016746,0.000000,0.000000,0.002391,0.0000,0.0000,1.0900,0.025902,-0.025902,-0.000096,0.001314,-0.000615,0.8748,0.9430,1.0808,0.024544,-0.027612,0.000000,0.622796,-0.602854,0.616660,-0.628932,0.613592,-0.587515
2.8514,0.016745,0.000000,0.000000,0.002406,0.0000,0.0000,1.0988,0.025404,-0.025404,-0.000117,0.001370,-0.000548,1.0027,0.8784,0.9792,0.026078,-0.027612,0.000000,0.625864,-0.605922,0.616660,-0.630466,0.613592,-0.589049
2.8681,0.016743,0.000000,0.000000,0.002421,0.0000,0.0000,1.1075,0.024895,-0.024895,-0.000131,0.001437,-0.000458,0.9607,0.7682,0.9902,0.026078,-0.029146,0.000000,0.628932,-0.607456,0.616660,-0.632000,0.616660,-0.592117
2.8849,0.016752,0.000000,0.000000,0.002436,0.0000,0.0000,1.1163,0.024374,-0.024374,-0.000079,0.001510,-0.000333,1.0632,0.5775,0.9356,0.024544,-0.027612,0.000000,0.633534,-0.612058,0.616660,-0.633534,0.619728,-0.595185
2.9016,0.016755,0.000000,0.000000,0.002450,0.0000,0.0000,1.1250,0.023843,-0.023843,-0.000183,0.001543,-0.000225,1.1006,0.4468,0.8335,0.024544,-0.026078,0.000000,0.638136,-0.615126,0.616660,-0.635068,0.621262,-0.599786
2.9184,0.016759,0.000000,0.000000,0.002465,0.0000,0.0000,1.1337,0.023301,-0.023301,-0.000183,0.001543,-0.000225,1.1006,0.4468,0.8335,0.024544,-0.026078,0.000000,0.638136,-0.615126,0.616660,-0.635068,0.621262,-0.599786
2.9351,0.016750,0.000000,0.000000,0.002479,0.0000,0.0000,1.1424,0.022749,-0.022749,-0.000310,0.001558,-0.000151,1.0572,0.4635,0.9002,0.024544,-0.026078,0.000000,0.641204,-0.615126,0.618194,-0.636602,0.622796,-0.602854
2.9519,0.016749,0.000000,0.000000,0.002493,0.0000,0.0000,1.1510,0.022186,-0.022186,-0.000325,0.001462,-0.000048,1.0004,0.3961,1.0586,0.026078,-0.023010,0.000000,0.644272,-0.616660,0.621262,-0.636602,0.625864,-0.605922
2.9686,0.016744,0.000000,0.000000,0.002507,0.0000,0.0000,1.1596,0.021615,-0.021615,-0.000351,0.001377,0.000016,0.9459,0.3348,1.0428,0.024544,-0.023010,0.000000,0.645806,-0.618194,0.622796,-0.636602,0.627398,-0.608990
2.9854,0.016750,0.000000,0.000000,0.002521,0.0000,0.0000,1.1681,0.021033,-0.021033,-0.000431,0.001419,0.000033,0.8738,0.3110,1.1543,0.018408,-0.024544,0.000000,0.647340,-0.616660,0.622796,-0.636602,0.628932,-0.610524
3.0021,0.016757,0.000000,0.000000,0.002535,0.0000,0.0000,1.1767,0.020442,-0.020442,-0.000431,0.001419,0.000033,0.8738,0.3110,1.1543,0.015340,-0.023010,0.000000,0.648874,-0.618194,0.622796,-0.636602,0.630466,-0.610524
3.0189,0.016753,0.000000,0.000000,0.002548,0.0000,0.0000,1.1852,0.019841,-0.019841,-0.000355,0.001454,0.000067,0.9304,0.2303,1.1977,0.015340,-0.023010,0.000000,0.648874,-0.618194,0.622796,-0.636602,0.630466,-0.610524
3.0357,0.016844,0.000000,0.000000,0.002561,0.0000,0.0000,1.1937,0.019229,-0.019229,-0.000417,0.001500,0.000087,0.8091,0.2734,1.1932,0.016874,-0.021476,0.000000,0.648874,-0.616660,0.622796,-0.638136,0.632000,-0.612058
3.0526,0.016826,0.000000,0.000000,0.002575,0.0000,0.0000,1.2021,0.018609,-0.018609,-0.000417,0.001500,0.000087,0.8091,0.2734,1.1932,0.016874,-0.021476,0.000000,0.648874,-0.616660,0.622796,-0.638136,0.632000,-0.612058
3.0693,0.016785,0.000000,0.000000,0.002587,0.0000,0.0000,1.2105,0.017982,-0.017982,-0.000417,0.001500,0.000087,0.8091,0.2734,1.1932,0.016874,-0.021476,0.000000,0.648874,-0.616660,0.622796,-0.638136,0.632000,-0.612058
3.0862,0.016816,0.000000,0.000000,0.002600,0.0000,0.0000,1.2189,0.017346,-0.017346,-0.000417,0.001500,0.000087,0.8091,0.2734,1.1932,0.016874,-0.021476,0.000000,0.648874,-0.616660,0.622796,-0.638136,0.632000,-0.612058
3.1029,0.016741,0.000000,0.000000,0.002613,0.0000,0.0000,1.2273,0.016705,-0.016705,-0.000417,0.001500,0.000087,0.8091,0.2734,1.1932,0.016874,-0.021476,0.000000,0.648874,-0.616660,0.622796,-0.638136,0.632000,-0.612058
3.1197,0.016747,0.000000,0.000000,0.002625,0.0000,0.0000,1.2355,0.016056,-0.016056,-0.000259,0.001567,0.000133,0.7949,0.2172,1.1935,0.015340,-0.021476,0.000000,0.648874,-0.618194,0.622796,-0.639670,0.635068,-0.612058
3.1364,0.016750,0.000000,0.000000,0.002637,0.0000,0.0000,1.2438,0.015400,-0.015400,-0.000289,0.001616,0.000102,0.8069,0.2763,1.3028,0.018408,-0.021476,0.000000,0.648874,-0.616660,0.622796,-0.639670,0.635068,-0.610524
3.1532,0.016764,0.000000,0.000000,0.002649,0.0000,0.0000,1.2520,0.014737,-0.014737,-0.000326,0.001571,0.000118,0.7564,0.2524,1.2368,0.018408,-0.016874,0.000000,0.648874,-0.616660,0.622796,-0.639670,0.635068,-0.612058
3.1699,0.016743,0.000000,0.000000,0.002661,0.0000,0.0000,1.2602,0.014068,-0.014068,-0.000322,0.001576,0.000116,0.7617,0.2549,1.2437,0.015340,-0.013806,0.000000,0.648874,-0.616660,0.622796,-0.639670,0.635068,-0.612058
3.1867,0.016772,0.000000,0.000000,0.002672,0.0000,0.0000,1.2684,0.013391,-0.013391,-0.000322,0.001576,0.000116,0.7617,0.2549,1.2437,0.010738,-0.016874,0.000000,0.648874,-0.616660,0.622796,-0.639670,0.635068,-0.610524
3.2034,0.016749,0.000000,0.000000,0.002684,0.0000,0.0000,1.2765,0.012710,-0.012710,-0.000282,0.001615,0.000103,0.8104,0.2723,1.2976,0.010738,-0.016874,0.000000,0.648874,-0.616660,0.622796,-0.639670,0.635068,-0.610524
3.2202,0.016754,0.000000,0.000000,0.002695,0.0000,0.0000,1.2846,0.012023,-0.012023,-0.000327,0.001571,0.000118,0.7560,0.2528,1.2373,0.010738,-0.015340,0.000000,0.648874,-0.616660,0.622796,-0.639670,0.635068,-0.612058
3.2369,0.016743,0.000000,0.000000,0.002706,0.0000,0.0000,1.2926,0.011331,-0.011331,-0.000322,0.001576,0.000116,0.7617,0.2548,1.2436,0.013806,-0.012272,0.000000,0.648874,-0.616660,0.622796,-0.639670,0.635068,-0.612058
3.2537,0.016754,0.000000,0.000000,0.002717,0.0000,0.0000,1.3007,0.010633,-0.010633,-0.000282,0.001615,0.000103,0.8104,0.2723,1.2976,0.015340,-0.013806,0.000000,0.648874,-0.616660,0.622796,-0.639670,0.635068,-0.610524
3.2704,0.016746,0.000000,0.000000,0.002727,0.0000,0.0000,1.3086,0.009931,-0.009931,-0.000327,0.001571,0.000118,0.7560,0.2528,1.2373,0.010738,-0.012272,0.000000,0.648874,-0.616660,0.622796,-0.639670,0.635068,-0.612058
3.2872,0.016762,0.000000,0.000000,0.002738,0.0000,0.0000,1.3166,0.009224,-0.009224,-0.000327,0.001571,0.000118,0.7560,0.2528,1.2373,0.010738,-0.012272,0.000000,0.648874,-0.616660,0.622796,-0.639670,0.635068,-0.612058
3.3039,0.016745,0.000000,0.000000,0.002748,0.0000,0.0000,1.3245,0.008514,-0.008514,-0.000322,0.001576,0.000116,0.7617,0.2548,1.2436,0.006136,-0.009204,0.000000,0.648874,-0.616660,0.622796,-0.639670,0.635068,-0.612058
3.3207,0.016744,0.000000,0.000000,0.002758,0.0000,0.0000,1.3323,0.007800,-0.007800,-0.000282,0.001615,0.000103,0.8104,0.2723,1.2976,0.007670,-0.010738,0.000000,0.648874,-0.616660,0.622796,-0.639670,0.635068,-0.610524
3.3374,0.016756,0.000000,0.000000,0.002768,0.0000,0.0000,1.3402,0.007081,-0.007081,-0.000286,0.001611,0.000105,0.8053,0.2705,1.2920,0.012272,-0.010738,0.000000,0.648874,-0.616660,0.622796,-0.639670,0.635068,-0.610524
3.3542,0.016744,0.000000,0.000000,0.002778,0.0000,0.0000,1.3480,0.006361,-0.006361,-0.000327,0.001572,0.000118,0.7565,0.2530,1.2379,0.007670,-0.009204,0.000000,0.648874,-0.616660,0.622796,-0.639670,0.635068,-0.612058
3.3709,0.016742,0.000000,0.000000,0.002787,0.0000,0.0000,1.3557,0.005637,-0.005637,-0.000268,0.001559,0.000129,0.8004,0.2194,1.1888,0.001534,-0.009204,0.000000,0.648874,-0.618194,0.622796,-0.639670,0.635068,-0.612058
3.3877,0.016755,0.000000,0.000000,0.002796,0.0000,0.0000,1.3634,0.004911,-0.004911,-0.000268,0.001559,0.000129,0.8004,0.2194,1.1888,0.001534,-0.009204,0.000000,0.648874,-0.618194,0.622796,-0.639670,0.635068,-0.612058
3.4044,0.016768,0.000000,0.000000,0.002805,0.0000,0.0000,1.3711,0.004182,-0.004182,-0.000329,0.001577,0.000115,0.7571,0.2583,1.2487,0.003068,-0.007670,0.000000,0.648874,-0.616660,0.622796,-0.639670,0.635068,-0.612058
3.4212,0.016744,0.000000,0.000000,0.002814,0.0000,0.0000,1.3788,0.003451,-0.003451,-0.000322,0.001575,0.000117,0.7616,0.2543,1.2424,0.009204,-0.006136,0.000000,0.648874,-0.616660,0.622796,-0.639670,0.635068,-0.612058
3.4379,0.016744,0.000000,0.000000,0.002823,0.0000,0.0000,1.3864,0.002720,-0.002720,-0.000282,0.001615,0.000103,0.8104,0.2724,1.2977,0.006136,-0.006136,0.000000,0.648874,-0.616660,0.622796,-0.639670,0.635068,-0.610524
3.4547,0.016745,0.000000,0.000000,0.002831,0.0000,0.0000,1.3939,0.001987,-0.001987,-0.000273,0.001555,0.000131,0.7948,0.2173,1.1826,0.001534,-0.004602,0.000000,0.648874,-0.618194,0.622796,-0.639670,0.635068,-0.612058
3.4717,0.017007,0.000000,0.000000,0.002840,0.0000,0.0000,1.4016,0.001242,-0.001242,-0.000328,0.001577,0.000115,0.7577,0.2585,1.2493,0.000000,-0.003068,0.000000,0.648874,-0.616660,0.622796,-0.639670,0.635068,-0.612058
3.4884,0.016746,0.000000,0.000000,0.002848,0.0000,0.0000,1.4091,0.000508,-0.000508,-0.000328,0.001577,0.000115,0.7577,0.2585,1.2493,0.000000,-0.003068,0.000000,0.648874,-0.616660,0.622796,-0.639670,0.635068,-0.612058
3.5052,0.016743,0.000000,0.000000,0.002856,0.0000,0.0000,1.4165,-0.000227,0.000227,-0.000322,0.001575,0.000117,0.7615,0.2542,1.2424,0.001534,-0.003068,0.000000,0.648874,-0.616660,0.622796,-0.639670,0.635068,-0.612058
3.5219,0.016746,0.000000,0.000000,0.002863,0.0000,0.0000,1.4239,-0.000961,0.000961,-0.000322,0.001575,0.000117,0.7615,0.2542,1.2424,0.004602,-0.003068,0.000000,0.648874,-0.616660,0.622796,-0.639670,0.635068,-0.612058
3.5387,0.016743,0.000000,0.000000,0.002871,0.0000,0.0000,1.4313,-0.001695,0.001695,-0.000322,0.001575,0.000117,0.7615,0.2542,1.2424,0.001534,-0.001534,0.000000,0.648874,-0.616660,0.622796,-0.639670,0.635068,-0.612058
3.5554,0.016756,0.000000,0.000000,0.002878,0.0000,0.0000,1.4386,-0.002429,0.002429,-0.000322,0.001575,0.000117,0.7615,0.2542,1.2424,-0.001534,-0.001534,0.000000,0.648874,-0.616660,0.622796,-0.639670,0.635068,-0.612058
3.5722,0.016816,0.000000,0.000000,0.002885,0.0000,0.0000,1.4459,-0.003164,0.003164,-0.000322,0.001575,0.000117,0.7615,0.2542,1.2424,-0.003068,0.000000,0.000000,0.648874,-0.616660,0.622796,-0.639670,0.635068,-0.610524
3.5890,0.016743,0.000000,0.000000,0.002892,0.0000,0.0000,1.4532,-0.003895,0.003895,-0.000282,0.001615,0.000103,0.8104,0.2724,1.2978,-0.003068,0.000000,0.000000,0.648874,-0.616660,0.622796,-0.639670,0.635068,-0.610524
3.6057,0.016746,0.000000,0.000000,0.002898,0.0000,0.0000,1.4604,-0.004624,0.004624,-0.000286,0.001611,0.000105,0.8053,0.2705,1.2920,-0.003068,-0.001534,0.000000,0.648874,-0.616660,0.622796,-0.639670,0.635068,-0.610524
3.6225,0.016743,0.000000,0.000000,0.002905,0.0000,0.0000,1.4676,-0.005351,0.005351,-0.000315,0.001595,0.000142,0.8440,0.2033,1.2385,-0.001534,0.001534,0.000000,0.650408,-0.618194,0.622796,-0.639670,0.635068,-0.612058
3.6392,0.016740,0.000000,0.000000,0.002911,0.0000,0.0000,1.4747,-0.006075,0.006075,-0.000409,0.001653,0.000136,0.8497,0.2316,1.3543,-0.001534,0.001534,0.000000,0.651942,-0.616660,0.622796,-0.639670,0.635068,-0.612058
3.6559,0.016742,0.000000,0.000000,0.002917,0.0000,0.0000,1.4818,-0.006797,0.006797,-0.000358,0.001687,0.000123,0.8984,0.2465,1.3969,-0.001534,0.003068,0.000000,0.651942,-0.616660,0.622796,-0.639670,0.635068,-0.610524
3.6727,0.016772,0.000000,0.000000,0.002923,0.0000,0.0000,1.4888,-0.007517,0.007517,-0.000358,0.001687,0.000123,0.8984,0.2465,1.3969,-0.003068,0.003068,0.000000,0.651942,-0.616660,0.622796,-0.639670,0.635068,-0.612058
3.6895,0.016738,0.000000,0.000000,0.002928,0.0000,0.0000,1.4958,-0.008232,0.008232,-0.000404,0.001644,0.000138,0.8440,0.2271,1.3377,-0.003068,0.003068,0.000000,0.651942,-0.616660,0.622796,-0.639670,0.635068,-0.612058
3.7062,0.016744,0.000000,0.000000,0.002934,0.0000,0.0000,1.5028,-0.008944,0.008944,-0.000358,0.001576,0.000162,0.8775,0.2439,1.3443,-0.004602,0.004602,0.000000,0.651942,-0.618194,0.624330,-0.639670,0.635068,-0.612058
3.7229,0.016741,0.000000,0.000000,0.002939,0.0000,0.0000,1.5097,-0.009652,0.009652,-0.000486,0.001529,0.000183,0.8615,0.3636,1.5642,-0.006136,0.004602,0.000000,0.653476,-0.616660,0.627398,-0.639670,0.635068,-0.612058
3.7397,0.016745,0.000000,0.000000,0.002944,0.0000,0.0000,1.5166,-0.010356,0.010356,-0.000541,0.001463,0.000217,0.8890,0.4369,1.7073,-0.007670,0.004602,0.000000,0.655010,-0.616660,0.630466,-0.639670,0.635068,-0.612058
3.7564,0.016743,0.000000,0.000000,0.002949,0.0000,0.0000,1.5234,-0.011055,0.011055,-0.000631,0.001399,0.000273,0.9115,0.6153,1.8594,-0.007670,0.007670,0.000000,0.656544,-0.616660,0.635068,-0.641204,0.635068,-0.612058
3.7732,0.016758,0.000000,0.000000,0.002953,0.0000,0.0000,1.5302,-0.011749,0.011749,-0.000661,0.001351,0.000303,0.8973,0.7467,1.8996,-0.009204,0.009204,0.000000,0.656544,-0.616660,0.638136,-0.642738,0.635068,-0.612058
3.7899,0.016743,0.000000,0.000000,0.002958,0.0000,0.0000,1.5370,-0.012438,0.012438,-0.000661,0.001351,0.000303,0.8973,0.7467,1.8996,-0.009204,0.009204,0.000000,0.656544,-0.616660,0.638136,-0.642738,0.635068,-0.612058
3.8067,0.016748,0.000000,0.000000,0.002962,0.0000,0.0000,1.5437,-0.013122,0.013122,-0.000601,0.001212,0.000337,0.9534,0.8642,2.0623,-0.010738,0.009204,0.000000,0.656544,-0.618194,0.642738,-0.642738,0.635068,-0.610524
3.8234,0.016745,0.000000,0.000000,0.002966,0.0000,0.0000,1.5504,-0.013800,0.013800,-0.000689,0.001212,0.000381,0.9838,0.9874,2.1577,-0.012272,0.010738,0.000000,0.658078,-0.618194,0.645806,-0.644272,0.635068,-0.610524
3.8402,0.016753,0.000000,0.000000,0.002969,0.0000,0.0000,1.5570,-0.014471,0.014471,-0.000747,0.001172,0.000375,0.9295,1.0591,2.2579,-0.012272,0.010738,0.000000,0.658078,-0.616660,0.647340,-0.644272,0.635068,-0.610524
3.8569,0.016746,0.000000,0.000000,0.002973,0.0000,0.0000,1.5636,-0.015137,0.015137,-0.000784,0.001216,0.000386,0.9831,1.0376,2.3034,-0.013806,0.010738,0.000000,0.659612,-0.616660,0.647340,-0.644272,0.635068,-0.610524
3.8737,0.016754,0.000000,0.000000,0.002976,0.0000,0.0000,1.5701,-0.015795,0.015795,-0.000784,0.001216,0.000386,0.9831,1.0376,2.3034,-0.013806,0.010738,0.000000,0.659612,-0.616660,0.647340,-0.644272,0.635068,-0.610524
3.8904,0.016748,0.000000,0.000000,0.002979,0.0000,0.0000,1.5766,-0.016447,0.016447,-0.000737,0.001172,0.000412,0.9306,1.0515,2.0783,-0.015340,0.010738,0.000000,0.658078,-0.618194,0.647340,-0.645806,0.635068,-0.612058
3.9072,0.016753,0.000000,0.000000,0.002982,0.0000,0.0000,1.5831,-0.017092,0.017092,-0.000839,0.001233,0.000407,0.9445,1.0712,2.2123,-0.013806,0.012272,0.000000,0.659612,-0.616660,0.647340,-0.645806,0.635068,-0.612058
3.9239,0.016744,0.000000,0.000000,0.002985,0.0000,0.0000,1.5895,-0.017728,0.017728,-0.000788,0.001268,0.000432,0.9938,1.0847,2.0890,-0.013806,0.013806,0.000000,0.659612,-0.618194,0.647340,-0.647340,0.635068,-0.612058
3.9407,0.016750,0.000000,0.000000,0.002987,0.0000,0.0000,1.5958,-0.018357,0.018357,-0.000847,0.001280,0.000416,0.9491,1.1185,2.1563,-0.013806,0.013806,0.000000,0.659612,-0.616660,0.647340,-0.647340,0.635068,-0.612058
3.9574,0.016746,0.000000,0.000000,0.002989,0.0000,0.0000,1.6022,-0.018978,0.018978,-0.000854,0.001223,0.000430,0.9421,1.1643,2.2050,-0.016874,0.015340,0.000000,0.659612,-0.616660,0.648874,-0.647340,0.635068,-0.612058
3.9742,0.016759,0.000000,0.000000,0.002991,0.0000,0.0000,1.6084,-0.019590,0.019590,-0.000854,0.001223,0.000430,0.9421,1.1643,2.2050,-0.016874,0.015340,0.000000,0.659612,-0.616660,0.648874,-0.647340,0.635068,-0.612058
3.9909,0.016756,0.000000,0.000000,0.002993,0.0000,0.0000,1.6147,-0.020194,0.020194,-0.000812,0.001269,0.000416,0.9923,1.1775,2.2551,-0.023010,0.016874,0.000000,0.659612,-0.616660,0.648874,-0.647340,0.635068,-0.610524
4.0077,0.016749,0.000000,0.000000,0.002995,0.0000,0.0000,1.6209,-0.020789,0.020789,-0.000816,0.001152,0.000456,0.9655,1.1721,2.1959,-0.021476,0.016874,0.000000,0.659612,-0.618194,0.650408,-0.647340,0.635068,-0.612058
4.0246,0.016910,0.000000,0.000000,0.002996,0.0000,0.0000,1.6271,-0.021380,0.021380,-0.000816,0.001164,0.000452,0.9683,1.1727,2.2021,-0.015340,0.016874,0.000000,0.659612,-0.618194,0.650408,-0.647340,0.635068,-0.612058
4.0414,0.016805,0.000000,0.000000,0.002997,0.0000,0.0000,1.6332,-0.021958,0.021958,-0.000913,0.001219,0.000449,0.9763,1.1938,2.3120,-0.016874,0.018408,0.000000,0.661146,-0.616660,0.650408,-0.647340,0.635068,-0.612058
4.0581,0.016745,0.000000,0.000000,0.002998,0.0000,0.0000,1.6392,-0.022524,0.022524,-0.000890,0.001270,0.000437,0.9872,1.1425,2.2448,-0.024544,0.018408,0.000000,0.661146,-0.616660,0.648874,-0.647340,0.635068,-0.612058
4.0749,0.016756,0.000000,0.000000,0.002999,0.0000,0.0000,1.6452,-0.023081,0.023081,-0.000890,0.001270,0.000437,0.9872,1.1425,2.2448,-0.024544,0.018408,0.000000,0.661146,-0.616660,0.648874,-0.647340,0.635068,-0.612058
4.0917,0.016756,0.000000,0.000000,0.003000,0.0000,0.0000,1.6512,-0.023627,0.023627,-0.000892,0.001264,0.000439,0.9860,1.1478,2.2518,-0.026078,0.018408,0.000000,0.661146,-0.616660,0.648874,-0.647340,0.635068,-0.612058
4.1086,0.016980,0.000000,0.000000,0.003000,0.0000,0.0000,1.6572,-0.024170,0.024170,-0.000905,0.001209,0.000451,0.9745,1.1965,2.3068,-0.021476,0.018408,0.000000,0.661146,-0.616660,0.650408,-0.647340,0.635068,-0.612058
4.1256,0.016962,0.000000,0.000000,0.003000,0.0000,0.0000,1.6631,-0.024701,0.024701,-0.000905,0.001209,0.000451,0.9745,1.1965,2.3068,-0.021476,0.018408,0.000000,0.661146,-0.616660,0.650408,-0.647340,0.635068,-0.612058
4.1425,0.016870,0.000000,0.000000,0.003000,0.0000,0.0000,1.6690,-0.025218,0.025218,-0.000905,0.001209,0.000451,0.9745,1.1965,2.3068,-0.021476,0.018408,0.000000,0.661146,-0.616660,0.650408,-0.647340,0.635068,-0.612058
4.1592,0.016760,0.000000,0.000000,0.003000,0.0000,0.0000,1.6748,-0.025721,0.025721,-0.000905,0.001209,0.000451,0.9745,1.1965,2.3068,-0.027612,0.023010,0.000000,0.662680,-0.616660,0.648874,-0.647340,0.635068,-0.612058
4.1760,0.016759,0.000000,0.000000,0.002999,0.0000,0.0000,1.6805,-0.026212,0.026212,-0.000934,0.001311,0.000448,1.0353,1.1283,2.3014,-0.027612,0.023010,0.000000,0.662680,-0.616660,0.648874,-0.647340,0.635068,-0.612058
4.1928,0.016770,0.000000,0.000000,0.002998,0.0000,0.0000,1.6862,-0.026692,0.026692,-0.000901,0.001204,0.000450,0.9693,1.1985,2.3017,-0.026078,0.023010,0.000000,0.661146,-0.616660,0.650408,-0.647340,0.635068,-0.612058
4.2095,0.016756,0.000000,0.000000,0.002997,0.0000,0.0000,1.6918,-0.027160,0.027160,-0.000878,0.001214,0.000426,0.9767,1.0912,2.3007,-0.019942,0.023010,0.000000,0.661146,-0.616660,0.648874,-0.645806,0.635068,-0.612058
4.2263,0.016777,0.000000,0.000000,0.002996,0.0000,0.0000,1.6974,-0.027616,0.027616,-0.000936,0.001311,0.000450,1.0350,1.1392,2.3020,-0.024544,0.023010,0.000000,0.662680,-0.616660,0.648874,-0.647340,0.635068,-0.612058
4.2430,0.016754,0.000000,0.000000,0.002995,0.0000,0.0000,1.7030,-0.028059,0.028059,-0.000889,0.001341,0.000435,1.0785,1.1523,2.3570,-0.029146,0.023010,0.000000,0.662680,-0.616660,0.648874,-0.647340,0.635068,-0.610524
4.2599,0.016896,0.000000,0.000000,0.002993,0.0000,0.0000,1.7085,-0.028494,0.028494,-0.000948,0.001241,0.000461,1.0127,1.1821,2.3519,-0.027612,0.026078,0.000000,0.662680,-0.616660,0.650408,-0.647340,0.635068,-0.612058
4.2767,0.016761,0.000000,0.000000,0.002991,0.0000,0.0000,1.7140,-0.028912,0.028912,-0.000948,0.001241,0.000461,1.0127,1.1821,2.3519,-0.027612,0.026078,0.000000,0.662680,-0.616660,0.650408,-0.647340,0.635068,-0.612058
4.2934,0.016744,0.000000,0.000000,0.002989,0.0000,0.0000,1.7194,-0.029317,0.029317,-0.000901,0.001292,0.000446,1.0691,1.1970,2.4076,-0.023010,0.026078,0.000000,0.662680,-0.616660,0.650408,-0.647340,0.635068,-0.610524
4.3102,0.016757,0.000000,0.000000,0.002987,0.0000,0.0000,1.7247,-0.029710,0.029710,-0.000893,0.001230,0.000474,1.0534,1.1421,2.2921,-0.026078,0.026078,0.000000,0.662680,-0.618194,0.650408,-0.647340,0.635068,-0.612058
4.3269,0.016745,0.000000,0.000000,0.002985,0.0000,0.0000,1.7300,-0.030089,0.030089,-0.000935,0.001309,0.000445,1.0271,1.1339,2.3029,-0.030680,0.026078,0.000000,0.662680,-0.616660,0.648874,-0.647340,0.635068,-0.612058
4.3437,0.016751,0.000000,0.000000,0.002982,0.0000,0.0000,1.7353,-0.030455,0.030455,-0.000930,0.001301,0.000448,1.0298,1.1348,2.3018,-0.030680,0.026078,0.000000,0.662680,-0.616660,0.648874,-0.647340,0.635068,-0.612058
4.3604,0.016753,0.000000,0.000000,0.002979,0.0000,0.0000,1.7405,-0.030807,0.030807,-0.000944,0.001246,0.000460,1.0178,1.1839,2.3577,-0.027612,0.027612,0.000000,0.662680,-0.616660,0.650408,-0.647340,0.635068,-0.612058
4.3772,0.016757,0.000000,0.000000,0.002976,0.0000,0.0000,1.7457,-0.031146,0.031146,-0.000944,0.001246,0.000460,1.0178,1.1839,2.3577,-0.027612,0.027612,0.000000,0.662680,-0.616660,0.650408,-0.647340,0.635068,-0.612058
4.3939,0.016744,0.000000,0.000000,0.002973,0.0000,0.0000,1.7508,-0.031470,0.031470,-0.000942,0.001251,0.000459,1.0190,1.1788,2.3518,-0.029146,0.029146,0.000000,0.662680,-0.616660,0.650408,-0.647340,0.635068,-0.612058
4.4107,0.016746,0.000000,0.000000,0.002969,0.0000,0.0000,1.7558,-0.031781,0.031781,-0.000901,0.001291,0.000446,1.0685,1.1974,2.4076,-0.030680,0.029146,0.000000,0.662680,-0.616660,0.650408,-0.647340,0.635068,-0.610524
4.4274,0.016746,0.000000,0.000000,0.002965,0.0000,0.0000,1.7609,-0.032078,0.032078,-0.000947,0.001247,0.000460,1.0137,1.1773,2.3466,-0.032214,0.029146,0.000000,0.662680,-0.616660,0.650408,-0.647340,0.635068,-0.612058
4.4442,0.016748,0.000000,0.000000,0.002961,0.0000,0.0000,1.7658,-0.032361,0.032361,-0.000901,0.001291,0.000446,1.0690,1.1975,2.4082,-0.032214,0.029146,0.000000,0.662680,-0.616660,0.650408,-0.647340,0.635068,-0.610524
4.4610,0.016777,0.000000,0.000000,0.002957,0.0000,0.0000,1.7707,-0.032629,0.032629,-0.000934,0.001303,0.000448,1.0254,1.1282,2.2908,-0.032214,0.029146,0.000000,0.662680,-0.616660,0.648874,-0.647340,0.635068,-0.612058
4.4777,0.016757,0.000000,0.000000,0.002953,0.0000,0.0000,1.7756,-0.032883,0.032883,-0.000934,0.001303,0.000448,1.0254,1.1282,2.2908,-0.032214,0.029146,0.000000,0.662680,-0.616660,0.648874,-0.647340,0.635068,-0.612058
4.4945,0.016757,0.000000,0.000000,0.002948,0.0000,0.0000,1.7804,-0.033122,0.033122,-0.000889,0.001341,0.000435,1.0795,1.1535,2.3582,-0.032214,0.029146,0.000000,0.662680,-0.616660,0.648874,-0.647340,0.635068,-0.610524
4.5112,0.016743,0.000000,0.000000,0.002944,0.0000,0.0000,1.7852,-0.033347,0.033347,-0.000935,0.001297,0.000449,1.0243,1.1327,2.2960,-0.032214,0.030680,0.000000,0.662680,-0.616660,0.648874,-0.647340,0.635068,-0.612058
4.5280,0.016744,0.000000,0.000000,0.002939,0.0000,0.0000,1.7899,-0.033557,0.033557,-0.000930,0.001302,0.000448,1.0301,1.1349,2.3025,-0.032214,0.033748,0.000000,0.662680,-0.616660,0.648874,-0.647340,0.635068,-0.612058
4.5447,0.016748,0.000000,0.000000,0.002933,0.0000,0.0000,1.7946,-0.033752,0.033752,-0.000944,0.001245,0.000460,1.0178,1.1839,2.3576,-0.032214,0.032214,0.000000,0.662680,-0.616660,0.650408,-0.647340,0.635068,-0.612058
4.5617,0.017009,0.000000,0.000000,0.002928,0.0000,0.0000,1.7993,-0.033934,0.033934,-0.000875,0.001291,0.000460,1.0704,1.0944,2.2415,-0.032214,0.032214,0.000000,0.662680,-0.618194,0.648874,-0.647340,0.635068,-0.612058
4.5785,0.016739,0.000000,0.000000,0.002922,0.0000,0.0000,1.8039,-0.034099,0.034099,-0.000875,0.001291,0.000460,1.0704,1.0944,2.2415,-0.032214,0.032214,0.000000,0.662680,-0.618194,0.648874,-0.647340,0.635068,-0.612058
