t,loop_dt,cmd_x,cmd_y,cmd_z,cmd_roll,cmd_pitch,cmd_yaw,cmd_ant_l,cmd_ant_r,pres_x,pres_y,pres_z,pres_roll,pres_pitch,pres_yaw,pres_ant_l,pres_ant_r,pres_j0,pres_j1,pres_j2,pres_j3,pres_j4,pres_j5,pres_j6
0.0000,0.000001,0.000280,0.000928,-0.002305,-0.1128,0.1718,1.3126,-0.177942,0.174874,0.000280,0.000928,-0.002305,-0.1128,0.1718,1.3126,-0.177942,0.174874,0.000000,0.578311,-0.559903,0.572175,-0.579845,0.590583,-0.559903
0.0169,0.016894,0.000276,0.000912,-0.002266,-0.1109,0.1688,1.2904,-0.177884,0.174868,0.000279,0.000933,-0.002303,-0.1117,0.1771,1.3071,-0.177942,0.174874,0.000000,0.578311,-0.559903,0.572175,-0.579845,0.590583,-0.559903
0.0341,0.017205,0.000271,0.000896,-0.002226,-0.1090,0.1659,1.2678,-0.177826,0.174862,0.000279,0.000933,-0.002303,-0.1117,0.1771,1.3071,-0.177942,0.174874,0.000000,0.578311,-0.559903,0.572175,-0.579845,0.590583,-0.559903
0.0509,0.016759,0.000266,0.000880,-0.002187,-0.1072,0.1630,1.2459,-0.177768,0.174856,0.000279,0.000933,-0.002303,-0.1117,0.1771,1.3071,-0.177942,0.174874,0.000000,0.578311,-0.559903,0.572175,-0.579845,0.590583,-0.559903
0.0676,0.016771,0.000261,0.000865,-0.002149,-0.1053,0.1601,1.2239,-0.177711,0.174851,0.000226,0.000948,-0.002316,-0.1516,0.2120,1.3607,-0.177942,0.174874,0.000000,0.578311,-0.558369,0.572175,-0.579845,0.590583,-0.559903
0.0844,0.016768,0.000257,0.000849,-0.002110,-0.1034,0.1572,1.2018,-0.177654,0.174845,0.000226,0.000948,-0.002316,-0.1516,0.2120,1.3607,-0.177942,0.174874,0.000000,0.578311,-0.558369,0.572175,-0.579845,0.590583,-0.559903
0.1012,0.016762,0.000252,0.000834,-0.002071,-0.1016,0.1543,1.1799,-0.177597,0.174839,0.000462,0.001031,-0.002454,-0.2138,0.3609,1.4056,-0.177942,0.174874,0.000000,0.572175,-0.555301,0.570641,-0.579845,0.590583,-0.553767
0.1179,0.016764,0.000247,0.000818,-0.002033,-0.0997,0.1514,1.1579,-0.177540,0.174834,0.000587,0.000967,-0.002477,-0.2163,0.4625,1.4533,-0.177942,0.174874,0.000000,0.569107,-0.555301,0.572175,-0.579845,0.590583,-0.550699
0.1347,0.016773,0.000243,0.000803,-0.001994,-0.0978,0.1485,1.1358,-0.177483,0.174828,0.000614,0.001012,-0.002489,-0.1657,0.4696,1.5015,-0.177942,0.174874,0.000000,0.569107,-0.555301,0.572175,-0.579845,0.590583,-0.549165
0.1514,0.016750,0.000238,0.000787,-0.001956,-0.0960,0.1456,1.1139,-0.177426,0.174822,0.000652,0.000968,-0.002499,-0.2206,0.4842,1.4428,-0.177942,0.174874,0.000000,0.567573,-0.555301,0.572175,-0.579845,0.590583,-0.549165
0.1682,0.016751,0.000233,0.000772,-0.001917,-0.0941,0.1427,1.0919,-0.177368,0.174816,0.000607,0.001011,-0.002486,-0.1652,0.4674,1.5026,-0.177942,0.174874,0.000000,0.569107,-0.555301,0.572175,-0.579845,0.590583,-0.549165
0.1850,0.016766,0.000229,0.000756,-0.001878,-0.0922,0.1398,1.0699,-0.177311,0.174811,0.000607,0.001011,-0.002486,-0.1652,0.4674,1.5026,-0.177942,0.174874,0.000000,0.569107,-0.555301,0.572175,-0.579845,0.590583,-0.549165
0.2017,0.016747,0.000224,0.000740,-0.001840,-0.0904,0.1369,1.0479,-0.177254,0.174805,0.000612,0.001007,-0.002488,-0.1710,0.4691,1.4963,-0.177942,0.174874,0.000000,0.569107,-0.555301,0.572175,-0.579845,0.590583,-0.549165
0.2185,0.016750,0.000219,0.000725,-0.001801,-0.0885,0.1340,1.0259,-0.177197,0.174799,0.000624,0.001062,-0.002500,-0.1601,0.4182,1.4436,-0.177942,0.174874,0.000000,0.569107,-0.555301,0.570641,-0.579845,0.590583,-0.549165
0.2352,0.016739,0.000214,0.000709,-0.001763,-0.0866,0.1312,1.0039,-0.177140,0.174794,0.000610,0.001002,-0.002486,-0.1715,0.4743,1.5025,-0.177942,0.174874,0.000000,0.569107,-0.555301,0.572175,-0.579845,0.590583,-0.549165
0.2520,0.016757,0.000210,0.000694,-0.001724,-0.0847,0.1283,0.9820,-0.177083,0.174788,0.000612,0.001008,-0.002488,-0.1704,0.4684,1.4964,-0.177942,0.173340,0.000000,0.569107,-0.555301,0.572175,-0.579845,0.590583,-0.549165
0.2687,0.016743,0.000205,0.000678,-0.001685,-0.0829,0.1254,0.9600,-0.177026,0.174782,0.000612,0.001008,-0.002488,-0.1704,0.4684,1.4964,-0.177942,0.173340,0.000000,0.569107,-0.555301,0.572175,-0.579845,0.590583,-0.549165
0.2855,0.016757,0.000200,0.000663,-0.001647,-0.0810,0.1225,0.9380,-0.176969,0.174777,0.000612,0.001008,-0.002488,-0.1704,0.4684,1.4964,-0.177942,0.173340,0.000000,0.569107,-0.555301,0.572175,-0.579845,0.590583,-0.549165
0.3022,0.016745,0.000196,0.000647,-0.001608,-0.0791,0.1196,0.9160,-0.176912,0.174771,0.000612,0.001008,-0.002488,-0.1704,0.4684,1.4964,-0.177942,0.173340,0.000000,0.569107,-0.555301,0.572175,-0.579845,0.590583,-0.549165
0.3190,0.016751,0.000191,0.000632,-0.001570,-0.0772,0.1167,0.8940,-0.176855,0.174765,0.000612,0.001008,-0.002488,-0.1704,0.4684,1.4964,-0.177942,0.173340,0.000000,0.569107,-0.555301,0.572175,-0.579845,0.590583,-0.549165
0.3357,0.016741,0.000186,0.000616,-0.001531,-0.0754,0.1138,0.8721,-0.176797,0.174759,0.000612,0.001008,-0.002488,-0.1704,0.4684,1.4964,-0.177942,0.173340,0.000000,0.569107,-0.555301,0.572175,-0.579845,0.590583,-0.549165
0.3524,0.016756,0.000182,0.000601,-0.001492,-0.0735,0.1110,0.8501,-0.176740,0.174754,0.000612,0.001008,-0.002488,-0.1704,0.4684,1.4964,-0.177942,0.173340,0.000000,0.569107,-0.555301,0.572175,-0.579845,0.590583,-0.549165
0.3692,0.016743,0.000177,0.000585,-0.001454,-0.0716,0.1081,0.8281,-0.176683,0.174748,0.000612,0.001008,-0.002488,-0.1704,0.4684,1.4964,-0.177942,0.173340,0.000000,0.569107,-0.555301,0.572175,-0.579845,0.590583,-0.549165
0.3860,0.016764,0.000172,0.000570,-0.001415,-0.0697,0.1052,0.8061,-0.176626,0.174742,0.000612,0.001008,-0.002488,-0.1704,0.4684,1.4964,-0.177942,0.173340,0.000000,0.569107,-0.555301,0.572175,-0.579845,0.590583,-0.549165
0.4027,0.016745,0.000168,0.000554,-0.001376,-0.0678,0.1023,0.7841,-0.176569,0.174737,0.000612,0.001008,-0.002488,-0.1704,0.4684,1.4964,-0.177942,0.173340,0.000000,0.569107,-0.555301,0.572175,-0.579845,0.590583,-0.549165
0.4195,0.016750,0.000163,0.000538,-0.001338,-0.0660,0.0994,0.7621,-0.176512,0.174731,0.000612,0.001008,-0.002488,-0.1704,0.4684,1.4964,-0.177942,0.173340,0.000000,0.569107,-0.555301,0.572175,-0.579845,0.590583,-0.549165
0.4362,0.016742,0.000158,0.000523,-0.001299,-0.0641,0.0966,0.7401,-0.176455,0.174725,0.000612,0.001008,-0.002488,-0.1704,0.4684,1.4964,-0.177942,0.174874,0.000000,0.569107,-0.555301,0.572175,-0.579845,0.590583,-0.549165
0.4529,0.016740,0.000153,0.000507,-0.001261,-0.0622,0.0937,0.7182,-0.176398,0.174719,0.000612,0.001008,-0.002488,-0.1704,0.4684,1.4964,-0.177942,0.173340,0.000000,0.569107,-0.555301,0.572175,-0.579845,0.590583,-0.549165
0.4697,0.016741,0.000149,0.000492,-0.001222,-0.0603,0.0908,0.6962,-0.176341,0.174714,0.000612,0.001008,-0.002488,-0.1704,0.4684,1.4964,-0.177942,0.173340,0.000000,0.569107,-0.555301,0.572175,-0.579845,0.590583,-0.549165
0.4864,0.016749,0.000144,0.000476,-0.001184,-0.0584,0.0879,0.6742,-0.176284,0.174708,0.000612,0.001008,-0.002488,-0.1704,0.4684,1.4964,-0.177942,0.173340,0.000000,0.569107,-0.555301,0.572175,-0.579845,0.590583,-0.549165
0.5032,0.016744,0.000139,0.000461,-0.001145,-0.0565,0.0850,0.6522,-0.176227,0.174702,0.000612,0.001008,-0.002488,-0.1704,0.4684,1.4964,-0.177942,0.174874,0.000000,0.569107,-0.555301,0.572175,-0.579845,0.590583,-0.549165
0.5199,0.016742,0.000135,0.000445,-0.001106,-0.0546,0.0822,0.6303,-0.176169,0.174697,0.000612,0.001008,-0.002488,-0.1704,0.4684,1.4964,-0.177942,0.173340,0.000000,0.569107,-0.555301,0.572175,-0.579845,0.590583,-0.549165
0.5367,0.016743,0.000130,0.000430,-0.001068,-0.0528,0.0793,0.6083,-0.176112,0.174691,0.000624,0.001062,-0.002500,-0.1602,0.4183,1.4436,-0.177942,0.173340,0.000000,0.569107,-0.555301,0.570641,-0.579845,0.590583,-0.549165
0.5534,0.016748,0.000125,0.000414,-0.001029,-0.0509,0.0764,0.5863,-0.176055,0.174685,0.000610,0.001002,-0.002486,-0.1715,0.4743,1.5025,-0.177942,0.173340,0.000000,0.569107,-0.555301,0.572175,-0.579845,0.590583,-0.549165
0.5704,0.017049,0.000120,0.000398,-0.000990,-0.0489,0.0735,0.5639,-0.175997,0.174679,0.000612,0.001008,-0.002488,-0.1704,0.4684,1.4964,-0.177942,0.173340,0.000000,0.569107,-0.555301,0.572175,-0.579845,0.590583,-0.549165
0.5872,0.016749,0.000116,0.000383,-0.000951,-0.0470,0.0706,0.5419,-0.175940,0.174674,0.000612,0.001008,-0.002488,-0.1704,0.4684,1.4964,-0.177942,0.173340,0.000000,0.569107,-0.555301,0.572175,-0.579845,0.590583,-0.549165
0.6039,0.016746,0.000111,0.000367,-0.000913,-0.0451,0.0677,0.5199,-0.175883,0.174668,0.000612,0.001008,-0.002488,-0.1704,0.4684,1.4964,-0.177942,0.173340,0.000000,0.569107,-0.555301,0.572175,-0.579845,0.590583,-0.549165
0.6207,0.016745,0.000106,0.000352,-0.000874,-0.0432,0.0649,0.4980,-0.175826,0.174662,0.000612,0.001008,-0.002488,-0.1704,0.4684,1.4964,-0.177942,0.173340,0.000000,0.569107,-0.555301,0.572175,-0.579845,0.590583,-0.549165
0.6374,0.016743,0.000102,0.000336,-0.000836,-0.0414,0.0620,0.4760,-0.175769,0.174657,0.000612,0.001008,-0.002488,-0.1704,0.4684,1.4964,-0.177942,0.174874,0.000000,0.569107,-0.555301,0.572175,-0.579845,0.590583,-0.549165
0.6542,0.016744,0.000097,0.000321,-0.000797,-0.0395,0.0591,0.4540,-0.175712,0.174651,0.000612,0.001008,-0.002488,-0.1704,0.4684,1.4964,-0.177942,0.173340,0.000000,0.569107,-0.555301,0.572175,-0.579845,0.590583,-0.549165
0.6710,0.016826,0.000092,0.000305,-0.000758,-0.0375,0.0562,0.4319,-0.175654,0.174645,0.000612,0.001008,-0.002488,-0.1704,0.4684,1.4964,-0.177942,0.173340,0.000000,0.569107,-0.555301,0.572175,-0.579845,0.590583,-0.549165
0.6879,0.016941,0.000088,0.000289,-0.000719,-0.0356,0.0533,0.4097,-0.175597,0.174639,0.000612,0.001008,-0.002488,-0.1704,0.4684,1.4964,-0.177942,0.173340,0.000000,0.569107,-0.555301,0.572175,-0.579845,0.590583,-0.549165
0.7047,0.016789,0.000083,0.000274,-0.000680,-0.0337,0.0505,0.3876,-0.175539,0.174634,0.000612,0.001008,-0.002488,-0.1704,0.4684,1.4964,-0.177942,0.173340,0.000000,0.569107,-0.555301,0.572175,-0.579845,0.590583,-0.549165
0.7216,0.016823,0.000078,0.000258,-0.000642,-0.0318,0.0476,0.3655,-0.175482,0.174628,0.000612,0.001008,-0.002488,-0.1704,0.4684,1.4964,-0.177942,0.173340,0.000000,0.569107,-0.555301,0.572175,-0.579845,0.590583,-0.549165
0.7384,0.016843,0.000073,0.000243,-0.000603,-0.0299,0.0447,0.3434,-0.175425,0.174622,0.000612,0.001008,-0.002488,-0.1704,0.4684,1.4964,-0.177942,0.173340,0.000000,0.569107,-0.555301,0.572175,-0.579845,0.590583,-0.549165
0.7551,0.016749,0.000069,0.000227,-0.000564,-0.0280,0.0418,0.3214,-0.175368,0.174616,0.000612,0.001008,-0.002488,-0.1704,0.4684,1.4964,-0.177942,0.173340,0.000000,0.569107,-0.555301,0.572175,-0.579845,0.590583,-0.549165
0.7719,0.016788,0.000064,0.000212,-0.000526,-0.0261,0.0390,0.2994,-0.175310,0.174611,0.000612,0.001008,-0.002488,-0.1704,0.4684,1.4964,-0.177942,0.173340,0.000000,0.569107,-0.555301,0.572175,-0.579845,0.590583,-0.549165
0.7887,0.016753,0.000059,0.000196,-0.000487,-0.0242,0.0361,0.2774,-0.175253,0.174605,0.000612,0.001008,-0.002488,-0.1704,0.4684,1.4964,-0.177942,0.173340,0.000000,0.569107,-0.555301,0.572175,-0.579845,0.590583,-0.549165
0.8056,0.016929,0.000055,0.000180,-0.000448,-0.0222,0.0332,0.2552,-0.175196,0.174599,0.000612,0.001008,-0.002488,-0.1704,0.4684,1.4964,-0.177942,0.173340,0.000000,0.569107,-0.555301,0.572175,-0.579845,0.590583,-0.549165
0.8224,0.016743,0.000050,0.000165,-0.000409,-0.0203,0.0303,0.2332,-0.175138,0.174593,0.000612,0.001008,-0.002488,-0.1704,0.4684,1.4964,-0.177942,0.173340,0.000000,0.569107,-0.555301,0.572175,-0.579845,0.590583,-0.549165
0.8391,0.016748,0.000045,0.000149,-0.000371,-0.0184,0.0275,0.2112,-0.175081,0.174588,0.000612,0.001008,-0.002488,-0.1704,0.4684,1.4964,-0.177942,0.173340,0.000000,0.569107,-0.555301,0.572175,-0.579845,0.590583,-0.549165
0.8559,0.016763,0.000040,0.000134,-0.000332,-0.0165,0.0246,0.1892,-0.175024,0.174582,0.000612,0.001008,-0.002488,-0.1704,0.4684,1.4964,-0.177942,0.173340,0.000000,0.569107,-0.555301,0.572175,-0.579845,0.590583,-0.549165
0.8726,0.016748,0.000036,0.000118,-0.000294,-0.0146,0.0217,0.1672,-0.174967,0.174576,0.000612,0.001008,-0.002488,-0.1704,0.4684,1.4964,-0.177942,0.174874,0.000000,0.569107,-0.555301,0.572175,-0.579845,0.590583,-0.549165
0.8894,0.016747,0.000031,0.000103,-0.000255,-0.0127,0.0189,0.1452,-0.174910,0.174571,0.000612,0.001008,-0.002488,-0.1704,0.4684,1.4964,-0.177942,0.173340,0.000000,0.569107,-0.555301,0.572175,-0.579845,0.590583,-0.549165
0.9061,0.016758,0.000026,0.000087,-0.000216,-0.0108,0.0160,0.1232,-0.174853,0.174565,0.000571,0.001046,-0.002476,-0.1208,0.4538,1.5506,-0.177942,0.173340,0.000000,0.570641,-0.555301,0.572175,-0.579845,0.590583,-0.549165
0.9229,0.016746,0.000022,0.000072,-0.000178,-0.0088,0.0132,0.1013,-0.174796,0.174559,0.000571,0.001046,-0.002476,-0.1208,0.4538,1.5506,-0.177942,0.173340,0.000000,0.570641,-0.555301,0.572175,-0.579845,0.590583,-0.549165
0.9396,0.016740,0.000017,0.000056,-0.000139,-0.0069,0.0103,0.0793,-0.174739,0.174554,0.000575,0.001042,-0.002477,-0.1260,0.4553,1.5450,-0.177942,0.174874,0.000000,0.570641,-0.555301,0.572175,-0.579845,0.590583,-0.549165
0.9564,0.016744,0.000012,0.000040,-0.000101,-0.0050,0.0074,0.0573,-0.174682,0.174548,0.000575,0.001042,-0.002477,-0.1260,0.4553,1.5450,-0.177942,0.174874,0.000000,0.570641,-0.555301,0.572175,-0.579845,0.590583,-0.549165
0.9731,0.016748,0.000008,0.000025,-0.000062,-0.0031,0.0046,0.0353,-0.174625,0.174542,0.000575,0.001042,-0.002477,-0.1260,0.4553,1.5450,-0.177942,0.174874,0.000000,0.570641,-0.555301,0.572175,-0.579845,0.590583,-0.549165
0.9898,0.016743,0.000003,0.000009,-0.000023,-0.0012,0.0017,0.0133,-0.174568,0.174536,0.000575,0.001042,-0.002477,-0.1260,0.4553,1.5450,-0.176408,0.173340,0.000000,0.570641,-0.555301,0.572175,-0.579845,0.590583,-0.549165
1.0066,0.016760,0.000000,0.000000,0.000013,0.0050,0.0000,0.0062,-0.173954,0.173954,0.000575,0.001042,-0.002477,-0.1260,0.4553,1.5450,-0.176408,0.173340,0.000000,0.570641,-0.555301,0.572175,-0.579845,0.590583,-0.550699
1.0233,0.016742,0.000000,0.000000,0.000047,0.0176,0.0000,0.0220,-0.172485,0.172485,0.000534,0.001004,-0.002463,-0.1759,0.4373,1.4925,-0.176408,0.173340,0.000000,0.570641,-0.555301,0.572175,-0.579845,0.590583,-0.550699
1.0401,0.016756,0.000000,0.000000,0.000081,0.0302,0.0000,0.0378,-0.171016,0.171016,0.000539,0.001008,-0.002465,-0.1707,0.4392,1.4979,-0.176408,0.173340,0.000000,0.570641,-0.555301,0.572175,-0.579845,0.590583,-0.550699
1.0568,0.016745,0.000000,0.000000,0.000114,0.0428,0.0000,0.0536,-0.169550,0.169550,0.000539,0.001008,-0.002465,-0.1707,0.4392,1.4979,-0.176408,0.173340,0.000000,0.570641,-0.555301,0.572175,-0.579845,0.590583,-0.550699
1.0736,0.016787,0.000000,0.000000,0.000148,0.0555,0.0000,0.0694,-0.168082,0.168082,0.000539,0.001008,-0.002465,-0.1707,0.4392,1.4979,-0.176408,0.173340,0.000000,0.570641,-0.555301,0.572175,-0.579845,0.590583,-0.550699
1.0904,0.016748,0.000000,0.000000,0.000182,0.0681,0.0000,0.0852,-0.166621,0.166621,0.000539,0.001008,-0.002465,-0.1707,0.4392,1.4979,-0.176408,0.173340,0.000000,0.570641,-0.555301,0.572175,-0.579845,0.590583,-0.550699
1.1072,0.016773,0.000000,0.000000,0.000215,0.0807,0.0000,0.1010,-0.165161,0.165161,0.000539,0.001008,-0.002465,-0.1707,0.4392,1.4979,-0.174874,0.173340,0.000000,0.570641,-0.555301,0.572175,-0.579845,0.590583,-0.549165
1.1239,0.016741,0.000000,0.000000,0.000249,0.0933,0.0000,0.1167,-0.163707,0.163707,0.000579,0.001046,-0.002478,-0.1208,0.4568,1.5505,-0.174874,0.173340,0.000000,0.570641,-0.555301,0.572175,-0.579845,0.590583,-0.549165
1.1413,0.017366,0.000000,0.000000,0.000284,0.1063,0.0000,0.1331,-0.162205,0.162205,0.000534,0.001004,-0.002463,-0.1764,0.4371,1.4919,-0.174874,0.173340,0.000000,0.570641,-0.555301,0.572175,-0.579845,0.590583,-0.550699
1.1580,0.016747,0.000000,0.000000,0.000317,0.1189,0.0000,0.1489,-0.160762,0.160762,0.000539,0.001008,-0.002465,-0.1706,0.4392,1.4980,-0.174874,0.173340,0.000000,0.570641,-0.555301,0.572175,-0.579845,0.590583,-0.550699
1.1748,0.016773,0.000000,0.000000,0.000351,0.1314,0.0000,0.1646,-0.159322,0.159322,0.000539,0.001008,-0.002465,-0.1706,0.4392,1.4980,-0.174874,0.173340,0.000000,0.570641,-0.555301,0.572175,-0.579845,0.590583,-0.550699
1.1915,0.016743,0.000000,0.000000,0.000384,0.1439,0.0000,0.1804,-0.157892,0.157892,0.000444,0.001063,-0.002427,-0.1620,0.4576,1.4441,-0.174874,0.171806,0.000000,0.572175,-0.555301,0.572175,-0.581379,0.590583,-0.552233
1.2083,0.016755,0.000000,0.000000,0.000418,0.1564,0.0000,0.1962,-0.156469,0.156469,0.000414,0.001019,-0.002417,-0.2132,0.4379,1.3966,-0.171806,0.171806,0.000000,0.572175,-0.555301,0.572175,-0.581379,0.590583,-0.553767
1.2250,0.016746,0.000000,0.000000,0.000451,0.1689,0.0000,0.2119,-0.155054,0.155054,0.000414,0.001019,-0.002417,-0.2132,0.4379,1.3966,-0.171806,0.171806,0.000000,0.572175,-0.555301,0.572175,-0.581379,0.590583,-0.553767
1.2421,0.017098,0.000000,0.000000,0.000486,0.1815,0.0000,0.2280,-0.153618,0.153618,0.000363,0.001040,-0.002393,-0.2480,0.4739,1.2945,-0.164136,0.171806,0.000000,0.572175,-0.555301,0.572175,-0.582913,0.590583,-0.555301
1.2589,0.016743,0.000000,0.000000,0.000519,0.1939,0.0000,0.2437,-0.152221,0.152221,0.000193,0.001093,-0.002333,-0.2354,0.4555,1.2522,-0.158000,0.170272,0.000000,0.575243,-0.555301,0.572175,-0.584447,0.590583,-0.558369
1.2756,0.016749,0.000000,0.000000,0.000552,0.2063,0.0000,0.2594,-0.150834,0.150834,0.000170,0.001128,-0.002251,-0.1873,0.4384,0.9901,-0.156466,0.168738,0.000000,0.576777,-0.558369,0.572175,-0.587515,0.590583,-0.561437
1.2924,0.016746,0.000000,0.000000,0.000586,0.2187,0.0000,0.2752,-0.149457,0.149457,0.000131,0.001242,-0.002174,-0.0432,0.4232,0.8578,-0.158000,0.168738,0.000000,0.579845,-0.561437,0.572175,-0.590583,0.590583,-0.562971
1.3091,0.016764,0.000000,0.000000,0.000619,0.2310,0.0000,0.2909,-0.148090,0.148090,0.000131,0.001242,-0.002174,-0.0432,0.4232,0.8578,-0.154932,0.164136,0.000000,0.582913,-0.562971,0.572175,-0.592117,0.590583,-0.566039
1.3259,0.016743,0.000000,0.000000,0.000652,0.2432,0.0000,0.3066,-0.146737,0.146737,0.000012,0.001270,-0.002107,-0.0088,0.3742,0.7654,-0.154932,0.164136,0.000000,0.582913,-0.562971,0.572175,-0.592117,0.590583,-0.566039
1.3426,0.016752,0.000000,0.000000,0.000685,0.2555,0.0000,0.3223,-0.145395,0.145395,0.000009,0.001275,-0.002052,0.1160,0.2598,0.7230,-0.151864,0.158000,0.000000,0.585981,-0.566039,0.572175,-0.592117,0.590583,-0.567573
1.3594,0.016744,0.000000,0.000000,0.000719,0.2677,0.0000,0.3380,-0.144067,0.144067,0.000116,0.001320,-0.001996,0.2809,0.2009,0.5673,-0.151864,0.153398,0.000000,0.587515,-0.570641,0.572175,-0.593651,0.590583,-0.567573
1.3761,0.016745,0.000000,0.000000,0.000752,0.2798,0.0000,0.3537,-0.142752,0.142752,0.000063,0.001433,-0.001955,0.4125,0.1918,0.5841,-0.151864,0.147262,0.000000,0.590583,-0.572175,0.572175,-0.595185,0.590583,-0.567573
1.3929,0.016744,0.000000,0.000000,0.000785,0.2919,0.0000,0.3693,-0.141451,0.141451,0.000094,0.001389,-0.001909,0.4770,0.0886,0.4755,-0.148796,0.145728,0.000000,0.592117,-0.575243,0.572175,-0.595185,0.590583,-0.569107
1.4096,0.016778,0.000000,0.000000,0.000818,0.3040,0.0000,0.3850,-0.140162,0.140162,0.000094,0.001389,-0.001909,0.4770,0.0886,0.4755,-0.145728,0.144194,0.000000,0.593651,-0.578311,0.572175,-0.595185,0.590583,-0.569107
1.4264,0.016747,0.000000,0.000000,0.000851,0.3160,0.0000,0.4007,-0.138891,0.138891,0.000157,0.001401,-0.001876,0.5979,0.0129,0.4333,-0.145728,0.144194,0.000000,0.593651,-0.578311,0.572175,-0.595185,0.590583,-0.569107
1.4431,0.016761,0.000000,0.000000,0.000884,0.3279,0.0000,0.4163,-0.137635,0.137635,0.000216,0.001406,-0.001843,0.7127,-0.0656,0.3839,-0.147262,0.144194,0.000000,0.595185,-0.581379,0.572175,-0.595185,0.590583,-0.569107
1.4599,0.016751,0.000000,0.000000,0.000916,0.3398,0.0000,0.4319,-0.136395,0.136395,0.000276,0.001412,-0.001810,0.8280,-0.1438,0.3349,-0.147262,0.144194,0.000000,0.596719,-0.584447,0.572175,-0.595185,0.590583,-0.569107
1.4767,0.016763,0.000000,0.000000,0.000949,0.3517,0.0000,0.4476,-0.135172,0.135172,0.000324,0.001395,-0.001801,0.8547,-0.1712,0.2860,-0.145728,0.144194,0.000000,0.596719,-0.585981,0.572175,-0.595185,0.590583,-0.569107
1.4934,0.016747,0.000000,0.000000,0.000982,0.3635,0.0000,0.4632,-0.133968,0.133968,0.000333,0.001342,-0.001776,0.8409,-0.2215,0.1834,-0.145728,0.144194,0.000000,0.596719,-0.587515,0.572175,-0.595185,0.590583,-0.570641
1.5102,0.016756,0.000000,0.000000,0.001015,0.3752,0.0000,0.4788,-0.132780,0.132780,0.000333,0.001342,-0.001776,0.8409,-0.2215,0.1834,-0.145728,0.144194,0.000000,0.596719,-0.587515,0.572175,-0.595185,0.590583,-0.570641
1.5269,0.016747,0.000000,0.000000,0.001047,0.3869,0.0000,0.4943,-0.131612,0.131612,0.000361,0.001145,-0.001738,0.7611,-0.1507,0.1404,-0.145728,0.144194,0.000000,0.595185,-0.589049,0.575243,-0.595185,0.590583,-0.572175
1.5437,0.016754,0.000000,0.000000,0.001080,0.3985,0.0000,0.5099,-0.130462,0.130462,0.000413,0.001135,-0.001668,0.8469,-0.0242,0.0369,-0.142660,0.144194,0.000000,0.595185,-0.592117,0.578311,-0.598253,0.590583,-0.572175
1.5604,0.016747,0.000000,0.000000,0.001112,0.4101,0.0000,0.5254,-0.129333,0.129333,0.000340,0.001176,-0.001639,0.8879,0.0493,0.1019,-0.134990,0.144194,0.000000,0.596719,-0.592117,0.579845,-0.599786,0.590583,-0.572175
1.5772,0.016752,0.000000,0.000000,0.001144,0.4216,0.0000,0.5410,-0.128223,0.128223,0.000268,0.001049,-0.001553,0.9020,0.1786,0.1499,-0.130388,0.141126,0.000000,0.598253,-0.593651,0.584447,-0.601320,0.590583,-0.573709
1.5939,0.016756,0.000000,0.000000,0.001176,0.4330,0.0000,0.5565,-0.127133,0.127133,0.000112,0.001048,-0.001488,0.9399,0.2702,0.2540,-0.133456,0.138058,0.000000,0.601320,-0.593651,0.587515,-0.602854,0.590583,-0.575243
1.6107,0.016769,0.000000,0.000000,0.001209,0.4443,0.0000,0.5720,-0.126064,0.126064,0.000112,0.001048,-0.001488,0.9399,0.2702,0.2540,-0.133456,0.138058,0.000000,0.601320,-0.593651,0.587515,-0.602854,0.590583,-0.575243
1.6274,0.016740,0.000000,0.000000,0.001241,0.4556,0.0000,0.5875,-0.125018,0.125018,0.000089,0.000963,-0.001420,1.0034,0.4143,0.3523,-0.133456,0.134990,0.000000,0.602854,-0.595185,0.592117,-0.604388,0.590583,-0.575243
1.6442,0.016741,0.000000,0.000000,0.001273,0.4668,0.0000,0.6030,-0.123993,0.123993,0.000064,0.000941,-0.001365,1.0746,0.5015,0.3972,-0.128854,0.128854,0.000000,0.604388,-0.596719,0.595185,-0.605922,0.590583,-0.575243
1.6609,0.016749,0.000000,0.000000,0.001305,0.4779,0.0000,0.6184,-0.122991,0.122991,0.000053,0.000857,-0.001321,1.1344,0.5438,0.5017,-0.128854,0.124252,0.000000,0.605922,-0.598253,0.598253,-0.605922,0.590583,-0.575243
1.6777,0.016753,0.000000,0.000000,0.001336,0.4890,0.0000,0.6339,-0.122011,0.122011,-0.000001,0.000819,-0.001264,1.2445,0.5753,0.6547,-0.127320,0.124252,0.000000,0.608990,-0.599786,0.601320,-0.605922,0.590583,-0.575243
1.6944,0.016761,0.000000,0.000000,0.001368,0.5000,0.0000,0.6493,-0.121054,0.121054,-0.000001,0.000819,-0.001264,1.2445,0.5753,0.6547,-0.125786,0.122718,0.000000,0.610524,-0.601320,0.601320,-0.607456,0.590583,-0.575243
1.7112,0.016760,0.000000,0.000000,0.001400,0.5109,0.0000,0.6647,-0.120121,0.120121,0.000003,0.000902,-0.001234,1.3318,0.5725,0.5851,-0.125786,0.122718,0.000000,0.610524,-0.601320,0.601320,-0.607456,0.590583,-0.575243
1.7279,0.016751,0.000000,0.000000,0.001431,0.5217,0.0000,0.6801,-0.119212,0.119212,-0.000010,0.000839,-0.001224,1.3121,0.6236,0.6472,-0.125786,0.122718,0.000000,0.610524,-0.601320,0.602854,-0.607456,0.590583,-0.575243
1.7447,0.016753,0.000000,0.000000,0.001463,0.5324,0.0000,0.6955,-0.118328,0.118328,-0.000023,0.000869,-0.001177,1.4023,0.6695,0.6419,-0.125786,0.122718,0.000000,0.612058,-0.602854,0.604388,-0.608990,0.590583,-0.575243
1.7615,0.016823,0.000000,0.000000,0.001494,0.5431,0.0000,0.7109,-0.117465,0.117465,-0.000022,0.000866,-0.001182,1.3929,0.6647,0.6425,-0.124252,0.121184,0.000000,0.612058,-0.602854,0.604388,-0.608990,0.590583,-0.575243
1.7783,0.016770,0.000000,0.000000,0.001525,0.5537,0.0000,0.7262,-0.116630,0.116630,-0.000022,0.000866,-0.001182,1.3929,0.6647,0.6425,-0.124252,0.121184,0.000000,0.612058,-0.602854,0.604388,-0.608990,0.590583,-0.575243
1.7951,0.016781,0.000000,0.000000,0.001556,0.5642,0.0000,0.7416,-0.115821,0.115821,-0.000022,0.000866,-0.001182,1.3929,0.6647,0.6425,-0.124252,0.121184,0.000000,0.612058,-0.602854,0.604388,-0.608990,0.590583,-0.575243
1.8119,0.016825,0.000000,0.000000,0.001587,0.5746,0.0000,0.7569,-0.115035,0.115035,-0.000022,0.000866,-0.001182,1.3929,0.6647,0.6425,-0.124252,0.121184,0.000000,0.612058,-0.602854,0.604388,-0.608990,0.590583,-0.575243
1.8286,0.016755,0.000000,0.000000,0.001618,0.5849,0.0000,0.7722,-0.114280,0.114280,-0.000022,0.000866,-0.001182,1.3929,0.6647,0.6425,-0.124252,0.121184,0.000000,0.612058,-0.602854,0.604388,-0.608990,0.590583,-0.575243
1.8454,0.016770,0.000000,0.000000,0.001649,0.5951,0.0000,0.7874,-0.113550,0.113550,-0.000022,0.000866,-0.001182,1.3929,0.6647,0.6425,-0.124252,0.121184,0.000000,0.612058,-0.602854,0.604388,-0.608990,0.590583,-0.575243
1.8622,0.016748,0.000000,0.000000,0.001680,0.6052,0.0000,0.8027,-0.112848,0.112848,-0.000011,0.000858,-0.001120,1.5594,0.6153,0.6975,-0.121184,0.118117,0.000000,0.615126,-0.605922,0.605922,-0.608990,0.590583,-0.575243
1.8789,0.016751,0.000000,0.000000,0.001710,0.6152,0.0000,0.8179,-0.112174,0.112174,-0.000054,0.000898,-0.001115,1.5911,0.6054,0.7464,-0.121184,0.118117,0.000000,0.616660,-0.605922,0.605922,-0.608990,0.590583,-0.575243
1.8957,0.016745,0.000000,0.000000,0.001741,0.6251,0.0000,0.8330,-0.111527,0.111527,-0.000092,0.000933,-0.001104,1.6369,0.5914,0.7959,-0.121184,0.118117,0.000000,0.618194,-0.605922,0.605922,-0.608990,0.590583,-0.575243
1.9124,0.016755,0.000000,0.000000,0.001771,0.6349,0.0000,0.8482,-0.110908,0.110908,-0.000088,0.000930,-0.001105,1.6321,0.5928,0.7908,-0.121184,0.118117,0.000000,0.618194,-0.605922,0.605922,-0.608990,0.590583,-0.575243
1.9292,0.016741,0.000000,0.000000,0.001801,0.6446,0.0000,0.8633,-0.110318,0.110318,-0.000101,0.000875,-0.001092,1.6219,0.6434,0.8463,-0.119651,0.118117,0.000000,0.618194,-0.605922,0.607456,-0.608990,0.590583,-0.575243
1.9459,0.016756,0.000000,0.000000,0.001831,0.6543,0.0000,0.8784,-0.109755,0.109755,-0.000101,0.000875,-0.001092,1.6219,0.6434,0.8463,-0.119651,0.118117,0.000000,0.618194,-0.605922,0.607456,-0.608990,0.590583,-0.575243
1.9627,0.016745,0.000000,0.000000,0.001861,0.6638,0.0000,0.8935,-0.109222,0.109222,-0.000085,0.000954,-0.001045,1.5948,0.7563,0.8415,-0.119651,0.116583,0.000000,0.618194,-0.605922,0.608990,-0.612058,0.592117,-0.575243
1.9794,0.016748,0.000000,0.000000,0.001891,0.6731,0.0000,0.9086,-0.108717,0.108717,-0.000140,0.000963,-0.000989,1.5580,0.7793,0.8972,-0.116583,0.118117,0.000000,0.619728,-0.605922,0.610524,-0.613592,0.593651,-0.576777
1.9961,0.016738,0.000000,0.000000,0.001920,0.6824,0.0000,0.9236,-0.108242,0.108242,-0.000177,0.000891,-0.000909,1.5885,0.7613,1.0558,-0.113515,0.116583,0.000000,0.622796,-0.607456,0.613592,-0.613592,0.595185,-0.578311
2.0129,0.016750,0.000000,0.000000,0.001950,0.6916,0.0000,0.9386,-0.107796,0.107796,-0.000185,0.000876,-0.000832,1.4959,0.8143,1.2032,-0.108913,0.116583,0.000000,0.624330,-0.607456,0.616660,-0.615126,0.598253,-0.579845
2.0296,0.016740,0.000000,0.000000,0.001979,0.7007,0.0000,0.9536,-0.107380,0.107380,-0.000089,0.000933,-0.000767,1.5161,0.7919,1.2965,-0.108913,0.116583,0.000000,0.625864,-0.608990,0.618194,-0.616660,0.601320,-0.579845
2.0464,0.016751,0.000000,0.000000,0.002008,0.7096,0.0000,0.9685,-0.106993,0.106993,-0.000089,0.000933,-0.000767,1.5161,0.7919,1.2965,-0.108913,0.116583,0.000000,0.625864,-0.608990,0.618194,-0.616660,0.601320,-0.579845
2.0631,0.016743,0.000000,0.000000,0.002037,0.7185,0.0000,0.9834,-0.106636,0.106636,-0.000003,0.000904,-0.000664,1.4255,0.7761,1.4502,-0.110447,0.116583,0.000000,0.627398,-0.610524,0.621262,-0.618194,0.605922,-0.581379
2.0799,0.016784,0.000000,0.000000,0.002066,0.7272,0.0000,0.9984,-0.106308,0.106308,-0.000108,0.000964,-0.000602,1.4439,0.7978,1.5449,-0.108913,0.113515,0.000000,0.630466,-0.610524,0.622796,-0.619728,0.607456,-0.582913
2.0966,0.016740,0.000000,0.000000,0.002095,0.7358,0.0000,1.0132,-0.106012,0.106012,-0.000181,0.001069,-0.000549,1.4617,0.7658,1.5906,-0.108913,0.113515,0.000000,0.633534,-0.610524,0.622796,-0.621262,0.608990,-0.584447
2.1134,0.016746,0.000000,0.000000,0.002124,0.7443,0.0000,1.0281,-0.105746,0.105746,-0.000299,0.001099,-0.000520,1.5071,0.7223,1.6418,-0.108913,0.110447,0.000000,0.636602,-0.610524,0.622796,-0.621262,0.608990,-0.585981
2.1301,0.016742,0.000000,0.000000,0.002152,0.7527,0.0000,1.0429,-0.105510,0.105510,-0.000233,0.001223,-0.000476,1.4850,0.6960,1.7452,-0.108913,0.107379,0.000000,0.638136,-0.610524,0.622796,-0.622796,0.612058,-0.585981
2.1469,0.016757,0.000000,0.000000,0.002180,0.7609,0.0000,1.0577,-0.105305,0.105305,-0.000233,0.001223,-0.000476,1.4850,0.6960,1.7452,-0.108913,0.107379,0.000000,0.638136,-0.610524,0.622796,-0.622796,0.612058,-0.585981
2.1636,0.016743,0.000000,0.000000,0.002208,0.7691,0.0000,1.0724,-0.105130,0.105130,-0.000283,0.001362,-0.000435,1.5569,0.6876,1.8447,-0.108913,0.104311,0.000000,0.641204,-0.610524,0.622796,-0.624330,0.613592,-0.585981
2.1804,0.016746,0.000000,0.000000,0.002236,0.7771,0.0000,1.0872,-0.104987,0.104987,-0.000321,0.001387,-0.000429,1.5979,0.6744,1.8896,-0.107379,0.104311,0.000000,0.642738,-0.610524,0.622796,-0.624330,0.613592,-0.585981
2.1971,0.016741,0.000000,0.000000,0.002264,0.7849,0.0000,1.1019,-0.104874,0.104874,-0.000359,0.001424,-0.000419,1.6421,0.6617,1.9403,-0.107379,0.104311,0.000000,0.644272,-0.610524,0.622796,-0.624330,0.613592,-0.585981
2.2139,0.016746,0.000000,0.000000,0.002292,0.7927,0.0000,1.1165,-0.104792,0.104792,-0.000355,0.001420,-0.000420,1.6375,0.6631,1.9350,-0.107379,0.104311,0.000000,0.644272,-0.610524,0.622796,-0.624330,0.613592,-0.585981
2.2307,0.016825,0.000000,0.000000,0.002320,0.8004,0.0000,1.1312,-0.104740,0.104740,-0.000399,0.001461,-0.000409,1.6864,0.6489,1.9909,-0.107379,0.104311,0.000000,0.645806,-0.610524,0.622796,-0.624330,0.613592,-0.585981
2.2474,0.016722,0.000000,0.000000,0.002347,0.8079,0.0000,1.1458,-0.104720,0.104720,-0.000399,0.001461,-0.000409,1.6864,0.6489,1.9909,-0.107379,0.104311,0.000000,0.645806,-0.610524,0.622796,-0.624330,0.613592,-0.585981
2.2642,0.016742,0.000000,0.000000,0.002374,0.8152,0.0000,1.1604,-0.104731,0.104731,-0.000274,0.001479,-0.000361,1.7702,0.5320,1.9847,-0.107379,0.104311,0.000000,0.647340,-0.613592,0.622796,-0.624330,0.615126,-0.585981
2.2809,0.016745,0.000000,0.000000,0.002401,0.8225,0.0000,1.1749,-0.104772,0.104772,-0.000221,0.001516,-0.000330,1.8109,0.4613,2.0397,-0.107379,0.104311,0.000000,0.648874,-0.615126,0.622796,-0.624330,0.616660,-0.585981
2.2976,0.016738,0.000000,0.000000,0.002428,0.8296,0.0000,1.1894,-0.104845,0.104845,-0.000172,0.001495,-0.000321,1.8459,0.4332,1.9790,-0.107379,0.104311,0.000000,0.648874,-0.616660,0.622796,-0.624330,0.616660,-0.585981
2.3144,0.016753,0.000000,0.000000,0.002455,0.8366,0.0000,1.2039,-0.104948,0.104948,-0.000177,0.001498,-0.000322,1.8422,0.4361,1.9853,-0.107379,0.104311,0.000000,0.648874,-0.616660,0.622796,-0.624330,0.616660,-0.585981
2.3313,0.016872,0.000000,0.000000,0.002481,0.8435,0.0000,1.2184,-0.105083,0.105083,-0.000165,0.001521,-0.000298,1.9302,0.3864,1.9850,-0.107379,0.104311,0.000000,0.650408,-0.618194,0.622796,-0.624330,0.616660,-0.585981
2.3480,0.016758,0.000000,0.000000,0.002508,0.8502,0.0000,1.2328,-0.105249,0.105249,-0.000165,0.001521,-0.000298,1.9302,0.3864,1.9850,-0.107379,0.104311,0.000000,0.650408,-0.618194,0.622796,-0.624330,0.616660,-0.585981
2.3648,0.016747,0.000000,0.000000,0.002534,0.8568,0.0000,1.2472,-0.105445,0.105445,-0.000210,0.001558,-0.000290,1.9694,0.3778,2.0404,-0.107379,0.104311,0.000000,0.651942,-0.618194,0.622796,-0.624330,0.616660,-0.585981
2.3815,0.016748,0.000000,0.000000,0.002560,0.8632,0.0000,1.2616,-0.105671,0.105671,-0.000219,0.001611,-0.000279,1.9760,0.4297,1.9807,-0.107379,0.104311,0.000000,0.651942,-0.618194,0.622796,-0.625864,0.616660,-0.585981
2.3983,0.016753,0.000000,0.000000,0.002586,0.8695,0.0000,1.2759,-0.105928,0.105928,-0.000231,0.001662,-0.000268,1.9861,0.4752,1.9329,-0.107379,0.104311,0.000000,0.651942,-0.618194,0.622796,-0.627398,0.616660,-0.585981
2.4150,0.016744,0.000000,0.000000,0.002611,0.8757,0.0000,1.2901,-0.106215,0.106215,-0.000243,0.001713,-0.000258,1.9958,0.5214,1.8839,-0.107379,0.104311,0.000000,0.651942,-0.618194,0.622796,-0.628932,0.616660,-0.585981
2.4318,0.016765,0.000000,0.000000,0.002637,0.8817,0.0000,1.3044,-0.106533,0.106533,-0.000243,0.001713,-0.000258,1.9958,0.5214,1.8839,-0.107379,0.104311,0.000000,0.653476,-0.618194,0.622796,-0.628932,0.616660,-0.585981
2.4485,0.016754,0.000000,0.000000,0.002662,0.8876,0.0000,1.3186,-0.106881,0.106881,-0.000285,0.001748,-0.000249,2.0432,0.5028,1.9445,-0.107379,0.104311,0.000000,0.653476,-0.618194,0.622796,-0.628932,0.616660,-0.585981
2.4653,0.016750,0.000000,0.000000,0.002687,0.8934,0.0000,1.3327,-0.107259,0.107259,-0.000337,0.001841,-0.000228,2.0976,0.5420,1.9397,-0.107379,0.104311,0.000000,0.655010,-0.618194,0.622796,-0.630466,0.616660,-0.585981
2.4820,0.016742,0.000000,0.000000,0.002712,0.8990,0.0000,1.3469,-0.107666,0.107666,-0.000375,0.001872,-0.000219,2.1403,0.5243,1.9957,-0.107379,0.104311,0.000000,0.656544,-0.618194,0.622796,-0.630466,0.616660,-0.585981
2.4988,0.016738,0.000000,0.000000,0.002736,0.9044,0.0000,1.3609,-0.108103,0.108103,-0.000384,0.001925,-0.000209,2.1467,0.5770,1.9359,-0.107379,0.104311,0.000000,0.656544,-0.618194,0.622796,-0.632000,0.616660,-0.585981
2.5155,0.016749,0.000000,0.000000,0.002761,0.9097,0.0000,1.3750,-0.108570,0.108570,-0.000427,0.001960,-0.000200,2.1945,0.5580,1.9977,-0.108913,0.104311,0.000000,0.658078,-0.618194,0.622796,-0.632000,0.616660,-0.585981
2.5323,0.016749,0.000000,0.000000,0.002785,0.9149,0.0000,1.3890,-0.109066,0.109066,-0.000260,0.002050,-0.000129,2.2503,0.4594,1.9901,-0.107379,0.105845,0.000000,0.659612,-0.621262,0.622796,-0.633534,0.619728,-0.585981
2.5490,0.016756,0.000000,0.000000,0.002809,0.9199,0.0000,1.4030,-0.109591,0.109591,-0.000260,0.002050,-0.000129,2.2503,0.4594,1.9901,-0.107379,0.105845,0.000000,0.659612,-0.621262,0.622796,-0.633534,0.619728,-0.585981
2.5658,0.016745,0.000000,0.000000,0.002833,0.9248,0.0000,1.4169,-0.110144,0.110144,-0.000171,0.002120,-0.000077,2.3433,0.4024,1.9357,-0.108913,0.105845,0.000000,0.661146,-0.624330,0.622796,-0.635068,0.621262,-0.585981
2.5825,0.016751,0.000000,0.000000,0.002857,0.9296,0.0000,1.4308,-0.110726,0.110726,-0.000074,0.002192,0.000012,2.4316,0.3447,2.0514,-0.108913,0.105845,0.000000,0.664214,-0.627398,0.624330,-0.636602,0.624330,-0.585981
2.5993,0.016752,0.000000,0.000000,0.002880,0.9341,0.0000,1.4447,-0.111337,0.111337,0.000023,0.002263,0.000061,2.5209,0.2835,1.9838,-0.110447,0.107379,0.000000,0.665748,-0.630466,0.624330,-0.638136,0.625864,-0.585981
2.6160,0.016748,0.000000,0.000000,0.002903,0.9386,0.0000,1.4585,-0.111975,0.111975,0.000040,0.002242,0.000128,2.5497,0.3588,2.1028,-0.110447,0.107379,0.000000,0.667282,-0.632000,0.627398,-0.639670,0.627398,-0.585981
2.6328,0.016746,0.000000,0.000000,0.002927,0.9428,0.0000,1.4722,-0.112641,0.112641,0.000050,0.002255,0.000206,2.6720,0.4675,2.0388,-0.111981,0.108913,0.000000,0.668816,-0.635068,0.630466,-0.642738,0.627398,-0.585981
2.6495,0.016749,0.000000,0.000000,0.002949,0.9470,0.0000,1.4860,-0.113335,0.113335,0.000050,0.002255,0.000206,2.6720,0.4675,2.0388,-0.111981,0.108913,0.000000,0.668816,-0.635068,0.630466,-0.642738,0.627398,-0.585981
2.6663,0.016748,0.000000,0.000000,0.002972,0.9510,0.0000,1.4997,-0.114055,0.114055,-0.000006,0.002227,0.000283,2.7353,0.6584,2.1060,-0.113515,0.108913,0.000000,0.670350,-0.636602,0.635068,-0.645806,0.627398,-0.585981
2.6830,0.016744,0.000000,0.000000,0.002994,0.9548,0.0000,1.5133,-0.114802,0.114802,0.000032,0.002169,0.000349,2.5914,0.7036,2.2104,-0.113515,0.108913,0.000000,0.670350,-0.636602,0.638136,-0.647340,0.630466,-0.587515
2.6997,0.016745,0.000000,0.000000,0.003017,0.9585,0.0000,1.5269,-0.115576,0.115576,-0.000040,0.001994,0.000418,2.6106,0.7806,2.3141,-0.113515,0.111981,0.000000,0.671884,-0.638136,0.642738,-0.647340,0.630466,-0.589049
2.7165,0.016755,0.000000,0.000000,0.003039,0.9620,0.0000,1.5405,-0.116376,0.116376,0.000039,0.001845,0.000473,2.5768,0.8522,2.4707,-0.115049,0.113515,0.000000,0.671884,-0.639670,0.647340,-0.647340,0.632000,-0.589049
2.7333,0.016765,0.000000,0.000000,0.003061,0.9654,0.0000,1.5540,-0.117203,0.117203,-0.000025,0.001846,0.000491,2.6175,0.8811,2.5669,-0.115049,0.113515,0.000000,0.673418,-0.639670,0.648874,-0.647340,0.632000,-0.589049
2.7500,0.016764,0.000000,0.000000,0.003082,0.9686,0.0000,1.5675,-0.118055,0.118055,-0.000025,0.001846,0.000491,2.6175,0.8811,2.5669,-0.115049,0.113515,0.000000,0.673418,-0.639670,0.648874,-0.647340,0.632000,-0.589049
2.7668,0.016754,0.000000,0.000000,0.003103,0.9717,0.0000,1.5810,-0.118931,0.118931,-0.000073,0.001864,0.000549,2.5730,0.9132,2.6144,-0.116583,0.113515,0.000000,0.674952,-0.639670,0.650408,-0.648874,0.633534,-0.590583
2.7835,0.016751,0.000000,0.000000,0.003125,0.9746,0.0000,1.5944,-0.119832,0.119832,-0.000137,0.001793,0.000616,2.6029,0.9919,2.6140,-0.118117,0.113515,0.000000,0.676486,-0.641204,0.653476,-0.650408,0.633534,-0.592117
2.8003,0.016759,0.000000,0.000000,0.003146,0.9773,0.0000,1.6077,-0.120758,0.120758,-0.000104,0.001799,0.000658,2.5987,0.8832,2.6136,-0.118117,0.116583,0.000000,0.678020,-0.642738,0.653476,-0.650408,0.635068,-0.593651
2.8177,0.017408,0.000000,0.000000,0.003167,0.9800,0.0000,1.6215,-0.121744,0.121744,-0.000191,0.001799,0.000678,2.5968,0.8629,2.6149,-0.121184,0.118117,0.000000,0.679553,-0.642738,0.653476,-0.650408,0.635068,-0.595185
2.8345,0.016761,0.000000,0.000000,0.003187,0.9824,0.0000,1.6348,-0.122718,0.122718,-0.000168,0.001743,0.000703,2.5857,0.8109,2.5041,-0.122718,0.118117,0.000000,0.679553,-0.644272,0.653476,-0.650408,0.635068,-0.596719
2.8514,0.016900,0.000000,0.000000,0.003208,0.9847,0.0000,1.6481,-0.123723,0.123723,-0.000168,0.001743,0.000703,2.5857,0.8109,2.5041,-0.122718,0.118117,0.000000,0.679553,-0.644272,0.653476,-0.650408,0.635068,-0.596719
2.8682,0.016834,0.000000,0.000000,0.003228,0.9869,0.0000,1.6614,-0.124747,0.124747,-0.000168,0.001743,0.000703,2.5857,0.8109,2.5041,-0.122718,0.118117,0.000000,0.679553,-0.644272,0.653476,-0.650408,0.635068,-0.596719
2.8849,0.016741,0.000000,0.000000,0.003248,0.9888,0.0000,1.6745,-0.125788,0.125788,-0.000168,0.001743,0.000703,2.5857,0.8109,2.5041,-0.122718,0.118117,0.000000,0.679553,-0.644272,0.653476,-0.650408,0.635068,-0.596719
2.9017,0.016747,0.000000,0.000000,0.003267,0.9906,0.0000,1.6876,-0.126851,0.126851,-0.000517,0.001728,0.000773,2.4911,0.7384,2.5201,-0.122718,0.119651,0.000000,0.684155,-0.642738,0.653476,-0.650408,0.635068,-0.602854
2.9188,0.017130,0.000000,0.000000,0.003287,0.9923,0.0000,1.7009,-0.127959,0.127959,-0.000620,0.001715,0.000777,2.5366,0.7475,2.4656,-0.122718,0.119651,0.000000,0.685689,-0.642738,0.653476,-0.650408,0.633534,-0.604388
2.9356,0.016751,0.000000,0.000000,0.003306,0.9938,0.0000,1.7139,-0.129064,0.129064,-0.000620,0.001715,0.000777,2.5366,0.7475,2.4656,-0.122718,0.119651,0.000000,0.685689,-0.642738,0.653476,-0.650408,0.633534,-0.604388
2.9523,0.016750,0.000000,0.000000,0.003325,0.9951,0.0000,1.7268,-0.130189,0.130189,-0.000555,0.001699,0.000790,2.5708,0.7112,2.4156,-0.122718,0.119651,0.000000,0.685689,-0.644272,0.653476,-0.650408,0.633534,-0.604388
2.9691,0.016752,0.000000,0.000000,0.003344,0.9963,0.0000,1.7397,-0.131334,0.131334,-0.000561,0.001733,0.000787,2.4905,0.7172,2.5306,-0.125786,0.122718,0.000000,0.685689,-0.642738,0.653476,-0.650408,0.635068,-0.604388
2.9858,0.016751,0.000000,0.000000,0.003362,0.9973,0.0000,1.7525,-0.132498,0.132498,-0.000561,0.001698,0.000789,2.5756,0.7144,2.4088,-0.133456,0.127320,0.000000,0.685689,-0.644272,0.653476,-0.650408,0.633534,-0.604388
3.0026,0.016749,0.000000,0.000000,0.003380,0.9981,0.0000,1.7653,-0.133680,0.133680,-0.000506,0.001717,0.000800,2.5289,0.6815,2.4755,-0.133456,0.127320,0.000000,0.685689,-0.644272,0.653476,-0.650408,0.635068,-0.604388
3.0195,0.016943,0.000000,0.000000,0.003398,0.9988,0.0000,1.7782,-0.134895,0.134895,-0.000506,0.001717,0.000800,2.5289,0.6815,2.4755,-0.133456,0.127320,0.000000,0.685689,-0.644272,0.653476,-0.650408,0.635068,-0.604388
3.0363,0.016753,0.000000,0.000000,0.003416,0.9994,0.0000,1.7909,-0.136114,0.136114,-0.000566,0.001732,0.000786,2.4948,0.7203,2.5243,-0.131922,0.127320,0.000000,0.685689,-0.642738,0.653476,-0.650408,0.635068,-0.604388
3.0531,0.016797,0.000000,0.000000,0.003433,0.9997,0.0000,1.8036,-0.137352,0.137352,-0.000615,0.001715,0.000776,2.5362,0.7494,2.4652,-0.134990,0.131922,0.000000,0.685689,-0.642738,0.653476,-0.650408,0.633534,-0.604388
3.0698,0.016749,0.000000,0.000000,0.003450,0.9999,0.0000,1.8162,-0.138604,0.138604,-0.000526,0.001604,0.000827,2.5102,0.7763,2.5829,-0.134990,0.131922,0.000000,0.685689,-0.644272,0.656544,-0.650408,0.635068,-0.604388
3.0866,0.016746,0.000000,0.000000,0.003467,1.0000,0.0000,1.8287,-0.139872,0.139872,-0.000589,0.001632,0.000808,2.4740,0.8088,2.6263,-0.134990,0.131922,0.000000,0.685689,-0.642738,0.656544,-0.650408,0.635068,-0.604388
3.1033,0.016761,0.000000,0.000000,0.003484,0.9999,0.0000,1.8412,-0.141156,0.141156,-0.000528,0.001612,0.000823,2.5168,0.7701,2.5660,-0.138058,0.133456,0.000000,0.685689,-0.644272,0.656544,-0.650408,0.635068,-0.604388
3.1202,0.016836,0.000000,0.000000,0.003501,0.9996,0.0000,1.8537,-0.142460,0.142460,-0.000535,0.001615,0.000822,2.5123,0.7741,2.5723,-0.141126,0.136524,0.000000,0.685689,-0.644272,0.656544,-0.650408,0.635068,-0.604388
3.1369,0.016757,0.000000,0.000000,0.003517,0.9992,0.0000,1.8661,-0.143773,0.143773,-0.000535,0.001615,0.000822,2.5123,0.7741,2.5723,-0.141126,0.136524,0.000000,0.685689,-0.644272,0.656544,-0.650408,0.635068,-0.604388
3.1537,0.016747,0.000000,0.000000,0.003533,0.9986,0.0000,1.8784,-0.145099,0.145099,-0.000547,0.001559,0.000834,2.5013,0.8228,2.6283,-0.141126,0.141126,0.000000,0.685689,-0.644272,0.658078,-0.650408,0.635068,-0.604388
3.1704,0.016742,0.000000,0.000000,0.003548,0.9978,0.0000,1.8907,-0.146437,0.146437,-0.000572,0.001567,0.000857,2.5021,0.9175,2.6248,-0.141126,0.139592,0.000000,0.685689,-0.644272,0.659612,-0.651942,0.635068,-0.604388
3.1871,0.016748,0.000000,0.000000,0.003564,0.9969,0.0000,1.9029,-0.147788,0.147788,-0.000569,0.001566,0.000854,2.5020,0.9076,2.6252,-0.144194,0.139592,0.000000,0.685689,-0.644272,0.659612,-0.651942,0.635068,-0.604388
3.2039,0.016754,0.000000,0.000000,0.003579,0.9959,0.0000,1.9151,-0.149152,0.149152,-0.000583,0.001623,0.000866,2.5131,0.9593,2.5708,-0.147262,0.144194,0.000000,0.685689,-0.644272,0.659612,-0.653476,0.635068,-0.604388
3.2207,0.016830,0.000000,0.000000,0.003594,0.9946,0.0000,1.9273,-0.150533,0.150533,-0.000582,0.001617,0.000865,2.5120,0.9539,2.5765,-0.147262,0.145728,0.000000,0.685689,-0.644272,0.659612,-0.653476,0.635068,-0.604388
3.2375,0.016747,0.000000,0.000000,0.003609,0.9933,0.0000,1.9394,-0.151918,0.151918,-0.000582,0.001617,0.000865,2.5120,0.9539,2.5765,-0.147262,0.145728,0.000000,0.685689,-0.644272,0.659612,-0.653476,0.635068,-0.604388
3.2542,0.016741,0.000000,0.000000,0.003623,0.9917,0.0000,1.9514,-0.153312,0.153312,-0.000595,0.001676,0.000876,2.5232,1.0051,2.5215,-0.148796,0.145728,0.000000,0.685689,-0.644272,0.659612,-0.655010,0.635068,-0.604388
3.2710,0.016742,0.000000,0.000000,0.003637,0.9900,0.0000,1.9633,-0.154716,0.154716,-0.000648,0.001687,0.000862,2.4830,1.0351,2.5829,-0.150330,0.147262,0.000000,0.685689,-0.642738,0.659612,-0.655010,0.635068,-0.604388
3.2877,0.016742,0.000000,0.000000,0.003651,0.9882,0.0000,1.9752,-0.156129,0.156129,-0.000602,0.001726,0.000888,2.5374,1.0471,2.4664,-0.153398,0.150330,0.000000,0.685689,-0.644272,0.659612,-0.656544,0.635068,-0.604388
3.3044,0.016742,0.000000,0.000000,0.003665,0.9861,0.0000,1.9871,-0.157549,0.157549,-0.000607,0.001722,0.000885,2.5317,1.0459,2.4786,-0.153398,0.150330,0.000000,0.685689,-0.644272,0.659612,-0.656544,0.635068,-0.604388
3.3214,0.016960,0.000000,0.000000,0.003678,0.9839,0.0000,1.9990,-0.158996,0.158996,-0.000564,0.001796,0.000908,2.5056,1.0633,2.4769,-0.154932,0.151864,0.000000,0.685689,-0.644272,0.659612,-0.658078,0.636602,-0.604388
3.3382,0.016744,0.000000,0.000000,0.003691,0.9816,0.0000,2.0108,-0.160432,0.160432,-0.000564,0.001796,0.000908,2.5056,1.0633,2.4769,-0.154932,0.151864,0.000000,0.685689,-0.644272,0.659612,-0.658078,0.636602,-0.604388
3.3549,0.016742,0.000000,0.000000,0.003704,0.9791,0.0000,2.0224,-0.161873,0.161873,-0.000567,0.001820,0.000905,2.4315,1.0638,2.5867,-0.159534,0.154932,0.000000,0.685689,-0.642738,0.659612,-0.658078,0.638136,-0.604388
3.3716,0.016741,0.000000,0.000000,0.003717,0.9765,0.0000,2.0341,-0.163320,0.163320,-0.000455,0.001848,0.000928,2.3637,0.9976,2.6835,-0.159534,0.154932,0.000000,0.685689,-0.642738,0.659612,-0.658078,0.641204,-0.604388
3.3884,0.016746,0.000000,0.000000,0.003729,0.9737,0.0000,2.0456,-0.164773,0.164773,-0.000424,0.001918,0.000949,2.3442,1.0220,2.6730,-0.159534,0.154932,0.000000,0.685689,-0.642738,0.659612,-0.659612,0.642738,-0.604388
3.4051,0.016747,0.000000,0.000000,0.003741,0.9707,0.0000,2.0572,-0.166229,0.166229,-0.000329,0.001999,0.000981,2.2819,1.0039,2.7280,-0.162602,0.159534,0.000000,0.685689,-0.642738,0.659612,-0.661146,0.645806,-0.604388
3.4223,0.017164,0.000000,0.000000,0.003753,0.9675,0.0000,2.0689,-0.167726,0.167726,-0.000427,0.002072,0.000998,2.3840,0.9804,2.8352,-0.164136,0.161068,0.000000,0.688757,-0.642738,0.659612,-0.661146,0.645806,-0.604388
3.4390,0.016751,0.000000,0.000000,0.003765,0.9642,0.0000,2.0803,-0.169190,0.169190,-0.000427,0.002072,0.000998,2.3840,0.9804,2.8352,-0.164136,0.161068,0.000000,0.688757,-0.642738,0.659612,-0.661146,0.645806,-0.604388
3.4558,0.016743,0.000000,0.000000,0.003776,0.9608,0.0000,2.0917,-0.170656,0.170656,-0.000308,0.002177,0.001053,2.3959,0.9193,2.8789,-0.164136,0.162602,0.000000,0.690291,-0.644272,0.659612,-0.662680,0.648874,-0.604388
3.4725,0.016747,0.000000,0.000000,0.003787,0.9573,0.0000,2.1029,-0.172124,0.172124,-0.000418,0.002224,0.001044,2.4035,0.9490,2.9866,-0.168738,0.164136,0.000000,0.691825,-0.642738,0.659612,-0.662680,0.648874,-0.604388
3.4893,0.016743,0.000000,0.000000,0.003798,0.9535,0.0000,2.1142,-0.173592,0.173592,-0.000464,0.002318,0.001066,2.4613,0.9841,2.9773,-0.168738,0.165670,0.000000,0.693359,-0.642738,0.659612,-0.664214,0.648874,-0.604388
3.5060,0.016745,0.000000,0.000000,0.003808,0.9496,0.0000,2.1253,-0.175061,0.175061,-0.000561,0.002448,0.001094,2.5617,1.0064,3.0369,-0.168738,0.167204,0.000000,0.696427,-0.642738,0.659612,-0.665748,0.648874,-0.604388
3.5228,0.016745,0.000000,0.000000,0.003818,0.9456,0.0000,2.1364,-0.176530,0.176530,-0.000541,0.002458,0.001114,2.6378,0.9561,3.0317,-0.174874,0.174874,0.000000,0.697961,-0.644272,0.659612,-0.665748,0.648874,-0.604388
3.5395,0.016752,0.000000,0.000000,0.003828,0.9414,0.0000,2.1475,-0.177998,0.177998,-0.000541,0.002458,0.001114,2.6378,0.9561,3.0317,-0.174874,0.174874,0.000000,0.697961,-0.644272,0.659612,-0.665748,0.648874,-0.604388
3.5563,0.016743,0.000000,0.000000,0.003838,0.9371,0.0000,2.1585,-0.179465,0.179465,-0.000642,0.002515,0.001108,2.6386,0.9851,3.1447,-0.177942,0.174874,0.000000,0.699495,-0.642738,0.659612,-0.665748,0.648874,-0.604388
3.5730,0.016747,0.000000,0.000000,0.003847,0.9326,0.0000,2.1694,-0.180929,0.180929,-0.000671,0.002469,0.001123,2.5884,0.9628,3.0777,-0.176408,0.171806,0.000000,0.699495,-0.642738,0.659612,-0.665748,0.648874,-0.605922
3.5898,0.016761,0.000000,0.000000,0.003856,0.9280,0.0000,2.1803,-0.182392,0.182392,-0.000753,0.002475,0.001144,2.5912,0.9337,3.0862,-0.177942,0.177942,0.000000,0.701029,-0.642738,0.659612,-0.665748,0.648874,-0.607456
3.6065,0.016752,0.000000,0.000000,0.003865,0.9232,0.0000,2.1911,-0.183850,0.183850,-0.000785,0.002434,0.001156,2.5410,0.9175,3.0300,-0.179476,0.177942,0.000000,0.701029,-0.642738,0.659612,-0.665748,0.648874,-0.608990
3.6233,0.016751,0.000000,0.000000,0.003873,0.9183,0.0000,2.2019,-0.185304,0.185304,-0.000767,0.002382,0.001182,2.5353,0.8642,2.9248,-0.181010,0.176408,0.000000,0.701029,-0.644272,0.659612,-0.665748,0.648874,-0.610524
3.6400,0.016746,0.000000,0.000000,0.003882,0.9132,0.0000,2.2126,-0.186753,0.186753,-0.000767,0.002382,0.001182,2.5353,0.8642,2.9248,-0.181010,0.176408,0.000000,0.701029,-0.644272,0.659612,-0.665748,0.648874,-0.610524
3.6568,0.016748,0.000000,0.000000,0.003890,0.9080,0.0000,2.2232,-0.188197,0.188197,-0.000809,0.002347,0.001193,2.4860,0.8507,2.8805,-0.184078,0.181010,0.000000,0.701029,-0.644272,0.659612,-0.665748,0.648874,-0.612058
3.6735,0.016756,0.000000,0.000000,0.003897,0.9026,0.0000,2.2338,-0.189636,0.189636,-0.000845,0.002311,0.001206,2.4414,0.8331,2.8298,-0.184078,0.181010,0.000000,0.701029,-0.644272,0.659612,-0.665748,0.648874,-0.613592
3.6903,0.016748,0.000000,0.000000,0.003905,0.8971,0.0000,2.2443,-0.191067,0.191067,-0.000882,0.002275,0.001219,2.3963,0.8159,2.7797,-0.185612,0.179476,0.000000,0.701029,-0.644272,0.659612,-0.665748,0.648874,-0.615126
3.7070,0.016754,0.000000,0.000000,0.003912,0.8915,0.0000,2.2547,-0.192491,0.192491,-0.000878,0.002279,0.001217,2.4010,0.8177,2.7849,-0.190214,0.184078,0.000000,0.701029,-0.644272,0.659612,-0.665748,0.648874,-0.615126
3.7242,0.017142,0.000000,0.000000,0.003919,0.8855,0.0000,2.2653,-0.193940,0.193940,-0.000933,0.002295,0.001204,2.3615,0.8532,2.8400,-0.190214,0.188680,0.000000,0.701029,-0.642738,0.659612,-0.665748,0.648874,-0.615126
3.7409,0.016762,0.000000,0.000000,0.003926,0.8796,0.0000,2.2757,-0.195348,0.195348,-0.000933,0.002295,0.001204,2.3615,0.8532,2.8400,-0.190214,0.188680,0.000000,0.701029,-0.642738,0.659612,-0.665748,0.648874,-0.615126
3.7577,0.016747,0.000000,0.000000,0.003932,0.8735,0.0000,2.2859,-0.196746,0.196746,-0.000886,0.002334,0.001230,2.4160,0.8642,2.7239,-0.190214,0.188680,0.000000,0.701029,-0.644272,0.659612,-0.667282,0.648874,-0.615126
3.7744,0.016758,0.000000,0.000000,0.003938,0.8673,0.0000,2.2961,-0.198135,0.198135,-0.000946,0.002347,0.001213,2.3714,0.8987,2.7917,-0.194816,0.188680,0.000000,0.701029,-0.642738,0.659612,-0.667282,0.648874,-0.615126
3.7913,0.016820,0.000000,0.000000,0.003944,0.8609,0.0000,2.3063,-0.199518,0.199518,-0.000953,0.002404,0.001226,2.3874,0.9455,2.7298,-0.194816,0.194816,0.000000,0.701029,-0.642738,0.659612,-0.668816,0.648874,-0.615126
3.8080,0.016755,0.000000,0.000000,0.003949,0.8544,0.0000,2.3163,-0.200885,0.200885,-0.000942,0.002422,0.001248,2.4722,0.8925,2.7374,-0.194816,0.194816,0.000000,0.702563,-0.644272,0.659612,-0.668816,0.648874,-0.615126
3.8249,0.016886,0.000000,0.000000,0.003955,0.8477,0.0000,2.3264,-0.202251,0.202251,-0.000987,0.002461,0.001255,2.5108,0.8857,2.7934,-0.199418,0.196350,0.000000,0.704097,-0.644272,0.659612,-0.668816,0.648874,-0.615126
3.8417,0.016758,0.000000,0.000000,0.003959,0.8410,0.0000,2.3364,-0.203594,0.203594,-0.000987,0.002461,0.001255,2.5108,0.8857,2.7934,-0.199418,0.196350,0.000000,0.704097,-0.644272,0.659612,-0.668816,0.648874,-0.615126
3.8584,0.016746,0.000000,0.000000,0.003964,0.8341,0.0000,2.3462,-0.204923,0.204923,-0.000983,0.002457,0.001254,2.5068,0.8864,2.7876,-0.200951,0.200951,0.000000,0.704097,-0.644272,0.659612,-0.668816,0.648874,-0.615126
3.8752,0.016761,0.000000,0.000000,0.003968,0.8270,0.0000,2.3560,-0.206240,0.206240,-0.001038,0.002474,0.001240,2.4683,0.9221,2.8438,-0.200951,0.200951,0.000000,0.704097,-0.642738,0.659612,-0.668816,0.648874,-0.615126
3.8919,0.016786,0.000000,0.000000,0.003973,0.8198,0.0000,2.3658,-0.207545,0.207545,-0.000977,0.002456,0.001256,2.5113,0.8826,2.7823,-0.200951,0.199418,0.000000,0.704097,-0.644272,0.659612,-0.668816,0.648874,-0.615126
3.9092,0.017235,0.000000,0.000000,0.003976,0.8123,0.0000,2.3758,-0.208869,0.208869,-0.000977,0.002456,0.001256,2.5113,0.8826,2.7823,-0.200951,0.199418,0.000000,0.704097,-0.644272,0.659612,-0.668816,0.648874,-0.615126
3.9260,0.016840,0.000000,0.000000,0.003980,0.8049,0.0000,2.3854,-0.210148,0.210148,-0.000977,0.002456,0.001256,2.5113,0.8826,2.7823,-0.200951,0.199418,0.000000,0.704097,-0.644272,0.659612,-0.668816,0.648874,-0.615126
3.9428,0.016759,0.000000,0.000000,0.003983,0.7973,0.0000,2.3950,-0.211404,0.211404,-0.000977,0.002456,0.001256,2.5113,0.8826,2.7823,-0.200951,0.199418,0.000000,0.704097,-0.644272,0.659612,-0.668816,0.648874,-0.615126
3.9595,0.016744,0.000000,0.000000,0.003986,0.7896,0.0000,2.4044,-0.212643,0.212643,-0.001072,0.002540,0.001273,2.6017,0.8622,2.9024,-0.208621,0.204019,0.000000,0.707165,-0.644272,0.659612,-0.668816,0.648874,-0.615126
3.9763,0.016745,0.000000,0.000000,0.003989,0.7818,0.0000,2.4138,-0.213866,0.213866,-0.001062,0.002531,0.001271,2.5922,0.8644,2.8899,-0.205553,0.204019,0.000000,0.707165,-0.644272,0.659612,-0.668816,0.648874,-0.615126
3.9930,0.016750,0.000000,0.000000,0.003991,0.7739,0.0000,2.4232,-0.215071,0.215071,-0.001064,0.002532,0.001271,2.5935,0.8641,2.8916,-0.208621,0.204019,0.000000,0.707165,-0.644272,0.659612,-0.668816,0.648874,-0.615126
4.0098,0.016743,0.000000,0.000000,0.003993,0.7658,0.0000,2.4324,-0.216258,0.216258,-0.001064,0.002532,0.001271,2.5935,0.8641,2.8916,-0.213223,0.211689,0.000000,0.707165,-0.644272,0.659612,-0.668816,0.648874,-0.615126
4.0265,0.016749,0.000000,0.000000,0.003995,0.7576,0.0000,2.4417,-0.217427,0.217427,-0.001064,0.002532,0.001271,2.5935,0.8641,2.8916,-0.214757,0.211689,0.000000,0.707165,-0.644272,0.659612,-0.668816,0.648874,-0.615126
4.0433,0.016754,0.000000,0.000000,0.003997,0.7493,0.0000,2.4508,-0.218577,0.218577,-0.001064,0.002532,0.001271,2.5935,0.8641,2.8916,-0.214757,0.211689,0.000000,0.707165,-0.644272,0.659612,-0.668816,0.648874,-0.615126
4.0600,0.016745,0.000000,0.000000,0.003998,0.7409,0.0000,2.4599,-0.219707,0.219707,-0.001064,0.002532,0.001271,2.5935,0.8641,2.8916,-0.214757,0.214757,0.000000,0.707165,-0.644272,0.659612,-0.668816,0.648874,-0.615126
4.0768,0.016747,0.000000,0.000000,0.003999,0.7324,0.0000,2.4689,-0.220817,0.220817,-0.001118,0.002549,0.001257,2.5541,0.9000,2.9467,-0.214757,0.216291,0.000000,0.707165,-0.642738,0.659612,-0.668816,0.648874,-0.615126
4.0935,0.016755,0.000000,0.000000,0.003999,0.7237,0.0000,2.4778,-0.221907,0.221907,-0.001058,0.002530,0.001272,2.5972,0.8605,2.8853,-0.217825,0.214757,0.000000,0.707165,-0.644272,0.659612,-0.668816,0.648874,-0.615126
4.1103,0.016750,0.000000,0.000000,0.004000,0.7149,0.0000,2.4867,-0.222976,0.222976,-0.001118,0.002549,0.001257,2.5537,0.9004,2.9474,-0.220893,0.217825,0.000000,0.707165,-0.642738,0.659612,-0.668816,0.648874,-0.615126
4.1270,0.016755,0.000000,0.000000,0.004000,0.7060,0.0000,2.4955,-0.224023,0.224023,-0.001118,0.002549,0.001257,2.5537,0.9004,2.9474,-0.220893,0.219359,0.000000,0.707165,-0.642738,0.659612,-0.668816,0.648874,-0.615126
4.1438,0.016757,0.000000,0.000000,0.004000,0.6970,0.0000,2.5042,-0.225049,0.225049,-0.001112,0.002547,0.001259,2.5582,0.8962,2.9409,-0.220893,0.219359,0.000000,0.707165,-0.642738,0.659612,-0.668816,0.648874,-0.615126
4.1605,0.016745,0.000000,0.000000,0.003999,0.6879,0.0000,2.5129,-0.226052,0.226052,-0.001112,0.002547,0.001259,2.5582,0.8962,2.9409,-0.220893,0.219359,0.000000,0.707165,-0.642738,0.659612,-0.668816,0.648874,-0.615126
4.1773,0.016752,0.000000,0.000000,0.003999,0.6787,0.0000,2.5214,-0.227032,0.227032,-0.001058,0.002530,0.001272,2.5968,0.8609,2.8859,-0.223961,0.223961,0.000000,0.707165,-0.644272,0.659612,-0.668816,0.648874,-0.615126
4.1940,0.016753,0.000000,0.000000,0.003998,0.6694,0.0000,2.5300,-0.227989,0.227989,-0.001118,0.002549,0.001257,2.5538,0.9003,2.9473,-0.225495,0.225495,0.000000,0.707165,-0.642738,0.659612,-0.668816,0.648874,-0.615126
4.2108,0.016745,0.000000,0.000000,0.003996,0.6599,0.0000,2.5384,-0.228922,0.228922,-0.001058,0.002530,0.001273,2.5973,0.8604,2.8852,-0.225495,0.223961,0.000000,0.707165,-0.644272,0.659612,-0.668816,0.648874,-0.615126
4.2275,0.016750,0.000000,0.000000,0.003995,0.6504,0.0000,2.5468,-0.229831,0.229831,-0.001058,0.002530,0.001273,2.5973,0.8604,2.8852,-0.225495,0.223961,0.000000,0.707165,-0.644272,0.659612,-0.668816,0.648874,-0.615126
4.2443,0.016754,0.000000,0.000000,0.003993,0.6407,0.0000,2.5551,-0.230716,0.230716,-0.001118,0.002549,0.001257,2.5537,0.9004,2.9474,-0.230097,0.228563,0.000000,0.707165,-0.642738,0.659612,-0.668816,0.648874,-0.615126
4.2610,0.016745,0.000000,0.000000,0.003991,0.6310,0.0000,2.5633,-0.231576,0.231576,-0.001071,0.002588,0.001283,2.6088,0.9108,2.8305,-0.230097,0.228563,0.000000,0.707165,-0.644272,0.659612,-0.670350,0.648874,-0.615126
4.2778,0.016753,0.000000,0.000000,0.003988,0.6212,0.0000,2.5715,-0.232410,0.232410,-0.001076,0.002584,0.001280,2.6030,0.9097,2.8427,-0.230097,0.227029,0.000000,0.707165,-0.644272,0.659612,-0.670350,0.648874,-0.615126
4.2945,0.016747,0.000000,0.000000,0.003985,0.6112,0.0000,2.5796,-0.233219,0.233219,-0.001089,0.002643,0.001291,2.6151,0.9600,2.7866,-0.230097,0.228563,0.000000,0.707165,-0.644272,0.659612,-0.671884,0.648874,-0.615126
4.3113,0.016759,0.000000,0.000000,0.003982,0.6012,0.0000,2.5876,-0.234002,0.234002,-0.001142,0.002653,0.001276,2.5749,0.9906,2.8482,-0.230097,0.230097,0.000000,0.707165,-0.642738,0.659612,-0.671884,0.648874,-0.615126
4.3280,0.016747,0.000000,0.000000,0.003979,0.5910,0.0000,2.5956,-0.234759,0.234759,-0.001142,0.002653,0.001276,2.5749,0.9906,2.8482,-0.230097,0.230097,0.000000,0.707165,-0.642738,0.659612,-0.671884,0.648874,-0.615126
4.3448,0.016751,0.000000,0.000000,0.003976,0.5808,0.0000,2.6035,-0.235488,0.235488,-0.001082,0.002635,0.001292,2.6181,0.9516,2.7860,-0.233165,0.231631,0.000000,0.707165,-0.644272,0.659612,-0.671884,0.648874,-0.615126
4.3615,0.016744,0.000000,0.000000,0.003972,0.5705,0.0000,2.6113,-0.236191,0.236191,-0.001089,0.002637,0.001290,2.6136,0.9556,2.7925,-0.236233,0.233165,0.000000,0.707165,-0.644272,0.659612,-0.671884,0.648874,-0.615126
4.3783,0.016748,0.000000,0.000000,0.003968,0.5600,0.0000,2.6190,-0.236866,0.236866,-0.001089,0.002637,0.001290,2.6136,0.9556,2.7925,-0.234699,0.231631,0.000000,0.707165,-0.644272,0.659612,-0.671884,0.648874,-0.615126
4.3950,0.016746,0.000000,0.000000,0.003963,0.5495,0.0000,2.6267,-0.237514,0.237514,-0.001089,0.002637,0.001290,2.6136,0.9556,2.7925,-0.236233,0.233165,0.000000,0.707165,-0.644272,0.659612,-0.671884,0.648874,-0.615126
4.4120,0.016983,0.000000,0.000000,0.003958,0.5388,0.0000,2.6343,-0.238143,0.238143,-0.001142,0.002654,0.001277,2.5751,0.9910,2.8475,-0.237767,0.234699,0.000000,0.707165,-0.642738,0.659612,-0.671884,0.648874,-0.615126
4.4287,0.016740,0.000000,0.000000,0.003953,0.5281,0.0000,2.6419,-0.238734,0.238734,-0.001142,0.002654,0.001277,2.5751,0.9910,2.8475,-0.237767,0.234699,0.000000,0.707165,-0.642738,0.659612,-0.671884,0.648874,-0.615126
4.4455,0.016747,0.000000,0.000000,0.003948,0.5174,0.0000,2.6493,-0.239297,0.239297,-0.001137,0.002652,0.001278,2.5791,0.9873,2.8418,-0.236233,0.234699,0.000000,0.707165,-0.642738,0.659612,-0.671884,0.648874,-0.615126
4.4623,0.016773,0.000000,0.000000,0.003943,0.5065,0.0000,2.6567,-0.239832,0.239832,-0.001123,0.002595,0.001305,2.5680,0.9326,2.7312,-0.237767,0.236233,0.000000,0.707165,-0.644272,0.659612,-0.671884,0.648874,-0.616660
4.4790,0.016746,0.000000,0.000000,0.003937,0.4956,0.0000,2.6640,-0.240337,0.240337,-0.001125,0.002601,0.001303,2.5692,0.9384,2.7428,-0.237767,0.236233,0.000000,0.707165,-0.644272,0.659612,-0.671884,0.648874,-0.616660
4.4957,0.016744,0.000000,0.000000,0.003931,0.4846,0.0000,2.6712,-0.240813,0.240813,-0.001165,0.002561,0.001317,2.5195,0.9186,2.6861,-0.237767,0.236233,0.000000,0.707165,-0.644272,0.659612,-0.671884,0.648874,-0.618194
4.5125,0.016754,0.000000,0.000000,0.003924,0.4735,0.0000,2.6783,-0.241260,0.241260,-0.001161,0.002565,0.001315,2.5247,0.9206,2.6920,-0.240835,0.237767,0.000000,0.707165,-0.644272,0.659612,-0.671884,0.648874,-0.618194
4.5292,0.016744,0.000000,0.000000,0.003918,0.4623,0.0000,2.6854,-0.241677,0.241677,-0.001161,0.002565,0.001315,2.5247,0.9206,2.6920,-0.240835,0.237767,0.000000,0.707165,-0.644272,0.659612,-0.671884,0.648874,-0.618194
4.5460,0.016752,0.000000,0.000000,0.003911,0.4511,0.0000,2.6924,-0.242065,0.242065,-0.001215,0.002581,0.001301,2.4852,0.9562,2.7471,-0.240835,0.237767,0.000000,0.707165,-0.642738,0.659612,-0.671884,0.648874,-0.618194
4.5627,0.016742,0.000000,0.000000,0.003904,0.4398,0.0000,2.6993,-0.242422,0.242422,-0.001155,0.002563,0.001317,2.5283,0.9167,2.6856,-0.239301,0.237767,0.000000,0.707165,-0.644272,0.659612,-0.671884,0.648874,-0.618194
