t,loop_dt,cmd_x,cmd_y,cmd_z,cmd_roll,cmd_pitch,cmd_yaw,cmd_ant_l,cmd_ant_r,pres_x,pres_y,pres_z,pres_roll,pres_pitch,pres_yaw,pres_ant_l,pres_ant_r,pres_j0,pres_j1,pres_j2,pres_j3,pres_j4,pres_j5,pres_j6
0.0000,0.000001,0.000256,-0.000013,-0.001901,-0.1435,0.2547,0.0975,-0.001534,0.000000,0.000256,-0.000013,-0.001901,-0.1435,0.2547,0.0975,-0.001534,0.000000,0.000000,0.576777,-0.581379,0.585981,-0.585981,0.585981,-0.578311
0.0168,0.016756,0.000252,-0.000012,-0.001869,-0.1411,0.2505,0.0959,-0.001508,0.000000,0.000309,0.000003,-0.001889,-0.1819,0.2204,0.1508,-0.004602,0.000000,0.000000,0.576777,-0.581379,0.585981,-0.585981,0.587515,-0.578311
0.0335,0.016751,0.000247,-0.000012,-0.001837,-0.1387,0.2462,0.0943,-0.001483,0.000000,0.000304,0.000002,-0.001890,-0.1779,0.2240,0.1452,-0.001534,0.000000,0.000000,0.576777,-0.581379,0.585981,-0.585981,0.587515,-0.578311
0.0503,0.016755,0.000243,-0.000012,-0.001805,-0.1363,0.2419,0.0926,-0.001457,0.000000,0.000250,-0.000014,-0.001902,-0.1395,0.2583,0.0920,0.004602,0.000000,0.000000,0.576777,-0.581379,0.585981,-0.585981,0.585981,-0.578311
0.0670,0.016745,0.000239,-0.000012,-0.001773,-0.1339,0.2377,0.0910,-0.001431,0.000000,0.000250,-0.000014,-0.001902,-0.1395,0.2583,0.0920,0.004602,0.000000,0.000000,0.576777,-0.581379,0.585981,-0.585981,0.585981,-0.578311
0.0838,0.016754,0.000234,-0.000012,-0.001742,-0.1315,0.2334,0.0894,-0.001405,0.000000,0.000474,0.000019,-0.002026,-0.2214,0.4560,0.2044,0.000000,0.000000,0.000000,0.570641,-0.578311,0.585981,-0.585981,0.585981,-0.572175
0.1005,0.016744,0.000230,-0.000011,-0.001710,-0.1291,0.2291,0.0877,-0.001380,0.000000,0.000547,0.000085,-0.002101,-0.2410,0.5877,0.3530,-0.004602,0.000000,0.000000,0.567573,-0.575243,0.585981,-0.585981,0.585981,-0.567573
0.1173,0.016771,0.000226,-0.000011,-0.001678,-0.1267,0.2249,0.0861,-0.001354,0.000000,0.000634,0.000133,-0.002094,-0.2277,0.5559,0.4448,-0.001534,0.000000,0.000000,0.567573,-0.575243,0.585981,-0.585981,0.587515,-0.566039
0.1340,0.016747,0.000222,-0.000011,-0.001646,-0.1243,0.2206,0.0845,-0.001328,0.000000,0.000666,0.000167,-0.002107,-0.1790,0.5760,0.4888,0.003068,0.000000,0.000000,0.567573,-0.575243,0.585981,-0.585981,0.587515,-0.564505
0.1508,0.016758,0.000217,-0.000011,-0.001614,-0.1219,0.2163,0.0829,-0.001303,0.000000,0.000662,0.000163,-0.002106,-0.1841,0.5739,0.4842,0.000000,0.000000,0.000000,0.567573,-0.575243,0.585981,-0.585981,0.587515,-0.564505
0.1675,0.016745,0.000213,-0.000010,-0.001582,-0.1195,0.2121,0.0812,-0.001277,0.000000,0.000662,0.000163,-0.002106,-0.1841,0.5739,0.4842,0.000000,0.000000,0.000000,0.567573,-0.575243,0.585981,-0.585981,0.587515,-0.564505
0.1843,0.016760,0.000209,-0.000010,-0.001551,-0.1171,0.2078,0.0796,-0.001251,0.000000,0.000609,0.000148,-0.002118,-0.1449,0.6088,0.4310,-0.006136,0.000000,0.000000,0.567573,-0.575243,0.585981,-0.585981,0.585981,-0.564505
0.2010,0.016750,0.000204,-0.000010,-0.001519,-0.1147,0.2035,0.0780,-0.001226,0.000000,0.000614,0.000149,-0.002117,-0.1490,0.6052,0.4365,-0.003068,0.000000,0.000000,0.567573,-0.575243,0.585981,-0.585981,0.585981,-0.564505
0.2178,0.016750,0.000200,-0.000010,-0.001487,-0.1123,0.1993,0.0763,-0.001200,0.000000,0.000614,0.000149,-0.002117,-0.1490,0.6052,0.4365,0.004602,0.000000,0.000000,0.567573,-0.575243,0.585981,-0.585981,0.585981,-0.564505
0.2345,0.016747,0.000196,-0.000010,-0.001455,-0.1099,0.1950,0.0747,-0.001174,0.000000,0.000614,0.000149,-0.002117,-0.1490,0.6052,0.4365,0.001534,0.000000,0.000000,0.567573,-0.575243,0.585981,-0.585981,0.585981,-0.564505
0.2513,0.016755,0.000192,-0.000009,-0.001423,-0.1075,0.1907,0.0731,-0.001149,0.000000,0.000614,0.000149,-0.002117,-0.1490,0.6052,0.4365,-0.006136,0.000000,0.000000,0.567573,-0.575243,0.585981,-0.585981,0.585981,-0.564505
0.2680,0.016741,0.000187,-0.000009,-0.001391,-0.1051,0.1865,0.0714,-0.001123,0.000000,0.000614,0.000149,-0.002117,-0.1490,0.6052,0.4365,-0.006136,0.000000,0.000000,0.567573,-0.575243,0.585981,-0.585981,0.585981,-0.564505
0.2848,0.016752,0.000183,-0.000009,-0.001359,-0.1027,0.1822,0.0698,-0.001097,0.000000,0.000614,0.000149,-0.002117,-0.1490,0.6052,0.4365,-0.003068,0.000000,0.000000,0.567573,-0.575243,0.585981,-0.585981,0.585981,-0.564505
0.3015,0.016744,0.000179,-0.000009,-0.001328,-0.1003,0.1779,0.0682,-0.001071,0.000000,0.000614,0.000149,-0.002117,-0.1490,0.6052,0.4365,0.004602,0.000000,0.000000,0.567573,-0.575243,0.585981,-0.585981,0.585981,-0.564505
0.3183,0.016749,0.000174,-0.000009,-0.001296,-0.0979,0.1737,0.0666,-0.001046,0.000000,0.000614,0.000149,-0.002117,-0.1490,0.6052,0.4365,0.001534,0.000000,0.000000,0.567573,-0.575243,0.585981,-0.585981,0.585981,-0.564505
0.3350,0.016743,0.000170,-0.000008,-0.001264,-0.0955,0.1694,0.0649,-0.001020,0.000000,0.000614,0.000149,-0.002117,-0.1490,0.6052,0.4365,-0.006136,0.000000,0.000000,0.567573,-0.575243,0.585981,-0.585981,0.585981,-0.564505
0.3518,0.016773,0.000166,-0.000008,-0.001232,-0.0930,0.1651,0.0633,-0.000994,0.000000,0.000614,0.000149,-0.002117,-0.1490,0.6052,0.4365,-0.003068,0.000000,0.000000,0.567573,-0.575243,0.585981,-0.585981,0.585981,-0.564505
0.3688,0.016974,0.000161,-0.000008,-0.001200,-0.0906,0.1608,0.0616,-0.000968,0.000000,0.000614,0.000149,-0.002117,-0.1490,0.6052,0.4365,-0.003068,0.000000,0.000000,0.567573,-0.575243,0.585981,-0.585981,0.585981,-0.564505
0.3865,0.017708,0.000157,-0.000008,-0.001166,-0.0881,0.1563,0.0599,-0.000941,0.000000,0.000614,0.000149,-0.002117,-0.1490,0.6052,0.4365,-0.003068,0.000000,0.000000,0.567573,-0.575243,0.585981,-0.585981,0.585981,-0.564505
0.4032,0.016756,0.000153,-0.000008,-0.001134,-0.0857,0.1520,0.0583,-0.000915,0.000000,0.000614,0.000149,-0.002117,-0.1490,0.6052,0.4365,0.001534,0.000000,0.000000,0.567573,-0.575243,0.585981,-0.585981,0.585981,-0.564505
0.4200,0.016760,0.000148,-0.000007,-0.001102,-0.0833,0.1477,0.0566,-0.000890,0.000000,0.000614,0.000149,-0.002117,-0.1490,0.6052,0.4365,0.001534,0.000000,0.000000,0.567573,-0.575243,0.585981,-0.585981,0.585981,-0.564505
0.4367,0.016748,0.000144,-0.000007,-0.001071,-0.0809,0.1435,0.0550,-0.000864,0.000000,0.000614,0.000149,-0.002117,-0.1490,0.6052,0.4365,-0.006136,0.000000,0.000000,0.567573,-0.575243,0.585981,-0.585981,0.585981,-0.564505
0.4535,0.016745,0.000140,-0.000007,-0.001039,-0.0785,0.1392,0.0534,-0.000838,0.000000,0.000614,0.000149,-0.002117,-0.1490,0.6052,0.4365,-0.003068,0.000000,0.000000,0.567573,-0.575243,0.585981,-0.585981,0.585981,-0.564505
0.4702,0.016734,0.000136,-0.000007,-0.001007,-0.0761,0.1349,0.0517,-0.000813,0.000000,0.000614,0.000149,-0.002117,-0.1490,0.6052,0.4365,0.004602,0.000000,0.000000,0.567573,-0.575243,0.585981,-0.585981,0.585981,-0.564505
0.4869,0.016731,0.000131,-0.000006,-0.000975,-0.0737,0.1307,0.0501,-0.000787,0.000000,0.000614,0.000149,-0.002117,-0.1490,0.6052,0.4365,0.003068,0.000000,0.000000,0.567573,-0.575243,0.585981,-0.585981,0.585981,-0.564505
0.5037,0.016757,0.000127,-0.000006,-0.000943,-0.0713,0.1264,0.0485,-0.000761,0.000000,0.000614,0.000149,-0.002117,-0.1490,0.6052,0.4365,-0.006136,0.000000,0.000000,0.567573,-0.575243,0.585981,-0.585981,0.585981,-0.564505
0.5204,0.016746,0.000123,-0.000006,-0.000912,-0.0689,0.1221,0.0468,-0.000736,0.000000,0.000614,0.000149,-0.002117,-0.1490,0.6052,0.4365,-0.006136,0.000000,0.000000,0.567573,-0.575243,0.585981,-0.585981,0.585981,-0.564505
0.5372,0.016741,0.000118,-0.000006,-0.000880,-0.0665,0.1179,0.0452,-0.000710,0.000000,0.000614,0.000149,-0.002117,-0.1490,0.6052,0.4365,-0.003068,0.000000,0.000000,0.567573,-0.575243,0.585981,-0.585981,0.585981,-0.564505
0.5539,0.016742,0.000114,-0.000006,-0.000848,-0.0641,0.1136,0.0436,-0.000684,0.000000,0.000614,0.000149,-0.002117,-0.1490,0.6052,0.4365,0.004602,0.000000,0.000000,0.567573,-0.575243,0.585981,-0.585981,0.585981,-0.564505
0.5707,0.016753,0.000110,-0.000005,-0.000816,-0.0616,0.1094,0.0419,-0.000659,0.000000,0.000614,0.000149,-0.002117,-0.1490,0.6052,0.4365,0.001534,0.000000,0.000000,0.567573,-0.575243,0.585981,-0.585981,0.585981,-0.564505
0.5874,0.016753,0.000106,-0.000005,-0.000784,-0.0592,0.1051,0.0403,-0.000633,0.000000,0.000614,0.000149,-0.002117,-0.1490,0.6052,0.4365,-0.006136,0.000000,0.000000,0.567573,-0.575243,0.585981,-0.585981,0.585981,-0.564505
0.6042,0.016752,0.000101,-0.000005,-0.000752,-0.0568,0.1008,0.0387,-0.000607,0.000000,0.000614,0.000149,-0.002117,-0.1490,0.6052,0.4365,-0.006136,0.000000,0.000000,0.567573,-0.575243,0.585981,-0.585981,0.585981,-0.564505
0.6210,0.016769,0.000097,-0.000005,-0.000720,-0.0544,0.0965,0.0370,-0.000581,0.000000,0.000614,0.000149,-0.002117,-0.1490,0.6052,0.4365,-0.003068,0.000000,0.000000,0.567573,-0.575243,0.585981,-0.585981,0.585981,-0.564505
0.6377,0.016740,0.000093,-0.000005,-0.000689,-0.0520,0.0923,0.0354,-0.000556,0.000000,0.000614,0.000149,-0.002117,-0.1490,0.6052,0.4365,0.003068,0.000000,0.000000,0.567573,-0.575243,0.585981,-0.585981,0.585981,-0.564505
0.6545,0.016756,0.000088,-0.000004,-0.000657,-0.0496,0.0880,0.0338,-0.000530,0.000000,0.000614,0.000149,-0.002117,-0.1490,0.6052,0.4365,0.001534,0.000000,0.000000,0.567573,-0.575243,0.585981,-0.585981,0.585981,-0.564505
0.6712,0.016750,0.000084,-0.000004,-0.000625,-0.0472,0.0837,0.0321,-0.000504,0.000000,0.000614,0.000149,-0.002117,-0.1490,0.6052,0.4365,-0.004602,0.000000,0.000000,0.567573,-0.575243,0.585981,-0.585981,0.585981,-0.564505
0.6880,0.016842,0.000080,-0.000004,-0.000593,-0.0448,0.0795,0.0305,-0.000479,0.000000,0.000614,0.000149,-0.002117,-0.1490,0.6052,0.4365,-0.004602,0.000000,0.000000,0.567573,-0.575243,0.585981,-0.585981,0.585981,-0.564505
0.7048,0.016739,0.000076,-0.000004,-0.000561,-0.0424,0.0752,0.0289,-0.000453,0.000000,0.000614,0.000149,-0.002117,-0.1490,0.6052,0.4365,-0.004602,0.000000,0.000000,0.567573,-0.575243,0.585981,-0.585981,0.585981,-0.564505
0.7215,0.016753,0.000071,-0.000004,-0.000529,-0.0400,0.0709,0.0272,-0.000427,0.000000,0.000614,0.000149,-0.002117,-0.1490,0.6052,0.4365,0.003068,0.000000,0.000000,0.567573,-0.575243,0.585981,-0.585981,0.585981,-0.564505
0.7383,0.016740,0.000067,-0.000003,-0.000497,-0.0376,0.0667,0.0256,-0.000401,0.000000,0.000614,0.000149,-0.002117,-0.1490,0.6052,0.4365,0.003068,0.000000,0.000000,0.567573,-0.575243,0.585981,-0.585981,0.585981,-0.564505
0.7550,0.016767,0.000063,-0.000003,-0.000466,-0.0352,0.0624,0.0240,-0.000376,0.000000,0.000614,0.000149,-0.002117,-0.1490,0.6052,0.4365,-0.004602,0.000000,0.000000,0.567573,-0.575243,0.585981,-0.585981,0.585981,-0.564505
0.7718,0.016750,0.000058,-0.000003,-0.000434,-0.0328,0.0581,0.0223,-0.000350,0.000000,0.000614,0.000149,-0.002117,-0.1490,0.6052,0.4365,0.003068,0.000000,0.000000,0.567573,-0.575243,0.585981,-0.585981,0.585981,-0.564505
0.7886,0.016797,0.000054,-0.000003,-0.000402,-0.0304,0.0538,0.0207,-0.000324,0.000000,0.000601,0.000204,-0.002104,-0.1385,0.6568,0.3821,0.003068,0.000000,0.000000,0.567573,-0.575243,0.585981,-0.587515,0.585981,-0.564505
0.8053,0.016745,0.000050,-0.000002,-0.000370,-0.0280,0.0496,0.0190,-0.000299,0.000000,0.000601,0.000204,-0.002104,-0.1385,0.6568,0.3821,0.003068,0.000000,0.000000,0.567573,-0.575243,0.585981,-0.587515,0.585981,-0.564505
0.8221,0.016760,0.000046,-0.000002,-0.000338,-0.0256,0.0453,0.0174,-0.000273,0.000000,0.000615,0.000143,-0.002118,-0.1496,0.6002,0.4416,-0.003068,0.000000,0.000000,0.567573,-0.575243,0.585981,-0.585981,0.585981,-0.564505
0.8388,0.016742,0.000041,-0.000002,-0.000306,-0.0232,0.0410,0.0158,-0.000247,0.000000,0.000655,0.000189,-0.002092,-0.0993,0.6224,0.3282,-0.004602,0.000000,0.000000,0.567573,-0.576777,0.585981,-0.587515,0.585981,-0.564505
0.8557,0.016831,0.000037,-0.000002,-0.000274,-0.0207,0.0368,0.0141,-0.000221,0.000000,0.000651,0.000216,-0.002095,-0.1824,0.6204,0.4471,0.001534,0.000000,0.000000,0.567573,-0.575243,0.585981,-0.587515,0.587515,-0.564505
0.8724,0.016756,0.000033,-0.000002,-0.000242,-0.0183,0.0325,0.0125,-0.000196,0.000000,0.000651,0.000181,-0.002095,-0.0959,0.6202,0.3277,0.003068,0.000000,0.000000,0.567573,-0.576777,0.585981,-0.587515,0.585981,-0.564505
0.8892,0.016784,0.000028,-0.000001,-0.000211,-0.0159,0.0282,0.0108,-0.000170,0.000000,0.000651,0.000181,-0.002095,-0.0959,0.6202,0.3277,-0.003068,0.000000,0.000000,0.567573,-0.576777,0.585981,-0.587515,0.585981,-0.564505
0.9060,0.016742,0.000024,-0.000001,-0.000179,-0.0135,0.0240,0.0092,-0.000144,0.000000,0.000651,0.000185,-0.002095,-0.1049,0.6203,0.3401,-0.003068,0.000000,0.000000,0.567573,-0.576777,0.585981,-0.587515,0.585981,-0.564505
0.9227,0.016752,0.000020,-0.000001,-0.000147,-0.0111,0.0197,0.0076,-0.000119,0.000000,0.000651,0.000184,-0.002095,-0.1036,0.6203,0.3384,-0.004602,0.000000,0.000000,0.567573,-0.576777,0.585981,-0.587515,0.585981,-0.564505
0.9395,0.016747,0.000015,-0.000001,-0.000115,-0.0087,0.0154,0.0059,-0.000093,0.000000,0.000651,0.000184,-0.002095,-0.1036,0.6203,0.3384,0.000000,0.000000,0.000000,0.567573,-0.576777,0.585981,-0.587515,0.585981,-0.564505
0.9562,0.016759,0.000011,-0.000001,-0.000083,-0.0063,0.0112,0.0043,-0.000067,0.000000,0.000651,0.000184,-0.002095,-0.1036,0.6203,0.3384,0.003068,0.000000,0.000000,0.567573,-0.576777,0.585981,-0.587515,0.585981,-0.564505
0.9730,0.016746,0.000007,-0.000000,-0.000051,-0.0039,0.0069,0.0026,-0.000041,0.000000,0.000651,0.000184,-0.002095,-0.1036,0.6203,0.3384,-0.003068,0.000000,0.000000,0.567573,-0.576777,0.585981,-0.587515,0.585981,-0.564505
0.9897,0.016779,0.000003,-0.000000,-0.000020,-0.0015,0.0026,0.0010,-0.000016,0.000000,0.000651,0.000184,-0.002095,-0.1036,0.6203,0.3384,-0.004602,0.000000,0.000000,0.567573,-0.576777,0.585981,-0.587515,0.585981,-0.564505
1.0065,0.016748,0.000000,0.000000,0.000000,0.0000,0.0065,0.0049,0.000356,-0.000356,0.000651,0.000184,-0.002095,-0.1036,0.6203,0.3384,-0.004602,0.000000,0.000000,0.567573,-0.576777,0.585981,-0.587515,0.585981,-0.564505
1.0232,0.016754,0.000000,0.000000,0.000000,0.0000,0.0234,0.0175,0.001274,-0.001274,0.000651,0.000184,-0.002095,-0.1036,0.6203,0.3384,0.000000,0.000000,0.000000,0.567573,-0.576777,0.585981,-0.587515,0.585981,-0.564505
1.0400,0.016747,0.000000,0.000000,0.000000,0.0000,0.0402,0.0301,0.002191,-0.002191,0.000651,0.000184,-0.002095,-0.1036,0.6203,0.3384,0.004602,0.000000,0.000000,0.567573,-0.576777,0.585981,-0.587515,0.585981,-0.564505
1.0567,0.016751,0.000000,0.000000,0.000000,-0.0000,0.0570,0.0428,0.003107,-0.003107,0.000651,0.000184,-0.002095,-0.1036,0.6203,0.3384,-0.001534,0.000000,0.000000,0.567573,-0.576777,0.585981,-0.587515,0.585981,-0.564505
1.0735,0.016750,0.000000,0.000000,0.000000,0.0000,0.0738,0.0554,0.004020,-0.004020,0.000651,0.000184,-0.002095,-0.1036,0.6203,0.3384,-0.003068,-0.001534,0.000000,0.567573,-0.576777,0.585981,-0.587515,0.585981,-0.564505
1.0903,0.016773,0.000000,0.000000,0.000000,0.0000,0.0906,0.0680,0.004932,-0.004932,0.000651,0.000184,-0.002095,-0.1036,0.6203,0.3384,0.003068,-0.001534,0.000000,0.567573,-0.576777,0.585981,-0.587515,0.585981,-0.564505
1.1070,0.016752,0.000000,0.000000,0.000000,0.0000,0.1074,0.0806,0.005840,-0.005840,0.000651,0.000184,-0.002095,-0.1036,0.6203,0.3384,0.003068,-0.001534,0.000000,0.567573,-0.576777,0.585981,-0.587515,0.585981,-0.564505
1.1238,0.016752,0.000000,0.000000,0.000000,-0.0000,0.1241,0.0933,0.006743,-0.006743,0.000651,0.000184,-0.002095,-0.1036,0.6203,0.3384,0.007670,-0.003068,0.000000,0.567573,-0.576777,0.585981,-0.587515,0.585981,-0.564505
1.1405,0.016747,0.000000,0.000000,0.000000,-0.0000,0.1408,0.1059,0.007642,-0.007642,0.000610,0.000223,-0.002082,-0.0542,0.6040,0.3927,0.001534,-0.003068,0.000000,0.569107,-0.576777,0.585981,-0.587515,0.585981,-0.564505
1.1573,0.016762,0.000000,0.000000,0.000000,0.0000,0.1574,0.1185,0.008536,-0.008536,0.000574,0.000258,-0.002071,-0.0096,0.5896,0.4407,0.000000,-0.003068,0.000000,0.570641,-0.576777,0.585981,-0.587515,0.585981,-0.564505
1.1741,0.016830,0.000000,0.000000,0.000000,0.0000,0.1741,0.1311,0.009428,-0.009428,0.000577,0.000254,-0.002072,-0.0142,0.5911,0.4357,0.007670,-0.003068,0.000000,0.570641,-0.576777,0.585981,-0.587515,0.585981,-0.564505
1.1909,0.016766,0.000000,0.000000,0.000000,0.0000,0.1907,0.1437,0.010309,-0.010309,0.000577,0.000254,-0.002072,-0.0142,0.5911,0.4357,0.007670,-0.003068,0.000000,0.570641,-0.576777,0.585981,-0.587515,0.585981,-0.564505
1.2076,0.016752,0.000000,0.000000,0.000000,0.0000,0.2072,0.1563,0.011183,-0.011183,0.000577,0.000254,-0.002072,-0.0142,0.5911,0.4357,0.009204,-0.004602,0.000000,0.570641,-0.576777,0.585981,-0.587515,0.585981,-0.564505
1.2244,0.016738,0.000000,0.000000,0.000000,0.0000,0.2236,0.1688,0.012049,-0.012049,0.000536,0.000216,-0.002059,-0.0638,0.5741,0.3826,0.003068,-0.006136,0.000000,0.570641,-0.576777,0.585981,-0.587515,0.585981,-0.566039
1.2411,0.016749,0.000000,0.000000,0.000000,0.0000,0.2400,0.1813,0.012906,-0.012906,0.000541,0.000220,-0.002060,-0.0586,0.5759,0.3882,0.003068,-0.010738,0.000000,0.570641,-0.576777,0.585981,-0.587515,0.585981,-0.566039
1.2579,0.016759,0.000000,0.000000,0.000000,0.0000,0.2563,0.1939,0.013756,-0.013756,0.000581,0.000258,-0.002073,-0.0091,0.5925,0.4412,0.010738,-0.012272,0.000000,0.570641,-0.576777,0.585981,-0.587515,0.585981,-0.564505
1.2746,0.016747,0.000000,0.000000,0.000000,0.0000,0.2726,0.2064,0.014595,-0.014595,0.000536,0.000216,-0.002059,-0.0643,0.5740,0.3821,0.013806,-0.010738,0.000000,0.570641,-0.576777,0.585981,-0.587515,0.585981,-0.566039
1.2914,0.016760,0.000000,0.000000,0.000000,0.0000,0.2887,0.2189,0.015424,-0.015424,0.000536,0.000216,-0.002059,-0.0643,0.5740,0.3821,0.013806,-0.010738,0.000000,0.570641,-0.576777,0.585981,-0.587515,0.585981,-0.566039
1.3081,0.016746,0.000000,0.000000,0.000000,-0.0000,0.3048,0.2314,0.016243,-0.016243,0.000541,0.000220,-0.002060,-0.0585,0.5759,0.3882,0.009204,-0.012272,0.000000,0.570641,-0.576777,0.585981,-0.587515,0.585981,-0.566039
1.3249,0.016763,0.000000,0.000000,0.000000,0.0000,0.3208,0.2439,0.017050,-0.017050,0.000541,0.000220,-0.002060,-0.0585,0.5759,0.3882,0.007670,-0.012272,0.000000,0.570641,-0.576777,0.585981,-0.587515,0.585981,-0.566039
1.3416,0.016747,0.000000,0.000000,0.000000,0.0000,0.3367,0.2563,0.017846,-0.017846,0.000541,0.000220,-0.002060,-0.0585,0.5759,0.3882,0.013806,-0.013806,0.000000,0.570641,-0.576777,0.585981,-0.587515,0.585981,-0.566039
1.3584,0.016767,0.000000,0.000000,0.000000,0.0000,0.3526,0.2688,0.018630,-0.018630,0.000581,0.000258,-0.002073,-0.0091,0.5925,0.4412,0.018408,-0.015340,0.000000,0.570641,-0.576777,0.585981,-0.587515,0.585981,-0.564505
1.3751,0.016747,0.000000,0.000000,0.000000,-0.0000,0.3683,0.2812,0.019400,-0.019400,0.000577,0.000254,-0.002072,-0.0143,0.5908,0.4356,0.016874,-0.016874,0.000000,0.570641,-0.576777,0.585981,-0.587515,0.585981,-0.564505
1.3919,0.016760,0.000000,0.000000,0.000000,0.0000,0.3839,0.2936,0.020157,-0.020157,0.000577,0.000254,-0.002072,-0.0143,0.5908,0.4356,0.016874,-0.016874,0.000000,0.570641,-0.576777,0.585981,-0.587515,0.585981,-0.564505
1.4088,0.016878,0.000000,0.000000,0.000000,0.0000,0.3995,0.3060,0.020905,-0.020905,0.000536,0.000216,-0.002059,-0.0638,0.5742,0.3826,0.010738,-0.016874,0.000000,0.570641,-0.576777,0.585981,-0.587515,0.585981,-0.566039
1.4260,0.017228,0.000000,0.000000,0.000000,0.0000,0.4153,0.3188,0.021654,-0.021654,0.000536,0.000216,-0.002059,-0.0638,0.5742,0.3826,0.010738,-0.016874,0.000000,0.570641,-0.576777,0.585981,-0.587515,0.585981,-0.566039
1.4428,0.016748,0.000000,0.000000,0.000000,0.0000,0.4306,0.3311,0.022367,-0.022367,0.000536,0.000216,-0.002059,-0.0638,0.5742,0.3826,0.010738,-0.016874,0.000000,0.570641,-0.576777,0.585981,-0.587515,0.585981,-0.566039
1.4595,0.016748,0.000000,0.000000,0.000000,0.0000,0.4457,0.3434,0.023064,-0.023064,0.000541,0.000220,-0.002060,-0.0586,0.5759,0.3882,0.018408,-0.016874,0.000000,0.570641,-0.576777,0.585981,-0.587515,0.585981,-0.566039
1.4762,0.016745,0.000000,0.000000,0.000000,0.0000,0.4607,0.3557,0.023745,-0.023745,0.000541,0.000220,-0.002060,-0.0586,0.5759,0.3882,0.013806,-0.016874,0.000000,0.570641,-0.576777,0.585981,-0.587515,0.585981,-0.566039
1.4930,0.016752,0.000000,0.000000,0.000000,-0.0000,0.4756,0.3679,0.024410,-0.024410,0.000541,0.000220,-0.002060,-0.0586,0.5759,0.3882,0.015340,-0.016874,0.000000,0.570641,-0.576777,0.585981,-0.587515,0.585981,-0.566039
1.5098,0.016749,0.000000,0.000000,0.000000,0.0000,0.4903,0.3802,0.025058,-0.025058,0.000541,0.000220,-0.002060,-0.0586,0.5759,0.3882,0.015340,-0.016874,0.000000,0.570641,-0.576777,0.585981,-0.587515,0.585981,-0.566039
1.5265,0.016742,0.000000,0.000000,0.000000,-0.0000,0.5049,0.3923,0.025688,-0.025688,0.000541,0.000220,-0.002060,-0.0586,0.5759,0.3882,0.021476,-0.016874,0.000000,0.570641,-0.576777,0.585981,-0.587515,0.585981,-0.566039
1.5432,0.016743,0.000000,0.000000,0.000000,-0.0000,0.5194,0.4045,0.026301,-0.026301,0.000541,0.000220,-0.002060,-0.0586,0.5759,0.3882,0.026078,-0.018408,0.000000,0.570641,-0.576777,0.585981,-0.587515,0.585981,-0.566039
1.5600,0.016747,0.000000,0.000000,0.000000,0.0000,0.5337,0.4167,0.026895,-0.026895,0.000541,0.000220,-0.002060,-0.0586,0.5759,0.3882,0.024544,-0.019942,0.000000,0.570641,-0.576777,0.585981,-0.587515,0.585981,-0.566039
1.5767,0.016748,0.000000,0.000000,0.000000,0.0000,0.5479,0.4288,0.027471,-0.027471,0.000594,0.000235,-0.002048,-0.0979,0.5411,0.4413,0.019942,-0.021476,0.000000,0.570641,-0.576777,0.585981,-0.587515,0.587515,-0.566039
1.5935,0.016759,0.000000,0.000000,0.000000,0.0000,0.5619,0.4409,0.028029,-0.028029,0.000594,0.000235,-0.002048,-0.0979,0.5411,0.4413,0.024544,-0.026078,0.000000,0.570641,-0.576777,0.585981,-0.587515,0.585981,-0.566039
1.6102,0.016751,0.000000,0.000000,0.000000,0.0000,0.5757,0.4529,0.028566,-0.028566,0.000535,0.000218,-0.002061,-0.0551,0.5794,0.3821,0.024544,-0.026078,0.000000,0.570641,-0.576777,0.585981,-0.587515,0.585981,-0.566039
1.6270,0.016740,0.000000,0.000000,0.000000,0.0000,0.5894,0.4649,0.029084,-0.029084,0.000541,0.000220,-0.002060,-0.0595,0.5754,0.3882,0.030680,-0.026078,0.000000,0.570641,-0.576777,0.585981,-0.587515,0.585981,-0.566039
1.6437,0.016746,0.000000,0.000000,0.000000,0.0000,0.6029,0.4769,0.029582,-0.029582,0.000541,0.000220,-0.002060,-0.0595,0.5754,0.3882,0.029146,-0.026078,0.000000,0.570641,-0.576777,0.585981,-0.587515,0.585981,-0.566039
1.6605,0.016748,0.000000,0.000000,0.000000,-0.0000,0.6163,0.4889,0.030059,-0.030059,0.000541,0.000220,-0.002060,-0.0595,0.5754,0.3882,0.023010,-0.027612,0.000000,0.570641,-0.576777,0.585981,-0.587515,0.585981,-0.566039
1.6772,0.016743,0.000000,0.000000,0.000000,0.0000,0.6294,0.5008,0.030515,-0.030515,0.000541,0.000220,-0.002060,-0.0595,0.5754,0.3882,0.026078,-0.027612,0.000000,0.570641,-0.576777,0.585981,-0.587515,0.585981,-0.566039
1.6940,0.016747,0.000000,0.000000,0.000000,-0.0000,0.6424,0.5127,0.030950,-0.030950,0.000541,0.000220,-0.002060,-0.0595,0.5754,0.3882,0.033748,-0.029146,0.000000,0.570641,-0.576777,0.585981,-0.587515,0.585981,-0.566039
1.7107,0.016745,0.000000,0.000000,0.000000,0.0000,0.6552,0.5245,0.031364,-0.031364,0.000541,0.000220,-0.002060,-0.0595,0.5754,0.3882,0.033748,-0.029146,0.000000,0.570641,-0.576777,0.585981,-0.587515,0.585981,-0.566039
1.7275,0.016745,0.000000,0.000000,0.000000,0.0000,0.6678,0.5363,0.031756,-0.031756,0.000541,0.000220,-0.002060,-0.0595,0.5754,0.3882,0.032214,-0.029146,0.000000,0.570641,-0.576777,0.585981,-0.587515,0.585981,-0.566039
1.7442,0.016745,0.000000,0.000000,0.000000,-0.0000,0.6803,0.5481,0.032126,-0.032126,0.000541,0.000220,-0.002060,-0.0595,0.5754,0.3882,0.024544,-0.029146,0.000000,0.570641,-0.576777,0.585981,-0.587515,0.585981,-0.566039
1.7610,0.016762,0.000000,0.000000,0.000000,0.0000,0.6925,0.5599,0.032475,-0.032475,0.000541,0.000220,-0.002060,-0.0595,0.5754,0.3882,0.027612,-0.030680,0.000000,0.570641,-0.576777,0.585981,-0.587515,0.585981,-0.566039
1.7777,0.016768,0.000000,0.000000,0.000000,0.0000,0.7046,0.5716,0.032801,-0.032801,0.000541,0.000220,-0.002060,-0.0595,0.5754,0.3882,0.035282,-0.030680,0.000000,0.570641,-0.576777,0.585981,-0.587515,0.585981,-0.566039
1.7945,0.016742,0.000000,0.000000,0.000000,-0.0000,0.7164,0.5832,0.033103,-0.033103,0.000541,0.000220,-0.002060,-0.0595,0.5754,0.3882,0.035282,-0.030680,0.000000,0.570641,-0.576777,0.585981,-0.587515,0.585981,-0.566039
1.8112,0.016747,0.000000,0.000000,0.000000,0.0000,0.7281,0.5948,0.033383,-0.033383,0.000541,0.000220,-0.002060,-0.0595,0.5754,0.3882,0.032214,-0.030680,0.000000,0.570641,-0.576777,0.585981,-0.587515,0.585981,-0.566039
1.8280,0.016743,0.000000,0.000000,0.000000,0.0000,0.7395,0.6064,0.033640,-0.033640,0.000541,0.000220,-0.002060,-0.0595,0.5754,0.3882,0.026078,-0.030680,0.000000,0.570641,-0.576777,0.585981,-0.587515,0.585981,-0.566039
1.8447,0.016744,0.000000,0.000000,0.000000,0.0000,0.7507,0.6179,0.033873,-0.033873,0.000541,0.000220,-0.002060,-0.0595,0.5754,0.3882,0.029146,-0.030680,0.000000,0.570641,-0.576777,0.585981,-0.587515,0.585981,-0.566039
1.8614,0.016741,0.000000,0.000000,0.000000,0.0000,0.7618,0.6294,0.034083,-0.034083,0.000541,0.000220,-0.002060,-0.0595,0.5754,0.3882,0.036816,-0.032214,0.000000,0.570641,-0.576777,0.585981,-0.587515,0.585981,-0.566039
1.8782,0.016749,0.000000,0.000000,0.000000,0.0000,0.7726,0.6408,0.034270,-0.034270,0.000541,0.000220,-0.002060,-0.0595,0.5754,0.3882,0.033748,-0.032214,0.000000,0.570641,-0.576777,0.585981,-0.587515,0.585981,-0.566039
1.8949,0.016736,0.000000,0.000000,0.000000,-0.0000,0.7831,0.6522,0.034432,-0.034432,0.000541,0.000220,-0.002060,-0.0595,0.5754,0.3882,0.033748,-0.032214,0.000000,0.570641,-0.576777,0.585981,-0.587515,0.585981,-0.566039
1.9117,0.016742,0.000000,0.000000,0.000000,0.0000,0.7935,0.6636,0.034571,-0.034571,0.000541,0.000220,-0.002060,-0.0595,0.5754,0.3882,0.027612,-0.032214,0.000000,0.570641,-0.576777,0.585981,-0.587515,0.585981,-0.566039
1.9284,0.016742,0.000000,0.000000,0.000000,0.0000,0.8036,0.6749,0.034686,-0.034686,0.000541,0.000220,-0.002060,-0.0595,0.5754,0.3882,0.030680,-0.033748,0.000000,0.570641,-0.576777,0.585981,-0.587515,0.585981,-0.566039
1.9452,0.016745,0.000000,0.000000,0.000000,-0.0000,0.8135,0.6861,0.034777,-0.034777,0.000541,0.000220,-0.002060,-0.0595,0.5754,0.3882,0.038350,-0.033748,0.000000,0.570641,-0.576777,0.585981,-0.587515,0.585981,-0.566039
1.9619,0.016751,0.000000,0.000000,0.000000,-0.0000,0.8232,0.6973,0.034844,-0.034844,0.000527,0.000274,-0.002048,-0.0489,0.6270,0.3337,0.035282,-0.033748,0.000000,0.570641,-0.576777,0.585981,-0.589049,0.585981,-0.566039
1.9788,0.016854,0.000000,0.000000,0.000000,0.0000,0.8327,0.7086,0.034887,-0.034887,0.000527,0.000274,-0.002048,-0.0489,0.6270,0.3337,0.035282,-0.033748,0.000000,0.570641,-0.576777,0.585981,-0.589049,0.585981,-0.566039
1.9955,0.016750,0.000000,0.000000,0.000000,-0.0000,0.8419,0.7197,0.034906,-0.034906,0.000516,0.000324,-0.002037,-0.0399,0.6728,0.2855,0.027612,-0.033748,0.000000,0.570641,-0.576777,0.585981,-0.590583,0.585981,-0.566039
2.0123,0.016760,0.000000,0.000000,0.000000,-0.0000,0.8509,0.7307,0.034900,-0.034900,0.000517,0.000318,-0.002038,-0.0408,0.6680,0.2906,0.029146,-0.033748,0.000000,0.570641,-0.576777,0.585981,-0.590583,0.585981,-0.566039
2.0290,0.016748,0.000000,0.000000,0.000000,0.0000,0.8596,0.7417,0.034870,-0.034870,0.000517,0.000318,-0.002038,-0.0408,0.6680,0.2906,0.038350,-0.033748,0.000000,0.570641,-0.576777,0.585981,-0.590583,0.585981,-0.566039
2.0458,0.016766,0.000000,0.000000,0.000000,0.0000,0.8681,0.7527,0.034816,-0.034816,0.000517,0.000318,-0.002038,-0.0408,0.6680,0.2906,0.035282,-0.033748,0.000000,0.570641,-0.576777,0.585981,-0.590583,0.585981,-0.566039
2.0625,0.016740,0.000000,0.000000,0.000000,-0.0000,0.8763,0.7636,0.034738,-0.034738,0.000517,0.000318,-0.002038,-0.0408,0.6680,0.2906,0.027612,-0.033748,0.000000,0.570641,-0.576777,0.585981,-0.590583,0.585981,-0.566039
2.0793,0.016746,0.000000,0.000000,0.000000,0.0000,0.8843,0.7744,0.034636,-0.034636,0.000517,0.000318,-0.002038,-0.0408,0.6680,0.2906,0.027612,-0.033748,0.000000,0.570641,-0.576777,0.585981,-0.590583,0.585981,-0.566039
2.0960,0.016746,0.000000,0.000000,0.000000,-0.0000,0.8920,0.7852,0.034510,-0.034510,0.000517,0.000318,-0.002038,-0.0408,0.6680,0.2906,0.029146,-0.033748,0.000000,0.570641,-0.576777,0.585981,-0.590583,0.585981,-0.566039
2.1128,0.016743,0.000000,0.000000,0.000000,0.0000,0.8995,0.7959,0.034360,-0.034360,0.000517,0.000318,-0.002038,-0.0408,0.6680,0.2906,0.038350,-0.033748,0.000000,0.570641,-0.576777,0.585981,-0.590583,0.585981,-0.566039
2.1295,0.016741,0.000000,0.000000,0.000000,-0.0000,0.9067,0.8066,0.034187,-0.034187,0.000517,0.000318,-0.002038,-0.0408,0.6680,0.2906,0.035282,-0.033748,0.000000,0.570641,-0.576777,0.585981,-0.590583,0.585981,-0.566039
2.1463,0.016746,0.000000,0.000000,0.000000,0.0000,0.9137,0.8172,0.033990,-0.033990,0.000517,0.000318,-0.002038,-0.0408,0.6680,0.2906,0.027612,-0.033748,0.000000,0.570641,-0.576777,0.585981,-0.590583,0.585981,-0.566039
2.1630,0.016744,0.000000,0.000000,0.000000,0.0000,0.9204,0.8278,0.033769,-0.033769,0.000517,0.000318,-0.002038,-0.0408,0.6680,0.2906,0.029146,-0.033748,0.000000,0.570641,-0.576777,0.585981,-0.590583,0.585981,-0.566039
2.1797,0.016753,0.000000,0.000000,0.000000,0.0000,0.9269,0.8383,0.033524,-0.033524,0.000517,0.000318,-0.002038,-0.0408,0.6680,0.2906,0.029146,-0.033748,0.000000,0.570641,-0.576777,0.585981,-0.590583,0.585981,-0.566039
2.1965,0.016742,0.000000,0.000000,0.000000,-0.0000,0.9331,0.8487,0.033257,-0.033257,0.000517,0.000318,-0.002038,-0.0408,0.6680,0.2906,0.038350,-0.033748,0.000000,0.570641,-0.576777,0.585981,-0.590583,0.585981,-0.566039
2.2132,0.016751,0.000000,0.000000,0.000000,0.0000,0.9390,0.8591,0.032967,-0.032967,0.000517,0.000318,-0.002038,-0.0408,0.6680,0.2906,0.036816,-0.033748,0.000000,0.570641,-0.576777,0.585981,-0.590583,0.585981,-0.566039
2.2300,0.016743,0.000000,0.000000,0.000000,0.0000,0.9446,0.8694,0.032653,-0.032653,0.000517,0.000318,-0.002038,-0.0408,0.6680,0.2906,0.027612,-0.033748,0.000000,0.570641,-0.576777,0.585981,-0.590583,0.585981,-0.566039
2.2468,0.016822,0.000000,0.000000,0.000000,0.0000,0.9501,0.8797,0.032316,-0.032316,0.000517,0.000318,-0.002038,-0.0408,0.6680,0.2906,0.029146,-0.033748,0.000000,0.570641,-0.576777,0.585981,-0.590583,0.585981,-0.566039
2.2636,0.016751,0.000000,0.000000,0.000000,-0.0000,0.9552,0.8899,0.031958,-0.031958,0.000517,0.000318,-0.002038,-0.0408,0.6680,0.2906,0.036816,-0.033748,0.000000,0.570641,-0.576777,0.585981,-0.590583,0.585981,-0.566039
2.2803,0.016760,0.000000,0.000000,0.000000,-0.0000,0.9600,0.9001,0.031577,-0.031577,0.000517,0.000318,-0.002038,-0.0408,0.6680,0.2906,0.036816,-0.033748,0.000000,0.570641,-0.576777,0.585981,-0.590583,0.585981,-0.566039
2.2971,0.016746,0.000000,0.000000,0.000000,0.0000,0.9646,0.9101,0.031175,-0.031175,0.000517,0.000318,-0.002038,-0.0408,0.6680,0.2906,0.033748,-0.033748,0.000000,0.570641,-0.576777,0.585981,-0.590583,0.585981,-0.566039
2.3138,0.016751,0.000000,0.000000,0.000000,0.0000,0.9689,0.9201,0.030751,-0.030751,0.000517,0.000318,-0.002038,-0.0408,0.6680,0.2906,0.026078,-0.033748,0.000000,0.570641,-0.576777,0.585981,-0.590583,0.585981,-0.566039
2.3306,0.016750,0.000000,0.000000,0.000000,-0.0000,0.9729,0.9301,0.030306,-0.030306,0.000517,0.000318,-0.002038,-0.0408,0.6680,0.2906,0.029146,-0.032214,0.000000,0.570641,-0.576777,0.585981,-0.590583,0.585981,-0.566039
2.3473,0.016755,0.000000,0.000000,0.000000,0.0000,0.9767,0.9400,0.029839,-0.029839,0.000517,0.000318,-0.002038,-0.0408,0.6680,0.2906,0.035282,-0.032214,0.000000,0.570641,-0.576777,0.585981,-0.590583,0.585981,-0.566039
2.3641,0.016760,0.000000,0.000000,0.000000,0.0000,0.9802,0.9498,0.029352,-0.029352,0.000517,0.000318,-0.002038,-0.0408,0.6680,0.2906,0.032214,-0.032214,0.000000,0.570641,-0.576777,0.585981,-0.590583,0.585981,-0.566039
2.3808,0.016754,0.000000,0.000000,0.000000,0.0000,0.9834,0.9595,0.028845,-0.028845,0.000517,0.000318,-0.002038,-0.0408,0.6680,0.2906,0.032214,-0.032214,0.000000,0.570641,-0.576777,0.585981,-0.590583,0.585981,-0.566039
2.3976,0.016747,0.000000,0.000000,0.000000,0.0000,0.9863,0.9692,0.028318,-0.028318,0.000517,0.000318,-0.002038,-0.0408,0.6680,0.2906,0.024544,-0.030680,0.000000,0.570641,-0.576777,0.585981,-0.590583,0.585981,-0.566039
2.4143,0.016754,0.000000,0.000000,0.000000,-0.0000,0.9889,0.9788,0.027771,-0.027771,0.000517,0.000318,-0.002038,-0.0408,0.6680,0.2906,0.027612,-0.029146,0.000000,0.570641,-0.576777,0.585981,-0.590583,0.585981,-0.566039
2.4311,0.016753,0.000000,0.000000,0.000000,0.0000,0.9913,0.9883,0.027205,-0.027205,0.000517,0.000318,-0.002038,-0.0408,0.6680,0.2906,0.033748,-0.029146,0.000000,0.570641,-0.576777,0.585981,-0.590583,0.585981,-0.566039
2.4478,0.016754,0.000000,0.000000,0.000000,-0.0000,0.9934,0.9978,0.026620,-0.026620,0.000517,0.000318,-0.002038,-0.0408,0.6680,0.2906,0.030680,-0.029146,0.000000,0.570641,-0.576777,0.585981,-0.590583,0.585981,-0.566039
2.4646,0.016783,0.000000,0.000000,0.000000,-0.0000,0.9952,1.0072,0.026016,-0.026016,0.000517,0.000318,-0.002038,-0.0408,0.6680,0.2906,0.030680,-0.029146,0.000000,0.570641,-0.576777,0.585981,-0.590583,0.585981,-0.566039
2.4814,0.016802,0.000000,0.000000,0.000000,0.0000,0.9967,1.0166,0.025392,-0.025392,0.000517,0.000318,-0.002038,-0.0408,0.6680,0.2906,0.030680,-0.029146,0.000000,0.570641,-0.576777,0.585981,-0.590583,0.585981,-0.566039
2.4982,0.016776,0.000000,0.000000,0.000000,-0.0000,0.9979,1.0258,0.024752,-0.024752,0.000517,0.000318,-0.002038,-0.0408,0.6680,0.2906,0.030680,-0.029146,0.000000,0.570641,-0.576777,0.585981,-0.590583,0.585981,-0.566039
2.5150,0.016758,0.000000,0.000000,0.000000,0.0000,0.9989,1.0350,0.024096,-0.024096,0.000517,0.000318,-0.002038,-0.0408,0.6680,0.2906,0.030680,-0.029146,0.000000,0.570641,-0.576777,0.585981,-0.590583,0.585981,-0.566039
2.5317,0.016752,0.000000,0.000000,0.000000,0.0000,0.9995,1.0441,0.023423,-0.023423,0.000517,0.000318,-0.002038,-0.0408,0.6680,0.2906,0.027612,-0.027612,0.000000,0.570641,-0.576777,0.585981,-0.590583,0.585981,-0.566039
2.5485,0.016763,0.000000,0.000000,0.000000,0.0000,0.9999,1.0532,0.022734,-0.022734,0.000517,0.000318,-0.002038,-0.0408,0.6680,0.2906,0.021476,-0.027612,0.000000,0.570641,-0.576777,0.585981,-0.590583,0.585981,-0.566039
2.5652,0.016742,0.000000,0.000000,0.000000,0.0000,1.0000,1.0621,0.022029,-0.022029,0.000517,0.000318,-0.002038,-0.0408,0.6680,0.2906,0.024544,-0.027612,0.000000,0.570641,-0.576777,0.585981,-0.590583,0.585981,-0.566039
2.5820,0.016759,0.000000,0.000000,0.000000,0.0000,0.9998,1.0710,0.021309,-0.021309,0.000517,0.000318,-0.002038,-0.0408,0.6680,0.2906,0.024544,-0.027612,0.000000,0.570641,-0.576777,0.585981,-0.590583,0.585981,-0.566039
2.5987,0.016746,0.000000,0.000000,0.000000,0.0000,0.9993,1.0798,0.020574,-0.020574,0.000517,0.000318,-0.002038,-0.0408,0.6680,0.2906,0.029146,-0.026078,0.000000,0.570641,-0.576777,0.585981,-0.590583,0.585981,-0.566039
2.6155,0.016757,0.000000,0.000000,0.000000,-0.0000,0.9986,1.0885,0.019825,-0.019825,0.000517,0.000318,-0.002038,-0.0408,0.6680,0.2906,0.026078,-0.023010,0.000000,0.570641,-0.576777,0.585981,-0.590583,0.585981,-0.566039
2.6322,0.016744,0.000000,0.000000,0.000000,-0.0000,0.9975,1.0972,0.019063,-0.019063,0.000517,0.000318,-0.002038,-0.0408,0.6680,0.2906,0.016874,-0.019942,0.000000,0.570641,-0.576777,0.585981,-0.590583,0.585981,-0.566039
2.6490,0.016756,0.000000,0.000000,0.000000,0.0000,0.9962,1.1057,0.018287,-0.018287,0.000517,0.000318,-0.002038,-0.0408,0.6680,0.2906,0.015340,-0.019942,0.000000,0.570641,-0.576777,0.585981,-0.590583,0.585981,-0.566039
2.6657,0.016761,0.000000,0.000000,0.000000,0.0000,0.9946,1.1142,0.017498,-0.017498,0.000517,0.000318,-0.002038,-0.0408,0.6680,0.2906,0.019942,-0.019942,0.000000,0.570641,-0.576777,0.585981,-0.590583,0.585981,-0.566039
2.6825,0.016753,0.000000,0.000000,0.000000,0.0000,0.9927,1.1227,0.016697,-0.016697,0.000517,0.000318,-0.002038,-0.0408,0.6680,0.2906,0.019942,-0.019942,0.000000,0.570641,-0.576777,0.585981,-0.590583,0.585981,-0.566039
2.6992,0.016738,0.000000,0.000000,0.000000,0.0000,0.9906,1.1310,0.015885,-0.015885,0.000517,0.000318,-0.002038,-0.0408,0.6680,0.2906,0.018408,-0.019942,0.000000,0.570641,-0.576777,0.585981,-0.590583,0.585981,-0.566039
2.7160,0.016749,0.000000,0.000000,0.000000,0.0000,0.9881,1.1392,0.015062,-0.015062,0.000517,0.000318,-0.002038,-0.0408,0.6680,0.2906,0.013806,-0.018408,0.000000,0.570641,-0.576777,0.585981,-0.590583,0.585981,-0.566039
2.7327,0.016744,0.000000,0.000000,0.000000,0.0000,0.9854,1.1474,0.014229,-0.014229,0.000517,0.000318,-0.002038,-0.0408,0.6680,0.2906,0.012272,-0.015340,0.000000,0.570641,-0.576777,0.585981,-0.590583,0.585981,-0.566039
2.7495,0.016759,0.000000,0.000000,0.000000,0.0000,0.9824,1.1555,0.013385,-0.013385,0.000517,0.000318,-0.002038,-0.0408,0.6680,0.2906,0.018408,-0.015340,0.000000,0.570641,-0.576777,0.585981,-0.590583,0.585981,-0.566039
2.7662,0.016743,0.000000,0.000000,0.000000,0.0000,0.9791,1.1635,0.012532,-0.012532,0.000517,0.000318,-0.002038,-0.0408,0.6680,0.2906,0.018408,-0.016874,0.000000,0.570641,-0.576777,0.585981,-0.590583,0.585981,-0.566039
2.7830,0.016760,0.000000,0.000000,0.000000,0.0000,0.9755,1.1715,0.011670,-0.011670,0.000517,0.000318,-0.002038,-0.0408,0.6680,0.2906,0.018408,-0.016874,0.000000,0.570641,-0.576777,0.585981,-0.590583,0.585981,-0.566039
2.7997,0.016745,0.000000,0.000000,0.000000,-0.0000,0.9717,1.1793,0.010801,-0.010801,0.000517,0.000318,-0.002038,-0.0408,0.6680,0.2906,0.010738,-0.012272,0.000000,0.570641,-0.576777,0.585981,-0.590583,0.585981,-0.566039
2.8165,0.016755,0.000000,0.000000,0.000000,0.0000,0.9676,1.1871,0.009924,-0.009924,0.000517,0.000318,-0.002038,-0.0408,0.6680,0.2906,0.007670,-0.012272,0.000000,0.570641,-0.576777,0.585981,-0.590583,0.585981,-0.566039
2.8332,0.016743,0.000000,0.000000,0.000000,0.0000,0.9632,1.1947,0.009040,-0.009040,0.000517,0.000318,-0.002038,-0.0408,0.6680,0.2906,0.013806,-0.012272,0.000000,0.570641,-0.576777,0.585981,-0.590583,0.585981,-0.566039
2.8500,0.016749,0.000000,0.000000,0.000000,0.0000,0.9585,1.2023,0.008150,-0.008150,0.000517,0.000318,-0.002038,-0.0408,0.6680,0.2906,0.016874,-0.012272,0.000000,0.570641,-0.576777,0.585981,-0.590583,0.585981,-0.566039
2.8667,0.016749,0.000000,0.000000,0.000000,0.0000,0.9536,1.2098,0.007255,-0.007255,0.000517,0.000318,-0.002038,-0.0408,0.6680,0.2906,0.009204,-0.012272,0.000000,0.570641,-0.576777,0.585981,-0.590583,0.585981,-0.566039
2.8835,0.016758,0.000000,0.000000,0.000000,0.0000,0.9484,1.2173,0.006353,-0.006353,0.000517,0.000318,-0.002038,-0.0408,0.6680,0.2906,0.009204,-0.012272,0.000000,0.570641,-0.576777,0.585981,-0.590583,0.585981,-0.566039
2.9002,0.016747,0.000000,0.000000,0.000000,0.0000,0.9429,1.2246,0.005448,-0.005448,0.000517,0.000318,-0.002038,-0.0408,0.6680,0.2906,0.001534,-0.007670,0.000000,0.570641,-0.576777,0.585981,-0.590583,0.585981,-0.566039
2.9170,0.016745,0.000000,0.000000,0.000000,0.0000,0.9372,1.2319,0.004540,-0.004540,0.000517,0.000318,-0.002038,-0.0408,0.6680,0.2906,0.004602,-0.007670,0.000000,0.570641,-0.576777,0.585981,-0.590583,0.585981,-0.566039
2.9337,0.016740,0.000000,0.000000,0.000000,0.0000,0.9312,1.2390,0.003628,-0.003628,0.000517,0.000318,-0.002038,-0.0408,0.6680,0.2906,0.010738,-0.007670,0.000000,0.570641,-0.576777,0.585981,-0.590583,0.585981,-0.566039
2.9505,0.016750,0.000000,0.000000,0.000000,0.0000,0.9249,1.2461,0.002714,-0.002714,0.000517,0.000318,-0.002038,-0.0408,0.6680,0.2906,0.007670,-0.006136,0.000000,0.570641,-0.576777,0.585981,-0.590583,0.585981,-0.566039
2.9672,0.016787,0.000000,0.000000,0.000000,0.0000,0.9184,1.2531,0.001795,-0.001795,0.000571,0.000335,-0.002026,-0.0795,0.6339,0.3437,-0.003068,-0.006136,0.000000,0.570641,-0.576777,0.585981,-0.590583,0.587515,-0.566039
2.9840,0.016753,0.000000,0.000000,0.000000,0.0000,0.9116,1.2600,0.000877,-0.000877,0.000571,0.000335,-0.002026,-0.0795,0.6339,0.3437,-0.003068,-0.006136,0.000000,0.570641,-0.576777,0.585981,-0.590583,0.587515,-0.566039
3.0007,0.016744,0.000000,0.000000,0.000000,0.0000,0.9045,1.2668,-0.000041,0.000041,0.000511,0.000317,-0.002039,-0.0367,0.6720,0.2845,0.000000,-0.004602,0.000000,0.570641,-0.576777,0.585981,-0.590583,0.585981,-0.566039
3.0175,0.016749,0.000000,0.000000,0.000000,0.0000,0.8972,1.2735,-0.000959,0.000959,0.000517,0.000319,-0.002038,-0.0411,0.6681,0.2907,0.007670,-0.004602,0.000000,0.570641,-0.576777,0.585981,-0.590583,0.585981,-0.566039
3.0342,0.016745,0.000000,0.000000,0.000000,-0.0000,0.8896,1.2801,-0.001876,0.001876,0.000517,0.000319,-0.002038,-0.0411,0.6681,0.2907,0.004602,-0.003068,0.000000,0.570641,-0.576777,0.585981,-0.590583,0.585981,-0.566039
3.0510,0.016755,0.000000,0.000000,0.000000,0.0000,0.8818,1.2867,-0.002793,0.002793,0.000517,0.000319,-0.002038,-0.0411,0.6681,0.2907,-0.004602,-0.001534,0.000000,0.570641,-0.576777,0.585981,-0.590583,0.585981,-0.566039
3.0680,0.016971,0.000000,0.000000,0.000000,0.0000,0.8736,1.2932,-0.003719,0.003719,0.000517,0.000319,-0.002038,-0.0411,0.6681,0.2907,-0.003068,-0.001534,0.000000,0.570641,-0.576777,0.585981,-0.590583,0.585981,-0.566039
3.0847,0.016755,0.000000,0.000000,0.000000,0.0000,0.8653,1.2996,-0.004632,0.004632,0.000517,0.000319,-0.002038,-0.0411,0.6681,0.2907,-0.003068,-0.001534,0.000000,0.570641,-0.576777,0.585981,-0.590583,0.585981,-0.566039
3.1015,0.016743,0.000000,0.000000,0.000000,0.0000,0.8568,1.3058,-0.005540,0.005540,0.000517,0.000319,-0.002038,-0.0411,0.6681,0.2907,0.001534,-0.001534,0.000000,0.570641,-0.576777,0.585981,-0.590583,0.585981,-0.566039
3.1182,0.016748,0.000000,0.000000,0.000000,-0.0000,0.8480,1.3120,-0.006444,0.006444,0.000517,0.000319,-0.002038,-0.0411,0.6681,0.2907,0.000000,0.000000,0.000000,0.570641,-0.576777,0.585981,-0.590583,0.585981,-0.566039
3.1350,0.016744,0.000000,0.000000,0.000000,0.0000,0.8389,1.3181,-0.007344,0.007344,0.000517,0.000319,-0.002038,-0.0411,0.6681,0.2907,-0.004602,0.001534,0.000000,0.570641,-0.576777,0.585981,-0.590583,0.585981,-0.566039
3.1517,0.016762,0.000000,0.000000,0.000000,-0.0000,0.8296,1.3240,-0.008240,0.008240,0.000517,0.000319,-0.002038,-0.0411,0.6681,0.2907,-0.006136,0.004602,0.000000,0.570641,-0.576777,0.585981,-0.590583,0.585981,-0.566039
3.1686,0.016890,0.000000,0.000000,0.000000,0.0000,0.8200,1.3300,-0.009137,0.009137,0.000517,0.000319,-0.002038,-0.0411,0.6681,0.2907,-0.006136,0.006136,0.000000,0.570641,-0.576777,0.585981,-0.590583,0.585981,-0.566039
3.1854,0.016759,0.000000,0.000000,0.000000,0.0000,0.8103,1.3358,-0.010021,0.010021,0.000517,0.000319,-0.002038,-0.0411,0.6681,0.2907,-0.006136,0.006136,0.000000,0.570641,-0.576777,0.585981,-0.590583,0.585981,-0.566039
3.2021,0.016703,0.000000,0.000000,0.000000,0.0000,0.8003,1.3415,-0.010895,0.010895,0.000517,0.000319,-0.002038,-0.0411,0.6681,0.2907,-0.006136,0.006136,0.000000,0.570641,-0.576777,0.585981,-0.590583,0.585981,-0.566039
3.2188,0.016750,0.000000,0.000000,0.000000,0.0000,0.7901,1.3471,-0.011763,0.011763,0.000517,0.000319,-0.002038,-0.0411,0.6681,0.2907,-0.006136,0.006136,0.000000,0.570641,-0.576777,0.585981,-0.590583,0.585981,-0.566039
3.2356,0.016741,0.000000,0.000000,0.000000,-0.0000,0.7797,1.3526,-0.012623,0.012623,0.000517,0.000319,-0.002038,-0.0411,0.6681,0.2907,-0.010738,0.009204,0.000000,0.570641,-0.576777,0.585981,-0.590583,0.585981,-0.566039
3.2523,0.016745,0.000000,0.000000,0.000000,0.0000,0.7690,1.3580,-0.013475,0.013475,0.000571,0.000335,-0.002026,-0.0795,0.6339,0.3437,-0.015340,0.009204,0.000000,0.570641,-0.576777,0.585981,-0.590583,0.587515,-0.566039
3.2691,0.016827,0.000000,0.000000,0.000000,0.0000,0.7581,1.3633,-0.014321,0.014321,0.000571,0.000335,-0.002026,-0.0795,0.6339,0.3437,-0.013806,0.010738,0.000000,0.570641,-0.576777,0.585981,-0.590583,0.585981,-0.566039
3.2859,0.016761,0.000000,0.000000,0.000000,-0.0000,0.7470,1.3685,-0.015154,0.015154,0.000511,0.000317,-0.002039,-0.0367,0.6720,0.2845,-0.013806,0.010738,0.000000,0.570641,-0.576777,0.585981,-0.590583,0.585981,-0.566039
3.3026,0.016738,0.000000,0.000000,0.000000,-0.0000,0.7357,1.3737,-0.015976,0.015976,0.000517,0.000319,-0.002038,-0.0411,0.6681,0.2907,-0.010738,0.010738,0.000000,0.570641,-0.576777,0.585981,-0.590583,0.585981,-0.566039
3.3194,0.016755,0.000000,0.000000,0.000000,0.0000,0.7242,1.3787,-0.016787,0.016787,0.000517,0.000319,-0.002038,-0.0411,0.6681,0.2907,-0.010738,0.010738,0.000000,0.570641,-0.576777,0.585981,-0.590583,0.585981,-0.566039
3.3361,0.016738,0.000000,0.000000,0.000000,0.0000,0.7125,1.3836,-0.017586,0.017586,0.000517,0.000319,-0.002038,-0.0411,0.6681,0.2907,-0.016874,0.013806,0.000000,0.570641,-0.576777,0.585981,-0.590583,0.585981,-0.566039
3.3529,0.016750,0.000000,0.000000,0.000000,-0.0000,0.7006,1.3884,-0.018373,0.018373,0.000517,0.000319,-0.002038,-0.0411,0.6681,0.2907,-0.021476,0.015340,0.000000,0.570641,-0.576777,0.585981,-0.590583,0.585981,-0.566039
3.3696,0.016742,0.000000,0.000000,0.000000,0.0000,0.6885,1.3932,-0.019147,0.019147,0.000517,0.000319,-0.002038,-0.0411,0.6681,0.2907,-0.018408,0.013806,0.000000,0.570641,-0.576777,0.585981,-0.590583,0.585981,-0.566039
3.3864,0.016758,0.000000,0.000000,0.000000,0.0000,0.6762,1.3978,-0.019908,0.019908,0.000517,0.000319,-0.002038,-0.0411,0.6681,0.2907,-0.018408,0.013806,0.000000,0.570641,-0.576777,0.585981,-0.590583,0.585981,-0.566039
3.4031,0.016738,0.000000,0.000000,0.000000,-0.0000,0.6637,1.4023,-0.020655,0.020655,0.000571,0.000335,-0.002026,-0.0795,0.6339,0.3437,-0.013806,0.016874,0.000000,0.570641,-0.576777,0.585981,-0.590583,0.587515,-0.566039
3.4199,0.016751,0.000000,0.000000,0.000000,-0.0000,0.6510,1.4068,-0.021389,0.021389,0.000511,0.000317,-0.002039,-0.0367,0.6720,0.2845,-0.019942,0.016874,0.000000,0.570641,-0.576777,0.585981,-0.590583,0.585981,-0.566039
3.4366,0.016741,0.000000,0.000000,0.000000,-0.0000,0.6381,1.4111,-0.022106,0.022106,0.000517,0.000319,-0.002038,-0.0411,0.6681,0.2907,-0.026078,0.016874,0.000000,0.570641,-0.576777,0.585981,-0.590583,0.585981,-0.566039
3.4534,0.016753,0.000000,0.000000,0.000000,0.0000,0.6251,1.4153,-0.022810,0.022810,0.000517,0.000319,-0.002038,-0.0411,0.6681,0.2907,-0.023010,0.018408,0.000000,0.570641,-0.576777,0.585981,-0.590583,0.585981,-0.566039
3.4701,0.016726,0.000000,0.000000,0.000000,-0.0000,0.6118,1.4195,-0.023496,0.023496,0.000517,0.000319,-0.002038,-0.0411,0.6681,0.2907,-0.016874,0.019942,0.000000,0.570641,-0.576777,0.585981,-0.590583,0.585981,-0.566039
3.4868,0.016762,0.000000,0.000000,0.000000,-0.0000,0.5984,1.4235,-0.024167,0.024167,0.000517,0.000319,-0.002038,-0.0411,0.6681,0.2907,-0.016874,0.019942,0.000000,0.570641,-0.576777,0.585981,-0.590583,0.585981,-0.566039
3.5036,0.016740,0.000000,0.000000,0.000000,0.0000,0.5849,1.4274,-0.024821,0.024821,0.000571,0.000335,-0.002026,-0.0795,0.6339,0.3437,-0.021476,0.018408,0.000000,0.570641,-0.576777,0.585981,-0.590583,0.587515,-0.566039
3.5205,0.016911,0.000000,0.000000,0.000000,-0.0000,0.5710,1.4313,-0.025464,0.025464,0.000511,0.000317,-0.002039,-0.0367,0.6720,0.2845,-0.027612,0.019942,0.000000,0.570641,-0.576777,0.585981,-0.590583,0.585981,-0.566039
3.5402,0.019741,0.000000,0.000000,0.000000,0.0000,0.5546,1.4357,-0.026192,0.026192,0.000511,0.000317,-0.002039,-0.0367,0.6720,0.2845,-0.027612,0.019942,0.000000,0.570641,-0.576777,0.585981,-0.590583,0.585981,-0.566039
3.5570,0.016740,0.000000,0.000000,0.000000,0.0000,0.5405,1.4393,-0.026790,0.026790,0.000511,0.000317,-0.002039,-0.0367,0.6720,0.2845,-0.027612,0.019942,0.000000,0.570641,-0.576777,0.585981,-0.590583,0.585981,-0.566039
3.5737,0.016738,0.000000,0.000000,0.000000,0.0000,0.5263,1.4428,-0.027369,0.027369,0.000517,0.000319,-0.002038,-0.0411,0.6681,0.2907,-0.021476,0.024544,0.000000,0.570641,-0.576777,0.585981,-0.590583,0.585981,-0.566039
3.5905,0.016761,0.000000,0.000000,0.000000,0.0000,0.5119,1.4462,-0.027930,0.027930,0.000517,0.000319,-0.002038,-0.0411,0.6681,0.2907,-0.024544,0.024544,0.000000,0.570641,-0.576777,0.585981,-0.590583,0.585981,-0.566039
3.6072,0.016740,0.000000,0.000000,0.000000,0.0000,0.4973,1.4495,-0.028471,0.028471,0.000571,0.000335,-0.002026,-0.0795,0.6339,0.3437,-0.029146,0.024544,0.000000,0.570641,-0.576777,0.585981,-0.590583,0.587515,-0.566039
3.6240,0.016776,0.000000,0.000000,0.000000,0.0000,0.4826,1.4527,-0.028993,0.028993,0.000571,0.000335,-0.002026,-0.0795,0.6339,0.3437,-0.029146,0.024544,0.000000,0.570641,-0.576777,0.585981,-0.590583,0.587515,-0.566039
3.6407,0.016743,0.000000,0.000000,0.000000,-0.0000,0.4678,1.4558,-0.029494,0.029494,0.000511,0.000317,-0.002039,-0.0367,0.6720,0.2845,-0.027612,0.024544,0.000000,0.570641,-0.576777,0.585981,-0.590583,0.585981,-0.566039
3.6575,0.016756,0.000000,0.000000,0.000000,0.0000,0.4529,1.4588,-0.029975,0.029975,0.000517,0.000319,-0.002038,-0.0411,0.6681,0.2907,-0.023010,0.024544,0.000000,0.570641,-0.576777,0.585981,-0.590583,0.585981,-0.566039
3.6742,0.016744,0.000000,0.000000,0.000000,0.0000,0.4378,1.4617,-0.030435,0.030435,0.000517,0.000319,-0.002038,-0.0411,0.6681,0.2907,-0.026078,0.026078,0.000000,0.570641,-0.576777,0.585981,-0.590583,0.585981,-0.566039
3.6910,0.016751,0.000000,0.000000,0.000000,0.0000,0.4226,1.4644,-0.030875,0.030875,0.000517,0.000319,-0.002038,-0.0411,0.6681,0.2907,-0.030680,0.026078,0.000000,0.570641,-0.576777,0.585981,-0.590583,0.585981,-0.566039
3.7077,0.016743,0.000000,0.000000,0.000000,0.0000,0.4073,1.4671,-0.031292,0.031292,0.000517,0.000319,-0.002038,-0.0411,0.6681,0.2907,-0.029146,0.026078,0.000000,0.570641,-0.576777,0.585981,-0.590583,0.585981,-0.566039
3.7245,0.016752,0.000000,0.000000,0.000000,0.0000,0.3919,1.4697,-0.031688,0.031688,0.000517,0.000319,-0.002038,-0.0411,0.6681,0.2907,-0.029146,0.026078,0.000000,0.570641,-0.576777,0.585981,-0.590583,0.585981,-0.566039
3.7412,0.016745,0.000000,0.000000,0.000000,0.0000,0.3763,1.4722,-0.032062,0.032062,0.000517,0.000319,-0.002038,-0.0411,0.6681,0.2907,-0.026078,0.029146,0.000000,0.570641,-0.576777,0.585981,-0.590583,0.585981,-0.566039
3.7580,0.016745,0.000000,0.000000,0.000000,-0.0000,0.3607,1.4745,-0.032414,0.032414,0.000517,0.000319,-0.002038,-0.0411,0.6681,0.2907,-0.029146,0.029146,0.000000,0.570641,-0.576777,0.585981,-0.590583,0.585981,-0.566039
3.7747,0.016744,0.000000,0.000000,0.000000,0.0000,0.3449,1.4768,-0.032744,0.032744,0.000571,0.000335,-0.002026,-0.0795,0.6339,0.3437,-0.035282,0.029146,0.000000,0.570641,-0.576777,0.585981,-0.590583,0.587515,-0.566039
3.7915,0.016748,0.000000,0.000000,0.000000,-0.0000,0.3291,1.4790,-0.033051,0.033051,0.000511,0.000317,-0.002039,-0.0367,0.6720,0.2845,-0.032214,0.029146,0.000000,0.570641,-0.576777,0.585981,-0.590583,0.585981,-0.566039
3.8082,0.016777,0.000000,0.000000,0.000000,0.0000,0.3131,1.4810,-0.033335,0.033335,0.000517,0.000319,-0.002038,-0.0411,0.6681,0.2907,-0.026078,0.029146,0.000000,0.570641,-0.576777,0.585981,-0.590583,0.585981,-0.566039
3.8250,0.016749,0.000000,0.000000,0.000000,0.0000,0.2970,1.4830,-0.033596,0.033596,0.000517,0.000319,-0.002038,-0.0411,0.6681,0.2907,-0.026078,0.029146,0.000000,0.570641,-0.576777,0.585981,-0.590583,0.585981,-0.566039
3.8417,0.016747,0.000000,0.000000,0.000000,0.0000,0.2809,1.4848,-0.033834,0.033834,0.000517,0.000319,-0.002038,-0.0411,0.6681,0.2907,-0.029146,0.032214,0.000000,0.570641,-0.576777,0.585981,-0.590583,0.585981,-0.566039
3.8585,0.016741,0.000000,0.000000,0.000000,-0.0000,0.2647,1.4866,-0.034048,0.034048,0.000517,0.000319,-0.002038,-0.0411,0.6681,0.2907,-0.036816,0.032214,0.000000,0.570641,-0.576777,0.585981,-0.590583,0.585981,-0.566039
3.8752,0.016749,0.000000,0.000000,0.000000,-0.0000,0.2485,1.4882,-0.034238,0.034238,0.000517,0.000319,-0.002038,-0.0411,0.6681,0.2907,-0.029146,0.032214,0.000000,0.570641,-0.576777,0.585981,-0.590583,0.585981,-0.566039
3.8920,0.016742,0.000000,0.000000,0.000000,0.0000,0.2321,1.4897,-0.034405,0.034405,0.000517,0.000319,-0.002038,-0.0411,0.6681,0.2907,-0.029146,0.032214,0.000000,0.570641,-0.576777,0.585981,-0.590583,0.585981,-0.566039
3.9087,0.016759,0.000000,0.000000,0.000000,0.0000,0.2157,1.4911,-0.034548,0.034548,0.000517,0.000319,-0.002038,-0.0411,0.6681,0.2907,-0.038350,0.032214,0.000000,0.570641,-0.576777,0.585981,-0.590583,0.585981,-0.566039
3.9255,0.016742,0.000000,0.000000,0.000000,0.0000,0.1992,1.4925,-0.034668,0.034668,0.000517,0.000319,-0.002038,-0.0411,0.6681,0.2907,-0.038350,0.032214,0.000000,0.570641,-0.576777,0.585981,-0.590583,0.585981,-0.566039
3.9422,0.016750,0.000000,0.000000,0.000000,0.0000,0.1827,1.4937,-0.034763,0.034763,0.000517,0.000319,-0.002038,-0.0411,0.6681,0.2907,-0.039884,0.033748,0.000000,0.570641,-0.576777,0.585981,-0.590583,0.585981,-0.566039
3.9590,0.016744,0.000000,0.000000,0.000000,0.0000,0.1661,1.4948,-0.034834,0.034834,0.000571,0.000335,-0.002026,-0.0795,0.6339,0.3437,-0.036816,0.032214,0.000000,0.570641,-0.576777,0.585981,-0.590583,0.587515,-0.566039
3.9757,0.016747,0.000000,0.000000,0.000000,0.0000,0.1495,1.4958,-0.034881,0.034881,0.000511,0.000317,-0.002039,-0.0367,0.6720,0.2845,-0.032214,0.032214,0.000000,0.570641,-0.576777,0.585981,-0.590583,0.585981,-0.566039
3.9926,0.016847,0.000000,0.000000,0.000000,-0.0000,0.1328,1.4967,-0.034904,0.034904,0.000571,0.000335,-0.002026,-0.0800,0.6335,0.3443,-0.033748,0.032214,0.000000,0.570641,-0.576777,0.585981,-0.590583,0.587515,-0.566039
4.0093,0.016755,0.000000,0.000000,0.000000,-0.0000,0.1160,1.4975,-0.034903,0.034903,0.000571,0.000335,-0.002026,-0.0800,0.6335,0.3443,-0.033748,0.032214,0.000000,0.570641,-0.576777,0.585981,-0.590583,0.587515,-0.566039
4.0261,0.016745,0.000000,0.000000,0.000000,-0.0000,0.0993,1.4981,-0.034877,0.034877,0.000511,0.000317,-0.002039,-0.0366,0.6721,0.2844,-0.039884,0.032214,0.000000,0.570641,-0.576777,0.585981,-0.590583,0.585981,-0.566039
4.0428,0.016743,0.000000,0.000000,0.000000,-0.0000,0.0825,1.4987,-0.034828,0.034828,0.000517,0.000319,-0.002038,-0.0411,0.6681,0.2907,-0.038350,0.032214,0.000000,0.570641,-0.576777,0.585981,-0.590583,0.585981,-0.566039
4.0595,0.016743,0.000000,0.000000,0.000000,-0.0000,0.0658,1.4992,-0.034754,0.034754,0.000517,0.000319,-0.002038,-0.0411,0.6681,0.2907,-0.032214,0.032214,0.000000,0.570641,-0.576777,0.585981,-0.590583,0.585981,-0.566039
4.0763,0.016748,0.000000,0.000000,0.000000,-0.0000,0.0489,1.4996,-0.034656,0.034656,0.000517,0.000319,-0.002038,-0.0411,0.6681,0.2907,-0.030680,0.032214,0.000000,0.570641,-0.576777,0.585981,-0.590583,0.585981,-0.566039
4.0931,0.016762,0.000000,0.000000,0.000000,0.0000,0.0321,1.4998,-0.034534,0.034534,0.000517,0.000319,-0.002038,-0.0411,0.6681,0.2907,-0.035282,0.032214,0.000000,0.570641,-0.576777,0.585981,-0.590583,0.585981,-0.566039
4.1098,0.016762,0.000000,0.000000,0.000000,0.0000,0.0153,1.5000,-0.034389,0.034389,0.000517,0.000319,-0.002038,-0.0411,0.6681,0.2907,-0.035282,0.032214,0.000000,0.570641,-0.576777,0.585981,-0.590583,0.585981,-0.566039
4.1266,0.016755,0.000000,0.000000,0.000000,-0.0000,-0.0016,1.5000,-0.034219,0.034219,0.000517,0.000319,-0.002038,-0.0411,0.6681,0.2907,-0.039884,0.032214,0.000000,0.570641,-0.576777,0.585981,-0.590583,0.585981,-0.566039
4.1433,0.016751,0.000000,0.000000,0.000000,0.0000,-0.0184,1.4999,-0.034026,0.034026,0.000571,0.000335,-0.002026,-0.0795,0.6339,0.3437,-0.036816,0.032214,0.000000,0.570641,-0.576777,0.585981,-0.590583,0.587515,-0.566039
4.1601,0.016777,0.000000,0.000000,0.000000,-0.0000,-0.0353,1.4998,-0.033809,0.033809,0.000511,0.000317,-0.002039,-0.0367,0.6720,0.2845,-0.032214,0.032214,0.000000,0.570641,-0.576777,0.585981,-0.590583,0.585981,-0.566039
4.1769,0.016763,0.000000,0.000000,0.000000,0.0000,-0.0521,1.4995,-0.033568,0.033568,0.000517,0.000319,-0.002038,-0.0411,0.6681,0.2907,-0.032214,0.032214,0.000000,0.570641,-0.576777,0.585981,-0.590583,0.585981,-0.566039
4.1936,0.016760,0.000000,0.000000,0.000000,0.0000,-0.0689,1.4991,-0.033305,0.033305,0.000517,0.000319,-0.002038,-0.0411,0.6681,0.2907,-0.036816,0.032214,0.000000,0.570641,-0.576777,0.585981,-0.590583,0.585981,-0.566039
4.2104,0.016751,0.000000,0.000000,0.000000,-0.0000,-0.0857,1.4986,-0.033018,0.033018,0.000517,0.000319,-0.002038,-0.0411,0.6681,0.2907,-0.036816,0.032214,0.000000,0.570641,-0.576777,0.585981,-0.590583,0.585981,-0.566039
4.2271,0.016765,0.000000,0.000000,0.000000,-0.0000,-0.1025,1.4980,-0.032708,0.032708,0.000517,0.000319,-0.002038,-0.0411,0.6681,0.2907,-0.038350,0.032214,0.000000,0.570641,-0.576777,0.585981,-0.590583,0.585981,-0.566039
4.2439,0.016752,0.000000,0.000000,0.000000,0.0000,-0.1192,1.4973,-0.032376,0.032376,0.000517,0.000319,-0.002038,-0.0411,0.6681,0.2907,-0.035282,0.032214,0.000000,0.570641,-0.576777,0.585981,-0.590583,0.585981,-0.566039
4.2607,0.016764,0.000000,0.000000,0.000000,0.0000,-0.1360,1.4965,-0.032021,0.032021,0.000517,0.000319,-0.002038,-0.0411,0.6681,0.2907,-0.027612,0.032214,0.000000,0.570641,-0.576777,0.585981,-0.590583,0.585981,-0.566039
4.2774,0.016751,0.000000,0.000000,0.000000,0.0000,-0.1526,1.4956,-0.031645,0.031645,0.000571,0.000335,-0.002026,-0.0795,0.6339,0.3437,-0.029146,0.033748,0.000000,0.570641,-0.576777,0.585981,-0.590583,0.587515,-0.566039
4.2942,0.016760,0.000000,0.000000,0.000000,0.0000,-0.1692,1.4946,-0.031246,0.031246,0.000511,0.000317,-0.002039,-0.0367,0.6720,0.2845,-0.038350,0.032214,0.000000,0.570641,-0.576777,0.585981,-0.590583,0.585981,-0.566039
4.3109,0.016749,0.000000,0.000000,0.000000,0.0000,-0.1858,1.4935,-0.030826,0.030826,0.000511,0.000317,-0.002039,-0.0367,0.6720,0.2845,-0.038350,0.032214,0.000000,0.570641,-0.576777,0.585981,-0.590583,0.585981,-0.566039
4.3277,0.016753,0.000000,0.000000,0.000000,-0.0000,-0.2023,1.4922,-0.030384,0.030384,0.000517,0.000319,-0.002038,-0.0411,0.6681,0.2907,-0.038350,0.032214,0.000000,0.570641,-0.576777,0.585981,-0.590583,0.585981,-0.566039
4.3444,0.016753,0.000000,0.000000,0.000000,0.0000,-0.2188,1.4909,-0.029921,0.029921,0.000517,0.000319,-0.002038,-0.0411,0.6681,0.2907,-0.030680,0.030680,0.000000,0.570641,-0.576777,0.585981,-0.590583,0.585981,-0.566039
4.3612,0.016761,0.000000,0.000000,0.000000,0.0000,-0.2352,1.4894,-0.029438,0.029438,0.000517,0.000319,-0.002038,-0.0411,0.6681,0.2907,-0.026078,0.030680,0.000000,0.570641,-0.576777,0.585981,-0.590583,0.585981,-0.566039
4.3779,0.016748,0.000000,0.000000,0.000000,0.0000,-0.2515,1.4879,-0.028934,0.028934,0.000517,0.000319,-0.002038,-0.0411,0.6681,0.2907,-0.029146,0.029146,0.000000,0.570641,-0.576777,0.585981,-0.590583,0.585981,-0.566039
4.3947,0.016769,0.000000,0.000000,0.000000,0.0000,-0.2678,1.4862,-0.028410,0.028410,0.000517,0.000319,-0.002038,-0.0411,0.6681,0.2907,-0.033748,0.029146,0.000000,0.570641,-0.576777,0.585981,-0.590583,0.585981,-0.566039
4.4114,0.016748,0.000000,0.000000,0.000000,0.0000,-0.2840,1.4845,-0.027867,0.027867,0.000517,0.000319,-0.002038,-0.0411,0.6681,0.2907,-0.033748,0.029146,0.000000,0.570641,-0.576777,0.585981,-0.590583,0.585981,-0.566039
4.4282,0.016759,0.000000,0.000000,0.000000,0.0000,-0.3001,1.4826,-0.027304,0.027304,0.000517,0.000319,-0.002038,-0.0411,0.6681,0.2907,-0.029146,0.029146,0.000000,0.570641,-0.576777,0.585981,-0.590583,0.585981,-0.566039
4.4449,0.016707,0.000000,0.000000,0.000000,0.0000,-0.3161,1.4806,-0.026723,0.026723,0.000517,0.000319,-0.002038,-0.0411,0.6681,0.2907,-0.023010,0.027612,0.000000,0.570641,-0.576777,0.585981,-0.590583,0.585981,-0.566039
4.4617,0.016764,0.000000,0.000000,0.000000,0.0000,-0.3320,1.4786,-0.026123,0.026123,0.000517,0.000319,-0.002038,-0.0411,0.6681,0.2907,-0.027612,0.027612,0.000000,0.570641,-0.576777,0.585981,-0.590583,0.585981,-0.566039
4.4784,0.016752,0.000000,0.000000,0.000000,0.0000,-0.3479,1.4764,-0.025505,0.025505,0.000517,0.000319,-0.002038,-0.0411,0.6681,0.2907,-0.030680,0.026078,0.000000,0.570641,-0.576777,0.585981,-0.590583,0.585981,-0.566039
4.4952,0.016766,0.000000,0.000000,0.000000,-0.0000,-0.3636,1.4741,-0.024868,0.024868,0.000517,0.000319,-0.002038,-0.0411,0.6681,0.2907,-0.026078,0.026078,0.000000,0.570641,-0.576777,0.585981,-0.590583,0.585981,-0.566039
4.5119,0.016750,0.000000,0.000000,0.000000,0.0000,-0.3793,1.4717,-0.024215,0.024215,0.000517,0.000319,-0.002038,-0.0411,0.6681,0.2907,-0.026078,0.026078,0.000000,0.570641,-0.576777,0.585981,-0.590583,0.585981,-0.566039
4.5287,0.016753,0.000000,0.000000,0.000000,0.0000,-0.3948,1.4692,-0.023545,0.023545,0.000517,0.000319,-0.002038,-0.0411,0.6681,0.2907,-0.023010,0.026078,0.000000,0.570641,-0.576777,0.585981,-0.590583,0.585981,-0.566039
