t,loop_dt,cmd_x,cmd_y,cmd_z,cmd_roll,cmd_pitch,cmd_yaw,cmd_ant_l,cmd_ant_r,pres_x,pres_y,pres_z,pres_roll,pres_pitch,pres_yaw,pres_ant_l,pres_ant_r,pres_j0,pres_j1,pres_j2,pres_j3,pres_j4,pres_j5,pres_j6
0.0000,0.000001,-0.000633,0.001345,-0.002486,0.6147,3.0652,0.5766,-0.179476,0.176408,-0.000633,0.001345,-0.002486,0.6148,3.0652,0.5766,-0.179476,0.176408,0.000000,0.564505,-0.547631,0.593651,-0.613592,0.559903,-0.538427
0.0168,0.016755,-0.000622,0.001323,-0.002444,0.6042,3.0140,0.5667,-0.179393,0.176376,-0.000633,0.001345,-0.002486,0.6148,3.0652,0.5766,-0.179476,0.176408,0.000000,0.564505,-0.547631,0.593651,-0.613592,0.559903,-0.538427
0.0335,0.016741,-0.000612,0.001300,-0.002403,0.5936,2.9627,0.5568,-0.179310,0.176345,-0.000581,0.001330,-0.002473,0.6544,3.0301,0.5252,-0.179476,0.176408,0.000000,0.564505,-0.549165,0.593651,-0.613592,0.559903,-0.538427
0.0504,0.016871,-0.000601,0.001277,-0.002361,0.5830,2.9111,0.5468,-0.179227,0.176313,-0.000639,0.001347,-0.002488,0.6102,3.0693,0.5826,-0.179476,0.176408,0.000000,0.564505,-0.547631,0.593651,-0.613592,0.559903,-0.538427
0.0671,0.016746,-0.000590,0.001255,-0.002319,0.5725,2.8598,0.5369,-0.179144,0.176282,-0.000633,0.001345,-0.002486,0.6148,3.0652,0.5766,-0.179476,0.176408,0.000000,0.564505,-0.547631,0.593651,-0.613592,0.559903,-0.538427
0.0839,0.016760,-0.000580,0.001232,-0.002278,0.5620,2.8085,0.5270,-0.179061,0.176251,-0.000633,0.001345,-0.002486,0.6148,3.0652,0.5766,-0.179476,0.176408,0.000000,0.564505,-0.547631,0.593651,-0.613592,0.559903,-0.538427
0.1006,0.016734,-0.000569,0.001210,-0.002236,0.5515,2.7573,0.5171,-0.178978,0.176219,-0.000430,0.001414,-0.002586,0.5856,3.1507,0.5739,-0.179476,0.176408,0.000000,0.559903,-0.546097,0.592117,-0.613592,0.559903,-0.533825
0.1174,0.016754,-0.000559,0.001187,-0.002194,0.5410,2.7060,0.5072,-0.178896,0.176188,-0.000330,0.001445,-0.002613,0.6386,3.1933,0.6276,-0.179476,0.176408,0.000000,0.558369,-0.546097,0.592117,-0.613592,0.559903,-0.530757
0.1341,0.016767,-0.000548,0.001165,-0.002153,0.5305,2.6547,0.4974,-0.178813,0.176156,-0.000259,0.001442,-0.002635,0.6332,3.2223,0.6215,-0.179476,0.176408,0.000000,0.556835,-0.546097,0.592117,-0.613592,0.559903,-0.529223
0.1509,0.016750,-0.000537,0.001142,-0.002111,0.5200,2.6034,0.4875,-0.178730,0.176125,-0.000226,0.001481,-0.002646,0.6838,3.2373,0.6761,-0.179476,0.176408,0.000000,0.556835,-0.546097,0.592117,-0.613592,0.559903,-0.527689
0.1676,0.016748,-0.000527,0.001120,-0.002069,0.5095,2.5521,0.4777,-0.178647,0.176094,-0.000230,0.001477,-0.002645,0.6785,3.2358,0.6704,-0.179476,0.176408,0.000000,0.556835,-0.546097,0.592117,-0.613592,0.559903,-0.527689
0.1844,0.016758,-0.000516,0.001097,-0.002028,0.4990,2.5008,0.4678,-0.178564,0.176062,-0.000230,0.001477,-0.002645,0.6785,3.2358,0.6704,-0.179476,0.176408,0.000000,0.556835,-0.546097,0.592117,-0.613592,0.559903,-0.527689
0.2011,0.016761,-0.000506,0.001075,-0.001986,0.4886,2.4495,0.4580,-0.178482,0.176031,-0.000230,0.001477,-0.002645,0.6785,3.2358,0.6704,-0.179476,0.176408,0.000000,0.556835,-0.546097,0.592117,-0.613592,0.559903,-0.527689
0.2179,0.016747,-0.000495,0.001052,-0.001944,0.4781,2.3982,0.4482,-0.178399,0.175999,-0.000311,0.001478,-0.002620,0.6789,3.2025,0.6715,-0.179476,0.176408,0.000000,0.558369,-0.546097,0.592117,-0.613592,0.559903,-0.529223
0.2346,0.016745,-0.000484,0.001030,-0.001903,0.4677,2.3469,0.4384,-0.178316,0.175968,-0.000302,0.001478,-0.002623,0.6789,3.2060,0.6714,-0.179476,0.176408,0.000000,0.558369,-0.546097,0.592117,-0.613592,0.559903,-0.529223
0.2514,0.016749,-0.000474,0.001007,-0.001861,0.4572,2.2956,0.4286,-0.178233,0.175936,-0.000263,0.001517,-0.002636,0.7289,3.2237,0.7253,-0.179476,0.176408,0.000000,0.558369,-0.546097,0.592117,-0.613592,0.559903,-0.527689
0.2686,0.017251,-0.000463,0.000984,-0.001818,0.4465,2.2427,0.4185,-0.178148,0.175904,-0.000279,0.001459,-0.002659,0.7138,3.2712,0.6134,-0.179476,0.176408,0.000000,0.556835,-0.546097,0.592117,-0.613592,0.558369,-0.527689
0.2854,0.016751,-0.000452,0.000961,-0.001777,0.4361,2.1914,0.4087,-0.178065,0.175873,-0.000279,0.001459,-0.002659,0.7138,3.2712,0.6134,-0.179476,0.176408,0.000000,0.556835,-0.546097,0.592117,-0.613592,0.558369,-0.527689
0.3021,0.016758,-0.000442,0.000939,-0.001735,0.4257,2.1400,0.3989,-0.177982,0.175841,-0.000224,0.001479,-0.002644,0.6754,3.2323,0.6770,-0.179476,0.176408,0.000000,0.556835,-0.546097,0.592117,-0.613592,0.559903,-0.527689
0.3189,0.016746,-0.000431,0.000916,-0.001693,0.4153,2.0887,0.3891,-0.177900,0.175810,-0.000230,0.001477,-0.002645,0.6794,3.2363,0.6703,-0.179476,0.176408,0.000000,0.556835,-0.546097,0.592117,-0.613592,0.559903,-0.527689
0.3356,0.016748,-0.000420,0.000894,-0.001652,0.4049,2.0374,0.3794,-0.177817,0.175779,-0.000271,0.001517,-0.002634,0.7288,3.2206,0.7255,-0.179476,0.176408,0.000000,0.558369,-0.546097,0.592117,-0.613592,0.559903,-0.527689
0.3524,0.016745,-0.000410,0.000871,-0.001610,0.3945,1.9861,0.3696,-0.177734,0.175747,-0.000266,0.001513,-0.002635,0.7237,3.2222,0.7197,-0.179476,0.176408,0.000000,0.558369,-0.546097,0.592117,-0.613592,0.559903,-0.527689
0.3691,0.016752,-0.000399,0.000849,-0.001568,0.3842,1.9347,0.3599,-0.177651,0.175716,-0.000266,0.001513,-0.002635,0.7237,3.2222,0.7197,-0.179476,0.176408,0.000000,0.558369,-0.546097,0.592117,-0.613592,0.559903,-0.527689
0.3859,0.016802,-0.000389,0.000826,-0.001527,0.3738,1.8832,0.3502,-0.177568,0.175684,-0.000266,0.001513,-0.002635,0.7237,3.2222,0.7197,-0.179476,0.176408,0.000000,0.558369,-0.546097,0.592117,-0.613592,0.559903,-0.527689
0.4028,0.016893,-0.000378,0.000803,-0.001485,0.3633,1.8315,0.3404,-0.177485,0.175653,-0.000266,0.001513,-0.002635,0.7237,3.2222,0.7197,-0.179476,0.176408,0.000000,0.558369,-0.546097,0.592117,-0.613592,0.559903,-0.527689
0.4196,0.016804,-0.000367,0.000781,-0.001443,0.3529,1.7800,0.3306,-0.177402,0.175621,-0.000266,0.001513,-0.002635,0.7237,3.2222,0.7197,-0.179476,0.176408,0.000000,0.558369,-0.546097,0.592117,-0.613592,0.559903,-0.527689
0.4364,0.016740,-0.000357,0.000758,-0.001401,0.3426,1.7286,0.3209,-0.177319,0.175590,-0.000266,0.001513,-0.002635,0.7237,3.2222,0.7197,-0.179476,0.176408,0.000000,0.558369,-0.546097,0.592117,-0.613592,0.559903,-0.527689
0.4531,0.016746,-0.000346,0.000736,-0.001360,0.3323,1.6773,0.3112,-0.177236,0.175558,-0.000226,0.001474,-0.002646,0.6744,3.2373,0.6659,-0.179476,0.176408,0.000000,0.556835,-0.546097,0.592117,-0.613592,0.559903,-0.527689
0.4699,0.016749,-0.000336,0.000713,-0.001318,0.3220,1.6260,0.3016,-0.177153,0.175527,-0.000226,0.001474,-0.002646,0.6744,3.2373,0.6659,-0.179476,0.176408,0.000000,0.556835,-0.546097,0.592117,-0.613592,0.559903,-0.527689
0.4866,0.016744,-0.000325,0.000691,-0.001276,0.3117,1.5746,0.2919,-0.177070,0.175495,-0.000230,0.001478,-0.002645,0.6795,3.2358,0.6715,-0.179476,0.176408,0.000000,0.556835,-0.546097,0.592117,-0.613592,0.559903,-0.527689
0.5034,0.016753,-0.000314,0.000668,-0.001235,0.3014,1.5233,0.2822,-0.176988,0.175464,-0.000271,0.001517,-0.002634,0.7288,3.2206,0.7253,-0.179476,0.176408,0.000000,0.558369,-0.546097,0.592117,-0.613592,0.559903,-0.527689
0.5201,0.016743,-0.000304,0.000646,-0.001193,0.2911,1.4719,0.2726,-0.176905,0.175433,-0.000225,0.001473,-0.002646,0.6739,3.2375,0.6653,-0.179476,0.176408,0.000000,0.556835,-0.546097,0.592117,-0.613592,0.559903,-0.527689
0.5369,0.016746,-0.000293,0.000623,-0.001151,0.2808,1.4206,0.2629,-0.176822,0.175401,-0.000271,0.001517,-0.002634,0.7294,3.2204,0.7260,-0.179476,0.176408,0.000000,0.558369,-0.546097,0.592117,-0.613592,0.559903,-0.527689
0.5536,0.016783,-0.000283,0.000600,-0.001110,0.2705,1.3691,0.2533,-0.176739,0.175370,-0.000266,0.001513,-0.002635,0.7236,3.2222,0.7197,-0.179476,0.176408,0.000000,0.558369,-0.546097,0.592117,-0.613592,0.559903,-0.527689
0.5704,0.016750,-0.000272,0.000578,-0.001068,0.2602,1.3178,0.2437,-0.176656,0.175338,-0.000266,0.001513,-0.002635,0.7236,3.2222,0.7197,-0.179476,0.176408,0.000000,0.558369,-0.546097,0.592117,-0.613592,0.559903,-0.527689
0.5871,0.016739,-0.000261,0.000555,-0.001026,0.2500,1.2664,0.2340,-0.176574,0.175307,-0.000266,0.001513,-0.002635,0.7236,3.2222,0.7197,-0.179476,0.176408,0.000000,0.558369,-0.546097,0.592117,-0.613592,0.559903,-0.527689
0.6039,0.016748,-0.000251,0.000533,-0.000985,0.2397,1.2151,0.2244,-0.176491,0.175276,-0.000266,0.001513,-0.002635,0.7236,3.2222,0.7197,-0.179476,0.176408,0.000000,0.558369,-0.546097,0.592117,-0.613592,0.559903,-0.527689
0.6206,0.016744,-0.000240,0.000510,-0.000943,0.2295,1.1637,0.2149,-0.176408,0.175244,-0.000266,0.001513,-0.002635,0.7236,3.2222,0.7197,-0.179476,0.176408,0.000000,0.558369,-0.546097,0.592117,-0.613592,0.559903,-0.527689
0.6374,0.016748,-0.000230,0.000488,-0.000902,0.2193,1.1123,0.2053,-0.176325,0.175213,-0.000319,0.001499,-0.002647,0.7642,3.2560,0.6684,-0.179476,0.176408,0.000000,0.558369,-0.546097,0.592117,-0.613592,0.558369,-0.527689
0.6545,0.017143,-0.000219,0.000465,-0.000859,0.2088,1.0598,0.1955,-0.176241,0.175181,-0.000302,0.001554,-0.002622,0.7698,3.2033,0.7801,-0.179476,0.176408,0.000000,0.559903,-0.546097,0.592117,-0.613592,0.559903,-0.527689
0.6713,0.016768,-0.000208,0.000442,-0.000817,0.1986,1.0083,0.1859,-0.176158,0.175149,-0.000302,0.001554,-0.002622,0.7698,3.2033,0.7801,-0.179476,0.176408,0.000000,0.559903,-0.546097,0.592117,-0.613592,0.559903,-0.527689
0.6880,0.016739,-0.000197,0.000420,-0.000776,0.1884,0.9570,0.1763,-0.176075,0.175118,-0.000344,0.001509,-0.002611,0.7192,3.1906,0.7145,-0.179476,0.176408,0.000000,0.559903,-0.546097,0.592117,-0.613592,0.559903,-0.529223
0.7048,0.016756,-0.000187,0.000397,-0.000734,0.1782,0.9056,0.1668,-0.175992,0.175086,-0.000300,0.001553,-0.002626,0.7745,3.2101,0.7753,-0.179476,0.176408,0.000000,0.559903,-0.546097,0.592117,-0.613592,0.559903,-0.527689
0.7215,0.016747,-0.000176,0.000375,-0.000692,0.1680,0.8542,0.1572,-0.175909,0.175055,-0.000304,0.001548,-0.002624,0.7687,3.2081,0.7690,-0.179476,0.176408,0.000000,0.559903,-0.546097,0.592117,-0.613592,0.559903,-0.527689
0.7383,0.016757,-0.000166,0.000352,-0.000651,0.1578,0.8028,0.1477,-0.175827,0.175024,-0.000344,0.001510,-0.002611,0.7193,3.1901,0.7157,-0.179476,0.176408,0.000000,0.559903,-0.546097,0.592117,-0.613592,0.559903,-0.529223
0.7554,0.017111,-0.000155,0.000329,-0.000608,0.1475,0.7504,0.1380,-0.175742,0.174992,-0.000340,0.001514,-0.002613,0.7245,3.1920,0.7213,-0.177942,0.176408,0.000000,0.559903,-0.546097,0.592117,-0.613592,0.559903,-0.529223
0.7721,0.016706,-0.000144,0.000307,-0.000567,0.1373,0.6991,0.1285,-0.175659,0.174960,-0.000340,0.001514,-0.002613,0.7245,3.1920,0.7213,-0.177942,0.176408,0.000000,0.559903,-0.546097,0.592117,-0.613592,0.559903,-0.529223
0.7888,0.016744,-0.000134,0.000284,-0.000525,0.1272,0.6477,0.1190,-0.175577,0.174929,-0.000288,0.001499,-0.002599,0.7640,3.1560,0.6686,-0.179476,0.176408,0.000000,0.559903,-0.547631,0.592117,-0.613592,0.559903,-0.529223
0.8056,0.016749,-0.000123,0.000262,-0.000483,0.1170,0.5964,0.1095,-0.175494,0.174897,-0.000334,0.001461,-0.002587,0.7099,3.1416,0.6202,-0.179476,0.176408,0.000000,0.559903,-0.547631,0.592117,-0.613592,0.559903,-0.530757
0.8223,0.016746,-0.000112,0.000239,-0.000442,0.1069,0.5450,0.1000,-0.175411,0.174866,-0.000329,0.001465,-0.002588,0.7155,3.1432,0.6252,-0.177942,0.176408,0.000000,0.559903,-0.547631,0.592117,-0.613592,0.559903,-0.530757
0.8391,0.016755,-0.000102,0.000216,-0.000400,0.0968,0.4936,0.0905,-0.175328,0.174835,-0.000329,0.001465,-0.002588,0.7155,3.1432,0.6252,-0.179476,0.176408,0.000000,0.559903,-0.547631,0.592117,-0.613592,0.559903,-0.530757
0.8560,0.016935,-0.000091,0.000194,-0.000358,0.0866,0.4417,0.0810,-0.175245,0.174803,-0.000329,0.001465,-0.002588,0.7155,3.1432,0.6252,-0.177942,0.176408,0.000000,0.559903,-0.547631,0.592117,-0.613592,0.559903,-0.530757
0.8728,0.016760,-0.000081,0.000171,-0.000316,0.0765,0.3902,0.0715,-0.175162,0.174771,-0.000329,0.001465,-0.002588,0.7155,3.1432,0.6252,-0.177942,0.176408,0.000000,0.559903,-0.547631,0.592117,-0.613592,0.559903,-0.530757
0.8895,0.016742,-0.000070,0.000149,-0.000275,0.0664,0.3389,0.0621,-0.175079,0.174740,-0.000329,0.001465,-0.002588,0.7155,3.1432,0.6252,-0.179476,0.176408,0.000000,0.559903,-0.547631,0.592117,-0.613592,0.559903,-0.530757
0.9063,0.016749,-0.000059,0.000126,-0.000233,0.0563,0.2875,0.0526,-0.174996,0.174709,-0.000329,0.001465,-0.002588,0.7155,3.1432,0.6252,-0.179476,0.176408,0.000000,0.559903,-0.547631,0.592117,-0.613592,0.559903,-0.530757
0.9230,0.016753,-0.000049,0.000104,-0.000191,0.0462,0.2361,0.0432,-0.174913,0.174677,-0.000371,0.001504,-0.002577,0.7648,3.1277,0.6792,-0.177942,0.176408,0.000000,0.561437,-0.547631,0.592117,-0.613592,0.559903,-0.530757
0.9398,0.016757,-0.000038,0.000081,-0.000150,0.0361,0.1847,0.0338,-0.174831,0.174646,-0.000366,0.001500,-0.002578,0.7596,3.1293,0.6736,-0.179476,0.176408,0.000000,0.561437,-0.547631,0.592117,-0.613592,0.559903,-0.530757
0.9567,0.016961,-0.000027,0.000058,-0.000108,0.0259,0.1327,0.0243,-0.174747,0.174614,-0.000378,0.001446,-0.002565,0.7492,3.1801,0.7282,-0.179476,0.176408,0.000000,0.561437,-0.547631,0.593651,-0.613592,0.559903,-0.530757
0.9735,0.016750,-0.000017,0.000036,-0.000066,0.0159,0.0813,0.0149,-0.174664,0.174583,-0.000378,0.001446,-0.002565,0.7492,3.1801,0.7282,-0.179476,0.176408,0.000000,0.561437,-0.547631,0.593651,-0.613592,0.559903,-0.530757
0.9902,0.016743,-0.000006,0.000013,-0.000024,0.0058,0.0299,0.0055,-0.174581,0.174551,-0.000365,0.001506,-0.002579,0.7613,3.1239,0.6685,-0.179476,0.176408,0.000000,0.561437,-0.547631,0.592117,-0.613592,0.559903,-0.530757
1.0070,0.016755,0.000000,0.000000,0.000000,0.0000,0.0141,0.0105,-0.173382,0.173382,-0.000408,0.001539,-0.002567,0.8098,3.1144,0.7292,-0.177942,0.176408,0.000000,0.562971,-0.547631,0.592117,-0.613592,0.559903,-0.530757
1.0237,0.016746,0.000000,0.000000,0.000000,0.0000,0.0477,0.0358,-0.170629,0.170629,-0.000445,0.001576,-0.002557,0.8544,3.1002,0.7774,-0.177942,0.176408,0.000000,0.564505,-0.547631,0.592117,-0.613592,0.559903,-0.530757
1.0405,0.016755,0.000000,0.000000,0.000000,-0.0000,0.0814,0.0611,-0.167878,0.167878,-0.000441,0.001572,-0.002558,0.8498,3.1017,0.7723,-0.177942,0.176408,0.000000,0.564505,-0.547631,0.592117,-0.613592,0.559903,-0.530757
1.0573,0.016757,0.000000,0.000000,0.000000,-0.0000,0.1151,0.0863,-0.165133,0.165133,-0.000523,0.001573,-0.002533,0.8500,3.0681,0.7734,-0.177942,0.176408,0.000000,0.566039,-0.547631,0.592117,-0.613592,0.559903,-0.532291
1.0740,0.016762,0.000000,0.000000,0.000000,0.0000,0.1487,0.1116,-0.162397,0.162397,-0.000523,0.001573,-0.002533,0.8500,3.0681,0.7734,-0.177942,0.176408,0.000000,0.566039,-0.547631,0.592117,-0.613592,0.559903,-0.532291
1.0908,0.016749,0.000000,0.000000,0.000000,0.0000,0.1822,0.1368,-0.159676,0.159676,-0.000677,0.001574,-0.002487,0.8495,3.0047,0.7745,-0.177942,0.176408,0.000000,0.569107,-0.547631,0.592117,-0.613592,0.559903,-0.535359
1.1075,0.016751,0.000000,0.000000,0.000000,0.0000,0.2158,0.1620,-0.156968,0.156968,-0.000782,0.001535,-0.002454,0.7994,2.9595,0.7209,-0.176408,0.174874,0.000000,0.570641,-0.547631,0.592117,-0.613592,0.559903,-0.538427
1.1243,0.016742,0.000000,0.000000,0.000000,-0.0000,0.2492,0.1873,-0.154280,0.154280,-0.000853,0.001539,-0.002433,0.8045,2.9308,0.7270,-0.174874,0.173340,0.000000,0.572175,-0.547631,0.592117,-0.613592,0.559903,-0.539961
1.1410,0.016748,0.000000,0.000000,0.000000,0.0000,0.2826,0.2125,-0.151611,0.151611,-0.000886,0.001500,-0.002422,0.7542,2.9156,0.6723,-0.174874,0.171806,0.000000,0.572175,-0.547631,0.592117,-0.613592,0.559903,-0.541495
1.1578,0.016761,0.000000,0.000000,0.000000,0.0000,0.3159,0.2377,-0.148962,0.148962,-0.001004,0.001465,-0.002386,0.7096,2.8655,0.6244,-0.171806,0.168738,0.000000,0.573709,-0.547631,0.592117,-0.613592,0.559903,-0.544563
1.1745,0.016752,0.000000,0.000000,0.000000,-0.0000,0.3491,0.2628,-0.146341,0.146341,-0.001004,0.001465,-0.002386,0.7096,2.8655,0.6244,-0.171806,0.168738,0.000000,0.573709,-0.547631,0.592117,-0.613592,0.559903,-0.544563
1.1913,0.016750,0.000000,0.000000,0.000000,-0.0000,0.3822,0.2880,-0.143748,0.143748,-0.001155,0.001470,-0.002342,0.7140,2.8038,0.6304,-0.164136,0.165670,0.000000,0.576777,-0.547631,0.592117,-0.613592,0.559903,-0.547631
1.2080,0.016755,0.000000,0.000000,0.000000,0.0000,0.4152,0.3131,-0.141185,0.141185,-0.001191,0.001375,-0.002321,0.6524,2.8431,0.6296,-0.154932,0.161068,0.000000,0.576777,-0.547631,0.593651,-0.613592,0.559903,-0.549165
1.2248,0.016759,0.000000,0.000000,0.000000,-0.0000,0.4481,0.3382,-0.138654,0.138654,-0.001217,0.001480,-0.002325,0.7198,2.7726,0.6304,-0.151864,0.154932,0.000000,0.578311,-0.547631,0.592117,-0.613592,0.559903,-0.549165
1.2415,0.016759,0.000000,0.000000,0.000000,0.0000,0.4809,0.3633,-0.136159,0.136159,-0.001255,0.001430,-0.002312,0.6632,2.7618,0.5761,-0.151864,0.148796,0.000000,0.578311,-0.547631,0.592117,-0.613592,0.559903,-0.550699
1.2583,0.016758,0.000000,0.000000,0.000000,0.0000,0.5135,0.3884,-0.133703,0.133703,-0.001262,0.001380,-0.002300,0.6576,2.8139,0.6358,-0.148796,0.145728,0.000000,0.578311,-0.547631,0.593651,-0.613592,0.559903,-0.550699
1.2751,0.016756,0.000000,0.000000,0.000000,0.0000,0.5460,0.4135,-0.131288,0.131288,-0.001262,0.001380,-0.002300,0.6576,2.8139,0.6358,-0.148796,0.145728,0.000000,0.578311,-0.547631,0.593651,-0.613592,0.559903,-0.550699
1.2918,0.016749,0.000000,0.000000,0.000000,0.0000,0.5783,0.4385,-0.128917,0.128917,-0.001262,0.001385,-0.002302,0.6581,2.8085,0.6296,-0.142660,0.141126,0.000000,0.578311,-0.547631,0.593651,-0.613592,0.559903,-0.550699
1.3086,0.016755,0.000000,0.000000,0.000000,-0.0000,0.6105,0.4634,-0.126590,0.126590,-0.001221,0.001424,-0.002314,0.7076,2.8271,0.6845,-0.136524,0.141126,0.000000,0.578311,-0.547631,0.593651,-0.613592,0.559903,-0.549165
1.3253,0.016760,0.000000,0.000000,0.000000,0.0000,0.6425,0.4884,-0.124311,0.124311,-0.001214,0.001475,-0.002326,0.7140,2.7743,0.6247,-0.133456,0.138058,0.000000,0.578311,-0.547631,0.592117,-0.613592,0.559903,-0.549165
1.3421,0.016749,0.000000,0.000000,0.000000,0.0000,0.6743,0.5133,-0.122083,0.122083,-0.001268,0.001454,-0.002301,0.7511,2.8154,0.7398,-0.130388,0.133456,0.000000,0.579845,-0.547631,0.593651,-0.613592,0.559903,-0.549165
1.3588,0.016765,0.000000,0.000000,0.000000,0.0000,0.7059,0.5382,-0.119906,0.119906,-0.001268,0.001454,-0.002301,0.7511,2.8154,0.7398,-0.127320,0.127320,0.000000,0.578311,-0.547631,0.593651,-0.613592,0.559903,-0.550699
1.3756,0.016742,0.000000,0.000000,0.000000,-0.0000,0.7373,0.5630,-0.117786,0.117786,-0.001261,0.001377,-0.002302,0.6484,2.8083,0.6187,-0.127320,0.127320,0.000000,0.578311,-0.547631,0.593651,-0.613592,0.559903,-0.550699
1.3923,0.016746,0.000000,0.000000,0.000000,0.0000,0.7685,0.5878,-0.115722,0.115722,-0.001262,0.001385,-0.002302,0.6591,2.8091,0.6313,-0.125786,0.122718,0.000000,0.578311,-0.547631,0.593651,-0.613592,0.559903,-0.550699
1.4091,0.016745,0.000000,0.000000,0.000000,0.0000,0.7995,0.6125,-0.113717,0.113717,-0.001262,0.001385,-0.002302,0.6591,2.8091,0.6313,-0.124252,0.121184,0.000000,0.578311,-0.547631,0.593651,-0.613592,0.559903,-0.550699
1.4258,0.016751,0.000000,0.000000,0.000000,0.0000,0.8302,0.6372,-0.111771,0.111771,-0.001262,0.001385,-0.002302,0.6591,2.8091,0.6313,-0.122718,0.119651,0.000000,0.578311,-0.547631,0.593651,-0.613592,0.559903,-0.550699
1.4426,0.016744,0.000000,0.000000,0.000000,-0.0000,0.8608,0.6619,-0.109889,0.109889,-0.001221,0.001424,-0.002314,0.7075,2.8271,0.6843,-0.121184,0.118117,0.000000,0.578311,-0.547631,0.593651,-0.613592,0.559903,-0.549165
1.4594,0.016838,0.000000,0.000000,0.000000,-0.0000,0.8912,0.6866,-0.108061,0.108061,-0.001221,0.001424,-0.002314,0.7075,2.8271,0.6843,-0.121184,0.118117,0.000000,0.578311,-0.547631,0.593651,-0.613592,0.559903,-0.549165
1.4809,0.021522,0.000000,0.000000,0.000000,-0.0000,0.9297,0.7182,-0.105823,0.105823,-0.001221,0.001424,-0.002314,0.7075,2.8271,0.6843,-0.121184,0.118117,0.000000,0.578311,-0.547631,0.593651,-0.613592,0.559903,-0.549165
1.4977,0.016755,0.000000,0.000000,0.000000,0.0000,0.9594,0.7427,-0.104158,0.104158,-0.001221,0.001424,-0.002314,0.7075,2.8271,0.6843,-0.121184,0.118117,0.000000,0.578311,-0.547631,0.593651,-0.613592,0.559903,-0.549165
1.5144,0.016745,0.000000,0.000000,0.000000,0.0000,0.9888,0.7671,-0.102565,0.102565,-0.001266,0.001380,-0.002300,0.6529,2.8071,0.6245,-0.116583,0.118117,0.000000,0.578311,-0.547631,0.593651,-0.613592,0.559903,-0.550699
1.5312,0.016756,0.000000,0.000000,0.000000,0.0000,1.0180,0.7915,-0.101042,0.101042,-0.001261,0.001385,-0.002302,0.6586,2.8092,0.6307,-0.111981,0.116583,0.000000,0.578311,-0.547631,0.593651,-0.613592,0.559903,-0.550699
1.5479,0.016746,0.000000,0.000000,0.000000,0.0000,1.0468,0.8158,-0.099594,0.099594,-0.001261,0.001385,-0.002302,0.6586,2.8092,0.6307,-0.111981,0.116583,0.000000,0.578311,-0.547631,0.593651,-0.613592,0.559903,-0.550699
1.5647,0.016755,0.000000,0.000000,0.000000,0.0000,1.0753,0.8401,-0.098219,0.098219,-0.001221,0.001424,-0.002314,0.7075,2.8271,0.6843,-0.107379,0.115049,0.000000,0.578311,-0.547631,0.593651,-0.613592,0.559903,-0.549165
1.5814,0.016745,0.000000,0.000000,0.000000,-0.0000,1.1036,0.8643,-0.096921,0.096921,-0.001226,0.001420,-0.002313,0.7025,2.8252,0.6788,-0.101243,0.110447,0.000000,0.578311,-0.547631,0.593651,-0.613592,0.559903,-0.549165
1.5982,0.016779,0.000000,0.000000,0.000000,0.0000,1.1316,0.8885,-0.095698,0.095698,-0.001226,0.001420,-0.002313,0.7025,2.8252,0.6788,-0.101243,0.110447,0.000000,0.578311,-0.547631,0.593651,-0.613592,0.559903,-0.549165
1.6150,0.016761,0.000000,0.000000,0.000000,0.0000,1.1592,0.9126,-0.094556,0.094556,-0.001265,0.001381,-0.002300,0.6535,2.8073,0.6251,-0.099709,0.102777,0.000000,0.578311,-0.547631,0.593651,-0.613592,0.559903,-0.550699
1.6317,0.016759,0.000000,0.000000,0.000000,-0.0000,1.1865,0.9367,-0.093493,0.093493,-0.001261,0.001385,-0.002302,0.6586,2.8092,0.6307,-0.101243,0.095107,0.000000,0.578311,-0.547631,0.593651,-0.613592,0.559903,-0.550699
1.6485,0.016745,0.000000,0.000000,0.000000,-0.0000,1.2134,0.9606,-0.092511,0.092511,-0.001221,0.001424,-0.002314,0.7076,2.8271,0.6843,-0.099709,0.093573,0.000000,0.578311,-0.547631,0.593651,-0.613592,0.559903,-0.549165
1.6652,0.016761,0.000000,0.000000,0.000000,0.0000,1.2400,0.9845,-0.091611,0.091611,-0.001266,0.001380,-0.002300,0.6529,2.8071,0.6245,-0.096641,0.093573,0.000000,0.578311,-0.547631,0.593651,-0.613592,0.559903,-0.550699
1.6820,0.016746,0.000000,0.000000,0.000000,0.0000,1.2663,1.0084,-0.090794,0.090794,-0.001261,0.001385,-0.002302,0.6586,2.8092,0.6307,-0.093573,0.092039,0.000000,0.578311,-0.547631,0.593651,-0.613592,0.559903,-0.550699
1.6987,0.016755,0.000000,0.000000,0.000000,0.0000,1.2922,1.0321,-0.090060,0.090060,-0.001261,0.001385,-0.002302,0.6586,2.8092,0.6307,-0.093573,0.092039,0.000000,0.578311,-0.547631,0.593651,-0.613592,0.559903,-0.550699
1.7155,0.016747,0.000000,0.000000,0.000000,0.0000,1.3177,1.0558,-0.089411,0.089411,-0.001221,0.001424,-0.002314,0.7075,2.8271,0.6843,-0.093573,0.092039,0.000000,0.578311,-0.547631,0.593651,-0.613592,0.559903,-0.549165
1.7322,0.016753,0.000000,0.000000,0.000000,0.0000,1.3428,1.0794,-0.088846,0.088846,-0.001266,0.001380,-0.002300,0.6529,2.8071,0.6245,-0.093573,0.092039,0.000000,0.578311,-0.547631,0.593651,-0.613592,0.559903,-0.550699
1.7490,0.016746,0.000000,0.000000,0.000000,0.0000,1.3676,1.1029,-0.088367,0.088367,-0.001261,0.001385,-0.002302,0.6586,2.8092,0.6307,-0.093573,0.092039,0.000000,0.578311,-0.547631,0.593651,-0.613592,0.559903,-0.550699
1.7657,0.016753,0.000000,0.000000,0.000000,-0.0000,1.3920,1.1264,-0.087974,0.087974,-0.001221,0.001424,-0.002314,0.7075,2.8271,0.6843,-0.092039,0.092039,0.000000,0.578311,-0.547631,0.593651,-0.613592,0.559903,-0.549165
1.7825,0.016749,0.000000,0.000000,0.000000,0.0000,1.4160,1.1498,-0.087667,0.087667,-0.001226,0.001420,-0.002313,0.7025,2.8252,0.6788,-0.092039,0.090505,0.000000,0.578311,-0.547631,0.593651,-0.613592,0.559903,-0.549165
1.7992,0.016751,0.000000,0.000000,0.000000,0.0000,1.4395,1.1730,-0.087447,0.087447,-0.001226,0.001420,-0.002313,0.7025,2.8252,0.6788,-0.092039,0.090505,0.000000,0.578311,-0.547631,0.593651,-0.613592,0.559903,-0.549165
1.8160,0.016740,0.000000,0.000000,0.000000,0.0000,1.4627,1.1962,-0.087313,0.087313,-0.001265,0.001381,-0.002300,0.6535,2.8073,0.6251,-0.092039,0.090505,0.000000,0.578311,-0.547631,0.593651,-0.613592,0.559903,-0.550699
1.8327,0.016751,0.000000,0.000000,0.000000,0.0000,1.4855,1.2194,-0.087267,0.087267,-0.001261,0.001385,-0.002302,0.6586,2.8092,0.6307,-0.088971,0.090505,0.000000,0.578311,-0.547631,0.593651,-0.613592,0.559903,-0.550699
1.8495,0.016746,0.000000,0.000000,0.000000,-0.0000,1.5078,1.2424,-0.087307,0.087307,-0.001261,0.001385,-0.002302,0.6586,2.8092,0.6307,-0.087437,0.090505,0.000000,0.578311,-0.547631,0.593651,-0.613592,0.559903,-0.550699
1.8662,0.016754,0.000000,0.000000,0.000000,0.0000,1.5297,1.2653,-0.087434,0.087434,-0.001221,0.001424,-0.002314,0.7076,2.8271,0.6843,-0.088971,0.090505,0.000000,0.578311,-0.547631,0.593651,-0.613592,0.559903,-0.549165
1.8830,0.016749,0.000000,0.000000,0.000000,0.0000,1.5512,1.2882,-0.087648,0.087648,-0.001226,0.001420,-0.002313,0.7025,2.8252,0.6788,-0.087437,0.090505,0.000000,0.578311,-0.547631,0.593651,-0.613592,0.559903,-0.549165
1.8997,0.016755,0.000000,0.000000,0.000000,0.0000,1.5722,1.3110,-0.087949,0.087949,-0.001226,0.001420,-0.002313,0.7025,2.8252,0.6788,-0.087437,0.090505,0.000000,0.578311,-0.547631,0.593651,-0.613592,0.559903,-0.549165
1.9165,0.016744,0.000000,0.000000,0.000000,0.0000,1.5928,1.3336,-0.088336,0.088336,-0.001226,0.001420,-0.002313,0.7025,2.8252,0.6788,-0.087437,0.090505,0.000000,0.578311,-0.547631,0.593651,-0.613592,0.559903,-0.549165
1.9332,0.016750,0.000000,0.000000,0.000000,0.0000,1.6130,1.3562,-0.088809,0.088809,-0.001226,0.001420,-0.002313,0.7025,2.8252,0.6788,-0.087437,0.090505,0.000000,0.578311,-0.547631,0.593651,-0.613592,0.559903,-0.549165
1.9501,0.016855,0.000000,0.000000,0.000000,-0.0000,1.6328,1.3788,-0.089371,0.089371,-0.001226,0.001420,-0.002313,0.7025,2.8252,0.6788,-0.087437,0.090505,0.000000,0.578311,-0.547631,0.593651,-0.613592,0.559903,-0.549165
1.9668,0.016750,0.000000,0.000000,0.000000,0.0000,1.6520,1.4012,-0.090014,0.090014,-0.001265,0.001381,-0.002300,0.6535,2.8073,0.6251,-0.087437,0.090505,0.000000,0.578311,-0.547631,0.593651,-0.613592,0.559903,-0.550699
1.9840,0.017207,0.000000,0.000000,0.000000,0.0000,1.6712,1.4241,-0.090763,0.090763,-0.001261,0.001385,-0.002302,0.6586,2.8092,0.6307,-0.088971,0.090505,0.000000,0.578311,-0.547631,0.593651,-0.613592,0.559903,-0.550699
2.0008,0.016748,0.000000,0.000000,0.000000,0.0000,1.6895,1.4463,-0.091577,0.091577,-0.001261,0.001385,-0.002302,0.6586,2.8092,0.6307,-0.088971,0.090505,0.000000,0.578311,-0.547631,0.593651,-0.613592,0.559903,-0.550699
2.0175,0.016753,0.000000,0.000000,0.000000,0.0000,1.7073,1.4684,-0.092474,0.092474,-0.001221,0.001424,-0.002314,0.7076,2.8271,0.6843,-0.088971,0.090505,0.000000,0.578311,-0.547631,0.593651,-0.613592,0.559903,-0.549165
2.0343,0.016756,0.000000,0.000000,0.000000,0.0000,1.7246,1.4903,-0.093452,0.093452,-0.001226,0.001420,-0.002313,0.7025,2.8252,0.6788,-0.088971,0.090505,0.000000,0.578311,-0.547631,0.593651,-0.613592,0.559903,-0.549165
2.0510,0.016750,0.000000,0.000000,0.000000,0.0000,1.7414,1.5122,-0.094512,0.094512,-0.001226,0.001420,-0.002313,0.7025,2.8252,0.6788,-0.090505,0.090505,0.000000,0.578311,-0.547631,0.593651,-0.613592,0.559903,-0.549165
2.0678,0.016751,0.000000,0.000000,0.000000,0.0000,1.7577,1.5340,-0.095650,0.095650,-0.001265,0.001381,-0.002300,0.6535,2.8073,0.6251,-0.095107,0.090505,0.000000,0.578311,-0.547631,0.593651,-0.613592,0.559903,-0.550699
2.0845,0.016759,0.000000,0.000000,0.000000,0.0000,1.7735,1.5556,-0.096869,0.096869,-0.001265,0.001381,-0.002300,0.6535,2.8073,0.6251,-0.095107,0.092039,0.000000,0.578311,-0.547631,0.593651,-0.613592,0.559903,-0.549165
2.1013,0.016758,0.000000,0.000000,0.000000,0.0000,1.7889,1.5772,-0.098164,0.098164,-0.001221,0.001424,-0.002314,0.7081,2.8273,0.6849,-0.095107,0.092039,0.000000,0.578311,-0.547631,0.593651,-0.613592,0.559903,-0.549165
2.1180,0.016744,0.000000,0.000000,0.000000,-0.0000,1.8037,1.5986,-0.099535,0.099535,-0.001226,0.001420,-0.002313,0.7024,2.8252,0.6787,-0.093573,0.093573,0.000000,0.578311,-0.547631,0.593651,-0.613592,0.559903,-0.549165
2.1348,0.016749,0.000000,0.000000,0.000000,-0.0000,1.8180,1.6199,-0.100981,0.100981,-0.001226,0.001420,-0.002313,0.7024,2.8252,0.6787,-0.096641,0.093573,0.000000,0.578311,-0.547631,0.593651,-0.613592,0.559903,-0.549165
2.1515,0.016749,0.000000,0.000000,0.000000,-0.0000,1.8317,1.6411,-0.102500,0.102500,-0.001226,0.001420,-0.002313,0.7024,2.8252,0.6787,-0.096641,0.095107,0.000000,0.578311,-0.547631,0.593651,-0.613592,0.559903,-0.549165
2.1683,0.016754,0.000000,0.000000,0.000000,0.0000,1.8450,1.6622,-0.104091,0.104091,-0.001265,0.001381,-0.002300,0.6535,2.8073,0.6251,-0.099709,0.098175,0.000000,0.578311,-0.547631,0.593651,-0.613592,0.559903,-0.550699
2.1852,0.016915,0.000000,0.000000,0.000000,0.0000,1.8579,1.6834,-0.105769,0.105769,-0.001221,0.001424,-0.002314,0.7081,2.8273,0.6849,-0.104311,0.098175,0.000000,0.578311,-0.547631,0.593651,-0.613592,0.559903,-0.549165
2.2020,0.016753,0.000000,0.000000,0.000000,0.0000,1.8701,1.7042,-0.107500,0.107500,-0.001221,0.001424,-0.002314,0.7081,2.8273,0.6849,-0.104311,0.098175,0.000000,0.578311,-0.547631,0.593651,-0.613592,0.559903,-0.549165
2.2187,0.016749,0.000000,0.000000,0.000000,0.0000,1.8817,1.7250,-0.109297,0.109297,-0.001226,0.001420,-0.002313,0.7024,2.8252,0.6787,-0.102777,0.101243,0.000000,0.578311,-0.547631,0.593651,-0.613592,0.559903,-0.549165
2.2355,0.016745,0.000000,0.000000,0.000000,0.0000,1.8929,1.7456,-0.111159,0.111159,-0.001226,0.001420,-0.002313,0.7024,2.8252,0.6787,-0.105845,0.101243,0.000000,0.578311,-0.547631,0.593651,-0.613592,0.559903,-0.549165
2.2522,0.016743,0.000000,0.000000,0.000000,0.0000,1.9035,1.7660,-0.113083,0.113083,-0.001226,0.001420,-0.002313,0.7024,2.8252,0.6787,-0.108913,0.102777,0.000000,0.578311,-0.547631,0.593651,-0.613592,0.559903,-0.549165
2.2690,0.016747,0.000000,0.000000,0.000000,-0.0000,1.9135,1.7864,-0.115070,0.115070,-0.001226,0.001420,-0.002313,0.7024,2.8252,0.6787,-0.110447,0.107379,0.000000,0.578311,-0.547631,0.593651,-0.613592,0.559903,-0.549165
2.2859,0.016913,0.000000,0.000000,0.000000,0.0000,1.9232,1.8068,-0.117136,0.117136,-0.001226,0.001420,-0.002313,0.7024,2.8252,0.6787,-0.111981,0.111981,0.000000,0.578311,-0.547631,0.593651,-0.613592,0.559903,-0.549165
2.3026,0.016758,0.000000,0.000000,0.000000,0.0000,1.9321,1.8269,-0.119240,0.119240,-0.001226,0.001420,-0.002313,0.7024,2.8252,0.6787,-0.111981,0.111981,0.000000,0.578311,-0.547631,0.593651,-0.613592,0.559903,-0.549165
2.3194,0.016743,0.000000,0.000000,0.000000,0.0000,1.9406,1.8469,-0.121398,0.121398,-0.001265,0.001381,-0.002300,0.6535,2.8073,0.6251,-0.115049,0.110447,0.000000,0.578311,-0.547631,0.593651,-0.613592,0.559903,-0.550699
2.3361,0.016732,0.000000,0.000000,0.000000,0.0000,1.9484,1.8667,-0.123608,0.123608,-0.001221,0.001424,-0.002314,0.7081,2.8273,0.6849,-0.116583,0.116583,0.000000,0.578311,-0.547631,0.593651,-0.613592,0.559903,-0.549165
2.3528,0.016743,0.000000,0.000000,0.000000,0.0000,1.9557,1.8864,-0.125869,0.125869,-0.001226,0.001420,-0.002313,0.7024,2.8252,0.6787,-0.119651,0.119651,0.000000,0.578311,-0.547631,0.593651,-0.613592,0.559903,-0.549165
2.3696,0.016760,0.000000,0.000000,0.000000,0.0000,1.9625,1.9060,-0.128181,0.128181,-0.001226,0.001420,-0.002313,0.7024,2.8252,0.6787,-0.124252,0.118117,0.000000,0.578311,-0.547631,0.593651,-0.613592,0.559903,-0.549165
2.3864,0.016793,0.000000,0.000000,0.000000,0.0000,1.9687,1.9255,-0.130545,0.130545,-0.001226,0.001420,-0.002313,0.7024,2.8252,0.6787,-0.125786,0.122718,0.000000,0.578311,-0.547631,0.593651,-0.613592,0.559903,-0.549165
2.4032,0.016763,0.000000,0.000000,0.000000,0.0000,1.9744,1.9448,-0.132948,0.132948,-0.001226,0.001420,-0.002313,0.7024,2.8252,0.6787,-0.125786,0.122718,0.000000,0.578311,-0.547631,0.593651,-0.613592,0.559903,-0.549165
2.4199,0.016745,0.000000,0.000000,0.000000,0.0000,1.9795,1.9640,-0.135390,0.135390,-0.001226,0.001420,-0.002313,0.7024,2.8252,0.6787,-0.128854,0.127320,0.000000,0.578311,-0.547631,0.593651,-0.613592,0.559903,-0.549165
2.4367,0.016791,0.000000,0.000000,0.000000,0.0000,1.9840,1.9830,-0.137877,0.137877,-0.001226,0.001420,-0.002313,0.7024,2.8252,0.6787,-0.130388,0.125786,0.000000,0.578311,-0.547631,0.593651,-0.613592,0.559903,-0.549165
2.4534,0.016743,0.000000,0.000000,0.000000,0.0000,1.9880,2.0019,-0.140395,0.140395,-0.001265,0.001381,-0.002300,0.6535,2.8073,0.6251,-0.133456,0.128854,0.000000,0.578311,-0.547631,0.593651,-0.613592,0.559903,-0.550699
2.4702,0.016756,0.000000,0.000000,0.000000,0.0000,1.9914,2.0206,-0.142948,0.142948,-0.001221,0.001424,-0.002314,0.7081,2.8273,0.6849,-0.138058,0.133456,0.000000,0.578311,-0.547631,0.593651,-0.613592,0.559903,-0.549165
2.4869,0.016751,0.000000,0.000000,0.000000,0.0000,1.9942,2.0392,-0.145532,0.145532,-0.001266,0.001380,-0.002300,0.6529,2.8071,0.6244,-0.139592,0.136524,0.000000,0.578311,-0.547631,0.593651,-0.613592,0.559903,-0.550699
2.5037,0.016771,0.000000,0.000000,0.000000,0.0000,1.9965,2.0577,-0.148148,0.148148,-0.001266,0.001380,-0.002300,0.6529,2.8071,0.6244,-0.139592,0.136524,0.000000,0.578311,-0.547631,0.593651,-0.613592,0.559903,-0.550699
2.5205,0.016792,0.000000,0.000000,0.000000,-0.0000,1.9982,2.0761,-0.150793,0.150793,-0.001266,0.001380,-0.002300,0.6529,2.8071,0.6244,-0.139592,0.136524,0.000000,0.578311,-0.547631,0.593651,-0.613592,0.559903,-0.550699
2.5373,0.016801,0.000000,0.000000,0.000000,0.0000,1.9994,2.0943,-0.153464,0.153464,-0.001266,0.001380,-0.002300,0.6529,2.8071,0.6244,-0.139592,0.136524,0.000000,0.578311,-0.547631,0.593651,-0.613592,0.559903,-0.550699
2.5541,0.016819,0.000000,0.000000,0.000000,-0.0000,1.9999,2.1124,-0.156159,0.156159,-0.001266,0.001380,-0.002300,0.6529,2.8071,0.6244,-0.139592,0.136524,0.000000,0.578311,-0.547631,0.593651,-0.613592,0.559903,-0.550699
2.5709,0.016760,0.000000,0.000000,0.000000,-0.0000,1.9999,2.1302,-0.158863,0.158863,-0.001266,0.001380,-0.002300,0.6529,2.8071,0.6244,-0.139592,0.136524,0.000000,0.578311,-0.547631,0.593651,-0.613592,0.559903,-0.550699
2.5876,0.016743,0.000000,0.000000,0.000000,0.0000,1.9994,2.1479,-0.161580,0.161580,-0.001221,0.001424,-0.002314,0.7081,2.8273,0.6850,-0.145728,0.142660,0.000000,0.578311,-0.547631,0.593651,-0.613592,0.559903,-0.549165
2.6044,0.016745,0.000000,0.000000,0.000000,0.0000,1.9982,2.1655,-0.164310,0.164310,-0.001266,0.001380,-0.002300,0.6529,2.8071,0.6244,-0.145728,0.142660,0.000000,0.578311,-0.547631,0.593651,-0.613592,0.559903,-0.550699
2.6211,0.016744,0.000000,0.000000,0.000000,-0.0000,1.9965,2.1829,-0.167050,0.167050,-0.001261,0.001385,-0.002302,0.6586,2.8092,0.6307,-0.147262,0.142660,0.000000,0.578311,-0.547631,0.593651,-0.613592,0.559903,-0.550699
2.6382,0.017096,0.000000,0.000000,0.000000,0.0000,1.9942,2.2005,-0.169855,0.169855,-0.001261,0.001385,-0.002302,0.6586,2.8092,0.6307,-0.148796,0.145728,0.000000,0.578311,-0.547631,0.593651,-0.613592,0.559903,-0.550699
2.6550,0.016776,0.000000,0.000000,0.000000,-0.0000,1.9914,2.2176,-0.172612,0.172612,-0.001261,0.001385,-0.002302,0.6586,2.8092,0.6307,-0.148796,0.145728,0.000000,0.578311,-0.547631,0.593651,-0.613592,0.559903,-0.550699
2.6717,0.016757,0.000000,0.000000,0.000000,0.0000,1.9880,2.2346,-0.175368,0.175368,-0.001261,0.001385,-0.002302,0.6586,2.8092,0.6307,-0.161068,0.159534,0.000000,0.578311,-0.547631,0.593651,-0.613592,0.559903,-0.550699
2.6885,0.016744,0.000000,0.000000,0.000000,-0.0000,1.9840,2.2513,-0.178122,0.178122,-0.001221,0.001424,-0.002314,0.7075,2.8271,0.6843,-0.171806,0.168738,0.000000,0.578311,-0.547631,0.593651,-0.613592,0.559903,-0.549165
2.7054,0.016866,0.000000,0.000000,0.000000,0.0000,1.9794,2.2680,-0.180892,0.180892,-0.001226,0.001420,-0.002313,0.7025,2.8252,0.6788,-0.171806,0.168738,0.000000,0.578311,-0.547631,0.593651,-0.613592,0.559903,-0.549165
2.7221,0.016742,0.000000,0.000000,0.000000,0.0000,1.9743,2.2845,-0.183635,0.183635,-0.001226,0.001420,-0.002313,0.7025,2.8252,0.6788,-0.168738,0.168738,0.000000,0.578311,-0.547631,0.593651,-0.613592,0.559903,-0.549165
2.7391,0.016978,0.000000,0.000000,0.000000,0.0000,1.9686,2.3010,-0.186407,0.186407,-0.001226,0.001420,-0.002313,0.7025,2.8252,0.6788,-0.177942,0.177942,0.000000,0.578311,-0.547631,0.593651,-0.613592,0.559903,-0.549165
2.7558,0.016754,0.000000,0.000000,0.000000,0.0000,1.9623,2.3171,-0.189131,0.189131,-0.001226,0.001420,-0.002313,0.7025,2.8252,0.6788,-0.177942,0.177942,0.000000,0.578311,-0.547631,0.593651,-0.613592,0.559903,-0.549165
2.7726,0.016751,0.000000,0.000000,0.000000,-0.0000,1.9556,2.3331,-0.191840,0.191840,-0.001265,0.001381,-0.002300,0.6535,2.8073,0.6251,-0.184078,0.179476,0.000000,0.578311,-0.547631,0.593651,-0.613592,0.559903,-0.550699
2.7893,0.016748,0.000000,0.000000,0.000000,0.0000,1.9482,2.3489,-0.194531,0.194531,-0.001221,0.001424,-0.002314,0.7081,2.8273,0.6849,-0.184078,0.179476,0.000000,0.578311,-0.547631,0.593651,-0.613592,0.559903,-0.549165
2.8062,0.016829,0.000000,0.000000,0.000000,0.0000,1.9403,2.3646,-0.197215,0.197215,-0.001226,0.001420,-0.002313,0.7024,2.8252,0.6787,-0.184078,0.184078,0.000000,0.578311,-0.547631,0.593651,-0.613592,0.559903,-0.549165
2.8229,0.016758,0.000000,0.000000,0.000000,0.0000,1.9319,2.3801,-0.199865,0.199865,-0.001226,0.001420,-0.002313,0.7024,2.8252,0.6787,-0.193282,0.187146,0.000000,0.578311,-0.547631,0.593651,-0.613592,0.559903,-0.549165
2.8397,0.016783,0.000000,0.000000,0.000000,0.0000,1.9228,2.3954,-0.202494,0.202494,-0.001226,0.001420,-0.002313,0.7024,2.8252,0.6787,-0.196350,0.191748,0.000000,0.578311,-0.547631,0.593651,-0.613592,0.559903,-0.549165
2.8564,0.016745,0.000000,0.000000,0.000000,-0.0000,1.9133,2.4105,-0.205089,0.205089,-0.001226,0.001420,-0.002313,0.7024,2.8252,0.6787,-0.196350,0.191748,0.000000,0.578311,-0.547631,0.593651,-0.613592,0.559903,-0.549165
2.8732,0.016746,0.000000,0.000000,0.000000,0.0000,1.9032,2.4254,-0.207653,0.207653,-0.001265,0.001381,-0.002300,0.6535,2.8073,0.6251,-0.200951,0.197884,0.000000,0.578311,-0.547631,0.593651,-0.613592,0.559903,-0.550699
2.8899,0.016724,0.000000,0.000000,0.000000,0.0000,1.8926,2.4402,-0.210181,0.210181,-0.001261,0.001385,-0.002302,0.6586,2.8092,0.6307,-0.202485,0.199418,0.000000,0.578311,-0.547631,0.593651,-0.613592,0.559903,-0.550699
2.9067,0.016761,0.000000,0.000000,0.000000,0.0000,1.8815,2.4548,-0.212680,0.212680,-0.001261,0.001385,-0.002302,0.6586,2.8092,0.6307,-0.202485,0.207087,0.000000,0.578311,-0.547631,0.593651,-0.613592,0.559903,-0.550699
2.9234,0.016750,0.000000,0.000000,0.000000,-0.0000,1.8698,2.4692,-0.215138,0.215138,-0.001263,0.001463,-0.002303,0.7569,2.8117,0.7391,-0.210155,0.208621,0.000000,0.579845,-0.547631,0.593651,-0.613592,0.559903,-0.549165
2.9402,0.016769,0.000000,0.000000,0.000000,0.0000,1.8576,2.4835,-0.217559,0.217559,-0.001262,0.001376,-0.002301,0.6478,2.8087,0.6188,-0.216291,0.208621,0.000000,0.578311,-0.547631,0.593651,-0.613592,0.559903,-0.550699
2.9569,0.016748,0.000000,0.000000,0.000000,-0.0000,1.8448,2.4976,-0.219934,0.219934,-0.001262,0.001376,-0.002301,0.6478,2.8087,0.6188,-0.216291,0.208621,0.000000,0.578311,-0.547631,0.593651,-0.613592,0.559903,-0.550699
2.9737,0.016750,0.000000,0.000000,0.000000,-0.0000,1.8315,2.5115,-0.222264,0.222264,-0.001262,0.001385,-0.002302,0.6592,2.8090,0.6313,-0.214757,0.211689,0.000000,0.578311,-0.547631,0.593651,-0.613592,0.559903,-0.550699
2.9904,0.016750,0.000000,0.000000,0.000000,0.0000,1.8178,2.5252,-0.224547,0.224547,-0.001262,0.001384,-0.002302,0.6576,2.8090,0.6296,-0.214757,0.216291,0.000000,0.578311,-0.547631,0.593651,-0.613592,0.559903,-0.550699
3.0072,0.016767,0.000000,0.000000,0.000000,0.0000,1.8034,2.5388,-0.226781,0.226781,-0.001262,0.001384,-0.002302,0.6576,2.8090,0.6296,-0.219359,0.217825,0.000000,0.578311,-0.547631,0.593651,-0.613592,0.559903,-0.550699
3.0242,0.017035,0.000000,0.000000,0.000000,0.0000,1.7884,2.5524,-0.228999,0.228999,-0.001221,0.001424,-0.002314,0.7077,2.8271,0.6845,-0.222427,0.222427,0.000000,0.578311,-0.547631,0.593651,-0.613592,0.559903,-0.549165
3.0410,0.016769,0.000000,0.000000,0.000000,0.0000,1.7730,2.5656,-0.231126,0.231126,-0.001221,0.001424,-0.002314,0.7077,2.8271,0.6845,-0.225495,0.227029,0.000000,0.578311,-0.547631,0.593651,-0.613592,0.559903,-0.549165
3.0578,0.016751,0.000000,0.000000,0.000000,-0.0000,1.7572,2.5786,-0.233195,0.233195,-0.001226,0.001420,-0.002313,0.7024,2.8252,0.6787,-0.225495,0.227029,0.000000,0.578311,-0.547631,0.593651,-0.613592,0.559903,-0.549165
3.0745,0.016744,0.000000,0.000000,0.000000,0.0000,1.7409,2.5914,-0.235205,0.235205,-0.001226,0.001420,-0.002313,0.7024,2.8252,0.6787,-0.227029,0.227029,0.000000,0.578311,-0.547631,0.593651,-0.613592,0.559903,-0.549165
3.0913,0.016747,0.000000,0.000000,0.000000,0.0000,1.7240,2.6040,-0.237154,0.237154,-0.001226,0.001420,-0.002313,0.7024,2.8252,0.6787,-0.231631,0.228563,0.000000,0.578311,-0.547631,0.593651,-0.613592,0.559903,-0.549165
3.1080,0.016751,0.000000,0.000000,0.000000,0.0000,1.7067,2.6165,-0.239042,0.239042,-0.001265,0.001381,-0.002300,0.6535,2.8073,0.6251,-0.234699,0.231631,0.000000,0.578311,-0.547631,0.593651,-0.613592,0.559903,-0.550699
3.1248,0.016746,0.000000,0.000000,0.000000,-0.0000,1.6889,2.6287,-0.240864,0.240864,-0.001221,0.001424,-0.002314,0.7081,2.8273,0.6849,-0.234699,0.234699,0.000000,0.578311,-0.547631,0.593651,-0.613592,0.559903,-0.549165
3.1415,0.016768,0.000000,0.000000,0.000000,0.0000,1.6706,2.6408,-0.242623,0.242623,-0.001226,0.001420,-0.002313,0.7024,2.8252,0.6787,-0.239301,0.236233,0.000000,0.578311,-0.547631,0.593651,-0.613592,0.559903,-0.549165
3.1583,0.016748,0.000000,0.000000,0.000000,-0.0000,1.6519,2.6527,-0.244312,0.244312,-0.001226,0.001420,-0.002313,0.7024,2.8252,0.6787,-0.239301,0.236233,0.000000,0.578311,-0.547631,0.593651,-0.613592,0.559903,-0.549165
3.1750,0.016747,0.000000,0.000000,0.000000,-0.0000,1.6327,2.6644,-0.245931,0.245931,-0.001226,0.001420,-0.002313,0.7024,2.8252,0.6787,-0.240835,0.236233,0.000000,0.578311,-0.547631,0.593651,-0.613592,0.559903,-0.549165
3.1918,0.016748,0.000000,0.000000,0.000000,-0.0000,1.6130,2.6759,-0.247479,0.247479,-0.001265,0.001381,-0.002300,0.6535,2.8073,0.6251,-0.240835,0.240835,0.000000,0.578311,-0.547631,0.593651,-0.613592,0.559903,-0.550699
3.2085,0.016767,0.000000,0.000000,0.000000,0.0000,1.5928,2.6873,-0.248957,0.248957,-0.001221,0.001424,-0.002314,0.7081,2.8273,0.6849,-0.245437,0.243903,0.000000,0.578311,-0.547631,0.593651,-0.613592,0.559903,-0.549165
3.2253,0.016745,0.000000,0.000000,0.000000,-0.0000,1.5722,2.6984,-0.250358,0.250358,-0.001266,0.001380,-0.002300,0.6529,2.8071,0.6244,-0.246971,0.243903,0.000000,0.578311,-0.547631,0.593651,-0.613592,0.559903,-0.550699
3.2420,0.016752,0.000000,0.000000,0.000000,0.0000,1.5512,2.7093,-0.251684,0.251684,-0.001221,0.001424,-0.002314,0.7081,2.8273,0.6850,-0.246971,0.246971,0.000000,0.578311,-0.547631,0.593651,-0.613592,0.559903,-0.549165
3.2588,0.016754,0.000000,0.000000,0.000000,-0.0000,1.5297,2.7201,-0.252933,0.252933,-0.001221,0.001424,-0.002314,0.7081,2.8273,0.6850,-0.246971,0.246971,0.000000,0.578311,-0.547631,0.593651,-0.613592,0.559903,-0.549165
3.2755,0.016750,0.000000,0.000000,0.000000,0.0000,1.5078,2.7306,-0.254104,0.254104,-0.001226,0.001420,-0.002313,0.7024,2.8252,0.6787,-0.250039,0.250039,0.000000,0.578311,-0.547631,0.593651,-0.613592,0.559903,-0.549165
3.2923,0.016745,0.000000,0.000000,0.000000,-0.0000,1.4855,2.7410,-0.255195,0.255195,-0.001226,0.001420,-0.002313,0.7024,2.8252,0.6787,-0.251573,0.250039,0.000000,0.578311,-0.547631,0.593651,-0.613592,0.559903,-0.549165
3.3090,0.016759,0.000000,0.000000,0.000000,0.0000,1.4627,2.7512,-0.256206,0.256206,-0.001265,0.001381,-0.002300,0.6535,2.8073,0.6251,-0.251573,0.251573,0.000000,0.578311,-0.547631,0.593651,-0.613592,0.559903,-0.550699
3.3258,0.016744,0.000000,0.000000,0.000000,0.0000,1.4395,2.7612,-0.257136,0.257136,-0.001261,0.001385,-0.002302,0.6586,2.8092,0.6307,-0.256175,0.254641,0.000000,0.578311,-0.547631,0.593651,-0.613592,0.559903,-0.550699
3.3425,0.016767,0.000000,0.000000,0.000000,0.0000,1.4159,2.7709,-0.257984,0.257984,-0.001261,0.001385,-0.002302,0.6586,2.8092,0.6307,-0.257709,0.254641,0.000000,0.578311,-0.547631,0.593651,-0.613592,0.559903,-0.549165
3.3593,0.016750,0.000000,0.000000,0.000000,0.0000,1.3919,2.7805,-0.258748,0.258748,-0.001221,0.001424,-0.002314,0.7076,2.8271,0.6843,-0.257709,0.254641,0.000000,0.578311,-0.547631,0.593651,-0.613592,0.559903,-0.549165
3.3760,0.016750,0.000000,0.000000,0.000000,0.0000,1.3676,2.7899,-0.259428,0.259428,-0.001226,0.001420,-0.002313,0.7025,2.8252,0.6788,-0.257709,0.254641,0.000000,0.578311,-0.547631,0.593651,-0.613592,0.559903,-0.549165
3.3928,0.016770,0.000000,0.000000,0.000000,0.0000,1.3428,2.7991,-0.260024,0.260024,-0.001226,0.001420,-0.002313,0.7025,2.8252,0.6788,-0.257709,0.256175,0.000000,0.578311,-0.547631,0.593651,-0.613592,0.559903,-0.549165
3.4096,0.016767,0.000000,0.000000,0.000000,-0.0000,1.3176,2.8081,-0.260535,0.260535,-0.001265,0.001381,-0.002300,0.6535,2.8073,0.6251,-0.257709,0.257709,0.000000,0.578311,-0.547631,0.593651,-0.613592,0.559903,-0.550699
3.4264,0.016777,0.000000,0.000000,0.000000,-0.0000,1.2920,2.8169,-0.260960,0.260960,-0.001261,0.001385,-0.002302,0.6586,2.8092,0.6307,-0.260777,0.257709,0.000000,0.578311,-0.547631,0.593651,-0.613592,0.559903,-0.550699
3.4431,0.016785,0.000000,0.000000,0.000000,0.0000,1.2661,2.8255,-0.261299,0.261299,-0.001221,0.001424,-0.002314,0.7076,2.8271,0.6843,-0.262311,0.257709,0.000000,0.578311,-0.547631,0.593651,-0.613592,0.559903,-0.549165
3.4599,0.016760,0.000000,0.000000,0.000000,0.0000,1.2398,2.8339,-0.261550,0.261550,-0.001221,0.001424,-0.002314,0.7076,2.8271,0.6843,-0.262311,0.257709,0.000000,0.578311,-0.547631,0.593651,-0.613592,0.559903,-0.549165
3.4767,0.016834,0.000000,0.000000,0.000000,-0.0000,1.2131,2.8421,-0.261715,0.261715,-0.001226,0.001420,-0.002313,0.7025,2.8252,0.6788,-0.260777,0.257709,0.000000,0.578311,-0.547631,0.593651,-0.613592,0.559903,-0.549165
3.4935,0.016747,0.000000,0.000000,0.000000,0.0000,1.1861,2.8501,-0.261793,0.261793,-0.001226,0.001420,-0.002313,0.7025,2.8252,0.6788,-0.260777,0.259243,0.000000,0.578311,-0.547631,0.593651,-0.613592,0.559903,-0.549165
3.5102,0.016765,0.000000,0.000000,0.000000,-0.0000,1.1588,2.8579,-0.261783,0.261783,-0.001226,0.001420,-0.002313,0.7025,2.8252,0.6788,-0.260777,0.259243,0.000000,0.578311,-0.547631,0.593651,-0.613592,0.559903,-0.549165
3.5270,0.016748,0.000000,0.000000,0.000000,0.0000,1.1312,2.8655,-0.261686,0.261686,-0.001226,0.001420,-0.002313,0.7025,2.8252,0.6788,-0.260777,0.259243,0.000000,0.578311,-0.547631,0.593651,-0.613592,0.559903,-0.549165
3.5438,0.016777,0.000000,0.000000,0.000000,0.0000,1.1033,2.8729,-0.261502,0.261502,-0.001226,0.001420,-0.002313,0.7025,2.8252,0.6788,-0.260777,0.259243,0.000000,0.578311,-0.547631,0.593651,-0.613592,0.559903,-0.549165
3.5605,0.016749,0.000000,0.000000,0.000000,0.0000,1.0750,2.8800,-0.261232,0.261232,-0.001265,0.001381,-0.002300,0.6535,2.8073,0.6251,-0.262311,0.259243,0.000000,0.578311,-0.547631,0.593651,-0.613592,0.559903,-0.550699
3.5774,0.016896,0.000000,0.000000,0.000000,0.0000,1.0462,2.8871,-0.260872,0.260872,-0.001221,0.001424,-0.002314,0.7081,2.8273,0.6849,-0.260777,0.259243,0.000000,0.578311,-0.547631,0.593651,-0.613592,0.559903,-0.549165
3.5962,0.018817,0.000000,0.000000,0.000000,0.0000,1.0138,2.8947,-0.260368,0.260368,-0.001221,0.001424,-0.002314,0.7081,2.8273,0.6849,-0.260777,0.259243,0.000000,0.578311,-0.547631,0.593651,-0.613592,0.559903,-0.549165
3.6130,0.016796,0.000000,0.000000,0.000000,-0.0000,0.9845,2.9012,-0.259826,0.259826,-0.001221,0.001424,-0.002314,0.7081,2.8273,0.6849,-0.260777,0.259243,0.000000,0.578311,-0.547631,0.593651,-0.613592,0.559903,-0.549165
3.6298,0.016763,0.000000,0.000000,0.000000,-0.0000,0.9550,2.9075,-0.259201,0.259201,-0.001221,0.001424,-0.002314,0.7081,2.8273,0.6849,-0.260777,0.259243,0.000000,0.578311,-0.547631,0.593651,-0.613592,0.559903,-0.549165
3.6465,0.016752,0.000000,0.000000,0.000000,0.0000,0.9253,2.9137,-0.258491,0.258491,-0.001226,0.001420,-0.002313,0.7024,2.8252,0.6787,-0.260777,0.259243,0.000000,0.578311,-0.547631,0.593651,-0.613592,0.559903,-0.549165
3.6633,0.016802,0.000000,0.000000,0.000000,0.0000,0.8952,2.9196,-0.257695,0.257695,-0.001265,0.001381,-0.002300,0.6535,2.8073,0.6251,-0.260777,0.259243,0.000000,0.578311,-0.547631,0.593651,-0.613592,0.559903,-0.550699
3.6801,0.016744,0.000000,0.000000,0.000000,-0.0000,0.8650,2.9253,-0.256819,0.256819,-0.001221,0.001424,-0.002314,0.7081,2.8273,0.6849,-0.260777,0.259243,0.000000,0.578311,-0.547631,0.593651,-0.613592,0.559903,-0.549165
3.6972,0.017095,0.000000,0.000000,0.000000,-0.0000,0.8339,2.9309,-0.255840,0.255840,-0.001226,0.001420,-0.002313,0.7024,2.8252,0.6787,-0.260777,0.257709,0.000000,0.578311,-0.547631,0.593651,-0.613592,0.559903,-0.549165
3.7139,0.016745,0.000000,0.000000,0.000000,0.0000,0.8032,2.9362,-0.254800,0.254800,-0.001226,0.001420,-0.002313,0.7024,2.8252,0.6787,-0.260777,0.257709,0.000000,0.578311,-0.547631,0.593651,-0.613592,0.559903,-0.549165
3.7307,0.016757,0.000000,0.000000,0.000000,-0.0000,0.7722,2.9413,-0.253678,0.253678,-0.001226,0.001420,-0.002313,0.7024,2.8252,0.6787,-0.259243,0.256175,0.000000,0.578311,-0.547631,0.593651,-0.613592,0.559903,-0.549165
3.7474,0.016747,0.000000,0.000000,0.000000,0.0000,0.7410,2.9461,-0.252478,0.252478,-0.001226,0.001420,-0.002313,0.7024,2.8252,0.6787,-0.259243,0.256175,0.000000,0.578311,-0.547631,0.593651,-0.613592,0.559903,-0.549165
3.7642,0.016758,0.000000,0.000000,0.000000,-0.0000,0.7096,2.9508,-0.251200,0.251200,-0.001226,0.001420,-0.002313,0.7024,2.8252,0.6787,-0.259243,0.256175,0.000000,0.578311,-0.547631,0.593651,-0.613592,0.559903,-0.549165
3.7809,0.016748,0.000000,0.000000,0.000000,0.0000,0.6781,2.9552,-0.249846,0.249846,-0.001265,0.001381,-0.002300,0.6535,2.8073,0.6251,-0.259243,0.256175,0.000000,0.578311,-0.547631,0.593651,-0.613592,0.559903,-0.550699
3.7977,0.016777,0.000000,0.000000,0.000000,0.0000,0.6462,2.9595,-0.248415,0.248415,-0.001261,0.001385,-0.002302,0.6586,2.8092,0.6307,-0.259243,0.256175,0.000000,0.578311,-0.547631,0.593651,-0.613592,0.559903,-0.550699
3.8145,0.016758,0.000000,0.000000,0.000000,0.0000,0.6143,2.9635,-0.246911,0.246911,-0.001261,0.001385,-0.002302,0.6586,2.8092,0.6307,-0.257709,0.256175,0.000000,0.578311,-0.547631,0.593651,-0.613592,0.559903,-0.550699
3.8312,0.016772,0.000000,0.000000,0.000000,0.0000,0.5821,2.9674,-0.245334,0.245334,-0.001221,0.001424,-0.002314,0.7076,2.8271,0.6843,-0.256175,0.256175,0.000000,0.578311,-0.547631,0.593651,-0.613592,0.559903,-0.549165
3.8480,0.016748,0.000000,0.000000,0.000000,0.0000,0.5498,2.9710,-0.243688,0.243688,-0.001221,0.001424,-0.002314,0.7076,2.8271,0.6843,-0.256175,0.256175,0.000000,0.578311,-0.547631,0.593651,-0.613592,0.559903,-0.549165
3.8648,0.016761,0.000000,0.000000,0.000000,0.0000,0.5173,2.9744,-0.241973,0.241973,-0.001226,0.001420,-0.002313,0.7025,2.8252,0.6788,-0.256175,0.256175,0.000000,0.578311,-0.547631,0.593651,-0.613592,0.559903,-0.549165
3.8815,0.016750,0.000000,0.000000,0.000000,0.0000,0.4847,2.9776,-0.240191,0.240191,-0.001265,0.001381,-0.002300,0.6535,2.8073,0.6251,-0.256175,0.256175,0.000000,0.578311,-0.547631,0.593651,-0.613592,0.559903,-0.550699
3.8983,0.016757,0.000000,0.000000,0.000000,0.0000,0.4519,2.9805,-0.238342,0.238342,-0.001221,0.001424,-0.002314,0.7081,2.8273,0.6849,-0.256175,0.254641,0.000000,0.578311,-0.547631,0.593651,-0.613592,0.559903,-0.549165
3.9150,0.016745,0.000000,0.000000,0.000000,-0.0000,0.4191,2.9833,-0.236432,0.236432,-0.001226,0.001420,-0.002313,0.7024,2.8252,0.6787,-0.256175,0.254641,0.000000,0.578311,-0.547631,0.593651,-0.613592,0.559903,-0.549165
3.9323,0.017251,0.000000,0.000000,0.000000,0.0000,0.3851,2.9859,-0.234399,0.234399,-0.001226,0.001420,-0.002313,0.7024,2.8252,0.6787,-0.256175,0.254641,0.000000,0.578311,-0.547631,0.593651,-0.613592,0.559903,-0.549165
3.9490,0.016746,0.000000,0.000000,0.000000,0.0000,0.3520,2.9883,-0.232366,0.232366,-0.001226,0.001420,-0.002313,0.7024,2.8252,0.6787,-0.256175,0.254641,0.000000,0.578311,-0.547631,0.593651,-0.613592,0.559903,-0.549165
3.9658,0.016757,0.000000,0.000000,0.000000,0.0000,0.3188,2.9904,-0.230273,0.230273,-0.001254,0.001435,-0.002276,0.6625,2.7581,0.7319,-0.256175,0.253107,0.000000,0.579845,-0.547631,0.593651,-0.613592,0.561437,-0.550699
3.9825,0.016745,0.000000,0.000000,0.000000,0.0000,0.2855,2.9923,-0.228126,0.228126,-0.001064,0.001462,-0.002278,0.5866,2.7311,0.8301,-0.253107,0.251573,0.000000,0.578311,-0.547631,0.593651,-0.613592,0.564505,-0.549165
3.9992,0.016712,0.000000,0.000000,0.000000,-0.0000,0.2522,2.9940,-0.225931,0.225931,-0.000978,0.001489,-0.002252,0.5146,2.6665,0.9244,-0.245437,0.246971,0.000000,0.578311,-0.547631,0.593651,-0.613592,0.567573,-0.549165
4.0160,0.016744,0.000000,0.000000,0.000000,-0.0000,0.2188,2.9955,-0.223679,0.223679,-0.000934,0.001501,-0.002242,0.4822,2.6395,0.9669,-0.236233,0.240835,0.000000,0.578311,-0.547631,0.593651,-0.613592,0.569107,-0.549165
4.0327,0.016757,0.000000,0.000000,0.000000,-0.0000,0.1853,2.9968,-0.221378,0.221378,-0.000934,0.001501,-0.002242,0.4822,2.6395,0.9669,-0.236233,0.240835,0.000000,0.578311,-0.547631,0.593651,-0.613592,0.569107,-0.549165
4.0495,0.016750,0.000000,0.000000,0.000000,0.0000,0.1517,2.9978,-0.219030,0.219030,-0.000861,0.001545,-0.002181,0.3658,2.5078,1.1205,-0.228563,0.236233,0.000000,0.579845,-0.547631,0.593651,-0.613592,0.573709,-0.550699
4.0662,0.016754,0.000000,0.000000,0.000000,0.0000,0.1181,2.9987,-0.216637,0.216637,-0.000680,0.001570,-0.002186,0.2993,2.4876,1.2091,-0.227029,0.231631,0.000000,0.578311,-0.547631,0.593651,-0.613592,0.576777,-0.549165
4.0830,0.016744,0.000000,0.000000,0.000000,0.0000,0.0845,2.9993,-0.214204,0.214204,-0.000633,0.001558,-0.002148,0.1775,2.4041,1.2513,-0.227029,0.230097,0.000000,0.578311,-0.547631,0.593651,-0.613592,0.579845,-0.550699
4.0997,0.016759,0.000000,0.000000,0.000000,0.0000,0.0508,2.9998,-0.211730,0.211730,-0.000586,0.001653,-0.002142,0.2501,2.3825,1.4084,-0.225495,0.228563,0.000000,0.579845,-0.547631,0.593651,-0.613592,0.581379,-0.549165
4.1165,0.016762,0.000000,0.000000,0.000000,0.0000,0.0171,3.0000,-0.209217,0.209217,-0.000537,0.001658,-0.002130,0.2032,2.3512,1.4449,-0.220893,0.228563,0.000000,0.579845,-0.547631,0.593651,-0.613592,0.582913,-0.549165
4.1335,0.016984,0.000000,0.000000,0.000000,0.0000,-0.0170,3.0000,-0.206636,0.206636,-0.000537,0.001658,-0.002130,0.2032,2.3512,1.4449,-0.220893,0.228563,0.000000,0.579845,-0.547631,0.593651,-0.613592,0.582913,-0.549165
4.1502,0.016743,0.000000,0.000000,0.000000,0.0000,-0.0507,2.9998,-0.204060,0.204060,-0.000542,0.001658,-0.002131,0.2081,2.3545,1.4411,-0.214757,0.227029,0.000000,0.579845,-0.547631,0.593651,-0.613592,0.582913,-0.549165
4.1670,0.016746,0.000000,0.000000,0.000000,0.0000,-0.0843,2.9993,-0.201453,0.201453,-0.000542,0.001658,-0.002131,0.2081,2.3545,1.4411,-0.213223,0.227029,0.000000,0.579845,-0.547631,0.593651,-0.613592,0.582913,-0.549165
4.1837,0.016744,0.000000,0.000000,0.000000,0.0000,-0.1180,2.9987,-0.198820,0.198820,-0.000542,0.001658,-0.002131,0.2081,2.3545,1.4411,-0.211689,0.227029,0.000000,0.579845,-0.547631,0.593651,-0.613592,0.582913,-0.549165
4.2005,0.016753,0.000000,0.000000,0.000000,0.0000,-0.1516,2.9978,-0.196162,0.196162,-0.000665,0.001698,-0.002096,0.2564,2.3061,1.4968,-0.208621,0.225495,0.000000,0.582913,-0.547631,0.593651,-0.613592,0.582913,-0.550699
4.2173,0.016834,0.000000,0.000000,0.000000,0.0000,-0.1853,2.9968,-0.193468,0.193468,-0.000682,0.001757,-0.002102,0.3887,2.2491,1.7086,-0.204019,0.222427,0.000000,0.585981,-0.547631,0.593651,-0.612058,0.582913,-0.549165
4.2340,0.016754,0.000000,0.000000,0.000000,0.0000,-0.2188,2.9955,-0.190769,0.190769,-0.000682,0.001757,-0.002102,0.3887,2.2491,1.7086,-0.204019,0.222427,0.000000,0.585981,-0.547631,0.593651,-0.612058,0.582913,-0.549165
4.2508,0.016746,0.000000,0.000000,0.000000,0.0000,-0.2523,2.9940,-0.188055,0.188055,-0.000722,0.001790,-0.002091,0.4241,2.2405,1.7413,-0.200951,0.216291,0.000000,0.587515,-0.547631,0.593651,-0.612058,0.582913,-0.549165
4.2675,0.016748,0.000000,0.000000,0.000000,0.0000,-0.2856,2.9923,-0.185327,0.185327,-0.000828,0.001771,-0.002069,0.4576,2.1424,1.8475,-0.200951,0.207087,0.000000,0.590583,-0.547631,0.593651,-0.610524,0.582913,-0.550699
4.2843,0.016738,0.000000,0.000000,0.000000,0.0000,-0.3189,2.9904,-0.182590,0.182590,-0.000900,0.001853,-0.002050,0.5522,2.1236,1.9461,-0.200951,0.199418,0.000000,0.593651,-0.547631,0.593651,-0.610524,0.582913,-0.550699
4.3010,0.016755,0.000000,0.000000,0.000000,0.0000,-0.3521,2.9883,-0.179842,0.179842,-0.000934,0.001884,-0.002041,0.5913,2.1112,1.9907,-0.199418,0.196350,0.000000,0.595185,-0.547631,0.593651,-0.610524,0.582913,-0.550699
4.3179,0.016870,0.000000,0.000000,0.000000,-0.0000,-0.3854,2.9859,-0.177070,0.177070,-0.000932,0.001960,-0.002045,0.6862,2.1170,2.0949,-0.196350,0.194816,0.000000,0.596719,-0.547631,0.593651,-0.610524,0.582913,-0.549165
4.3347,0.016756,0.000000,0.000000,0.000000,0.0000,-0.4184,2.9834,-0.174314,0.174314,-0.000932,0.001960,-0.002045,0.6862,2.1170,2.0949,-0.196350,0.194816,0.000000,0.596719,-0.547631,0.593651,-0.610524,0.582913,-0.549165
4.3514,0.016748,0.000000,0.000000,0.000000,-0.0000,-0.4513,2.9806,-0.171560,0.171560,-0.000920,0.001896,-0.002056,0.6652,2.0652,2.1380,-0.190214,0.191748,0.000000,0.596719,-0.547631,0.593651,-0.608990,0.582913,-0.549165
4.3682,0.016748,0.000000,0.000000,0.000000,0.0000,-0.4840,2.9776,-0.168809,0.168809,-0.000921,0.001903,-0.002055,0.6674,2.0706,2.1335,-0.182544,0.187146,0.000000,0.596719,-0.547631,0.593651,-0.608990,0.582913,-0.549165
4.3849,0.016738,0.000000,0.000000,0.000000,-0.0000,-0.5166,2.9744,-0.166065,0.166065,-0.000879,0.001862,-0.002065,0.6183,2.0843,2.0791,-0.181010,0.184078,0.000000,0.595185,-0.547631,0.593651,-0.608990,0.582913,-0.549165
4.4016,0.016751,0.000000,0.000000,0.000000,0.0000,-0.5491,2.9710,-0.163327,0.163327,-0.000925,0.001906,-0.002054,0.6723,2.0686,2.1396,-0.179476,0.179476,0.000000,0.596719,-0.547631,0.593651,-0.608990,0.582913,-0.549165
4.4185,0.016904,0.000000,0.000000,0.000000,0.0000,-0.5817,2.9674,-0.160576,0.160576,-0.000961,0.001863,-0.002041,0.6166,2.0513,2.0793,-0.177942,0.174874,0.000000,0.596719,-0.547631,0.593651,-0.608990,0.582913,-0.550699
4.4353,0.016757,0.000000,0.000000,0.000000,0.0000,-0.6138,2.9636,-0.157862,0.157862,-0.000961,0.001863,-0.002041,0.6166,2.0513,2.0793,-0.177942,0.174874,0.000000,0.596719,-0.547631,0.593651,-0.608990,0.582913,-0.550699
4.4520,0.016736,0.000000,0.000000,0.000000,-0.0000,-0.6458,2.9596,-0.155169,0.155169,-0.000903,0.001772,-0.002065,0.5624,2.0162,2.0847,-0.176408,0.170272,0.000000,0.595185,-0.547631,0.593651,-0.607456,0.582913,-0.550699
4.4688,0.016744,0.000000,0.000000,0.000000,0.0000,-0.6775,2.9553,-0.152493,0.152493,-0.000909,0.001781,-0.002062,0.5680,2.0199,2.0842,-0.173340,0.170272,0.000000,0.595185,-0.547631,0.593651,-0.607456,0.582913,-0.550699
4.4855,0.016738,0.000000,0.000000,0.000000,0.0000,-0.7091,2.9509,-0.149840,0.149840,-0.000897,0.001803,-0.002077,0.6553,1.9726,2.2469,-0.168738,0.168738,0.000000,0.596719,-0.547631,0.593651,-0.605922,0.582913,-0.549165
4.5023,0.016747,0.000000,0.000000,0.000000,-0.0000,-0.7405,2.9462,-0.147211,0.147211,-0.000938,0.001762,-0.002062,0.5961,1.9586,2.1760,-0.162602,0.168738,0.000000,0.596719,-0.547631,0.593651,-0.605922,0.582913,-0.550699
4.5193,0.016986,0.000000,0.000000,0.000000,-0.0000,-0.7721,2.9413,-0.144572,0.144572,-0.000894,0.001805,-0.002077,0.6524,1.9790,2.2373,-0.154932,0.165670,0.000000,0.596719,-0.547631,0.593651,-0.605922,0.582913,-0.549165
4.5360,0.016760,0.000000,0.000000,0.000000,0.0000,-0.8031,2.9362,-0.141998,0.141998,-0.000894,0.001805,-0.002077,0.6524,1.9790,2.2373,-0.154932,0.165670,0.000000,0.596719,-0.547631,0.593651,-0.605922,0.582913,-0.549165
4.5528,0.016743,0.000000,0.000000,0.000000,0.0000,-0.8338,2.9309,-0.139459,0.139459,-0.000898,0.001801,-0.002075,0.6466,1.9769,2.2309,-0.151864,0.158000,0.000000,0.596719,-0.547631,0.593651,-0.605922,0.582913,-0.549165
