t,loop_dt,cmd_x,cmd_y,cmd_z,cmd_roll,cmd_pitch,cmd_yaw,cmd_ant_l,cmd_ant_r,pres_x,pres_y,pres_z,pres_roll,pres_pitch,pres_yaw,pres_ant_l,pres_ant_r,pres_j0,pres_j1,pres_j2,pres_j3,pres_j4,pres_j5,pres_j6
0.0000,0.000001,0.000016,0.000691,-0.001830,1.2864,0.8706,-0.8277,-0.010738,0.009204,0.000016,0.000691,-0.001830,1.2864,0.8706,-0.8277,-0.010738,0.009204,0.000000,0.585981,-0.595185,0.585981,-0.602854,0.567573,-0.567573
0.0167,0.016743,0.000016,0.000680,-0.001800,1.2650,0.8559,-0.8140,-0.010558,0.009050,-0.000030,0.000735,-0.001817,1.3421,0.8526,-0.7674,-0.010738,0.009204,0.000000,0.587515,-0.595185,0.585981,-0.602854,0.567573,-0.567573
0.0335,0.016778,0.000016,0.000668,-0.001769,1.2435,0.8411,-0.8003,-0.010378,0.008895,-0.000025,0.000730,-0.001818,1.3363,0.8545,-0.7737,-0.010738,0.009204,0.000000,0.587515,-0.595185,0.585981,-0.602854,0.567573,-0.567573
0.0503,0.016745,0.000015,0.000657,-0.001738,1.2220,0.8264,-0.7866,-0.010198,0.008741,-0.000025,0.000730,-0.001818,1.3363,0.8545,-0.7737,-0.010738,0.009204,0.000000,0.587515,-0.595185,0.585981,-0.602854,0.567573,-0.567573
0.0670,0.016756,0.000015,0.000645,-0.001708,1.2006,0.8117,-0.7728,-0.010018,0.008587,-0.000025,0.000730,-0.001818,1.3363,0.8545,-0.7737,-0.010738,0.009204,0.000000,0.587515,-0.595185,0.585981,-0.602854,0.567573,-0.567573
0.0838,0.016746,0.000015,0.000633,-0.001677,1.1791,0.7970,-0.7591,-0.009838,0.008433,0.000084,0.000747,-0.001880,1.2975,0.9552,-0.7191,-0.010738,0.009204,0.000000,0.584447,-0.593651,0.585981,-0.602854,0.567573,-0.564505
0.1005,0.016761,0.000015,0.000622,-0.001646,1.1577,0.7823,-0.7454,-0.009658,0.008279,0.000412,0.000689,-0.001985,1.2891,1.0263,-0.6717,-0.010738,0.009204,0.000000,0.578311,-0.593651,0.585981,-0.601320,0.567573,-0.558369
0.1173,0.016761,0.000014,0.000610,-0.001616,1.1362,0.7676,-0.7316,-0.009478,0.008124,0.000406,0.000711,-0.002012,1.2512,1.0869,-0.6228,-0.010738,0.009204,0.000000,0.576777,-0.592117,0.585981,-0.601320,0.567573,-0.556835
0.1341,0.016768,0.000014,0.000599,-0.001585,1.1147,0.7528,-0.7179,-0.009298,0.007970,0.000406,0.000711,-0.002012,1.2512,1.0869,-0.6228,-0.010738,0.009204,0.000000,0.576777,-0.592117,0.585981,-0.602854,0.567573,-0.555301
0.1508,0.016742,0.000014,0.000587,-0.001554,1.0932,0.7382,-0.7041,-0.009119,0.007816,0.000433,0.000804,-0.002010,1.3154,1.1479,-0.6277,-0.010738,0.009204,0.000000,0.576777,-0.592117,0.585981,-0.602854,0.567573,-0.555301
0.1676,0.016759,0.000013,0.000575,-0.001524,1.0718,0.7235,-0.6904,-0.008939,0.007662,0.000431,0.000794,-0.002010,1.3087,1.1415,-0.6272,-0.010738,0.009204,0.000000,0.576777,-0.592117,0.585981,-0.602854,0.567573,-0.555301
0.1843,0.016743,0.000013,0.000564,-0.001493,1.0503,0.7088,-0.6766,-0.008759,0.007508,0.000431,0.000794,-0.002010,1.3087,1.1415,-0.6272,-0.010738,0.009204,0.000000,0.576777,-0.592117,0.585981,-0.602854,0.567573,-0.555301
0.2011,0.016757,0.000013,0.000552,-0.001462,1.0288,0.6941,-0.6629,-0.008579,0.007353,0.000391,0.000756,-0.001997,1.2597,1.1252,-0.6810,-0.010738,0.009204,0.000000,0.576777,-0.592117,0.585981,-0.602854,0.567573,-0.556835
0.2179,0.016814,0.000013,0.000541,-0.001431,1.0072,0.6794,-0.6490,-0.008398,0.007199,0.000391,0.000756,-0.001997,1.2597,1.1252,-0.6810,-0.010738,0.009204,0.000000,0.576777,-0.592117,0.585981,-0.602854,0.567573,-0.556835
0.2347,0.016808,0.000012,0.000529,-0.001401,0.9857,0.6647,-0.6352,-0.008218,0.007044,0.000391,0.000756,-0.001997,1.2597,1.1252,-0.6810,-0.010738,0.009204,0.000000,0.576777,-0.592117,0.585981,-0.602854,0.567573,-0.556835
0.2523,0.017618,0.000012,0.000517,-0.001368,0.9631,0.6492,-0.6207,-0.008029,0.006882,0.000391,0.000756,-0.001997,1.2597,1.1252,-0.6810,-0.010738,0.009204,0.000000,0.576777,-0.592117,0.585981,-0.602854,0.567573,-0.556835
0.2691,0.016763,0.000012,0.000505,-0.001338,0.9415,0.6346,-0.6069,-0.007849,0.006727,0.000391,0.000756,-0.001997,1.2597,1.1252,-0.6810,-0.010738,0.009204,0.000000,0.576777,-0.592117,0.585981,-0.602854,0.567573,-0.556835
0.2858,0.016758,0.000012,0.000494,-0.001307,0.9200,0.6199,-0.5931,-0.007669,0.006573,0.000395,0.000760,-0.001999,1.2649,1.1269,-0.6754,-0.012272,0.007670,0.000000,0.576777,-0.592117,0.585981,-0.602854,0.567573,-0.556835
0.3025,0.016708,0.000011,0.000482,-0.001277,0.8986,0.6053,-0.5794,-0.007489,0.006419,0.000435,0.000798,-0.002012,1.3140,1.1437,-0.6222,-0.013806,0.007670,0.000000,0.576777,-0.592117,0.585981,-0.602854,0.567573,-0.555301
0.3193,0.016742,0.000011,0.000471,-0.001246,0.8771,0.5907,-0.5656,-0.007310,0.006265,0.000390,0.000756,-0.001997,1.2592,1.1250,-0.6815,-0.010738,0.007670,0.000000,0.576777,-0.592117,0.585981,-0.602854,0.567573,-0.556835
0.3360,0.016759,0.000011,0.000459,-0.001215,0.8556,0.5760,-0.5517,-0.007130,0.006111,0.000408,0.000704,-0.002010,1.2543,1.0767,-0.6218,-0.006136,0.007670,0.000000,0.576777,-0.592117,0.585981,-0.601320,0.567573,-0.556835
0.3528,0.016744,0.000010,0.000447,-0.001185,0.8341,0.5614,-0.5379,-0.006950,0.005957,0.000406,0.000710,-0.002009,1.2548,1.0817,-0.6280,-0.004602,0.007670,0.000000,0.576777,-0.592117,0.585981,-0.601320,0.567573,-0.556835
0.3695,0.016764,0.000010,0.000436,-0.001154,0.8125,0.5468,-0.5241,-0.006770,0.005803,0.000406,0.000710,-0.002009,1.2548,1.0817,-0.6280,-0.004602,0.007670,0.000000,0.576777,-0.592117,0.585981,-0.601320,0.567573,-0.556835
0.3863,0.016798,0.000010,0.000424,-0.001123,0.7909,0.5321,-0.5102,-0.006589,0.005648,0.000393,0.000765,-0.001997,1.2654,1.1315,-0.6809,-0.006136,0.007670,0.000000,0.576777,-0.592117,0.585981,-0.602854,0.567573,-0.556835
0.4031,0.016745,0.000010,0.000413,-0.001093,0.7694,0.5175,-0.4964,-0.006410,0.005494,0.000395,0.000759,-0.001999,1.2643,1.1263,-0.6754,-0.010738,0.007670,0.000000,0.576777,-0.592117,0.585981,-0.602854,0.567573,-0.556835
0.4198,0.016738,0.000009,0.000401,-0.001062,0.7479,0.5029,-0.4826,-0.006230,0.005340,0.000395,0.000759,-0.001999,1.2643,1.1263,-0.6754,-0.007670,0.007670,0.000000,0.576777,-0.592117,0.585981,-0.602854,0.567573,-0.556835
0.4366,0.016757,0.000009,0.000390,-0.001031,0.7264,0.4883,-0.4687,-0.006050,0.005186,0.000395,0.000759,-0.001999,1.2643,1.1263,-0.6754,-0.001534,0.007670,0.000000,0.576777,-0.592117,0.585981,-0.602854,0.567573,-0.556835
0.4533,0.016742,0.000009,0.000378,-0.001001,0.7048,0.4737,-0.4549,-0.005870,0.005032,0.000395,0.000759,-0.001999,1.2643,1.1263,-0.6754,-0.003068,0.007670,0.000000,0.576777,-0.592117,0.585981,-0.602854,0.567573,-0.556835
0.4701,0.016764,0.000009,0.000366,-0.000970,0.6833,0.4591,-0.4410,-0.005690,0.004877,0.000395,0.000759,-0.001999,1.2643,1.1263,-0.6754,-0.003068,0.007670,0.000000,0.576777,-0.592117,0.585981,-0.602854,0.567573,-0.556835
0.4868,0.016744,0.000008,0.000355,-0.000939,0.6617,0.4445,-0.4272,-0.005510,0.004723,0.000395,0.000759,-0.001999,1.2643,1.1263,-0.6754,-0.010738,0.007670,0.000000,0.576777,-0.592117,0.585981,-0.602854,0.567573,-0.556835
0.5036,0.016753,0.000008,0.000343,-0.000909,0.6402,0.4299,-0.4133,-0.005330,0.004569,0.000395,0.000759,-0.001999,1.2643,1.1263,-0.6754,-0.010738,0.007670,0.000000,0.576777,-0.592117,0.585981,-0.602854,0.567573,-0.556835
0.5203,0.016750,0.000008,0.000332,-0.000878,0.6186,0.4153,-0.3995,-0.005151,0.004415,0.000395,0.000759,-0.001999,1.2643,1.1263,-0.6754,-0.003068,0.007670,0.000000,0.576777,-0.592117,0.585981,-0.602854,0.567573,-0.556835
0.5371,0.016758,0.000008,0.000320,-0.000847,0.5971,0.4007,-0.3856,-0.004971,0.004261,0.000395,0.000759,-0.001999,1.2643,1.1263,-0.6754,0.000000,0.006136,0.000000,0.576777,-0.592117,0.585981,-0.602854,0.567573,-0.556835
0.5538,0.016744,0.000007,0.000308,-0.000817,0.5755,0.3862,-0.3717,-0.004791,0.004106,0.000395,0.000759,-0.001999,1.2643,1.1263,-0.6754,-0.004602,0.006136,0.000000,0.576777,-0.592117,0.585981,-0.602854,0.567573,-0.556835
0.5706,0.016763,0.000007,0.000297,-0.000786,0.5539,0.3716,-0.3578,-0.004611,0.003952,0.000395,0.000759,-0.001999,1.2643,1.1263,-0.6754,-0.004602,0.006136,0.000000,0.576777,-0.592117,0.585981,-0.602854,0.567573,-0.556835
0.5873,0.016744,0.000007,0.000285,-0.000755,0.5324,0.3570,-0.3439,-0.004431,0.003798,0.000395,0.000759,-0.001999,1.2643,1.1263,-0.6754,-0.009204,0.006136,0.000000,0.576777,-0.592117,0.585981,-0.602854,0.567573,-0.556835
0.6041,0.016750,0.000006,0.000274,-0.000725,0.5108,0.3425,-0.3300,-0.004251,0.003644,0.000395,0.000759,-0.001999,1.2643,1.1263,-0.6754,-0.004602,0.006136,0.000000,0.576777,-0.592117,0.585981,-0.602854,0.567573,-0.556835
0.6208,0.016742,0.000006,0.000262,-0.000694,0.4893,0.3279,-0.3161,-0.004071,0.003490,0.000395,0.000759,-0.001999,1.2643,1.1263,-0.6754,0.000000,0.006136,0.000000,0.576777,-0.592117,0.585981,-0.602854,0.567573,-0.556835
0.6376,0.016763,0.000006,0.000251,-0.000663,0.4677,0.3134,-0.3022,-0.003891,0.003336,0.000395,0.000759,-0.001999,1.2643,1.1263,-0.6754,-0.004602,0.006136,0.000000,0.576777,-0.592117,0.585981,-0.602854,0.567573,-0.556835
0.6543,0.016748,0.000006,0.000239,-0.000633,0.4461,0.2989,-0.2883,-0.003712,0.003181,0.000395,0.000759,-0.001999,1.2643,1.1263,-0.6754,-0.006136,0.006136,0.000000,0.576777,-0.592117,0.585981,-0.602854,0.567573,-0.556835
0.6711,0.016761,0.000005,0.000227,-0.000602,0.4245,0.2843,-0.2744,-0.003532,0.003027,0.000395,0.000759,-0.001999,1.2643,1.1263,-0.6754,-0.006136,0.006136,0.000000,0.576777,-0.592117,0.585981,-0.602854,0.567573,-0.556835
0.6879,0.016746,0.000005,0.000216,-0.000571,0.4029,0.2698,-0.2604,-0.003352,0.002873,0.000395,0.000759,-0.001999,1.2643,1.1263,-0.6754,-0.001534,0.006136,0.000000,0.576777,-0.592117,0.585981,-0.602854,0.567573,-0.556835
0.7046,0.016746,0.000005,0.000204,-0.000541,0.3813,0.2553,-0.2465,-0.003172,0.002719,0.000408,0.000704,-0.002010,1.2538,1.0765,-0.6224,0.001534,0.006136,0.000000,0.576777,-0.592117,0.585981,-0.601320,0.567573,-0.556835
0.7213,0.016743,0.000005,0.000193,-0.000510,0.3597,0.2408,-0.2326,-0.002992,0.002565,0.000393,0.000765,-0.001997,1.2655,1.1320,-0.6815,-0.004602,0.006136,0.000000,0.576777,-0.592117,0.585981,-0.602854,0.567573,-0.556835
0.7381,0.016753,0.000004,0.000181,-0.000479,0.3381,0.2262,-0.2187,-0.002812,0.002411,0.000395,0.000759,-0.001999,1.2643,1.1262,-0.6753,-0.006136,0.006136,0.000000,0.576777,-0.592117,0.585981,-0.602854,0.567573,-0.556835
0.7550,0.016912,0.000004,0.000169,-0.000448,0.3163,0.2116,-0.2046,-0.002631,0.002255,0.000395,0.000759,-0.001999,1.2643,1.1262,-0.6753,-0.003068,0.006136,0.000000,0.576777,-0.592117,0.585981,-0.602854,0.567573,-0.556835
0.7718,0.016758,0.000004,0.000158,-0.000418,0.2947,0.1971,-0.1906,-0.002451,0.002101,0.000395,0.000759,-0.001999,1.2643,1.1262,-0.6753,-0.003068,0.006136,0.000000,0.576777,-0.592117,0.585981,-0.602854,0.567573,-0.556835
0.7885,0.016743,0.000003,0.000146,-0.000387,0.2731,0.1826,-0.1767,-0.002271,0.001947,0.000395,0.000759,-0.001999,1.2643,1.1262,-0.6753,0.001534,0.006136,0.000000,0.576777,-0.592117,0.585981,-0.602854,0.567573,-0.556835
0.8053,0.016755,0.000003,0.000135,-0.000356,0.2515,0.1681,-0.1627,-0.002091,0.001792,0.000395,0.000759,-0.001999,1.2643,1.1262,-0.6753,-0.001534,0.006136,0.000000,0.576777,-0.592117,0.585981,-0.602854,0.567573,-0.556835
0.8220,0.016740,0.000003,0.000123,-0.000326,0.2299,0.1536,-0.1487,-0.001911,0.001638,0.000395,0.000759,-0.001999,1.2643,1.1262,-0.6753,-0.004602,0.004602,0.000000,0.576777,-0.592117,0.585981,-0.602854,0.567573,-0.556835
0.8388,0.016756,0.000003,0.000111,-0.000295,0.2083,0.1391,-0.1348,-0.001731,0.001484,0.000395,0.000759,-0.001999,1.2643,1.1262,-0.6753,-0.001534,0.003068,0.000000,0.576777,-0.592117,0.585981,-0.602854,0.567573,-0.556835
0.8555,0.016748,0.000002,0.000100,-0.000264,0.1867,0.1247,-0.1208,-0.001552,0.001330,0.000461,0.000688,-0.001998,1.2922,1.0414,-0.6764,0.003068,0.001534,0.000000,0.576777,-0.593651,0.585981,-0.601320,0.567573,-0.556835
0.8723,0.016758,0.000002,0.000088,-0.000234,0.1650,0.1102,-0.1068,-0.001372,0.001176,0.000461,0.000688,-0.001998,1.2922,1.0414,-0.6764,0.003068,0.001534,0.000000,0.576777,-0.593651,0.585981,-0.601320,0.567573,-0.556835
0.8890,0.016741,0.000002,0.000077,-0.000203,0.1434,0.0957,-0.0928,-0.001192,0.001022,0.000388,0.000767,-0.001999,1.2615,1.1357,-0.6759,-0.001534,0.001534,0.000000,0.576777,-0.592117,0.585981,-0.602854,0.567573,-0.556835
0.9058,0.016789,0.000002,0.000065,-0.000172,0.1217,0.0812,-0.0788,-0.001012,0.000867,0.000395,0.000759,-0.001999,1.2647,1.1258,-0.6759,-0.006136,0.000000,0.000000,0.576777,-0.592117,0.585981,-0.602854,0.567573,-0.556835
0.9225,0.016740,0.000001,0.000054,-0.000142,0.1001,0.0668,-0.0648,-0.000832,0.000713,0.000394,0.000760,-0.001999,1.2642,1.1272,-0.6759,-0.001534,0.000000,0.000000,0.576777,-0.592117,0.585981,-0.602854,0.567573,-0.556835
0.9393,0.016754,0.000001,0.000042,-0.000111,0.0785,0.0523,-0.0508,-0.000652,0.000559,0.000366,0.000743,-0.001998,1.3038,1.0604,-0.5684,0.004602,0.000000,0.000000,0.578311,-0.592117,0.585981,-0.601320,0.567573,-0.556835
0.9562,0.016917,0.000001,0.000030,-0.000080,0.0566,0.0377,-0.0367,-0.000470,0.000403,0.000356,0.000800,-0.001986,1.3103,1.1177,-0.6332,-0.001534,0.000000,0.000000,0.578311,-0.592117,0.585981,-0.602854,0.567573,-0.556835
0.9730,0.016752,0.000000,0.000019,-0.000049,0.0350,0.0233,-0.0226,-0.000290,0.000249,0.000356,0.000800,-0.001986,1.3103,1.1177,-0.6332,-0.001534,0.000000,0.000000,0.578311,-0.592117,0.585981,-0.602854,0.567573,-0.556835
0.9897,0.016742,0.000000,0.000007,-0.000019,0.0133,0.0089,-0.0086,-0.000111,0.000095,0.000357,0.000794,-0.001988,1.3097,1.1117,-0.6264,-0.004602,0.000000,0.000000,0.578311,-0.592117,0.585981,-0.602854,0.567573,-0.556835
1.0064,0.016746,0.000000,0.000000,0.000000,-0.0000,0.0122,0.0081,0.005301,-0.005301,0.000357,0.000794,-0.001988,1.3097,1.1117,-0.6264,-0.003068,0.000000,0.000000,0.578311,-0.592117,0.585981,-0.602854,0.567573,-0.556835
1.0232,0.016742,0.000000,0.000000,0.000000,0.0000,0.0437,0.0291,0.019055,-0.019055,0.000411,0.000779,-0.001975,1.3481,1.0772,-0.6812,0.003068,0.000000,0.000000,0.578311,-0.593651,0.585981,-0.602854,0.567573,-0.556835
1.0399,0.016747,0.000000,0.000000,0.000000,0.0000,0.0752,0.0502,0.032759,-0.032759,0.000364,0.000741,-0.002000,1.2951,1.0656,-0.5679,-0.001534,0.000000,0.000000,0.578311,-0.592117,0.585981,-0.601320,0.567573,-0.556835
1.0567,0.016749,0.000000,0.000000,0.000000,0.0000,0.1068,0.0712,0.046375,-0.046375,0.000356,0.000801,-0.001986,1.3112,1.1171,-0.6333,-0.003068,-0.001534,0.000000,0.578311,-0.592117,0.585981,-0.602854,0.567573,-0.556835
1.0734,0.016744,0.000000,0.000000,0.000000,0.0000,0.1382,0.0922,0.059858,-0.059858,0.000356,0.000801,-0.001986,1.3112,1.1171,-0.6333,-0.003068,-0.001534,0.000000,0.578311,-0.592117,0.585981,-0.602854,0.567573,-0.556835
1.0902,0.016745,0.000000,0.000000,0.000000,-0.0000,0.1696,0.1133,0.073177,-0.073177,0.000370,0.000739,-0.001999,1.2989,1.0615,-0.5729,0.004602,-0.006136,0.000000,0.578311,-0.592117,0.585981,-0.601320,0.567573,-0.556835
1.1069,0.016741,0.000000,0.000000,0.000000,0.0000,0.2009,0.1343,0.086289,-0.086289,0.000356,0.000801,-0.001986,1.3108,1.1176,-0.6327,0.019942,-0.018408,0.000000,0.578311,-0.592117,0.585981,-0.602854,0.567573,-0.556835
1.1237,0.016739,0.000000,0.000000,0.000000,0.0000,0.2321,0.1552,0.099162,-0.099162,0.000357,0.000794,-0.001988,1.3096,1.1117,-0.6265,0.036816,-0.032214,0.000000,0.578311,-0.592117,0.585981,-0.602854,0.567573,-0.556835
1.1404,0.016756,0.000000,0.000000,0.000000,0.0000,0.2633,0.1762,0.111773,-0.111773,0.000357,0.000794,-0.001988,1.3096,1.1117,-0.6265,0.056757,-0.050621,0.000000,0.578311,-0.592117,0.585981,-0.602854,0.567573,-0.556835
1.1572,0.016754,0.000000,0.000000,0.000000,0.0000,0.2943,0.1972,0.124073,-0.124073,0.000357,0.000794,-0.001988,1.3096,1.1117,-0.6265,0.078233,-0.072097,0.000000,0.578311,-0.592117,0.585981,-0.602854,0.567573,-0.556835
1.1739,0.016760,0.000000,0.000000,0.000000,0.0000,0.3252,0.2181,0.136033,-0.136033,0.000357,0.000794,-0.001988,1.3096,1.1117,-0.6265,0.078233,-0.072097,0.000000,0.578311,-0.592117,0.585981,-0.602854,0.567573,-0.556835
1.1907,0.016756,0.000000,0.000000,0.000000,0.0000,0.3560,0.2390,0.147614,-0.147614,0.000357,0.000794,-0.001988,1.3096,1.1117,-0.6265,0.101243,-0.090505,0.000000,0.578311,-0.592117,0.585981,-0.602854,0.567573,-0.556835
1.2076,0.016947,0.000000,0.000000,0.000000,0.0000,0.3869,0.2602,0.158911,-0.158911,0.000357,0.000794,-0.001988,1.3096,1.1117,-0.6265,0.115049,-0.105845,0.000000,0.578311,-0.592117,0.585981,-0.602854,0.567573,-0.556835
1.2244,0.016771,0.000000,0.000000,0.000000,0.0000,0.4174,0.2811,0.169647,-0.169647,0.000357,0.000794,-0.001988,1.3096,1.1117,-0.6265,0.119651,-0.116583,0.000000,0.578311,-0.592117,0.585981,-0.602854,0.567573,-0.556835
1.2412,0.016756,0.000000,0.000000,0.000000,0.0000,0.4476,0.3019,0.179903,-0.179903,0.000357,0.000794,-0.001988,1.3096,1.1117,-0.6265,0.125786,-0.133456,0.000000,0.578311,-0.592117,0.585981,-0.602854,0.567573,-0.556835
1.2579,0.016754,0.000000,0.000000,0.000000,0.0000,0.4777,0.3227,0.189660,-0.189660,0.000357,0.000794,-0.001988,1.3096,1.1117,-0.6265,0.142660,-0.147262,0.000000,0.578311,-0.592117,0.585981,-0.601320,0.567573,-0.556835
1.2747,0.016818,0.000000,0.000000,0.000000,0.0000,0.5076,0.3435,0.198926,-0.198926,0.000370,0.000739,-0.001999,1.2991,1.0620,-0.5736,0.142660,-0.147262,0.000000,0.578311,-0.592117,0.585981,-0.601320,0.567573,-0.556835
1.2915,0.016817,0.000000,0.000000,0.000000,0.0000,0.5373,0.3643,0.207636,-0.207636,0.000370,0.000739,-0.001999,1.2991,1.0620,-0.5736,0.142660,-0.147262,0.000000,0.578311,-0.592117,0.585981,-0.601320,0.567573,-0.556835
1.3083,0.016757,0.000000,0.000000,0.000000,0.0000,0.5667,0.3850,0.215739,-0.215739,0.000370,0.000739,-0.001999,1.2991,1.0620,-0.5736,0.142660,-0.147262,0.000000,0.578311,-0.592117,0.585981,-0.601320,0.567573,-0.556835
1.3250,0.016744,0.000000,0.000000,0.000000,0.0000,0.5958,0.4056,0.223238,-0.223238,0.000369,0.000745,-0.001998,1.3002,1.0672,-0.5791,0.185612,-0.185612,0.000000,0.578311,-0.592117,0.585981,-0.601320,0.567573,-0.556835
1.3418,0.016750,0.000000,0.000000,0.000000,-0.0000,0.6246,0.4262,0.230122,-0.230122,0.000356,0.000800,-0.001986,1.3107,1.1170,-0.6321,0.177942,-0.184078,0.000000,0.578311,-0.592117,0.585981,-0.602854,0.567573,-0.556835
1.3585,0.016743,0.000000,0.000000,0.000000,0.0000,0.6532,0.4467,0.236367,-0.236367,0.000357,0.000794,-0.001988,1.3096,1.1118,-0.6266,0.179476,-0.185612,0.000000,0.578311,-0.592117,0.585981,-0.602854,0.567573,-0.556835
1.3753,0.016750,0.000000,0.000000,0.000000,0.0000,0.6815,0.4672,0.241960,-0.241960,0.000357,0.000794,-0.001988,1.3096,1.1118,-0.6266,0.179476,-0.185612,0.000000,0.578311,-0.592117,0.585981,-0.602854,0.567573,-0.556835
1.3920,0.016749,0.000000,0.000000,0.000000,0.0000,0.7094,0.4877,0.246883,-0.246883,0.000411,0.000779,-0.001975,1.3481,1.0772,-0.6812,0.199418,-0.199418,0.000000,0.578311,-0.593651,0.585981,-0.602854,0.567573,-0.556835
1.4088,0.016742,0.000000,0.000000,0.000000,0.0000,0.7371,0.5081,0.251121,-0.251121,0.000351,0.000797,-0.001989,1.3057,1.1159,-0.6214,0.227029,-0.220893,0.000000,0.578311,-0.592117,0.585981,-0.602854,0.567573,-0.556835
1.4255,0.016742,0.000000,0.000000,0.000000,0.0000,0.7644,0.5284,0.254664,-0.254664,0.000358,0.000795,-0.001987,1.3101,1.1119,-0.6277,0.246971,-0.242369,0.000000,0.578311,-0.592117,0.585981,-0.602854,0.567573,-0.556835
1.4423,0.016744,0.000000,0.000000,0.000000,0.0000,0.7914,0.5486,0.257504,-0.257504,0.000358,0.000795,-0.001987,1.3101,1.1119,-0.6277,0.245437,-0.245437,0.000000,0.578311,-0.592117,0.585981,-0.602854,0.567573,-0.556835
1.4590,0.016771,0.000000,0.000000,0.000000,0.0000,0.8181,0.5689,0.259634,-0.259634,0.000358,0.000795,-0.001987,1.3101,1.1119,-0.6277,0.242369,-0.245437,0.000000,0.578311,-0.592117,0.585981,-0.602854,0.567573,-0.556835
1.4758,0.016741,0.000000,0.000000,0.000000,0.0000,0.8443,0.5890,0.261041,-0.261041,0.000358,0.000795,-0.001987,1.3101,1.1119,-0.6277,0.242369,-0.245437,0.000000,0.578311,-0.592117,0.585981,-0.602854,0.567573,-0.556835
1.4925,0.016747,0.000000,0.000000,0.000000,0.0000,0.8702,0.6091,0.261727,-0.261727,0.000358,0.000795,-0.001987,1.3101,1.1119,-0.6277,0.253107,-0.251573,0.000000,0.578311,-0.592117,0.585981,-0.602854,0.567573,-0.556835
1.5093,0.016746,0.000000,0.000000,0.000000,0.0000,0.8957,0.6291,0.261689,-0.261689,0.000358,0.000795,-0.001987,1.3101,1.1119,-0.6277,0.260777,-0.259243,0.000000,0.578311,-0.592117,0.585981,-0.602854,0.567573,-0.556835
1.5260,0.016740,0.000000,0.000000,0.000000,0.0000,0.9209,0.6490,0.260926,-0.260926,0.000358,0.000795,-0.001987,1.3101,1.1119,-0.6277,0.256175,-0.259243,0.000000,0.578311,-0.592117,0.585981,-0.602854,0.567573,-0.556835
1.5427,0.016744,0.000000,0.000000,0.000000,0.0000,0.9456,0.6689,0.259442,-0.259442,0.000370,0.000739,-0.001999,1.2991,1.0620,-0.5734,0.256175,-0.259243,0.000000,0.578311,-0.592117,0.585981,-0.601320,0.567573,-0.556835
1.5598,0.017007,0.000000,0.000000,0.000000,0.0000,0.9702,0.6890,0.257200,-0.257200,0.000356,0.000801,-0.001986,1.3108,1.1175,-0.6327,0.265379,-0.263845,0.000000,0.578311,-0.592117,0.585981,-0.602854,0.567573,-0.556835
1.5765,0.016739,0.000000,0.000000,0.000000,-0.0000,0.9941,0.7087,0.254276,-0.254276,0.000356,0.000801,-0.001986,1.3108,1.1175,-0.6327,0.265379,-0.263845,0.000000,0.578311,-0.592117,0.585981,-0.602854,0.567573,-0.556835
1.5932,0.016743,0.000000,0.000000,0.000000,0.0000,1.0175,0.7283,0.250649,-0.250649,0.000370,0.000739,-0.001999,1.2990,1.0614,-0.5729,0.265379,-0.262311,0.000000,0.578311,-0.592117,0.585981,-0.601320,0.567573,-0.556835
1.6100,0.016743,0.000000,0.000000,0.000000,0.0000,1.0405,0.7479,0.246327,-0.246327,0.000369,0.000745,-0.001998,1.3002,1.0672,-0.5791,0.257709,-0.260777,0.000000,0.578311,-0.592117,0.585981,-0.601320,0.567573,-0.556835
1.6267,0.016763,0.000000,0.000000,0.000000,0.0000,1.0630,0.7674,0.241319,-0.241319,0.000356,0.000800,-0.001986,1.3107,1.1170,-0.6321,0.256175,-0.259243,0.000000,0.578311,-0.592117,0.585981,-0.602854,0.567573,-0.556835
1.6435,0.016743,0.000000,0.000000,0.000000,0.0000,1.0850,0.7868,0.235648,-0.235648,0.000357,0.000794,-0.001988,1.3096,1.1118,-0.6266,0.251573,-0.256175,0.000000,0.578311,-0.592117,0.585981,-0.602854,0.567573,-0.556835
1.6602,0.016746,0.000000,0.000000,0.000000,0.0000,1.1066,0.8061,0.229324,-0.229324,0.000370,0.000739,-0.001999,1.2991,1.0620,-0.5736,0.246971,-0.251573,0.000000,0.578311,-0.592117,0.585981,-0.601320,0.567573,-0.556835
1.6770,0.016741,0.000000,0.000000,0.000000,0.0000,1.1276,0.8253,0.222368,-0.222368,0.000370,0.000739,-0.001999,1.2991,1.0620,-0.5736,0.246971,-0.251573,0.000000,0.578311,-0.592117,0.585981,-0.601320,0.567573,-0.556835
1.6937,0.016767,0.000000,0.000000,0.000000,-0.0000,1.1482,0.8444,0.214785,-0.214785,0.000356,0.000801,-0.001986,1.3108,1.1175,-0.6327,0.243903,-0.245437,0.000000,0.578311,-0.592117,0.585981,-0.602854,0.567573,-0.556835
1.7105,0.016742,0.000000,0.000000,0.000000,0.0000,1.1683,0.8635,0.206618,-0.206618,0.000357,0.000794,-0.001988,1.3096,1.1117,-0.6265,0.237767,-0.237767,0.000000,0.578311,-0.592117,0.585981,-0.602854,0.567573,-0.556835
1.7272,0.016753,0.000000,0.000000,0.000000,0.0000,1.1878,0.8824,0.197874,-0.197874,0.000357,0.000794,-0.001988,1.3096,1.1117,-0.6265,0.230097,-0.230097,0.000000,0.578311,-0.592117,0.585981,-0.602854,0.567573,-0.556835
1.7440,0.016741,0.000000,0.000000,0.000000,0.0000,1.2068,0.9012,0.188589,-0.188589,0.000357,0.000794,-0.001988,1.3096,1.1117,-0.6265,0.219359,-0.222427,0.000000,0.578311,-0.592117,0.585981,-0.602854,0.567573,-0.556835
1.7607,0.016756,0.000000,0.000000,0.000000,-0.0000,1.2253,0.9200,0.178774,-0.178774,0.000357,0.000794,-0.001988,1.3096,1.1117,-0.6265,0.205553,-0.210155,0.000000,0.578311,-0.592117,0.585981,-0.602854,0.567573,-0.556835
1.7775,0.016741,0.000000,0.000000,0.000000,0.0000,1.2432,0.9386,0.168473,-0.168473,0.000357,0.000794,-0.001988,1.3096,1.1117,-0.6265,0.205553,-0.210155,0.000000,0.578311,-0.592117,0.585981,-0.602854,0.567573,-0.556835
1.7942,0.016759,0.000000,0.000000,0.000000,0.0000,1.2606,0.9572,0.157694,-0.157694,0.000370,0.000739,-0.001999,1.2991,1.0620,-0.5736,0.194816,-0.200951,0.000000,0.578311,-0.592117,0.585981,-0.601320,0.567573,-0.556835
1.8110,0.016743,0.000000,0.000000,0.000000,0.0000,1.2775,0.9756,0.146489,-0.146489,0.000369,0.000745,-0.001998,1.3002,1.0672,-0.5791,0.194816,-0.200951,0.000000,0.578311,-0.592117,0.585981,-0.601320,0.567573,-0.556835
1.8277,0.016751,0.000000,0.000000,0.000000,0.0000,1.2937,0.9939,0.134872,-0.134872,0.000356,0.000800,-0.001986,1.3107,1.1170,-0.6321,0.170272,-0.184078,0.000000,0.578311,-0.592117,0.585981,-0.602854,0.567573,-0.556835
1.8445,0.016761,0.000000,0.000000,0.000000,0.0000,1.3094,1.0121,0.122876,-0.122876,0.000357,0.000794,-0.001988,1.3096,1.1118,-0.6266,0.158000,-0.168738,0.000000,0.578311,-0.592117,0.585981,-0.602854,0.567573,-0.556835
1.8618,0.017290,0.000000,0.000000,0.000000,0.0000,1.3250,1.0308,0.110144,-0.110144,0.000357,0.000794,-0.001988,1.3096,1.1118,-0.6266,0.158000,-0.168738,0.000000,0.578311,-0.592117,0.585981,-0.602854,0.567573,-0.556835
1.8785,0.016744,0.000000,0.000000,0.000000,0.0000,1.3395,1.0488,0.097505,-0.097505,0.000370,0.000739,-0.001999,1.2991,1.0620,-0.5736,0.145728,-0.156466,0.000000,0.578311,-0.592117,0.585981,-0.601320,0.567573,-0.556835
1.8953,0.016762,0.000000,0.000000,0.000000,0.0000,1.3534,1.0666,0.084581,-0.084581,0.000356,0.000801,-0.001986,1.3108,1.1175,-0.6327,0.131922,-0.141126,0.000000,0.578311,-0.592117,0.585981,-0.602854,0.567573,-0.556835
1.9120,0.016744,0.000000,0.000000,0.000000,0.0000,1.3667,1.0844,0.071437,-0.071437,0.000357,0.000794,-0.001988,1.3096,1.1117,-0.6265,0.118117,-0.125786,0.000000,0.578311,-0.592117,0.585981,-0.602854,0.567573,-0.556835
1.9291,0.017039,0.000000,0.000000,0.000000,0.0000,1.3797,1.1023,0.057860,-0.057860,0.000357,0.000794,-0.001988,1.3096,1.1117,-0.6265,0.104311,-0.113515,0.000000,0.578311,-0.592117,0.585981,-0.602854,0.567573,-0.556835
1.9458,0.016750,0.000000,0.000000,0.000000,0.0000,1.3917,1.1198,0.044350,-0.044350,0.000357,0.000794,-0.001988,1.3096,1.1117,-0.6265,0.087437,-0.095107,0.000000,0.578311,-0.592117,0.585981,-0.602854,0.567573,-0.556835
1.9626,0.016752,0.000000,0.000000,0.000000,0.0000,1.4032,1.1372,0.030716,-0.030716,0.000357,0.000794,-0.001988,1.3096,1.1117,-0.6265,0.070563,-0.075165,0.000000,0.578311,-0.592117,0.585981,-0.602854,0.567573,-0.556835
1.9793,0.016748,0.000000,0.000000,0.000000,-0.0000,1.4141,1.1544,0.017000,-0.017000,0.000357,0.000794,-0.001988,1.3096,1.1117,-0.6265,0.070563,-0.075165,0.000000,0.578311,-0.592117,0.585981,-0.602854,0.567573,-0.556835
1.9961,0.016758,0.000000,0.000000,0.000000,0.0000,1.4243,1.1716,0.003229,-0.003229,0.000357,0.000794,-0.001988,1.3096,1.1117,-0.6265,0.052155,-0.056757,0.000000,0.578311,-0.592117,0.585981,-0.602854,0.567573,-0.556835
2.0128,0.016740,0.000000,0.000000,0.000000,0.0000,1.4339,1.1886,-0.010536,0.010536,0.000357,0.000794,-0.001988,1.3096,1.1117,-0.6265,0.036816,-0.038350,0.000000,0.578311,-0.592117,0.585981,-0.602854,0.567573,-0.556835
2.0296,0.016765,0.000000,0.000000,0.000000,0.0000,1.4428,1.2054,-0.024293,0.024293,0.000357,0.000794,-0.001988,1.3096,1.1117,-0.6265,0.021476,-0.018408,0.000000,0.578311,-0.592117,0.585981,-0.602854,0.567573,-0.556835
2.0463,0.016740,0.000000,0.000000,0.000000,-0.0000,1.4511,1.2222,-0.037962,0.037962,0.000357,0.000794,-0.001988,1.3096,1.1117,-0.6265,0.001534,0.000000,0.000000,0.578311,-0.592117,0.585981,-0.602854,0.567573,-0.556835
2.0631,0.016755,0.000000,0.000000,0.000000,0.0000,1.4588,1.2388,-0.051537,0.051537,0.000357,0.000794,-0.001988,1.3096,1.1117,-0.6265,0.001534,0.000000,0.000000,0.578311,-0.592117,0.585981,-0.602854,0.567573,-0.556835
2.0798,0.016745,0.000000,0.000000,0.000000,0.0000,1.4658,1.2552,-0.064963,0.064963,0.000357,0.000794,-0.001988,1.3096,1.1117,-0.6265,-0.015340,0.016874,0.000000,0.578311,-0.592117,0.585981,-0.602854,0.567573,-0.556835
2.0966,0.016760,0.000000,0.000000,0.000000,0.0000,1.4722,1.2715,-0.078220,0.078220,0.000357,0.000794,-0.001988,1.3096,1.1117,-0.6265,-0.032214,0.029146,0.000000,0.578311,-0.592117,0.585981,-0.602854,0.567573,-0.556835
2.1133,0.016748,0.000000,0.000000,0.000000,0.0000,1.4779,1.2877,-0.091251,0.091251,0.000357,0.000794,-0.001988,1.3096,1.1117,-0.6265,-0.042951,0.038350,0.000000,0.578311,-0.592117,0.585981,-0.602854,0.567573,-0.556835
2.1301,0.016758,0.000000,0.000000,0.000000,0.0000,1.4830,1.3037,-0.104038,0.104038,0.000357,0.000794,-0.001988,1.3096,1.1117,-0.6265,-0.056757,0.056757,0.000000,0.578311,-0.592117,0.585981,-0.602854,0.567573,-0.556835
2.1468,0.016746,0.000000,0.000000,0.000000,-0.0000,1.4874,1.3196,-0.116526,0.116526,0.000357,0.000794,-0.001988,1.3096,1.1117,-0.6265,-0.073631,0.075165,0.000000,0.578311,-0.592117,0.585981,-0.602854,0.567573,-0.556835
2.1636,0.016759,0.000000,0.000000,0.000000,-0.0000,1.4912,1.3354,-0.128703,0.128703,0.000357,0.000794,-0.001988,1.3096,1.1117,-0.6265,-0.073631,0.075165,0.000000,0.578311,-0.592117,0.585981,-0.602854,0.567573,-0.556835
2.1803,0.016743,0.000000,0.000000,0.000000,-0.0000,1.4943,1.3510,-0.140511,0.140511,0.000357,0.000794,-0.001988,1.3096,1.1117,-0.6265,-0.095107,0.098175,0.000000,0.578311,-0.592117,0.585981,-0.602854,0.567573,-0.556835
2.1971,0.016757,0.000000,0.000000,0.000000,-0.0000,1.4967,1.3664,-0.151940,0.151940,0.000357,0.000794,-0.001988,1.3096,1.1117,-0.6265,-0.113515,0.110447,0.000000,0.578311,-0.592117,0.585981,-0.602854,0.567573,-0.556835
2.2138,0.016748,0.000000,0.000000,0.000000,0.0000,1.4985,1.3817,-0.162942,0.162942,0.000357,0.000794,-0.001988,1.3096,1.1117,-0.6265,-0.121184,0.116583,0.000000,0.578311,-0.592117,0.585981,-0.602854,0.567573,-0.556835
2.2311,0.017212,0.000000,0.000000,0.000000,0.0000,1.4996,1.3973,-0.173779,0.173779,0.000357,0.000794,-0.001988,1.3096,1.1117,-0.6265,-0.131922,0.128854,0.000000,0.578311,-0.592117,0.585981,-0.602854,0.567573,-0.556835
2.2478,0.016742,0.000000,0.000000,0.000000,-0.0000,1.5000,1.4123,-0.183833,0.183833,0.000357,0.000794,-0.001988,1.3096,1.1117,-0.6265,-0.151864,0.148796,0.000000,0.578311,-0.592117,0.585981,-0.602854,0.567573,-0.556835
2.2646,0.016763,0.000000,0.000000,0.000000,0.0000,1.4997,1.4271,-0.193389,0.193389,0.000357,0.000794,-0.001988,1.3096,1.1117,-0.6265,-0.151864,0.148796,0.000000,0.578311,-0.592117,0.585981,-0.602854,0.567573,-0.556835
2.2813,0.016747,0.000000,0.000000,0.000000,0.0000,1.4988,1.4418,-0.202402,0.202402,0.000357,0.000794,-0.001988,1.3096,1.1117,-0.6265,-0.173340,0.168738,0.000000,0.578311,-0.592117,0.585981,-0.602854,0.567573,-0.556835
2.2981,0.016757,0.000000,0.000000,0.000000,-0.0000,1.4973,1.4563,-0.210859,0.210859,0.000357,0.000794,-0.001988,1.3096,1.1117,-0.6265,-0.182544,0.179476,0.000000,0.578311,-0.592117,0.585981,-0.602854,0.567573,-0.556835
2.3149,0.016814,0.000000,0.000000,0.000000,0.0000,1.4950,1.4707,-0.218757,0.218757,0.000357,0.000794,-0.001988,1.3096,1.1117,-0.6265,-0.185612,0.182544,0.000000,0.578311,-0.592117,0.585981,-0.602854,0.567573,-0.556835
2.3317,0.016799,0.000000,0.000000,0.000000,0.0000,1.4921,1.4849,-0.226040,0.226040,0.000357,0.000794,-0.001988,1.3096,1.1117,-0.6265,-0.185612,0.182544,0.000000,0.578311,-0.592117,0.585981,-0.602854,0.567573,-0.556835
2.3485,0.016780,0.000000,0.000000,0.000000,0.0000,1.4885,1.4989,-0.232685,0.232685,0.000357,0.000794,-0.001988,1.3096,1.1117,-0.6265,-0.185612,0.182544,0.000000,0.578311,-0.592117,0.585981,-0.602854,0.567573,-0.556835
2.3652,0.016753,0.000000,0.000000,0.000000,0.0000,1.4843,1.5128,-0.238675,0.238675,0.000357,0.000794,-0.001988,1.3096,1.1117,-0.6265,-0.185612,0.182544,0.000000,0.578311,-0.592117,0.585981,-0.602854,0.567573,-0.556835
2.3819,0.016743,0.000000,0.000000,0.000000,0.0000,1.4794,1.5265,-0.244001,0.244001,0.000370,0.000739,-0.001999,1.2991,1.0620,-0.5736,-0.219359,0.216291,0.000000,0.578311,-0.592117,0.585981,-0.601320,0.567573,-0.556835
2.3987,0.016761,0.000000,0.000000,0.000000,-0.0000,1.4739,1.5400,-0.248656,0.248656,0.000356,0.000801,-0.001986,1.3108,1.1175,-0.6327,-0.216291,0.214757,0.000000,0.578311,-0.592117,0.585981,-0.602854,0.567573,-0.556835
2.4155,0.016744,0.000000,0.000000,0.000000,0.0000,1.4677,1.5533,-0.252619,0.252619,0.000356,0.000801,-0.001986,1.3108,1.1175,-0.6327,-0.216291,0.214757,0.000000,0.578311,-0.592117,0.585981,-0.602854,0.567573,-0.556835
2.4322,0.016750,0.000000,0.000000,0.000000,-0.0000,1.4609,1.5665,-0.255884,0.255884,0.000357,0.000794,-0.001988,1.3096,1.1117,-0.6265,-0.208621,0.208621,0.000000,0.578311,-0.592117,0.585981,-0.602854,0.567573,-0.556835
2.4489,0.016741,0.000000,0.000000,0.000000,0.0000,1.4534,1.5795,-0.258439,0.258439,0.000370,0.000739,-0.001999,1.2991,1.0620,-0.5736,-0.216291,0.214757,0.000000,0.578311,-0.592117,0.585981,-0.601320,0.567573,-0.556835
2.4658,0.016809,0.000000,0.000000,0.000000,0.0000,1.4452,1.5924,-0.260286,0.260286,0.000356,0.000801,-0.001986,1.3108,1.1175,-0.6327,-0.233165,0.230097,0.000000,0.578311,-0.592117,0.585981,-0.602854,0.567573,-0.556835
2.4825,0.016741,0.000000,0.000000,0.000000,0.0000,1.4364,1.6050,-0.261404,0.261404,0.000357,0.000794,-0.001988,1.3096,1.1117,-0.6265,-0.256175,0.253107,0.000000,0.578311,-0.592117,0.585981,-0.602854,0.567573,-0.556835
2.4993,0.016768,0.000000,0.000000,0.000000,-0.0000,1.4270,1.6175,-0.261799,0.261799,0.000357,0.000794,-0.001988,1.3096,1.1117,-0.6265,-0.262311,0.259243,0.000000,0.578311,-0.592117,0.585981,-0.602854,0.567573,-0.556835
2.5160,0.016741,0.000000,0.000000,0.000000,0.0000,1.4170,1.6298,-0.261469,0.261469,0.000357,0.000794,-0.001988,1.3096,1.1117,-0.6265,-0.262311,0.259243,0.000000,0.578311,-0.592117,0.585981,-0.602854,0.567573,-0.556835
2.5328,0.016756,0.000000,0.000000,0.000000,0.0000,1.4063,1.6419,-0.260414,0.260414,0.000357,0.000794,-0.001988,1.3096,1.1117,-0.6265,-0.259243,0.259243,0.000000,0.578311,-0.592117,0.585981,-0.602854,0.567573,-0.556835
2.5495,0.016745,0.000000,0.000000,0.000000,-0.0000,1.3950,1.6538,-0.258640,0.258640,0.000357,0.000794,-0.001988,1.3096,1.1117,-0.6265,-0.265379,0.262311,0.000000,0.578311,-0.592117,0.585981,-0.602854,0.567573,-0.556835
2.5663,0.016762,0.000000,0.000000,0.000000,0.0000,1.3831,1.6656,-0.256147,0.256147,0.000357,0.000794,-0.001988,1.3096,1.1117,-0.6265,-0.263845,0.260777,0.000000,0.578311,-0.592117,0.585981,-0.602854,0.567573,-0.556835
2.5830,0.016740,0.000000,0.000000,0.000000,0.0000,1.3706,1.6771,-0.252948,0.252948,0.000357,0.000794,-0.001988,1.3096,1.1117,-0.6265,-0.259243,0.259243,0.000000,0.578311,-0.592117,0.585981,-0.602854,0.567573,-0.556835
2.5998,0.016768,0.000000,0.000000,0.000000,-0.0000,1.3574,1.6885,-0.249043,0.249043,0.000357,0.000794,-0.001988,1.3096,1.1117,-0.6265,-0.259243,0.259243,0.000000,0.578311,-0.592117,0.585981,-0.602854,0.567573,-0.556835
2.6166,0.016804,0.000000,0.000000,0.000000,0.0000,1.3436,1.6997,-0.244437,0.244437,0.000357,0.000794,-0.001988,1.3096,1.1117,-0.6265,-0.259243,0.259243,0.000000,0.578311,-0.592117,0.585981,-0.602854,0.567573,-0.556835
2.6333,0.016748,0.000000,0.000000,0.000000,0.0000,1.3293,1.7107,-0.239168,0.239168,0.000357,0.000794,-0.001988,1.3096,1.1117,-0.6265,-0.259243,0.259243,0.000000,0.578311,-0.592117,0.585981,-0.602854,0.567573,-0.556835
2.6501,0.016742,0.000000,0.000000,0.000000,-0.0000,1.3144,1.7215,-0.233240,0.233240,0.000357,0.000794,-0.001988,1.3096,1.1117,-0.6265,-0.257709,0.254641,0.000000,0.578311,-0.592117,0.585981,-0.602854,0.567573,-0.556835
2.6668,0.016750,0.000000,0.000000,0.000000,0.0000,1.2989,1.7321,-0.226663,0.226663,0.000357,0.000794,-0.001988,1.3096,1.1117,-0.6265,-0.256175,0.254641,0.000000,0.578311,-0.592117,0.585981,-0.602854,0.567573,-0.556835
2.6836,0.016738,0.000000,0.000000,0.000000,0.0000,1.2828,1.7426,-0.219464,0.219464,0.000357,0.000794,-0.001988,1.3096,1.1117,-0.6265,-0.253107,0.251573,0.000000,0.578311,-0.592117,0.585981,-0.602854,0.567573,-0.556835
2.7003,0.016760,0.000000,0.000000,0.000000,0.0000,1.2662,1.7528,-0.211647,0.211647,0.000357,0.000794,-0.001988,1.3096,1.1117,-0.6265,-0.253107,0.251573,0.000000,0.578311,-0.592117,0.585981,-0.602854,0.567573,-0.556835
2.7171,0.016739,0.000000,0.000000,0.000000,0.0000,1.2490,1.7628,-0.203255,0.203255,0.000357,0.000794,-0.001988,1.3096,1.1117,-0.6265,-0.245437,0.248505,0.000000,0.578311,-0.592117,0.585981,-0.602854,0.567573,-0.556835
2.7338,0.016750,0.000000,0.000000,0.000000,0.0000,1.2312,1.7727,-0.194295,0.194295,0.000357,0.000794,-0.001988,1.3096,1.1117,-0.6265,-0.234699,0.239301,0.000000,0.578311,-0.592117,0.585981,-0.602854,0.567573,-0.556835
2.7505,0.016742,0.000000,0.000000,0.000000,0.0000,1.2129,1.7823,-0.184802,0.184802,0.000357,0.000794,-0.001988,1.3096,1.1117,-0.6265,-0.222427,0.230097,0.000000,0.578311,-0.592117,0.585981,-0.602854,0.567573,-0.556835
2.7673,0.016748,0.000000,0.000000,0.000000,-0.0000,1.1941,1.7918,-0.174794,0.174794,0.000357,0.000794,-0.001988,1.3096,1.1117,-0.6265,-0.210155,0.219359,0.000000,0.578311,-0.592117,0.585981,-0.602854,0.567573,-0.556835
2.7840,0.016739,0.000000,0.000000,0.000000,0.0000,1.1747,1.8010,-0.164308,0.164308,0.000357,0.000794,-0.001988,1.3096,1.1117,-0.6265,-0.196350,0.207087,0.000000,0.578311,-0.592117,0.585981,-0.602854,0.567573,-0.556835
2.8008,0.016758,0.000000,0.000000,0.000000,0.0000,1.1548,1.8101,-0.153354,0.153354,0.000357,0.000794,-0.001988,1.3096,1.1117,-0.6265,-0.196350,0.207087,0.000000,0.578311,-0.592117,0.585981,-0.602854,0.567573,-0.556835
2.8175,0.016754,0.000000,0.000000,0.000000,0.0000,1.1344,1.8189,-0.141979,0.141979,0.000357,0.000794,-0.001988,1.3096,1.1117,-0.6265,-0.185612,0.194816,0.000000,0.578311,-0.592117,0.585981,-0.602854,0.567573,-0.556835
2.8343,0.016751,0.000000,0.000000,0.000000,0.0000,1.1135,1.8276,-0.130213,0.130213,0.000357,0.000794,-0.001988,1.3096,1.1117,-0.6265,-0.174874,0.182544,0.000000,0.578311,-0.592117,0.585981,-0.602854,0.567573,-0.556835
2.8510,0.016744,0.000000,0.000000,0.000000,-0.0000,1.0921,1.8360,-0.118091,0.118091,0.000357,0.000794,-0.001988,1.3096,1.1117,-0.6265,-0.165670,0.168738,0.000000,0.578311,-0.592117,0.585981,-0.602854,0.567573,-0.556835
2.8678,0.016764,0.000000,0.000000,0.000000,0.0000,1.0702,1.8443,-0.105628,0.105628,0.000357,0.000794,-0.001988,1.3096,1.1117,-0.6265,-0.151864,0.154932,0.000000,0.578311,-0.592117,0.585981,-0.602854,0.567573,-0.556835
2.8845,0.016740,0.000000,0.000000,0.000000,0.0000,1.0479,1.8523,-0.092890,0.092890,0.000357,0.000794,-0.001988,1.3096,1.1117,-0.6265,-0.134990,0.138058,0.000000,0.578311,-0.592117,0.585981,-0.602854,0.567573,-0.556835
2.9013,0.016763,0.000000,0.000000,0.000000,0.0000,1.0250,1.8602,-0.079877,0.079877,0.000357,0.000794,-0.001988,1.3096,1.1117,-0.6265,-0.134990,0.138058,0.000000,0.578311,-0.592117,0.585981,-0.602854,0.567573,-0.556835
2.9180,0.016738,0.000000,0.000000,0.000000,0.0000,1.0018,1.8678,-0.066663,0.066663,0.000357,0.000794,-0.001988,1.3096,1.1117,-0.6265,-0.119651,0.121184,0.000000,0.578311,-0.592117,0.585981,-0.602854,0.567573,-0.556835
2.9348,0.016752,0.000000,0.000000,0.000000,0.0000,0.9780,1.8752,-0.053253,0.053253,0.000357,0.000794,-0.001988,1.3096,1.1117,-0.6265,-0.104311,0.105845,0.000000,0.578311,-0.592117,0.585981,-0.602854,0.567573,-0.556835
2.9515,0.016741,0.000000,0.000000,0.000000,-0.0000,0.9539,1.8824,-0.039705,0.039705,0.000357,0.000794,-0.001988,1.3096,1.1117,-0.6265,-0.090505,0.090505,0.000000,0.578311,-0.592117,0.585981,-0.602854,0.567573,-0.556835
2.9683,0.016753,0.000000,0.000000,0.000000,0.0000,0.9293,1.8894,-0.026037,0.026037,0.000357,0.000794,-0.001988,1.3096,1.1117,-0.6265,-0.073631,0.075165,0.000000,0.578311,-0.592117,0.585981,-0.602854,0.567573,-0.556835
2.9850,0.016746,0.000000,0.000000,0.000000,-0.0000,0.9043,1.8962,-0.012303,0.012303,0.000357,0.000794,-0.001988,1.3096,1.1117,-0.6265,-0.056757,0.056757,0.000000,0.578311,-0.592117,0.585981,-0.602854,0.567573,-0.556835
3.0018,0.016755,0.000000,0.000000,0.000000,0.0000,0.8789,1.9028,0.001473,-0.001473,0.000357,0.000794,-0.001988,1.3096,1.1117,-0.6265,-0.056757,0.056757,0.000000,0.578311,-0.592117,0.585981,-0.602854,0.567573,-0.556835
3.0185,0.016739,0.000000,0.000000,0.000000,0.0000,0.8532,1.9092,0.015232,-0.015232,0.000411,0.000779,-0.001975,1.3481,1.0772,-0.6812,-0.038350,0.038350,0.000000,0.578311,-0.593651,0.585981,-0.602854,0.567573,-0.556835
3.0353,0.016744,0.000000,0.000000,0.000000,0.0000,0.8270,1.9153,0.028952,-0.028952,0.000351,0.000797,-0.001989,1.3057,1.1159,-0.6214,-0.019942,0.024544,0.000000,0.578311,-0.592117,0.585981,-0.602854,0.567573,-0.556835
3.0520,0.016744,0.000000,0.000000,0.000000,0.0000,0.8005,1.9213,0.042592,-0.042592,0.000358,0.000795,-0.001987,1.3101,1.1119,-0.6277,-0.004602,0.009204,0.000000,0.578311,-0.592117,0.585981,-0.602854,0.567573,-0.556835
3.0688,0.016753,0.000000,0.000000,0.000000,0.0000,0.7736,1.9270,0.056123,-0.056123,0.000358,0.000795,-0.001987,1.3101,1.1119,-0.6277,0.010738,-0.006136,0.000000,0.578311,-0.592117,0.585981,-0.602854,0.567573,-0.556835
3.0855,0.016745,0.000000,0.000000,0.000000,0.0000,0.7464,1.9326,0.069491,-0.069491,0.000358,0.000795,-0.001987,1.3101,1.1119,-0.6277,0.029146,-0.026078,0.000000,0.578311,-0.592117,0.585981,-0.602854,0.567573,-0.556835
3.1023,0.016760,0.000000,0.000000,0.000000,0.0000,0.7189,1.9379,0.082679,-0.082679,0.000358,0.000795,-0.001987,1.3101,1.1119,-0.6277,0.029146,-0.026078,0.000000,0.578311,-0.592117,0.585981,-0.602854,0.567573,-0.556835
3.1190,0.016742,0.000000,0.000000,0.000000,-0.0000,0.6910,1.9430,0.095623,-0.095623,0.000358,0.000795,-0.001987,1.3101,1.1119,-0.6277,0.044485,-0.042951,0.000000,0.578311,-0.592117,0.585981,-0.602854,0.567573,-0.556835
3.1358,0.016753,0.000000,0.000000,0.000000,0.0000,0.6628,1.9479,0.108311,-0.108311,0.000358,0.000795,-0.001987,1.3101,1.1119,-0.6277,0.061359,-0.058291,0.000000,0.578311,-0.592117,0.585981,-0.602854,0.567573,-0.556835
3.1525,0.016746,0.000000,0.000000,0.000000,0.0000,0.6344,1.9525,0.120695,-0.120695,0.000358,0.000795,-0.001987,1.3101,1.1119,-0.6277,0.073631,-0.073631,0.000000,0.578311,-0.592117,0.585981,-0.602854,0.567573,-0.556835
3.1693,0.016756,0.000000,0.000000,0.000000,-0.0000,0.6056,1.9570,0.132751,-0.132751,0.000358,0.000795,-0.001987,1.3101,1.1119,-0.6277,0.090505,-0.088971,0.000000,0.578311,-0.592117,0.585981,-0.602854,0.567573,-0.556835
3.1861,0.016802,0.000000,0.000000,0.000000,0.0000,0.5765,1.9612,0.144471,-0.144471,0.000370,0.000739,-0.001999,1.2991,1.0620,-0.5734,0.107379,-0.102777,0.000000,0.578311,-0.592117,0.585981,-0.601320,0.567573,-0.556835
3.2028,0.016762,0.000000,0.000000,0.000000,-0.0000,0.5472,1.9652,0.155763,-0.155763,0.000370,0.000739,-0.001999,1.2991,1.0620,-0.5734,0.107379,-0.102777,0.000000,0.578311,-0.592117,0.585981,-0.601320,0.567573,-0.556835
3.2196,0.016749,0.000000,0.000000,0.000000,0.0000,0.5177,1.9690,0.166614,-0.166614,0.000356,0.000801,-0.001986,1.3108,1.1175,-0.6327,0.125786,-0.118117,0.000000,0.578311,-0.592117,0.585981,-0.602854,0.567573,-0.556835
3.2363,0.016752,0.000000,0.000000,0.000000,0.0000,0.4879,1.9726,0.177006,-0.177006,0.000357,0.000794,-0.001988,1.3096,1.1117,-0.6265,0.139592,-0.133456,0.000000,0.578311,-0.592117,0.585981,-0.602854,0.567573,-0.556835
3.2531,0.016747,0.000000,0.000000,0.000000,0.0000,0.4580,1.9760,0.186905,-0.186905,0.000357,0.000794,-0.001988,1.3096,1.1117,-0.6265,0.145728,-0.145728,0.000000,0.578311,-0.592117,0.585981,-0.602854,0.567573,-0.556835
3.2698,0.016754,0.000000,0.000000,0.000000,-0.0000,0.4278,1.9791,0.196291,-0.196291,0.000357,0.000794,-0.001988,1.3096,1.1117,-0.6265,0.153398,-0.161068,0.000000,0.578311,-0.592117,0.585981,-0.602854,0.567573,-0.556835
3.2866,0.016756,0.000000,0.000000,0.000000,0.0000,0.3975,1.9820,0.205134,-0.205134,0.000357,0.000794,-0.001988,1.3096,1.1117,-0.6265,0.170272,-0.177942,0.000000,0.578311,-0.592117,0.585981,-0.602854,0.567573,-0.556835
3.3034,0.016759,0.000000,0.000000,0.000000,-0.0000,0.3669,1.9848,0.213410,-0.213410,0.000357,0.000794,-0.001988,1.3096,1.1117,-0.6265,0.170272,-0.177942,0.000000,0.578311,-0.592117,0.585981,-0.602854,0.567573,-0.556835
3.3201,0.016747,0.000000,0.000000,0.000000,0.0000,0.3362,1.9872,0.221089,-0.221089,0.000370,0.000739,-0.001999,1.2991,1.0620,-0.5736,0.193282,-0.191748,0.000000,0.578311,-0.592117,0.585981,-0.601320,0.567573,-0.556835
3.3369,0.016753,0.000000,0.000000,0.000000,0.0000,0.3054,1.9895,0.228159,-0.228159,0.000356,0.000801,-0.001986,1.3108,1.1175,-0.6327,0.204019,-0.202485,0.000000,0.578311,-0.592117,0.585981,-0.602854,0.567573,-0.556835
3.3536,0.016739,0.000000,0.000000,0.000000,0.0000,0.2744,1.9915,0.234592,-0.234592,0.000357,0.000794,-0.001988,1.3096,1.1117,-0.6265,0.202485,-0.208621,0.000000,0.578311,-0.592117,0.585981,-0.602854,0.567573,-0.556835
3.3703,0.016754,0.000000,0.000000,0.000000,0.0000,0.2433,1.9934,0.240381,-0.240381,0.000357,0.000794,-0.001988,1.3096,1.1117,-0.6265,0.207087,-0.214757,0.000000,0.578311,-0.592117,0.585981,-0.602854,0.567573,-0.556835
3.3872,0.016866,0.000000,0.000000,0.000000,0.0000,0.2119,1.9950,0.245536,-0.245536,0.000357,0.000794,-0.001988,1.3096,1.1117,-0.6265,0.207087,-0.214757,0.000000,0.578311,-0.592117,0.585981,-0.602854,0.567573,-0.556835
3.4040,0.016759,0.000000,0.000000,0.000000,0.0000,0.1806,1.9964,0.249976,-0.249976,0.000357,0.000794,-0.001988,1.3096,1.1117,-0.6265,0.207087,-0.214757,0.000000,0.578311,-0.592117,0.585981,-0.602854,0.567573,-0.556835
3.4207,0.016756,0.000000,0.000000,0.000000,-0.0000,0.1492,1.9975,0.253723,-0.253723,0.000357,0.000794,-0.001988,1.3096,1.1117,-0.6265,0.240835,-0.236233,0.000000,0.578311,-0.592117,0.585981,-0.602854,0.567573,-0.556835
3.4375,0.016772,0.000000,0.000000,0.000000,0.0000,0.1177,1.9985,0.256769,-0.256769,0.000357,0.000794,-0.001988,1.3096,1.1117,-0.6265,0.240835,-0.239301,0.000000,0.578311,-0.592117,0.585981,-0.602854,0.567573,-0.556835
3.4543,0.016750,0.000000,0.000000,0.000000,0.0000,0.0862,1.9992,0.259100,-0.259100,0.000357,0.000794,-0.001988,1.3096,1.1117,-0.6265,0.240835,-0.239301,0.000000,0.578311,-0.592117,0.585981,-0.602854,0.567573,-0.556835
3.4710,0.016751,0.000000,0.000000,0.000000,-0.0000,0.0546,1.9997,0.260714,-0.260714,0.000357,0.000794,-0.001988,1.3096,1.1117,-0.6265,0.234699,-0.237767,0.000000,0.578311,-0.592117,0.585981,-0.602854,0.567573,-0.556835
3.4877,0.016748,0.000000,0.000000,0.000000,0.0000,0.0231,1.9999,0.261606,-0.261606,0.000357,0.000794,-0.001988,1.3096,1.1117,-0.6265,0.242369,-0.242369,0.000000,0.578311,-0.592117,0.585981,-0.602854,0.567573,-0.556835
3.5045,0.016770,0.000000,0.000000,0.000000,0.0000,-0.0085,2.0000,0.261773,-0.261773,0.000357,0.000794,-0.001988,1.3096,1.1117,-0.6265,0.257709,-0.253107,0.000000,0.578311,-0.592117,0.585981,-0.602854,0.567573,-0.556835
3.5213,0.016749,0.000000,0.000000,0.000000,0.0000,-0.0401,1.9998,0.261215,-0.261215,0.000370,0.000739,-0.001999,1.2991,1.0620,-0.5736,0.262311,-0.263845,0.000000,0.578311,-0.592117,0.585981,-0.601320,0.567573,-0.556835
3.5380,0.016780,0.000000,0.000000,0.000000,0.0000,-0.0717,1.9994,0.259931,-0.259931,0.000356,0.000801,-0.001986,1.3108,1.1175,-0.6327,0.259243,-0.263845,0.000000,0.578311,-0.592117,0.585981,-0.602854,0.567573,-0.556835
3.5548,0.016751,0.000000,0.000000,0.000000,-0.0000,-0.1032,1.9988,0.257929,-0.257929,0.000356,0.000801,-0.001986,1.3108,1.1175,-0.6327,0.259243,-0.263845,0.000000,0.578311,-0.592117,0.585981,-0.602854,0.567573,-0.556835
3.5716,0.016757,0.000000,0.000000,0.000000,0.0000,-0.1347,1.9980,0.255212,-0.255212,0.000357,0.000794,-0.001988,1.3096,1.1117,-0.6265,0.257709,-0.259243,0.000000,0.578311,-0.592117,0.585981,-0.602854,0.567573,-0.556835
3.5883,0.016750,0.000000,0.000000,0.000000,-0.0000,-0.1661,1.9969,0.251789,-0.251789,0.000357,0.000794,-0.001988,1.3096,1.1117,-0.6265,0.263845,-0.262311,0.000000,0.578311,-0.592117,0.585981,-0.602854,0.567573,-0.556835
3.6051,0.016767,0.000000,0.000000,0.000000,-0.0000,-0.1975,1.9956,0.247665,-0.247665,0.000370,0.000739,-0.001999,1.2991,1.0620,-0.5736,0.262311,-0.263845,0.000000,0.578311,-0.592117,0.585981,-0.601320,0.567573,-0.556835
3.6218,0.016750,0.000000,0.000000,0.000000,-0.0000,-0.2287,1.9941,0.242859,-0.242859,0.000356,0.000801,-0.001986,1.3108,1.1175,-0.6327,0.256175,-0.259243,0.000000,0.578311,-0.592117,0.585981,-0.602854,0.567573,-0.556835
3.6386,0.016769,0.000000,0.000000,0.000000,0.0000,-0.2599,1.9924,0.237374,-0.237374,0.000356,0.000801,-0.001986,1.3108,1.1175,-0.6327,0.253107,-0.254641,0.000000,0.578311,-0.592117,0.585981,-0.602854,0.567573,-0.556835
3.6553,0.016750,0.000000,0.000000,0.000000,0.0000,-0.2910,1.9905,0.231237,-0.231237,0.000357,0.000794,-0.001988,1.3096,1.1117,-0.6265,0.253107,-0.254641,0.000000,0.578311,-0.592117,0.585981,-0.602854,0.567573,-0.556835
3.6721,0.016752,0.000000,0.000000,0.000000,0.0000,-0.3219,1.9883,0.224460,-0.224460,0.000357,0.000794,-0.001988,1.3096,1.1117,-0.6265,0.251573,-0.254641,0.000000,0.578311,-0.592117,0.585981,-0.602854,0.567573,-0.556835
3.6888,0.016749,0.000000,0.000000,0.000000,0.0000,-0.3526,1.9859,0.217062,-0.217062,0.000357,0.000794,-0.001988,1.3096,1.1117,-0.6265,0.250039,-0.253107,0.000000,0.578311,-0.592117,0.585981,-0.602854,0.567573,-0.556835
3.7056,0.016750,0.000000,0.000000,0.000000,0.0000,-0.3832,1.9833,0.209063,-0.209063,0.000316,0.000834,-0.001975,1.3598,1.0963,-0.5732,0.246971,-0.251573,0.000000,0.579845,-0.592117,0.585981,-0.602854,0.567573,-0.556835
3.7223,0.016746,0.000000,0.000000,0.000000,-0.0000,-0.4137,1.9805,0.200488,-0.200488,0.000320,0.000830,-0.001977,1.3546,1.0979,-0.5787,0.242369,-0.243903,0.000000,0.579845,-0.592117,0.585981,-0.602854,0.567573,-0.556835
3.7391,0.016769,0.000000,0.000000,0.000000,0.0000,-0.4440,1.9775,0.191344,-0.191344,0.000320,0.000830,-0.001977,1.3546,1.0979,-0.5787,0.231631,-0.231631,0.000000,0.579845,-0.592117,0.585981,-0.602854,0.567573,-0.556835
3.7559,0.016744,0.000000,0.000000,0.000000,0.0000,-0.4740,1.9742,0.181685,-0.181685,0.000320,0.000830,-0.001977,1.3546,1.0979,-0.5787,0.231631,-0.231631,0.000000,0.579845,-0.592117,0.585981,-0.602854,0.567573,-0.556835
3.7726,0.016759,0.000000,0.000000,0.000000,0.0000,-0.5039,1.9707,0.171514,-0.171514,0.000236,0.000908,-0.001952,1.4551,1.0659,-0.4701,0.219359,-0.219359,0.000000,0.582913,-0.592117,0.585981,-0.602854,0.567573,-0.556835
3.7894,0.016744,0.000000,0.000000,0.000000,-0.0000,-0.5335,1.9670,0.160877,-0.160877,0.000203,0.000939,-0.001943,1.4946,1.0535,-0.4274,0.194816,-0.200951,0.000000,0.584447,-0.592117,0.585981,-0.602854,0.567573,-0.556835
3.8061,0.016750,0.000000,0.000000,0.000000,0.0000,-0.5629,1.9631,0.149791,-0.149791,0.000207,0.000936,-0.001944,1.4904,1.0548,-0.4319,0.194816,-0.200951,0.000000,0.584447,-0.592117,0.585981,-0.602854,0.567573,-0.556835
3.8228,0.016740,0.000000,0.000000,0.000000,0.0000,-0.5920,1.9590,0.138296,-0.138296,0.000165,0.000975,-0.001931,1.5408,1.0389,-0.3773,0.184078,-0.196350,0.000000,0.585981,-0.592117,0.585981,-0.602854,0.567573,-0.556835
3.8396,0.016769,0.000000,0.000000,0.000000,-0.0000,-0.6209,1.9546,0.126399,-0.126399,0.000127,0.001010,-0.001921,1.5854,1.0248,-0.3289,0.156466,-0.171806,0.000000,0.587515,-0.592117,0.585981,-0.602854,0.567573,-0.556835
3.8564,0.016742,0.000000,0.000000,0.000000,0.0000,-0.6495,1.9501,0.114172,-0.114172,0.000127,0.001010,-0.001921,1.5854,1.0248,-0.3289,0.156466,-0.171806,0.000000,0.587515,-0.592117,0.585981,-0.602854,0.567573,-0.556835
3.8731,0.016752,0.000000,0.000000,0.000000,-0.0000,-0.6778,1.9453,0.101621,-0.101621,0.000131,0.001007,-0.001922,1.5807,1.0263,-0.3340,0.156466,-0.171806,0.000000,0.587515,-0.592117,0.585981,-0.602854,0.567573,-0.556835
3.8899,0.016743,0.000000,0.000000,0.000000,0.0000,-0.7058,1.9403,0.088795,-0.088795,0.000131,0.001007,-0.001922,1.5807,1.0263,-0.3340,0.133456,-0.142660,0.000000,0.587515,-0.592117,0.585981,-0.602854,0.567573,-0.556835
3.9066,0.016750,0.000000,0.000000,0.000000,0.0000,-0.7335,1.9351,0.075719,-0.075719,0.000131,0.001007,-0.001922,1.5807,1.0263,-0.3340,0.118117,-0.127320,0.000000,0.587515,-0.592117,0.585981,-0.602854,0.567573,-0.556835
3.9233,0.016741,0.000000,0.000000,0.000000,0.0000,-0.7609,1.9297,0.062440,-0.062440,0.000131,0.001007,-0.001922,1.5807,1.0263,-0.3340,0.101243,-0.111981,0.000000,0.587515,-0.592117,0.585981,-0.602854,0.567573,-0.556835
3.9401,0.016778,0.000000,0.000000,0.000000,0.0000,-0.7880,1.9240,0.048958,-0.048958,0.000131,0.001007,-0.001922,1.5807,1.0263,-0.3340,0.101243,-0.111981,0.000000,0.587515,-0.592117,0.585981,-0.602854,0.567573,-0.556835
3.9569,0.016746,0.000000,0.000000,0.000000,0.0000,-0.8146,1.9182,0.035366,-0.035366,0.000131,0.001007,-0.001922,1.5807,1.0263,-0.3340,0.082835,-0.092039,0.000000,0.587515,-0.592117,0.585981,-0.602854,0.567573,-0.556835
3.9736,0.016754,0.000000,0.000000,0.000000,0.0000,-0.8410,1.9121,0.021671,-0.021671,0.000131,0.001007,-0.001922,1.5807,1.0263,-0.3340,0.067495,-0.073631,0.000000,0.587515,-0.592117,0.585981,-0.602854,0.567573,-0.556835
3.9904,0.016752,0.000000,0.000000,0.000000,0.0000,-0.8669,1.9058,0.007917,-0.007917,0.000173,0.000968,-0.001934,1.5314,1.0418,-0.3875,0.052155,-0.056757,0.000000,0.585981,-0.592117,0.585981,-0.602854,0.567573,-0.556835
4.0071,0.016758,0.000000,0.000000,0.000000,-0.0000,-0.8925,1.8993,-0.005864,0.005864,0.000126,0.001011,-0.001921,1.5864,1.0245,-0.3279,0.035282,-0.038350,0.000000,0.587515,-0.592117,0.585981,-0.602854,0.567573,-0.556835
4.0239,0.016750,0.000000,0.000000,0.000000,-0.0000,-0.9177,1.8926,-0.019623,0.019623,0.000131,0.001006,-0.001922,1.5806,1.0263,-0.3341,0.016874,-0.016874,0.000000,0.587515,-0.592117,0.585981,-0.602854,0.567573,-0.556835
4.0406,0.016742,0.000000,0.000000,0.000000,0.0000,-0.9425,1.8857,-0.033321,0.033321,0.000131,0.001006,-0.001922,1.5806,1.0263,-0.3341,0.016874,-0.016874,0.000000,0.587515,-0.592117,0.585981,-0.602854,0.567573,-0.556835
4.0574,0.016746,0.000000,0.000000,0.000000,0.0000,-0.9668,1.8786,-0.046930,0.046930,0.000131,0.001006,-0.001922,1.5806,1.0263,-0.3341,0.000000,0.000000,0.000000,0.587515,-0.592117,0.585981,-0.602854,0.567573,-0.556835
4.0741,0.016754,0.000000,0.000000,0.000000,0.0000,-0.9907,1.8713,-0.060415,0.060415,0.000131,0.001006,-0.001922,1.5806,1.0263,-0.3341,-0.015340,0.013806,0.000000,0.587515,-0.592117,0.585981,-0.602854,0.567573,-0.556835
4.0909,0.016739,0.000000,0.000000,0.000000,-0.0000,-1.0142,1.8637,-0.073721,0.073721,0.000131,0.001006,-0.001922,1.5806,1.0263,-0.3341,-0.027612,0.024544,0.000000,0.587515,-0.592117,0.585981,-0.602854,0.567573,-0.556835
4.1076,0.016754,0.000000,0.000000,0.000000,0.0000,-1.0372,1.8560,-0.086834,0.086834,0.000131,0.001006,-0.001922,1.5806,1.0263,-0.3341,-0.039884,0.038350,0.000000,0.587515,-0.592117,0.585981,-0.602854,0.567573,-0.556835
4.1244,0.016806,0.000000,0.000000,0.000000,0.0000,-1.0599,1.8480,-0.099747,0.099747,0.000144,0.000951,-0.001933,1.5705,0.9758,-0.2800,-0.059825,0.058291,0.000000,0.587515,-0.592117,0.585981,-0.601320,0.567573,-0.556835
4.1412,0.016742,0.000000,0.000000,0.000000,-0.0000,-1.0820,1.8399,-0.112334,0.112334,0.000144,0.000951,-0.001933,1.5705,0.9758,-0.2800,-0.059825,0.058291,0.000000,0.587515,-0.592117,0.585981,-0.601320,0.567573,-0.556835
4.1579,0.016744,0.000000,0.000000,0.000000,0.0000,-1.1036,1.8315,-0.124612,0.124612,0.000129,0.001013,-0.001921,1.5823,1.0314,-0.3391,-0.081301,0.081301,0.000000,0.587515,-0.592117,0.585981,-0.602854,0.567573,-0.556835
4.1747,0.016744,0.000000,0.000000,0.000000,0.0000,-1.1247,1.8230,-0.136546,0.136546,0.000131,0.001006,-0.001922,1.5811,1.0256,-0.3329,-0.099709,0.096641,0.000000,0.587515,-0.592117,0.585981,-0.602854,0.567573,-0.556835
4.1914,0.016746,0.000000,0.000000,0.000000,-0.0000,-1.1454,1.8142,-0.148103,0.148103,0.000131,0.001006,-0.001922,1.5811,1.0256,-0.3329,-0.107379,0.104311,0.000000,0.587515,-0.592117,0.585981,-0.602854,0.567573,-0.556835
4.2081,0.016740,0.000000,0.000000,0.000000,0.0000,-1.1655,1.8053,-0.159246,0.159246,0.000131,0.001006,-0.001922,1.5811,1.0256,-0.3329,-0.119651,0.115049,0.000000,0.587515,-0.592117,0.585981,-0.602854,0.567573,-0.556835
4.2249,0.016746,0.000000,0.000000,0.000000,-0.0000,-1.1851,1.7961,-0.169953,0.169953,0.000131,0.001006,-0.001922,1.5811,1.0256,-0.3329,-0.134990,0.133456,0.000000,0.587515,-0.592117,0.585981,-0.602854,0.567573,-0.556835
4.2416,0.016742,0.000000,0.000000,0.000000,0.0000,-1.2042,1.7868,-0.180187,0.180187,0.000131,0.001006,-0.001922,1.5811,1.0256,-0.3329,-0.134990,0.133456,0.000000,0.587515,-0.592117,0.585981,-0.602854,0.567573,-0.556835
4.2584,0.016743,0.000000,0.000000,0.000000,0.0000,-1.2227,1.7772,-0.189923,0.189923,0.000144,0.000951,-0.001933,1.5704,0.9758,-0.2801,-0.158000,0.154932,0.000000,0.587515,-0.592117,0.585981,-0.601320,0.567573,-0.556835
4.2751,0.016744,0.000000,0.000000,0.000000,0.0000,-1.2407,1.7675,-0.199134,0.199134,0.000129,0.001013,-0.001921,1.5823,1.0314,-0.3391,-0.170272,0.167204,0.000000,0.587515,-0.592117,0.585981,-0.602854,0.567573,-0.556835
4.2919,0.016741,0.000000,0.000000,0.000000,-0.0000,-1.2582,1.7575,-0.207793,0.207793,0.000131,0.001006,-0.001922,1.5811,1.0256,-0.3329,-0.173340,0.173340,0.000000,0.587515,-0.592117,0.585981,-0.602854,0.567573,-0.556835
4.3086,0.016741,0.000000,0.000000,0.000000,0.0000,-1.2751,1.7474,-0.215878,0.215878,0.000131,0.001006,-0.001922,1.5811,1.0256,-0.3329,-0.181010,0.182544,0.000000,0.587515,-0.592117,0.585981,-0.602854,0.567573,-0.556835
4.3257,0.017151,0.000000,0.000000,0.000000,-0.0000,-1.2918,1.7368,-0.223541,0.223541,0.000131,0.001006,-0.001922,1.5811,1.0256,-0.3329,-0.197884,0.196350,0.000000,0.587515,-0.592117,0.585981,-0.602854,0.567573,-0.556835
4.3425,0.016742,0.000000,0.000000,0.000000,0.0000,-1.3076,1.7263,-0.230395,0.230395,0.000131,0.001006,-0.001922,1.5811,1.0256,-0.3329,-0.197884,0.196350,0.000000,0.587515,-0.592117,0.585981,-0.602854,0.567573,-0.556835
4.3592,0.016742,0.000000,0.000000,0.000000,-0.0000,-1.3228,1.7156,-0.236613,0.236613,0.000005,0.001124,-0.001886,1.7307,0.9792,-0.1711,-0.216291,0.213223,0.000000,0.592117,-0.592117,0.585981,-0.602854,0.567573,-0.556835
4.3760,0.016743,0.000000,0.000000,0.000000,-0.0000,-1.3373,1.7046,-0.242176,0.242176,-0.000023,0.001151,-0.001878,1.7647,0.9687,-0.1338,-0.222427,0.220893,0.000000,0.593651,-0.592117,0.585981,-0.602854,0.567573,-0.556835
4.3927,0.016755,0.000000,0.000000,0.000000,0.0000,-1.3513,1.6935,-0.247073,0.247073,-0.000062,0.001187,-0.001867,1.8109,0.9543,-0.0835,-0.220893,0.220893,0.000000,0.595185,-0.592117,0.585981,-0.602854,0.567573,-0.556835
4.4095,0.016748,0.000000,0.000000,0.000000,0.0000,-1.3647,1.6822,-0.251284,0.251284,-0.000100,0.001223,-0.001857,1.8558,0.9404,-0.0344,-0.227029,0.230097,0.000000,0.596719,-0.592117,0.585981,-0.602854,0.567573,-0.556835
4.4263,0.016846,0.000000,0.000000,0.000000,-0.0000,-1.3776,1.6707,-0.254817,0.254817,-0.000100,0.001223,-0.001857,1.8558,0.9404,-0.0344,-0.227029,0.230097,0.000000,0.596719,-0.592117,0.585981,-0.602854,0.567573,-0.556835
4.4431,0.016784,0.000000,0.000000,0.000000,0.0000,-1.3898,1.6590,-0.257629,0.257629,-0.000100,0.001223,-0.001857,1.8558,0.9404,-0.0344,-0.227029,0.230097,0.000000,0.596719,-0.592117,0.585981,-0.602854,0.567573,-0.556835
4.4599,0.016748,0.000000,0.000000,0.000000,-0.0000,-1.4014,1.6472,-0.259720,0.259720,-0.000096,0.001219,-0.001858,1.8511,0.9419,-0.0396,-0.254641,0.251573,0.000000,0.596719,-0.592117,0.585981,-0.602854,0.567573,-0.556835
4.4770,0.017099,0.000000,0.000000,0.000000,0.0000,-1.4126,1.6349,-0.261113,0.261113,-0.000096,0.001219,-0.001858,1.8511,0.9419,-0.0396,-0.251573,0.248505,0.000000,0.596719,-0.592117,0.585981,-0.602854,0.567573,-0.556835
4.4937,0.016757,0.000000,0.000000,0.000000,0.0000,-1.4229,1.6227,-0.261748,0.261748,-0.000096,0.001219,-0.001858,1.8511,0.9419,-0.0396,-0.251573,0.248505,0.000000,0.596719,-0.592117,0.585981,-0.602854,0.567573,-0.556835
4.5105,0.016742,0.000000,0.000000,0.000000,0.0000,-1.4325,1.6103,-0.261658,0.261658,-0.000139,0.001259,-0.001846,1.9012,0.9264,0.0153,-0.250039,0.250039,0.000000,0.598253,-0.592117,0.585981,-0.602854,0.567573,-0.556835
4.5272,0.016753,0.000000,0.000000,0.000000,-0.0000,-1.4416,1.5977,-0.260844,0.260844,-0.000177,0.001294,-0.001836,1.9456,0.9127,0.0638,-0.257709,0.257709,0.000000,0.599786,-0.592117,0.585981,-0.602854,0.567573,-0.556835
