t,loop_dt,cmd_x,cmd_y,cmd_z,cmd_roll,cmd_pitch,cmd_yaw,cmd_ant_l,cmd_ant_r,pres_x,pres_y,pres_z,pres_roll,pres_pitch,pres_yaw,pres_ant_l,pres_ant_r,pres_j0,pres_j1,pres_j2,pres_j3,pres_j4,pres_j5,pres_j6
0.0000,0.000001,-0.000547,0.001435,-0.001673,1.7441,1.1067,-0.5721,-0.003068,0.000000,-0.000547,0.001435,-0.001673,1.7441,1.1067,-0.5721,-0.003068,0.000000,0.000000,0.601320,-0.592117,0.585981,-0.613592,0.567573,-0.567573
0.0167,0.016745,-0.000538,0.001411,-0.001645,1.7150,1.0880,-0.5628,-0.003017,0.000000,-0.000547,0.001435,-0.001673,1.7441,1.1067,-0.5721,0.003068,0.000000,0.000000,0.601320,-0.592117,0.585981,-0.613592,0.567573,-0.567573
0.0335,0.016745,-0.000529,0.001387,-0.001617,1.6859,1.0694,-0.5535,-0.002965,0.000000,-0.000547,0.001435,-0.001673,1.7441,1.1067,-0.5721,0.003068,0.000000,0.000000,0.601320,-0.592117,0.585981,-0.613592,0.567573,-0.567573
0.0502,0.016752,-0.000519,0.001363,-0.001589,1.6567,1.0507,-0.5441,-0.002914,0.000000,-0.000547,0.001435,-0.001673,1.7441,1.1067,-0.5721,0.003068,0.000000,0.000000,0.601320,-0.592117,0.585981,-0.613592,0.567573,-0.567573
0.0670,0.016770,-0.000510,0.001339,-0.001561,1.6276,1.0320,-0.5348,-0.002862,0.000000,-0.000547,0.001435,-0.001673,1.7441,1.1067,-0.5721,-0.004602,0.000000,0.000000,0.601320,-0.592117,0.585981,-0.613592,0.567573,-0.567573
0.0838,0.016745,-0.000501,0.001315,-0.001533,1.5985,1.0134,-0.5255,-0.002811,0.000000,-0.000383,0.001434,-0.001722,1.7426,1.1729,-0.5734,-0.003068,0.000000,0.000000,0.598253,-0.592117,0.585981,-0.613592,0.567573,-0.564505
0.1005,0.016743,-0.000492,0.001291,-0.001505,1.5693,0.9947,-0.5161,-0.002760,0.000000,-0.000209,0.001528,-0.001805,1.8020,1.3024,-0.4120,0.004602,0.000000,0.000000,0.595185,-0.590583,0.585981,-0.613592,0.567573,-0.558369
0.1173,0.016759,-0.000483,0.001267,-0.001477,1.5402,0.9761,-0.5067,-0.002708,0.000000,-0.000188,0.001557,-0.001809,1.8454,1.3067,-0.3748,0.004602,0.000000,0.000000,0.595185,-0.590583,0.585981,-0.613592,0.567573,-0.556835
0.1340,0.016765,-0.000474,0.001243,-0.001449,1.5110,0.9574,-0.4974,-0.002657,0.000000,-0.000108,0.001554,-0.001833,1.8406,1.3392,-0.3791,-0.006136,0.000000,0.000000,0.593651,-0.590583,0.585981,-0.613592,0.567573,-0.555301
0.1508,0.016817,-0.000464,0.001219,-0.001421,1.4818,0.9387,-0.4879,-0.002605,0.000000,-0.000108,0.001554,-0.001833,1.8406,1.3392,-0.3791,-0.006136,0.000000,0.000000,0.593651,-0.590583,0.585981,-0.613592,0.567573,-0.555301
0.1676,0.016757,-0.000455,0.001195,-0.001393,1.4526,0.9201,-0.4785,-0.002554,0.000000,-0.000116,0.001554,-0.001831,1.8411,1.3358,-0.3787,-0.004602,0.000000,0.000000,0.593651,-0.590583,0.585981,-0.613592,0.567573,-0.555301
0.1844,0.016757,-0.000446,0.001171,-0.001365,1.4234,0.9014,-0.4691,-0.002502,0.000000,-0.000116,0.001554,-0.001831,1.8411,1.3358,-0.3787,0.003068,0.000000,0.000000,0.593651,-0.590583,0.585981,-0.613592,0.567573,-0.555301
0.2011,0.016749,-0.000437,0.001147,-0.001337,1.3943,0.8828,-0.4597,-0.002451,0.000000,-0.000155,0.001515,-0.001818,1.7915,1.3185,-0.4326,0.001534,0.000000,0.000000,0.593651,-0.590583,0.585981,-0.613592,0.567573,-0.556835
0.2179,0.016759,-0.000428,0.001123,-0.001309,1.3651,0.8642,-0.4503,-0.002400,0.000000,-0.000193,0.001559,-0.001808,1.8465,1.3050,-0.3726,-0.003068,0.000000,0.000000,0.595185,-0.590583,0.585981,-0.613592,0.567573,-0.556835
0.2349,0.017080,-0.000418,0.001098,-0.001280,1.3354,0.8452,-0.4407,-0.002347,0.000000,-0.000189,0.001554,-0.001809,1.8408,1.3064,-0.3789,-0.004602,0.000000,0.000000,0.595185,-0.590583,0.585981,-0.613592,0.567573,-0.556835
0.2517,0.016742,-0.000409,0.001074,-0.001252,1.3062,0.8266,-0.4313,-0.002296,0.000000,-0.000189,0.001554,-0.001809,1.8408,1.3064,-0.3789,-0.004602,0.000000,0.000000,0.595185,-0.590583,0.585981,-0.613592,0.567573,-0.556835
0.2684,0.016752,-0.000400,0.001050,-0.001224,1.2770,0.8080,-0.4218,-0.002244,0.000000,-0.000189,0.001554,-0.001809,1.8408,1.3064,-0.3789,0.000000,0.000000,0.000000,0.595185,-0.590583,0.585981,-0.613592,0.567573,-0.556835
0.2852,0.016744,-0.000391,0.001026,-0.001196,1.2479,0.7894,-0.4124,-0.002193,0.000000,-0.000108,0.001554,-0.001833,1.8410,1.3393,-0.3787,0.003068,0.000000,0.000000,0.593651,-0.590583,0.585981,-0.613592,0.567573,-0.555301
0.3019,0.016751,-0.000382,0.001002,-0.001168,1.2187,0.7708,-0.4029,-0.002142,0.000000,-0.000116,0.001554,-0.001831,1.8410,1.3358,-0.3787,-0.004602,0.000000,0.000000,0.593651,-0.590583,0.585981,-0.613592,0.567573,-0.555301
0.3187,0.016729,-0.000373,0.000978,-0.001140,1.1896,0.7522,-0.3934,-0.002090,0.000000,-0.000116,0.001554,-0.001831,1.8410,1.3358,-0.3787,-0.004602,0.000000,0.000000,0.593651,-0.590583,0.585981,-0.613592,0.567573,-0.555301
0.3354,0.016770,-0.000364,0.000954,-0.001112,1.1603,0.7336,-0.3839,-0.002039,0.000000,-0.000158,0.001594,-0.001820,1.8909,1.3209,-0.3243,0.001534,0.000000,0.000000,0.595185,-0.590583,0.585981,-0.613592,0.567573,-0.555301
0.3522,0.016748,-0.000354,0.000930,-0.001084,1.1312,0.7150,-0.3744,-0.001987,0.000000,-0.000158,0.001594,-0.001820,1.8909,1.3209,-0.3243,0.001534,0.000000,0.000000,0.595185,-0.590583,0.585981,-0.613592,0.567573,-0.555301
0.3691,0.016896,-0.000345,0.000906,-0.001056,1.1017,0.6963,-0.3649,-0.001936,0.000000,-0.000193,0.001551,-0.001808,1.8361,1.3047,-0.3839,0.004602,0.000000,0.000000,0.595185,-0.590583,0.585981,-0.613592,0.567573,-0.556835
0.3860,0.016932,-0.000336,0.000881,-0.001027,1.0722,0.6775,-0.3552,-0.001884,0.000000,-0.000193,0.001551,-0.001808,1.8361,1.3047,-0.3839,0.004602,0.000000,0.000000,0.595185,-0.590583,0.585981,-0.613592,0.567573,-0.556835
0.4028,0.016744,-0.000327,0.000857,-0.000999,1.0430,0.6590,-0.3457,-0.001832,0.000000,-0.000193,0.001551,-0.001808,1.8361,1.3047,-0.3839,0.004602,0.000000,0.000000,0.595185,-0.590583,0.585981,-0.613592,0.567573,-0.556835
0.4195,0.016745,-0.000318,0.000833,-0.000971,1.0138,0.6404,-0.3362,-0.001781,0.000000,-0.000150,0.001594,-0.001822,1.8914,1.3241,-0.3238,-0.001534,0.000000,0.000000,0.595185,-0.590583,0.585981,-0.613592,0.567573,-0.555301
0.4366,0.017150,-0.000308,0.000809,-0.000943,0.9839,0.6214,-0.3264,-0.001728,0.000000,-0.000194,0.001551,-0.001807,1.8361,1.3044,-0.3840,0.003068,0.000000,0.000000,0.595185,-0.590583,0.585981,-0.613592,0.567573,-0.556835
0.4534,0.016750,-0.000299,0.000785,-0.000915,0.9547,0.6028,-0.3169,-0.001677,0.000000,-0.000107,0.001555,-0.001833,1.8415,1.3395,-0.3781,-0.001534,0.000000,0.000000,0.593651,-0.590583,0.585981,-0.613592,0.567573,-0.555301
0.4706,0.017168,-0.000290,0.000760,-0.000886,0.9248,0.5838,-0.3071,-0.001624,0.000000,-0.000156,0.001515,-0.001818,1.7914,1.3181,-0.4327,-0.006136,0.000000,0.000000,0.593651,-0.590583,0.585981,-0.613592,0.567573,-0.556835
0.4873,0.016752,-0.000280,0.000736,-0.000858,0.8956,0.5653,-0.2975,-0.001573,0.000000,-0.000156,0.001515,-0.001818,1.7914,1.3181,-0.4327,-0.006136,0.000000,0.000000,0.593651,-0.590583,0.585981,-0.613592,0.567573,-0.556835
0.5041,0.016754,-0.000271,0.000712,-0.000830,0.8663,0.5467,-0.2879,-0.001521,0.000000,-0.000153,0.001598,-0.001821,1.8960,1.3227,-0.3187,-0.001534,0.000000,0.000000,0.595185,-0.590583,0.585981,-0.613592,0.567573,-0.555301
0.5208,0.016753,-0.000262,0.000688,-0.000802,0.8371,0.5282,-0.2783,-0.001470,0.000000,-0.000151,0.001511,-0.001819,1.7858,1.3198,-0.4389,0.003068,0.000000,0.000000,0.593651,-0.590583,0.585981,-0.613592,0.567573,-0.556835
0.5376,0.016756,-0.000253,0.000664,-0.000774,0.8079,0.5097,-0.2687,-0.001419,0.000000,-0.000194,0.001559,-0.001808,1.8471,1.3048,-0.3720,-0.001534,0.000000,0.000000,0.595185,-0.590583,0.585981,-0.613592,0.567573,-0.556835
0.5543,0.016750,-0.000244,0.000640,-0.000746,0.7787,0.4911,-0.2591,-0.001367,0.000000,-0.000107,0.001554,-0.001833,1.8404,1.3394,-0.3794,-0.006136,0.000000,0.000000,0.593651,-0.590583,0.585981,-0.613592,0.567573,-0.555301
0.5711,0.016774,-0.000235,0.000616,-0.000718,0.7494,0.4726,-0.2495,-0.001316,0.000000,-0.000198,0.001555,-0.001806,1.8414,1.3028,-0.3782,-0.003068,0.000000,0.000000,0.595185,-0.590583,0.585981,-0.613592,0.567573,-0.556835
0.5879,0.016754,-0.000225,0.000592,-0.000690,0.7202,0.4541,-0.2398,-0.001264,0.000000,-0.000198,0.001555,-0.001806,1.8414,1.3028,-0.3782,-0.003068,0.000000,0.000000,0.595185,-0.590583,0.585981,-0.613592,0.567573,-0.556835
0.6046,0.016751,-0.000216,0.000568,-0.000662,0.6909,0.4355,-0.2302,-0.001213,0.000000,-0.000189,0.001555,-0.001809,1.8413,1.3066,-0.3783,0.003068,0.000000,0.000000,0.595185,-0.590583,0.585981,-0.613592,0.567573,-0.556835
0.6214,0.016750,-0.000207,0.000543,-0.000634,0.6617,0.4170,-0.2206,-0.001162,0.000000,-0.000148,0.001515,-0.001820,1.7915,1.3216,-0.4327,-0.001534,0.000000,0.000000,0.593651,-0.590583,0.585981,-0.613592,0.567573,-0.556835
0.6381,0.016754,-0.000198,0.000519,-0.000606,0.6324,0.3985,-0.2109,-0.001110,0.000000,-0.000152,0.001519,-0.001819,1.7967,1.3200,-0.4270,-0.006136,0.000000,0.000000,0.593651,-0.590583,0.585981,-0.613592,0.567573,-0.556835
0.6549,0.016754,-0.000189,0.000495,-0.000577,0.6032,0.3800,-0.2012,-0.001059,0.000000,-0.000194,0.001558,-0.001808,1.8460,1.3048,-0.3732,-0.001534,0.000000,0.000000,0.595185,-0.590583,0.585981,-0.613592,0.567573,-0.556835
0.6716,0.016773,-0.000180,0.000471,-0.000549,0.5739,0.3615,-0.1915,-0.001007,0.000000,-0.000189,0.001554,-0.001809,1.8408,1.3064,-0.3788,0.003068,0.000000,0.000000,0.595185,-0.590583,0.585981,-0.613592,0.567573,-0.556835
0.6884,0.016748,-0.000170,0.000447,-0.000521,0.5447,0.3430,-0.1819,-0.000956,0.000000,-0.000189,0.001554,-0.001809,1.8408,1.3064,-0.3788,0.003068,0.000000,0.000000,0.595185,-0.590583,0.585981,-0.613592,0.567573,-0.556835
0.7051,0.016740,-0.000161,0.000423,-0.000493,0.5154,0.3246,-0.1722,-0.000905,0.000000,-0.000189,0.001554,-0.001809,1.8408,1.3064,-0.3788,0.000000,0.000000,0.000000,0.595185,-0.590583,0.585981,-0.613592,0.567573,-0.556835
0.7219,0.016747,-0.000152,0.000399,-0.000465,0.4862,0.3061,-0.1625,-0.000853,0.000000,-0.000148,0.001515,-0.001820,1.7915,1.3216,-0.4326,-0.006136,0.000000,0.000000,0.593651,-0.590583,0.585981,-0.613592,0.567573,-0.556835
0.7387,0.016778,-0.000143,0.000375,-0.000437,0.4569,0.2876,-0.1527,-0.000802,0.000000,-0.000112,0.001558,-0.001832,1.8462,1.3377,-0.3731,-0.003068,0.000000,0.000000,0.593651,-0.590583,0.585981,-0.613592,0.567573,-0.555301
0.7554,0.016751,-0.000134,0.000351,-0.000409,0.4276,0.2691,-0.1430,-0.000750,0.000000,-0.000156,0.001515,-0.001818,1.7910,1.3183,-0.4332,0.004602,0.000000,0.000000,0.593651,-0.590583,0.585981,-0.613592,0.567573,-0.556835
0.7722,0.016769,-0.000125,0.000327,-0.000381,0.3983,0.2506,-0.1333,-0.000699,0.000000,-0.000193,0.001559,-0.001808,1.8466,1.3050,-0.3726,0.000000,0.000000,0.000000,0.595185,-0.590583,0.585981,-0.613592,0.567573,-0.556835
0.7889,0.016751,-0.000115,0.000303,-0.000353,0.3690,0.2322,-0.1235,-0.000648,0.000000,-0.000193,0.001559,-0.001808,1.8466,1.3050,-0.3726,0.000000,0.000000,0.000000,0.595185,-0.590583,0.585981,-0.613592,0.567573,-0.556835
0.8057,0.016748,-0.000106,0.000279,-0.000325,0.3398,0.2137,-0.1138,-0.000596,0.000000,-0.000189,0.001554,-0.001809,1.8408,1.3064,-0.3789,-0.006136,0.000000,0.000000,0.595185,-0.590583,0.585981,-0.613592,0.567573,-0.556835
0.8224,0.016741,-0.000097,0.000255,-0.000297,0.3105,0.1953,-0.1040,-0.000545,0.000000,-0.000148,0.001515,-0.001820,1.7915,1.3216,-0.4326,-0.003068,0.000000,0.000000,0.593651,-0.590583,0.585981,-0.613592,0.567573,-0.556835
0.8392,0.016751,-0.000088,0.000231,-0.000269,0.2812,0.1768,-0.0943,-0.000493,0.000000,-0.000194,0.001559,-0.001807,1.8465,1.3047,-0.3726,0.004602,0.000000,0.000000,0.595185,-0.590583,0.585981,-0.613592,0.567573,-0.556835
0.8559,0.016747,-0.000079,0.000207,-0.000241,0.2520,0.1584,-0.0845,-0.000442,0.000000,-0.000147,0.001515,-0.001820,1.7909,1.3218,-0.4333,0.000000,0.000000,0.000000,0.593651,-0.590583,0.585981,-0.613592,0.567573,-0.556835
0.8727,0.016750,-0.000070,0.000183,-0.000213,0.2227,0.1400,-0.0747,-0.000391,0.000000,-0.000152,0.001520,-0.001819,1.7967,1.3200,-0.4269,-0.006136,0.000000,0.000000,0.593651,-0.590583,0.585981,-0.613592,0.567573,-0.556835
0.8894,0.016748,-0.000060,0.000159,-0.000185,0.1934,0.1215,-0.0649,-0.000339,0.000000,-0.000152,0.001520,-0.001819,1.7967,1.3200,-0.4269,-0.006136,0.000000,0.000000,0.593651,-0.590583,0.585981,-0.613592,0.567573,-0.556835
0.9062,0.016750,-0.000051,0.000135,-0.000157,0.1641,0.1031,-0.0551,-0.000288,0.000000,-0.000194,0.001558,-0.001808,1.8460,1.3048,-0.3732,-0.003068,0.000000,0.000000,0.595185,-0.590583,0.585981,-0.613592,0.567573,-0.556835
0.9229,0.016740,-0.000042,0.000111,-0.000129,0.1349,0.0847,-0.0453,-0.000237,0.000000,-0.000189,0.001554,-0.001809,1.8408,1.3064,-0.3788,0.004602,0.000000,0.000000,0.595185,-0.590583,0.585981,-0.613592,0.567573,-0.556835
0.9396,0.016746,-0.000033,0.000087,-0.000101,0.1056,0.0663,-0.0355,-0.000185,0.000000,-0.000189,0.001554,-0.001809,1.8408,1.3064,-0.3788,0.001534,0.000000,0.000000,0.595185,-0.590583,0.585981,-0.613592,0.567573,-0.556835
0.9564,0.016739,-0.000024,0.000063,-0.000073,0.0763,0.0479,-0.0256,-0.000134,0.000000,-0.000148,0.001515,-0.001820,1.7915,1.3216,-0.4326,-0.006136,0.000000,0.000000,0.593651,-0.590583,0.585981,-0.613592,0.567573,-0.556835
0.9731,0.016745,-0.000015,0.000039,-0.000045,0.0470,0.0295,-0.0158,-0.000082,0.000000,-0.000148,0.001515,-0.001820,1.7915,1.3216,-0.4326,-0.003068,0.000000,0.000000,0.595185,-0.590583,0.585981,-0.613592,0.567573,-0.556835
0.9899,0.016739,-0.000006,0.000015,-0.000017,0.0177,0.0111,-0.0060,-0.000031,0.000000,-0.000194,0.001559,-0.001807,1.8465,1.3047,-0.3726,-0.003068,0.000000,0.000000,0.595185,-0.590583,0.585981,-0.613592,0.567573,-0.556835
1.0066,0.016751,0.000000,0.000000,0.000008,0.0054,0.0000,0.0000,0.001089,-0.001089,-0.000189,0.001554,-0.001809,1.8408,1.3064,-0.3789,0.003068,0.000000,0.000000,0.595185,-0.590583,0.585981,-0.613592,0.567573,-0.556835
1.0234,0.016738,0.000000,0.000000,0.000029,0.0191,0.0000,0.0000,0.003841,-0.003841,-0.000148,0.001515,-0.001820,1.7915,1.3216,-0.4326,0.000000,0.000000,0.000000,0.593651,-0.590583,0.585981,-0.613592,0.567573,-0.556835
1.0401,0.016742,0.000000,0.000000,0.000050,0.0327,0.0000,0.0000,0.006590,-0.006590,-0.000194,0.001559,-0.001807,1.8465,1.3047,-0.3726,-0.006136,0.000000,0.000000,0.595185,-0.590583,0.585981,-0.613592,0.567573,-0.556835
1.0568,0.016739,0.000000,0.000000,0.000071,0.0464,0.0000,0.0000,0.009331,-0.009331,-0.000189,0.001554,-0.001809,1.8408,1.3064,-0.3789,-0.003068,-0.001534,0.000000,0.595185,-0.590583,0.585981,-0.613592,0.567573,-0.556835
1.0736,0.016743,0.000000,0.000000,0.000092,0.0601,0.0000,0.0000,0.012065,-0.012065,-0.000189,0.001554,-0.001809,1.8408,1.3064,-0.3789,0.007670,-0.003068,0.000000,0.595185,-0.590583,0.585981,-0.613592,0.567573,-0.556835
1.0903,0.016748,0.000000,0.000000,0.000113,0.0737,0.0000,0.0000,0.014787,-0.014787,-0.000189,0.001554,-0.001809,1.8408,1.3064,-0.3789,0.007670,-0.003068,0.000000,0.595185,-0.590583,0.585981,-0.613592,0.567573,-0.556835
1.1071,0.016757,0.000000,0.000000,0.000134,0.0874,0.0000,0.0000,0.017496,-0.017496,-0.000148,0.001515,-0.001820,1.7915,1.3216,-0.4326,0.006136,-0.004602,0.000000,0.593651,-0.590583,0.585981,-0.613592,0.567573,-0.556835
1.1238,0.016707,0.000000,0.000000,0.000155,0.1009,0.0000,0.0000,0.020179,-0.020179,-0.000194,0.001559,-0.001807,1.8465,1.3047,-0.3726,0.001534,-0.007670,0.000000,0.595185,-0.590583,0.585981,-0.613592,0.567573,-0.556835
1.1405,0.016752,0.000000,0.000000,0.000176,0.1145,0.0000,0.0000,0.022849,-0.022849,-0.000189,0.001554,-0.001809,1.8408,1.3064,-0.3789,0.006136,-0.010738,0.000000,0.595185,-0.590583,0.585981,-0.613592,0.567573,-0.556835
1.1573,0.016744,0.000000,0.000000,0.000197,0.1281,0.0000,0.0000,0.025496,-0.025496,-0.000189,0.001554,-0.001809,1.8408,1.3064,-0.3789,0.013806,-0.013806,0.000000,0.595185,-0.590583,0.585981,-0.613592,0.567573,-0.556835
1.1740,0.016754,0.000000,0.000000,0.000218,0.1417,0.0000,0.0000,0.028118,-0.028118,-0.000189,0.001554,-0.001809,1.8408,1.3064,-0.3789,0.019942,-0.016874,0.000000,0.595185,-0.590583,0.585981,-0.613592,0.567573,-0.556835
1.1908,0.016755,0.000000,0.000000,0.000239,0.1552,0.0000,0.0000,0.030713,-0.030713,-0.000189,0.001554,-0.001809,1.8408,1.3064,-0.3789,0.019942,-0.016874,0.000000,0.595185,-0.590583,0.585981,-0.613592,0.567573,-0.556835
1.2075,0.016740,0.000000,0.000000,0.000260,0.1687,0.0000,0.0000,0.033275,-0.033275,-0.000189,0.001554,-0.001809,1.8408,1.3064,-0.3789,0.024544,-0.019942,0.000000,0.595185,-0.590583,0.585981,-0.613592,0.567573,-0.556835
1.2243,0.016740,0.000000,0.000000,0.000281,0.1822,0.0000,0.0000,0.035803,-0.035803,-0.000189,0.001554,-0.001809,1.8408,1.3064,-0.3789,0.024544,-0.023010,0.000000,0.595185,-0.590583,0.585981,-0.613592,0.567573,-0.556835
1.2410,0.016742,0.000000,0.000000,0.000302,0.1956,0.0000,0.0000,0.038297,-0.038297,-0.000189,0.001554,-0.001809,1.8408,1.3064,-0.3789,0.021476,-0.026078,0.000000,0.595185,-0.590583,0.585981,-0.613592,0.567573,-0.556835
1.2578,0.016741,0.000000,0.000000,0.000322,0.2090,0.0000,0.0000,0.040751,-0.040751,-0.000189,0.001554,-0.001809,1.8408,1.3064,-0.3789,0.027612,-0.032214,0.000000,0.595185,-0.590583,0.585981,-0.613592,0.567573,-0.556835
1.2745,0.016743,0.000000,0.000000,0.000343,0.2223,0.0000,0.0000,0.043166,-0.043166,-0.000189,0.001554,-0.001809,1.8408,1.3064,-0.3789,0.027612,-0.032214,0.000000,0.595185,-0.590583,0.585981,-0.613592,0.567573,-0.556835
1.2912,0.016743,0.000000,0.000000,0.000364,0.2357,0.0000,0.0000,0.045538,-0.045538,-0.000189,0.001554,-0.001809,1.8408,1.3064,-0.3789,0.038350,-0.036816,0.000000,0.595185,-0.590583,0.585981,-0.613592,0.567573,-0.556835
1.3080,0.016745,0.000000,0.000000,0.000385,0.2489,0.0000,0.0000,0.047864,-0.047864,-0.000189,0.001554,-0.001809,1.8408,1.3064,-0.3789,0.036816,-0.036816,0.000000,0.595185,-0.590583,0.585981,-0.613592,0.567573,-0.556835
1.3247,0.016744,0.000000,0.000000,0.000405,0.2621,0.0000,0.0000,0.050143,-0.050143,-0.000136,0.001539,-0.001796,1.8799,1.2708,-0.4323,0.036816,-0.041417,0.000000,0.595185,-0.592117,0.585981,-0.613592,0.567573,-0.556835
1.3415,0.016744,0.000000,0.000000,0.000426,0.2753,0.0000,0.0000,0.052372,-0.052372,-0.000142,0.001540,-0.001797,1.8758,1.2745,-0.4268,0.047553,-0.047553,0.000000,0.595185,-0.592117,0.585981,-0.613592,0.567573,-0.556835
1.3582,0.016751,0.000000,0.000000,0.000446,0.2885,0.0000,0.0000,0.054550,-0.054550,-0.000142,0.001540,-0.001797,1.8758,1.2745,-0.4268,0.050621,-0.049087,0.000000,0.595185,-0.590583,0.585981,-0.613592,0.567573,-0.556835
1.3750,0.016744,0.000000,0.000000,0.000467,0.3015,0.0000,0.0000,0.056672,-0.056672,-0.000195,0.001556,-0.001810,1.8377,1.3096,-0.3733,0.050621,-0.049087,0.000000,0.595185,-0.590583,0.585981,-0.613592,0.567573,-0.556835
1.3917,0.016745,0.000000,0.000000,0.000487,0.3145,0.0000,0.0000,0.058738,-0.058738,-0.000136,0.001538,-0.001796,1.8803,1.2705,-0.4329,0.049087,-0.049087,0.000000,0.595185,-0.592117,0.585981,-0.613592,0.567573,-0.556835
1.4085,0.016820,0.000000,0.000000,0.000508,0.3275,0.0000,0.0000,0.060754,-0.060754,-0.000142,0.001540,-0.001797,1.8758,1.2746,-0.4267,0.050621,-0.050621,0.000000,0.595185,-0.592117,0.585981,-0.613592,0.567573,-0.556835
1.4254,0.016841,0.000000,0.000000,0.000528,0.3405,0.0000,0.0000,0.062712,-0.062712,-0.000142,0.001540,-0.001797,1.8758,1.2746,-0.4267,0.050621,-0.050621,0.000000,0.595185,-0.592117,0.585981,-0.613592,0.567573,-0.556835
1.4421,0.016758,0.000000,0.000000,0.000548,0.3533,0.0000,0.0000,0.064597,-0.064597,-0.000142,0.001540,-0.001797,1.8758,1.2746,-0.4267,0.050621,-0.050621,0.000000,0.595185,-0.592117,0.585981,-0.613592,0.567573,-0.556835
1.4589,0.016752,0.000000,0.000000,0.000569,0.3661,0.0000,0.0000,0.066417,-0.066417,-0.000142,0.001540,-0.001797,1.8758,1.2746,-0.4267,0.062893,-0.061359,0.000000,0.595185,-0.592117,0.585981,-0.613592,0.567573,-0.556835
1.4757,0.016783,0.000000,0.000000,0.000589,0.3788,0.0000,0.0000,0.068175,-0.068175,-0.000142,0.001540,-0.001797,1.8758,1.2746,-0.4267,0.058291,-0.059825,0.000000,0.595185,-0.592117,0.585981,-0.613592,0.567573,-0.556835
1.4924,0.016745,0.000000,0.000000,0.000609,0.3915,0.0000,0.0000,0.069860,-0.069860,-0.000142,0.001540,-0.001797,1.8758,1.2746,-0.4267,0.053689,-0.058291,0.000000,0.595185,-0.592117,0.585981,-0.613592,0.567573,-0.556835
1.5092,0.016740,0.000000,0.000000,0.000629,0.4040,0.0000,0.0000,0.071475,-0.071475,-0.000142,0.001540,-0.001797,1.8758,1.2746,-0.4267,0.059825,-0.061359,0.000000,0.595185,-0.592117,0.585981,-0.613592,0.567573,-0.556835
1.5259,0.016756,0.000000,0.000000,0.000649,0.4165,0.0000,0.0000,0.073020,-0.073020,-0.000142,0.001540,-0.001797,1.8758,1.2746,-0.4267,0.059825,-0.061359,0.000000,0.595185,-0.592117,0.585981,-0.613592,0.567573,-0.556835
1.5427,0.016744,0.000000,0.000000,0.000669,0.4289,0.0000,0.0000,0.074492,-0.074492,-0.000142,0.001540,-0.001797,1.8758,1.2746,-0.4267,0.070563,-0.067495,0.000000,0.595185,-0.592117,0.585981,-0.613592,0.567573,-0.556835
1.5594,0.016748,0.000000,0.000000,0.000689,0.4412,0.0000,0.0000,0.075890,-0.075890,-0.000142,0.001540,-0.001797,1.8758,1.2746,-0.4267,0.070563,-0.070563,0.000000,0.595185,-0.592117,0.585981,-0.613592,0.567573,-0.556835
1.5762,0.016743,0.000000,0.000000,0.000708,0.4534,0.0000,0.0000,0.077211,-0.077211,-0.000142,0.001540,-0.001797,1.8758,1.2746,-0.4267,0.067495,-0.070563,0.000000,0.595185,-0.592117,0.585981,-0.613592,0.567573,-0.556835
1.5929,0.016751,0.000000,0.000000,0.000728,0.4656,0.0000,0.0000,0.078457,-0.078457,-0.000142,0.001540,-0.001797,1.8758,1.2746,-0.4267,0.069029,-0.070563,0.000000,0.595185,-0.592117,0.585981,-0.613592,0.567573,-0.556835
1.6096,0.016745,0.000000,0.000000,0.000748,0.4776,0.0000,0.0000,0.079624,-0.079624,-0.000142,0.001540,-0.001797,1.8758,1.2746,-0.4267,0.073631,-0.073631,0.000000,0.595185,-0.592117,0.585981,-0.613592,0.567573,-0.556835
1.6264,0.016749,0.000000,0.000000,0.000767,0.4896,0.0000,0.0000,0.080711,-0.080711,-0.000142,0.001540,-0.001797,1.8758,1.2746,-0.4267,0.073631,-0.073631,0.000000,0.595185,-0.592117,0.585981,-0.613592,0.567573,-0.556835
1.6431,0.016739,0.000000,0.000000,0.000786,0.5015,0.0000,0.0000,0.081718,-0.081718,-0.000142,0.001540,-0.001797,1.8758,1.2746,-0.4267,0.079767,-0.073631,0.000000,0.595185,-0.592117,0.585981,-0.613592,0.567573,-0.556835
1.6599,0.016745,0.000000,0.000000,0.000806,0.5133,0.0000,0.0000,0.082644,-0.082644,-0.000142,0.001540,-0.001797,1.8758,1.2746,-0.4267,0.079767,-0.073631,0.000000,0.595185,-0.592117,0.585981,-0.613592,0.567573,-0.556835
1.6766,0.016745,0.000000,0.000000,0.000825,0.5250,0.0000,0.0000,0.083487,-0.083487,-0.000142,0.001540,-0.001797,1.8758,1.2746,-0.4267,0.075165,-0.073631,0.000000,0.595185,-0.592117,0.585981,-0.613592,0.567573,-0.556835
1.6934,0.016757,0.000000,0.000000,0.000844,0.5366,0.0000,0.0000,0.084248,-0.084248,-0.000142,0.001540,-0.001797,1.8758,1.2746,-0.4267,0.078233,-0.075165,0.000000,0.595185,-0.592117,0.585981,-0.613592,0.567573,-0.556835
1.7101,0.016747,0.000000,0.000000,0.000863,0.5481,0.0000,0.0000,0.084924,-0.084924,-0.000142,0.001540,-0.001797,1.8758,1.2746,-0.4267,0.085903,-0.073631,0.000000,0.595185,-0.592117,0.585981,-0.613592,0.567573,-0.556835
1.7269,0.016757,0.000000,0.000000,0.000882,0.5595,0.0000,0.0000,0.085516,-0.085516,-0.000142,0.001540,-0.001797,1.8758,1.2746,-0.4267,0.085903,-0.073631,0.000000,0.595185,-0.592117,0.585981,-0.613592,0.567573,-0.556835
1.7436,0.016742,0.000000,0.000000,0.000901,0.5707,0.0000,0.0000,0.086022,-0.086022,-0.000142,0.001540,-0.001797,1.8758,1.2746,-0.4267,0.085903,-0.075165,0.000000,0.595185,-0.592117,0.585981,-0.613592,0.567573,-0.556835
1.7604,0.016774,0.000000,0.000000,0.000920,0.5819,0.0000,0.0000,0.086443,-0.086443,-0.000142,0.001540,-0.001797,1.8758,1.2746,-0.4267,0.079767,-0.075165,0.000000,0.595185,-0.592117,0.585981,-0.613592,0.567573,-0.556835
1.7772,0.016747,0.000000,0.000000,0.000938,0.5930,0.0000,0.0000,0.086778,-0.086778,-0.000142,0.001540,-0.001797,1.8758,1.2746,-0.4267,0.082835,-0.075165,0.000000,0.595185,-0.592117,0.585981,-0.613592,0.567573,-0.556835
1.7939,0.016755,0.000000,0.000000,0.000957,0.6040,0.0000,0.0000,0.087026,-0.087026,-0.000142,0.001540,-0.001797,1.8758,1.2746,-0.4267,0.090505,-0.075165,0.000000,0.595185,-0.592117,0.585981,-0.613592,0.567573,-0.556835
1.8107,0.016839,0.000000,0.000000,0.000975,0.6149,0.0000,0.0000,0.087187,-0.087187,-0.000142,0.001540,-0.001797,1.8758,1.2746,-0.4267,0.087437,-0.076699,0.000000,0.595185,-0.592117,0.585981,-0.613592,0.567573,-0.556835
1.8275,0.016756,0.000000,0.000000,0.000994,0.6256,0.0000,0.0000,0.087261,-0.087261,-0.000142,0.001540,-0.001797,1.8758,1.2746,-0.4267,0.087437,-0.076699,0.000000,0.595185,-0.592117,0.585981,-0.613592,0.567573,-0.556835
1.8442,0.016746,0.000000,0.000000,0.001012,0.6362,0.0000,0.0000,0.087248,-0.087248,-0.000142,0.001540,-0.001797,1.8758,1.2746,-0.4267,0.079767,-0.078233,0.000000,0.595185,-0.592117,0.585981,-0.613592,0.567573,-0.556835
1.8610,0.016756,0.000000,0.000000,0.001030,0.6467,0.0000,0.0000,0.087148,-0.087148,-0.000183,0.001579,-0.001786,1.9261,1.2588,-0.3730,0.082835,-0.081301,0.000000,0.596719,-0.592117,0.585981,-0.613592,0.567573,-0.556835
1.8779,0.016848,0.000000,0.000000,0.001048,0.6572,0.0000,0.0000,0.086959,-0.086959,-0.000221,0.001615,-0.001775,1.9707,1.2452,-0.3242,0.090505,-0.082835,0.000000,0.598253,-0.592117,0.585981,-0.613592,0.567573,-0.556835
1.8946,0.016760,0.000000,0.000000,0.001066,0.6674,0.0000,0.0000,0.086685,-0.086685,-0.000341,0.001651,-0.001741,2.0160,1.1984,-0.2743,0.087437,-0.085903,0.000000,0.601320,-0.592117,0.585981,-0.613592,0.567573,-0.558369
1.9115,0.016866,0.000000,0.000000,0.001084,0.6776,0.0000,0.0000,0.086322,-0.086322,-0.000493,0.001647,-0.001695,2.0117,1.1373,-0.2785,0.079767,-0.085903,0.000000,0.604388,-0.592117,0.585981,-0.613592,0.567573,-0.561437
1.9282,0.016757,0.000000,0.000000,0.001101,0.6876,0.0000,0.0000,0.085874,-0.085874,-0.000493,0.001647,-0.001695,2.0117,1.1373,-0.2785,0.079767,-0.085903,0.000000,0.604388,-0.592117,0.585981,-0.613592,0.567573,-0.561437
1.9450,0.016746,0.000000,0.000000,0.001119,0.6975,0.0000,0.0000,0.085341,-0.085341,-0.000599,0.001609,-0.001663,1.9630,1.0928,-0.3316,0.082835,-0.085903,0.000000,0.605922,-0.592117,0.585981,-0.613592,0.567573,-0.564505
1.9617,0.016759,0.000000,0.000000,0.001136,0.7072,0.0000,0.0000,0.084723,-0.084723,-0.000752,0.001614,-0.001618,1.9687,1.0315,-0.3251,0.090505,-0.087437,0.000000,0.608990,-0.592117,0.585981,-0.613592,0.567573,-0.567573
1.9786,0.016836,0.000000,0.000000,0.001154,0.7169,0.0000,0.0000,0.084016,-0.084016,-0.000860,0.001653,-0.001588,2.0178,0.9896,-0.2707,0.087437,-0.087437,0.000000,0.612058,-0.592117,0.585981,-0.613592,0.567573,-0.569107
1.9953,0.016753,0.000000,0.000000,0.001171,0.7264,0.0000,0.0000,0.083230,-0.083230,-0.000971,0.001610,-0.001554,1.9637,0.9431,-0.3301,0.079767,-0.087437,0.000000,0.613592,-0.592117,0.585981,-0.613592,0.567573,-0.572175
2.0122,0.016845,0.000000,0.000000,0.001188,0.7357,0.0000,0.0000,0.082355,-0.082355,-0.001082,0.001576,-0.001521,1.9205,0.8972,-0.3776,0.082835,-0.085903,0.000000,0.615126,-0.592117,0.585981,-0.613592,0.567573,-0.575243
2.0289,0.016753,0.000000,0.000000,0.001205,0.7449,0.0000,0.0000,0.081402,-0.081402,-0.001082,0.001576,-0.001521,1.9205,0.8972,-0.3776,0.082835,-0.085903,0.000000,0.615126,-0.592117,0.585981,-0.613592,0.567573,-0.575243
2.0456,0.016712,0.000000,0.000000,0.001221,0.7540,0.0000,0.0000,0.080371,-0.080371,-0.001153,0.001579,-0.001501,1.9253,0.8689,-0.3722,0.087437,-0.084369,0.000000,0.616660,-0.592117,0.585981,-0.613592,0.567573,-0.576777
2.0624,0.016753,0.000000,0.000000,0.001238,0.7629,0.0000,0.0000,0.079258,-0.079258,-0.001188,0.001619,-0.001492,1.9741,0.8566,-0.3180,0.082835,-0.084369,0.000000,0.618194,-0.592117,0.585981,-0.613592,0.567573,-0.576777
2.0791,0.016745,0.000000,0.000000,0.001255,0.7717,0.0000,0.0000,0.078066,-0.078066,-0.001224,0.001575,-0.001480,1.9200,0.8401,-0.3780,0.079767,-0.082835,0.000000,0.618194,-0.592117,0.585981,-0.613592,0.567573,-0.578311
2.0959,0.016763,0.000000,0.000000,0.001271,0.7803,0.0000,0.0000,0.076795,-0.076795,-0.001220,0.001580,-0.001481,1.9256,0.8418,-0.3717,0.084369,-0.079767,0.000000,0.618194,-0.592117,0.585981,-0.613592,0.567573,-0.578311
2.1128,0.016868,0.000000,0.000000,0.001287,0.7888,0.0000,0.0000,0.075438,-0.075438,-0.001220,0.001580,-0.001481,1.9256,0.8418,-0.3717,0.084369,-0.079767,0.000000,0.618194,-0.592117,0.585981,-0.613592,0.567573,-0.578311
2.1295,0.016756,0.000000,0.000000,0.001303,0.7972,0.0000,0.0000,0.074016,-0.074016,-0.001220,0.001580,-0.001481,1.9256,0.8418,-0.3717,0.084369,-0.079767,0.000000,0.618194,-0.592117,0.585981,-0.613592,0.567573,-0.578311
2.1463,0.016742,0.000000,0.000000,0.001319,0.8054,0.0000,0.0000,0.072520,-0.072520,-0.001220,0.001580,-0.001481,1.9256,0.8418,-0.3717,0.078233,-0.078233,0.000000,0.618194,-0.592117,0.585981,-0.613592,0.567573,-0.578311
2.1630,0.016750,0.000000,0.000000,0.001335,0.8134,0.0000,0.0000,0.070952,-0.070952,-0.001220,0.001580,-0.001481,1.9256,0.8418,-0.3717,0.073631,-0.076699,0.000000,0.618194,-0.592117,0.585981,-0.613592,0.567573,-0.578311
2.1798,0.016749,0.000000,0.000000,0.001350,0.8213,0.0000,0.0000,0.069312,-0.069312,-0.001167,0.001563,-0.001468,1.9639,0.8064,-0.4267,0.073631,-0.076699,0.000000,0.618194,-0.593651,0.585981,-0.613592,0.567573,-0.578311
2.1965,0.016752,0.000000,0.000000,0.001366,0.8290,0.0000,0.0000,0.067604,-0.067604,-0.001173,0.001565,-0.001469,1.9599,0.8101,-0.4210,0.073631,-0.075165,0.000000,0.618194,-0.593651,0.585981,-0.613592,0.567573,-0.578311
2.2133,0.016781,0.000000,0.000000,0.001381,0.8366,0.0000,0.0000,0.065825,-0.065825,-0.001119,0.001548,-0.001456,1.9990,0.7746,-0.4759,0.070563,-0.070563,0.000000,0.618194,-0.595185,0.585981,-0.613592,0.567573,-0.578311
2.2300,0.016750,0.000000,0.000000,0.001396,0.8440,0.0000,0.0000,0.063983,-0.063983,-0.001119,0.001548,-0.001456,1.9990,0.7746,-0.4759,0.070563,-0.070563,0.000000,0.618194,-0.595185,0.585981,-0.613592,0.567573,-0.578311
2.2468,0.016742,0.000000,0.000000,0.001411,0.8513,0.0000,0.0000,0.062079,-0.062079,-0.001018,0.001517,-0.001431,2.0723,0.7079,-0.5792,0.064427,-0.069029,0.000000,0.618194,-0.598253,0.585981,-0.613592,0.567573,-0.578311
2.2635,0.016743,0.000000,0.000000,0.001426,0.8584,0.0000,0.0000,0.060113,-0.060113,-0.000975,0.001503,-0.001421,2.1032,0.6797,-0.6230,0.065961,-0.069029,0.000000,0.618194,-0.599786,0.585981,-0.613592,0.567573,-0.578311
2.2803,0.016742,0.000000,0.000000,0.001441,0.8653,0.0000,0.0000,0.058087,-0.058087,-0.000872,0.001472,-0.001396,2.1770,0.6123,-0.7277,0.067495,-0.067495,0.000000,0.618194,-0.602854,0.585981,-0.613592,0.567573,-0.578311
2.2970,0.016742,0.000000,0.000000,0.001455,0.8721,0.0000,0.0000,0.056003,-0.056003,-0.000775,0.001441,-0.001373,2.2459,0.5490,-0.8264,0.061359,-0.064427,0.000000,0.618194,-0.605922,0.585981,-0.613592,0.567573,-0.578311
2.3138,0.016748,0.000000,0.000000,0.001470,0.8787,0.0000,0.0000,0.053863,-0.053863,-0.000775,0.001441,-0.001373,2.2459,0.5490,-0.8264,0.053689,-0.059825,0.000000,0.618194,-0.607456,0.585981,-0.613592,0.567573,-0.578311
2.3307,0.016919,0.000000,0.000000,0.001484,0.8852,0.0000,0.0000,0.051646,-0.051646,-0.000732,0.001428,-0.001363,2.2769,0.5205,-0.8709,0.053689,-0.059825,0.000000,0.618194,-0.607456,0.585981,-0.613592,0.567573,-0.578311
2.3474,0.016759,0.000000,0.000000,0.001498,0.8915,0.0000,0.0000,0.049399,-0.049399,-0.000683,0.001413,-0.001351,2.3119,0.4884,-0.9212,0.055223,-0.058291,0.000000,0.618194,-0.608990,0.585981,-0.613592,0.567573,-0.578311
2.3642,0.016761,0.000000,0.000000,0.001512,0.8976,0.0000,0.0000,0.047101,-0.047101,-0.000634,0.001397,-0.001340,2.3464,0.4566,-0.9710,0.059825,-0.059825,0.000000,0.618194,-0.610524,0.585981,-0.613592,0.567573,-0.578311
2.3810,0.016760,0.000000,0.000000,0.001526,0.9036,0.0000,0.0000,0.044757,-0.044757,-0.000639,0.001399,-0.001341,2.3428,0.4599,-0.9658,0.056757,-0.056757,0.000000,0.618194,-0.610524,0.585981,-0.613592,0.567573,-0.578311
2.3979,0.016893,0.000000,0.000000,0.001539,0.9094,0.0000,0.0000,0.042350,-0.042350,-0.000585,0.001382,-0.001328,2.3812,0.4245,-1.0214,0.050621,-0.052155,0.000000,0.618194,-0.612058,0.585981,-0.613592,0.567573,-0.578311
2.4147,0.016806,0.000000,0.000000,0.001553,0.9150,0.0000,0.0000,0.039912,-0.039912,-0.000585,0.001382,-0.001328,2.3812,0.4245,-1.0214,0.044485,-0.042951,0.000000,0.618194,-0.613592,0.585981,-0.613592,0.567573,-0.578311
2.4314,0.016784,0.000000,0.000000,0.001566,0.9204,0.0000,0.0000,0.037437,-0.037437,-0.000536,0.001367,-0.001317,2.4152,0.3931,-1.0707,0.044485,-0.042951,0.000000,0.618194,-0.613592,0.585981,-0.613592,0.567573,-0.578311
2.4483,0.016889,0.000000,0.000000,0.001579,0.9258,0.0000,0.0000,0.034909,-0.034909,-0.000487,0.001384,-0.001305,2.3712,0.3624,-1.0130,0.038350,-0.042951,0.000000,0.618194,-0.613592,0.585981,-0.613592,0.569107,-0.578311
2.4652,0.016819,0.000000,0.000000,0.001592,0.9309,0.0000,0.0000,0.032356,-0.032356,-0.000487,0.001384,-0.001305,2.3712,0.3624,-1.0130,0.038350,-0.042951,0.000000,0.618194,-0.613592,0.585981,-0.613592,0.569107,-0.578311
2.4820,0.016802,0.000000,0.000000,0.001605,0.9358,0.0000,0.0000,0.029774,-0.029774,-0.000487,0.001384,-0.001305,2.3712,0.3624,-1.0130,0.038350,-0.042951,0.000000,0.618194,-0.613592,0.585981,-0.613592,0.569107,-0.578311
2.4987,0.016793,0.000000,0.000000,0.001617,0.9405,0.0000,0.0000,0.027162,-0.027162,-0.000487,0.001384,-0.001305,2.3712,0.3624,-1.0130,0.038350,-0.042951,0.000000,0.618194,-0.613592,0.585981,-0.613592,0.569107,-0.578311
2.5155,0.016754,0.000000,0.000000,0.001629,0.9451,0.0000,0.0000,0.024530,-0.024530,-0.000487,0.001384,-0.001305,2.3712,0.3624,-1.0130,0.038350,-0.042951,0.000000,0.618194,-0.613592,0.585981,-0.613592,0.569107,-0.578311
2.5323,0.016756,0.000000,0.000000,0.001642,0.9495,0.0000,0.0000,0.021874,-0.021874,0.000053,0.001534,-0.001180,1.9733,0.0259,-0.4896,0.038350,-0.041417,0.000000,0.618194,-0.613592,0.585981,-0.613592,0.584447,-0.578311
2.5490,0.016744,0.000000,0.000000,0.001653,0.9537,0.0000,0.0000,0.019197,-0.019197,0.000105,0.001549,-0.001169,1.9372,-0.0068,-0.4382,0.044485,-0.041417,0.000000,0.618194,-0.613592,0.585981,-0.613592,0.587515,-0.578311
2.5658,0.016759,0.000000,0.000000,0.001665,0.9577,0.0000,0.0000,0.016498,-0.016498,0.000141,0.001619,-0.001147,1.9122,0.0128,-0.4439,0.039884,-0.038350,0.000000,0.618194,-0.613592,0.585981,-0.615126,0.589049,-0.578311
2.5825,0.016744,0.000000,0.000000,0.001677,0.9616,0.0000,0.0000,0.013786,-0.013786,0.000141,0.001619,-0.001147,1.9122,0.0128,-0.4439,0.039884,-0.038350,0.000000,0.618194,-0.613592,0.585981,-0.615126,0.589049,-0.578311
2.5993,0.016747,0.000000,0.000000,0.001688,0.9652,0.0000,0.0000,0.011059,-0.011059,0.000178,0.001684,-0.001126,1.8860,0.0269,-0.4437,0.029146,-0.033748,0.000000,0.618194,-0.613592,0.585981,-0.616660,0.590583,-0.578311
2.6160,0.016745,0.000000,0.000000,0.001699,0.9687,0.0000,0.0000,0.008322,-0.008322,0.000229,0.001693,-0.001116,1.8492,-0.0084,-0.3903,0.016874,-0.023010,0.000000,0.618194,-0.613592,0.585981,-0.616660,0.592117,-0.578311
2.6328,0.016756,0.000000,0.000000,0.001710,0.9720,0.0000,0.0000,0.005575,-0.005575,0.000265,0.001764,-0.001094,1.8243,0.0115,-0.3962,0.007670,-0.010738,0.000000,0.618194,-0.613592,0.585981,-0.618194,0.593651,-0.578311
2.6495,0.016744,0.000000,0.000000,0.001721,0.9751,0.0000,0.0000,0.002824,-0.002824,0.000248,0.001813,-0.001085,1.8376,0.0594,-0.4495,0.009204,-0.009204,0.000000,0.618194,-0.613592,0.585981,-0.619728,0.593651,-0.578311
2.6663,0.016769,0.000000,0.000000,0.001732,0.9781,0.0000,0.0000,0.000066,-0.000066,0.000236,0.001864,-0.001075,1.8470,0.1044,-0.4978,0.010738,-0.013806,0.000000,0.618194,-0.613592,0.585981,-0.621262,0.593651,-0.578311
2.6830,0.016758,0.000000,0.000000,0.001742,0.9808,0.0000,0.0000,-0.002690,0.002690,0.000236,0.001864,-0.001075,1.8470,0.1044,-0.4978,0.010738,-0.013806,0.000000,0.618194,-0.613592,0.585981,-0.621262,0.593651,-0.578311
2.6998,0.016749,0.000000,0.000000,0.001752,0.9834,0.0000,0.0000,-0.005442,0.005442,0.000237,0.001858,-0.001076,1.8460,0.0997,-0.4927,0.004602,-0.009204,0.000000,0.618194,-0.613592,0.585981,-0.621262,0.593651,-0.578311
2.7165,0.016744,0.000000,0.000000,0.001763,0.9858,0.0000,0.0000,-0.008188,0.008188,0.000211,0.001751,-0.001048,1.8257,0.2038,-0.3839,-0.001534,-0.001534,0.000000,0.618194,-0.613592,0.589049,-0.621262,0.593651,-0.578311
2.7333,0.016812,0.000000,0.000000,0.001772,0.9880,0.0000,0.0000,-0.010937,0.010937,0.000175,0.001710,-0.001013,1.8182,0.3463,-0.3396,-0.001534,0.000000,0.000000,0.618194,-0.613592,0.592117,-0.622796,0.593651,-0.578311
2.7501,0.016747,0.000000,0.000000,0.001782,0.9900,0.0000,0.0000,-0.013664,0.013664,0.000208,0.001622,-0.000978,1.7589,0.4009,-0.1813,0.001534,0.003068,0.000000,0.618194,-0.613592,0.595185,-0.622796,0.595185,-0.578311
2.7669,0.016776,0.000000,0.000000,0.001792,0.9919,0.0000,0.0000,-0.016382,0.016382,0.000178,0.001523,-0.000918,1.7445,0.5007,0.0748,-0.003068,0.007670,0.000000,0.619728,-0.613592,0.599786,-0.622796,0.596719,-0.578311
2.7836,0.016764,0.000000,0.000000,0.001801,0.9935,0.0000,0.0000,-0.019082,0.019082,0.000178,0.001523,-0.000918,1.7445,0.5007,0.0748,-0.003068,0.007670,0.000000,0.619728,-0.613592,0.599786,-0.622796,0.596719,-0.578311
2.8004,0.016760,0.000000,0.000000,0.001810,0.9950,0.0000,0.0000,-0.021762,0.021762,0.000087,0.001465,-0.000862,1.7750,0.6792,0.2138,-0.012272,0.013806,0.000000,0.621262,-0.613592,0.604388,-0.624330,0.596719,-0.578311
2.8171,0.016757,0.000000,0.000000,0.001819,0.9963,0.0000,0.0000,-0.024420,0.024420,0.000070,0.001363,-0.000805,1.7505,0.7650,0.4726,-0.018408,0.013806,0.000000,0.622796,-0.613592,0.608990,-0.624330,0.598253,-0.578311
2.8339,0.016762,0.000000,0.000000,0.001827,0.9973,0.0000,0.0000,-0.027055,0.027055,-0.000094,0.001439,-0.000776,1.8909,0.8615,0.5034,-0.018408,0.012272,0.000000,0.625864,-0.613592,0.610524,-0.625864,0.596719,-0.578311
2.8507,0.016756,0.000000,0.000000,0.001836,0.9983,0.0000,0.0000,-0.029661,0.029661,0.000007,0.001321,-0.000728,1.8544,0.8839,0.6091,-0.018408,0.016874,0.000000,0.625864,-0.615126,0.613592,-0.625864,0.598253,-0.578311
2.8674,0.016783,0.000000,0.000000,0.001844,0.9990,0.0000,0.0000,-0.032242,0.032242,0.000007,0.001321,-0.000728,1.8544,0.8839,0.6091,-0.029146,0.021476,0.000000,0.628932,-0.615126,0.616660,-0.627398,0.596719,-0.578311
2.8842,0.016744,0.000000,0.000000,0.001852,0.9995,0.0000,0.0000,-0.034785,0.034785,-0.000182,0.001344,-0.000685,1.9851,1.0378,0.7116,-0.029146,0.021476,0.000000,0.628932,-0.615126,0.616660,-0.627398,0.596719,-0.578311
2.9009,0.016754,0.000000,0.000000,0.001860,0.9998,0.0000,0.0000,-0.037295,0.037295,-0.000259,0.001398,-0.000692,1.9817,1.0424,0.8107,-0.030680,0.029146,0.000000,0.630466,-0.613592,0.616660,-0.627398,0.596719,-0.578311
2.9177,0.016742,0.000000,0.000000,0.001868,1.0000,0.0000,0.0000,-0.039766,0.039766,-0.000337,0.001472,-0.000669,2.0800,1.0129,0.9107,-0.026078,0.029146,0.000000,0.633534,-0.613592,0.616660,-0.627398,0.596719,-0.578311
2.9344,0.016755,0.000000,0.000000,0.001875,1.0000,0.0000,0.0000,-0.042199,0.042199,-0.000341,0.001410,-0.000658,2.0588,1.0666,0.9557,-0.026078,0.030680,0.000000,0.633534,-0.613592,0.618194,-0.627398,0.596719,-0.578311
2.9512,0.016745,0.000000,0.000000,0.001882,0.9997,0.0000,0.0000,-0.044588,0.044588,-0.000341,0.001416,-0.000659,2.0610,1.0610,0.9510,-0.032214,0.039884,0.000000,0.633534,-0.613592,0.618194,-0.627398,0.596719,-0.578311
2.9679,0.016769,0.000000,0.000000,0.001889,0.9993,0.0000,0.0000,-0.046937,0.046937,-0.000300,0.001344,-0.000634,2.0887,1.0768,0.9522,-0.042951,0.039884,0.000000,0.633534,-0.615126,0.619728,-0.627398,0.596719,-0.578311
2.9847,0.016743,0.000000,0.000000,0.001896,0.9987,0.0000,0.0000,-0.049235,0.049235,-0.000300,0.001344,-0.000634,2.0887,1.0768,0.9522,-0.042951,0.039884,0.000000,0.633534,-0.615126,0.619728,-0.627398,0.596719,-0.578311
3.0014,0.016752,0.000000,0.000000,0.001903,0.9980,0.0000,0.0000,-0.051485,0.051485,-0.000303,0.001383,-0.000637,2.0079,1.0767,1.0600,-0.046019,0.036816,0.000000,0.633534,-0.613592,0.619728,-0.627398,0.598253,-0.578311
3.0182,0.016742,0.000000,0.000000,0.001909,0.9970,0.0000,0.0000,-0.053683,0.053683,-0.000357,0.001364,-0.000649,2.0554,1.1104,0.9956,-0.044485,0.041417,0.000000,0.633534,-0.613592,0.619728,-0.627398,0.596719,-0.578311
3.0349,0.016766,0.000000,0.000000,0.001915,0.9958,0.0000,0.0000,-0.055830,0.055830,-0.000243,0.001365,-0.000622,2.0503,1.0378,1.0007,-0.042951,0.047553,0.000000,0.633534,-0.615126,0.619728,-0.627398,0.598253,-0.578311
3.0517,0.016738,0.000000,0.000000,0.001921,0.9945,0.0000,0.0000,-0.057918,0.057918,-0.000310,0.001349,-0.000637,2.0898,1.0792,0.9470,-0.052155,0.049087,0.000000,0.633534,-0.615126,0.619728,-0.627398,0.596719,-0.578311
3.0685,0.016775,0.000000,0.000000,0.001927,0.9930,0.0000,0.0000,-0.059953,0.059953,-0.000310,0.001349,-0.000637,2.0898,1.0792,0.9470,-0.052155,0.049087,0.000000,0.633534,-0.615126,0.619728,-0.627398,0.596719,-0.578311
3.0852,0.016741,0.000000,0.000000,0.001932,0.9912,0.0000,0.0000,-0.061924,0.061924,-0.000248,0.001366,-0.000624,2.0467,1.0411,1.0058,-0.056757,0.050621,0.000000,0.633534,-0.615126,0.619728,-0.627398,0.598253,-0.578311
3.1019,0.016748,0.000000,0.000000,0.001938,0.9893,0.0000,0.0000,-0.063834,0.063834,-0.000309,0.001349,-0.000637,2.0902,1.0788,0.9465,-0.055223,0.053689,0.000000,0.633534,-0.615126,0.619728,-0.627398,0.596719,-0.578311
3.1187,0.016721,0.000000,0.000000,0.001943,0.9873,0.0000,0.0000,-0.065677,0.065677,-0.000303,0.001351,-0.000636,2.0857,1.0749,0.9527,-0.052155,0.055223,0.000000,0.633534,-0.615126,0.619728,-0.627398,0.596719,-0.578311
3.1354,0.016756,0.000000,0.000000,0.001948,0.9850,0.0000,0.0000,-0.067459,0.067459,-0.000195,0.001350,-0.000611,2.0860,1.0062,0.9503,-0.058291,0.059825,0.000000,0.633534,-0.616660,0.619728,-0.627398,0.598253,-0.578311
3.1523,0.016907,0.000000,0.000000,0.001952,0.9825,0.0000,0.0000,-0.069188,0.069188,-0.000207,0.001318,-0.000613,2.1637,1.0119,0.8426,-0.069029,0.064427,0.000000,0.633534,-0.618194,0.619728,-0.627398,0.596719,-0.578311
3.1691,0.016756,0.000000,0.000000,0.001957,0.9799,0.0000,0.0000,-0.070833,0.070833,-0.000207,0.001318,-0.000613,2.1637,1.0119,0.8426,-0.069029,0.064427,0.000000,0.633534,-0.618194,0.619728,-0.627398,0.596719,-0.578311
3.1858,0.016743,0.000000,0.000000,0.001961,0.9771,0.0000,0.0000,-0.072406,0.072406,-0.000260,0.001338,-0.000626,2.1169,1.0466,0.9087,-0.067495,0.064427,0.000000,0.633534,-0.616660,0.619728,-0.627398,0.596719,-0.578311
3.2026,0.016751,0.000000,0.000000,0.001965,0.9741,0.0000,0.0000,-0.073908,0.073908,-0.000200,0.001319,-0.000611,2.1605,1.0077,0.8469,-0.062893,0.062893,0.000000,0.633534,-0.618194,0.619728,-0.627398,0.596719,-0.578311
3.2193,0.016739,0.000000,0.000000,0.001969,0.9709,0.0000,0.0000,-0.075335,0.075335,-0.000152,0.001336,-0.000601,2.1169,0.9779,0.9065,-0.065961,0.067495,0.000000,0.633534,-0.618194,0.619728,-0.627398,0.598253,-0.578311
3.2361,0.016759,0.000000,0.000000,0.001973,0.9675,0.0000,0.0000,-0.076689,0.076689,-0.000212,0.001319,-0.000614,2.1605,1.0148,0.8471,-0.075165,0.072097,0.000000,0.633534,-0.618194,0.619728,-0.627398,0.596719,-0.578311
3.2528,0.016743,0.000000,0.000000,0.001976,0.9639,0.0000,0.0000,-0.077965,0.077965,-0.000219,0.001378,-0.000601,2.1669,1.0614,0.7995,-0.078233,0.072097,0.000000,0.633534,-0.618194,0.619728,-0.628932,0.596719,-0.578311
3.2696,0.016764,0.000000,0.000000,0.001979,0.9602,0.0000,0.0000,-0.079164,0.079164,-0.000219,0.001378,-0.000601,2.1669,1.0614,0.7995,-0.078233,0.072097,0.000000,0.633534,-0.618194,0.619728,-0.628932,0.596719,-0.578311
3.2863,0.016743,0.000000,0.000000,0.001982,0.9563,0.0000,0.0000,-0.080284,0.080284,-0.000205,0.001315,-0.000614,2.1553,1.0062,0.8583,-0.073631,0.072097,0.000000,0.633534,-0.618194,0.619728,-0.627398,0.596719,-0.578311
3.3031,0.016751,0.000000,0.000000,0.001985,0.9522,0.0000,0.0000,-0.081323,0.081323,-0.000206,0.001322,-0.000613,2.1565,1.0119,0.8521,-0.073631,0.075165,0.000000,0.633534,-0.618194,0.619728,-0.627398,0.596719,-0.578311
3.3198,0.016741,0.000000,0.000000,0.001987,0.9479,0.0000,0.0000,-0.082282,0.082282,-0.000164,0.001393,-0.000589,2.1283,1.0279,0.8521,-0.081301,0.076699,0.000000,0.633534,-0.618194,0.619728,-0.628932,0.598253,-0.578311
3.3366,0.016756,0.000000,0.000000,0.001989,0.9435,0.0000,0.0000,-0.083159,0.083159,-0.000209,0.001345,-0.000616,2.0816,1.0112,0.9608,-0.081301,0.076699,0.000000,0.633534,-0.616660,0.619728,-0.627398,0.598253,-0.578311
3.3535,0.016874,0.000000,0.000000,0.001992,0.9388,0.0000,0.0000,-0.083958,0.083958,-0.000247,0.001390,-0.000638,2.1362,0.9961,0.8409,-0.078233,0.081301,0.000000,0.633534,-0.616660,0.618194,-0.627398,0.596719,-0.578311
3.3702,0.016760,0.000000,0.000000,0.001993,0.9340,0.0000,0.0000,-0.084668,0.084668,-0.000247,0.001390,-0.000638,2.1362,0.9961,0.8409,-0.078233,0.081301,0.000000,0.633534,-0.616660,0.618194,-0.627398,0.596719,-0.578311
3.3870,0.016746,0.000000,0.000000,0.001995,0.9291,0.0000,0.0000,-0.085293,0.085293,-0.000202,0.001314,-0.000610,2.1585,1.0129,0.8540,-0.082835,0.081301,0.000000,0.633534,-0.618194,0.619728,-0.627398,0.596719,-0.578311
3.4037,0.016751,0.000000,0.000000,0.001996,0.9239,0.0000,0.0000,-0.085833,0.085833,-0.000206,0.001322,-0.000613,2.1562,1.0112,0.8526,-0.085903,0.079767,0.000000,0.633534,-0.618194,0.619728,-0.627398,0.596719,-0.578311
3.4204,0.016742,0.000000,0.000000,0.001998,0.9186,0.0000,0.0000,-0.086287,0.086287,-0.000260,0.001337,-0.000626,2.1177,1.0467,0.9076,-0.084369,0.081301,0.000000,0.633534,-0.616660,0.619728,-0.627398,0.596719,-0.578311
3.4372,0.016745,0.000000,0.000000,0.001998,0.9131,0.0000,0.0000,-0.086656,0.086656,-0.000200,0.001319,-0.000611,2.1604,1.0077,0.8470,-0.084369,0.081301,0.000000,0.633534,-0.618194,0.619728,-0.627398,0.596719,-0.578311
3.4539,0.016754,0.000000,0.000000,0.001999,0.9074,0.0000,0.0000,-0.086938,0.086938,-0.000200,0.001319,-0.000611,2.1604,1.0077,0.8470,-0.085903,0.085903,0.000000,0.633534,-0.618194,0.619728,-0.627398,0.596719,-0.578311
3.4707,0.016709,0.000000,0.000000,0.002000,0.9016,0.0000,0.0000,-0.087133,0.087133,-0.000207,0.001321,-0.000613,2.1560,1.0117,0.8533,-0.085903,0.085903,0.000000,0.633534,-0.618194,0.619728,-0.627398,0.596719,-0.578311
3.4874,0.016745,0.000000,0.000000,0.002000,0.8956,0.0000,0.0000,-0.087242,0.087242,-0.000207,0.001321,-0.000613,2.1560,1.0117,0.8533,-0.085903,0.087437,0.000000,0.633534,-0.618194,0.619728,-0.627398,0.596719,-0.578311
3.5041,0.016744,0.000000,0.000000,0.002000,0.8895,0.0000,0.0000,-0.087264,0.087264,-0.000207,0.001321,-0.000613,2.1560,1.0117,0.8533,-0.085903,0.084369,0.000000,0.633534,-0.618194,0.619728,-0.627398,0.596719,-0.578311
3.5210,0.016869,0.000000,0.000000,0.002000,0.8831,0.0000,0.0000,-0.087198,0.087198,-0.000260,0.001337,-0.000626,2.1177,1.0466,0.9076,-0.085903,0.085903,0.000000,0.633534,-0.616660,0.619728,-0.627398,0.596719,-0.578311
3.5477,0.026644,0.000000,0.000000,0.001999,0.8727,0.0000,0.0000,-0.086915,0.086915,-0.000260,0.001337,-0.000626,2.1177,1.0466,0.9076,-0.085903,0.085903,0.000000,0.633534,-0.616660,0.619728,-0.627398,0.596719,-0.578311
3.5644,0.016765,0.000000,0.000000,0.001998,0.8659,0.0000,0.0000,-0.086624,0.086624,-0.000260,0.001337,-0.000626,2.1177,1.0466,0.9076,-0.085903,0.085903,0.000000,0.633534,-0.616660,0.619728,-0.627398,0.596719,-0.578311
3.5812,0.016745,0.000000,0.000000,0.001997,0.8590,0.0000,0.0000,-0.086247,0.086247,-0.000200,0.001319,-0.000611,2.1604,1.0077,0.8470,-0.085903,0.085903,0.000000,0.633534,-0.618194,0.619728,-0.627398,0.596719,-0.578311
3.5979,0.016746,0.000000,0.000000,0.001996,0.8519,0.0000,0.0000,-0.085784,0.085784,-0.000152,0.001336,-0.000601,2.1169,0.9779,0.9065,-0.085903,0.085903,0.000000,0.633534,-0.618194,0.619728,-0.627398,0.598253,-0.578311
3.6147,0.016762,0.000000,0.000000,0.001995,0.8446,0.0000,0.0000,-0.085236,0.085236,-0.000152,0.001336,-0.000601,2.1169,0.9779,0.9065,-0.085903,0.085903,0.000000,0.633534,-0.618194,0.619728,-0.628932,0.596719,-0.578311
3.6314,0.016756,0.000000,0.000000,0.001993,0.8372,0.0000,0.0000,-0.084602,0.084602,-0.000225,0.001376,-0.000603,2.1714,1.0653,0.7933,-0.085903,0.085903,0.000000,0.633534,-0.618194,0.619728,-0.628932,0.596719,-0.578311
3.6482,0.016757,0.000000,0.000000,0.001991,0.8297,0.0000,0.0000,-0.083884,0.083884,-0.000217,0.001372,-0.000603,2.1658,1.0561,0.8051,-0.085903,0.085903,0.000000,0.633534,-0.618194,0.619728,-0.628932,0.596719,-0.578311
3.6649,0.016746,0.000000,0.000000,0.001989,0.8220,0.0000,0.0000,-0.083083,0.083083,-0.000205,0.001316,-0.000614,2.1554,1.0067,0.8577,-0.085903,0.084369,0.000000,0.633534,-0.618194,0.619728,-0.627398,0.596719,-0.578311
3.6817,0.016751,0.000000,0.000000,0.001987,0.8141,0.0000,0.0000,-0.082199,0.082199,-0.000219,0.001378,-0.000601,2.1675,1.0622,0.7984,-0.084369,0.084369,0.000000,0.633534,-0.618194,0.619728,-0.628932,0.596719,-0.578311
3.6988,0.017140,0.000000,0.000000,0.001984,0.8059,0.0000,0.0000,-0.081209,0.081209,-0.000218,0.001372,-0.000603,2.1662,1.0564,0.8045,-0.082835,0.082835,0.000000,0.633534,-0.618194,0.619728,-0.628932,0.596719,-0.578311
3.7165,0.017707,0.000000,0.000000,0.001982,0.7972,0.0000,0.0000,-0.080098,0.080098,-0.000205,0.001316,-0.000614,2.1554,1.0067,0.8577,-0.084369,0.082835,0.000000,0.633534,-0.618194,0.619728,-0.627398,0.596719,-0.578311
3.7333,0.016762,0.000000,0.000000,0.001979,0.7889,0.0000,0.0000,-0.078964,0.078964,-0.000205,0.001316,-0.000614,2.1554,1.0067,0.8577,-0.084369,0.082835,0.000000,0.633534,-0.618194,0.619728,-0.627398,0.596719,-0.578311
3.7500,0.016751,0.000000,0.000000,0.001975,0.7804,0.0000,0.0000,-0.077751,0.077751,-0.000206,0.001322,-0.000613,2.1565,1.0118,0.8522,-0.082835,0.081301,0.000000,0.633534,-0.618194,0.619728,-0.627398,0.596719,-0.578311
3.7668,0.016747,0.000000,0.000000,0.001972,0.7718,0.0000,0.0000,-0.076462,0.076462,-0.000206,0.001322,-0.000613,2.1565,1.0118,0.8522,-0.079767,0.078233,0.000000,0.633534,-0.618194,0.619728,-0.627398,0.596719,-0.578311
3.7836,0.016756,0.000000,0.000000,0.001968,0.7630,0.0000,0.0000,-0.075096,0.075096,-0.000206,0.001322,-0.000613,2.1565,1.0118,0.8522,-0.079767,0.078233,0.000000,0.633534,-0.618194,0.619728,-0.627398,0.596719,-0.578311
3.8003,0.016757,0.000000,0.000000,0.001965,0.7541,0.0000,0.0000,-0.073654,0.073654,-0.000206,0.001322,-0.000613,2.1565,1.0118,0.8522,-0.078233,0.076699,0.000000,0.633534,-0.618194,0.619728,-0.627398,0.596719,-0.578311
3.8171,0.016759,0.000000,0.000000,0.001960,0.7450,0.0000,0.0000,-0.072139,0.072139,-0.000260,0.001337,-0.000626,2.1176,1.0466,0.9077,-0.075165,0.076699,0.000000,0.633534,-0.616660,0.619728,-0.627398,0.596719,-0.578311
3.8338,0.016757,0.000000,0.000000,0.001956,0.7358,0.0000,0.0000,-0.070552,0.070552,-0.000260,0.001337,-0.000626,2.1176,1.0466,0.9077,-0.075165,0.076699,0.000000,0.633534,-0.616660,0.619728,-0.627398,0.596719,-0.578311
3.8506,0.016750,0.000000,0.000000,0.001952,0.7265,0.0000,0.0000,-0.068896,0.068896,-0.000200,0.001319,-0.000611,2.1605,1.0077,0.8470,-0.073631,0.076699,0.000000,0.633534,-0.618194,0.619728,-0.627398,0.596719,-0.578311
3.8673,0.016756,0.000000,0.000000,0.001947,0.7170,0.0000,0.0000,-0.067170,0.067170,-0.000274,0.001395,-0.000614,2.1282,1.0974,0.8543,-0.073631,0.075165,0.000000,0.633534,-0.616660,0.619728,-0.628932,0.596719,-0.578311
3.8841,0.016751,0.000000,0.000000,0.001942,0.7074,0.0000,0.0000,-0.065378,0.065378,-0.000186,0.001368,-0.000626,2.1701,0.9518,0.7970,-0.073631,0.072097,0.000000,0.633534,-0.618194,0.618194,-0.627398,0.596719,-0.578311
3.9009,0.016794,0.000000,0.000000,0.001937,0.6977,0.0000,0.0000,-0.063516,0.063516,-0.000186,0.001368,-0.000626,2.1701,0.9518,0.7970,-0.069029,0.067495,0.000000,0.633534,-0.618194,0.619728,-0.627398,0.598253,-0.578311
3.9176,0.016752,0.000000,0.000000,0.001932,0.6878,0.0000,0.0000,-0.061595,0.061595,-0.000153,0.001331,-0.000599,2.1159,0.9838,0.9117,-0.069029,0.067495,0.000000,0.633534,-0.618194,0.619728,-0.627398,0.598253,-0.578311
3.9344,0.016751,0.000000,0.000000,0.001926,0.6778,0.0000,0.0000,-0.059612,0.059612,-0.000157,0.001335,-0.000602,2.1216,0.9804,0.8997,-0.067495,0.065961,0.000000,0.633534,-0.618194,0.619728,-0.627398,0.598253,-0.578311
3.9511,0.016749,0.000000,0.000000,0.001920,0.6677,0.0000,0.0000,-0.057571,0.057571,-0.000170,0.001391,-0.000590,2.1319,1.0312,0.8471,-0.065961,0.065961,0.000000,0.633534,-0.618194,0.619728,-0.628932,0.598253,-0.578311
3.9681,0.016977,0.000000,0.000000,0.001914,0.6573,0.0000,0.0000,-0.055443,0.055443,-0.000210,0.001314,-0.000615,2.1589,1.0093,0.8533,-0.062893,0.064427,0.000000,0.633534,-0.618194,0.619728,-0.627398,0.596719,-0.578311
3.9849,0.016800,0.000000,0.000000,0.001908,0.6469,0.0000,0.0000,-0.053282,0.053282,-0.000219,0.001379,-0.000601,2.1671,1.0620,0.7988,-0.056757,0.062893,0.000000,0.633534,-0.618194,0.619728,-0.628932,0.596719,-0.578311
4.0020,0.017046,0.000000,0.000000,0.001901,0.6362,0.0000,0.0000,-0.051034,0.051034,-0.000150,0.001330,-0.000602,2.1162,0.9723,0.9115,-0.053689,0.062893,0.000000,0.633534,-0.618194,0.619728,-0.627398,0.598253,-0.578311
4.0187,0.016722,0.000000,0.000000,0.001895,0.6256,0.0000,0.0000,-0.048778,0.048778,-0.000150,0.001330,-0.000602,2.1162,0.9723,0.9115,-0.053689,0.062893,0.000000,0.633534,-0.618194,0.619728,-0.627398,0.598253,-0.578311
4.0354,0.016751,0.000000,0.000000,0.001888,0.6149,0.0000,0.0000,-0.046469,0.046469,-0.000157,0.001335,-0.000602,2.1216,0.9816,0.8997,-0.055223,0.061359,0.000000,0.633534,-0.618194,0.619728,-0.627398,0.598253,-0.578311
4.0522,0.016747,0.000000,0.000000,0.001881,0.6040,0.0000,0.0000,-0.044114,0.044114,-0.000224,0.001376,-0.000603,2.1710,1.0649,0.7940,-0.053689,0.059825,0.000000,0.633534,-0.618194,0.619728,-0.628932,0.596719,-0.578311
4.0689,0.016750,0.000000,0.000000,0.001874,0.5931,0.0000,0.0000,-0.041716,0.041716,-0.000204,0.001315,-0.000614,2.1549,1.0058,0.8588,-0.050621,0.056757,0.000000,0.633534,-0.618194,0.619728,-0.627398,0.596719,-0.578311
4.0857,0.016759,0.000000,0.000000,0.001866,0.5820,0.0000,0.0000,-0.039274,0.039274,-0.000206,0.001322,-0.000613,2.1566,1.0119,0.8521,-0.047553,0.050621,0.000000,0.633534,-0.618194,0.619728,-0.627398,0.596719,-0.578311
4.1026,0.016876,0.000000,0.000000,0.001858,0.5707,0.0000,0.0000,-0.036775,0.036775,-0.000206,0.001322,-0.000613,2.1566,1.0119,0.8521,-0.044485,0.044485,0.000000,0.633534,-0.618194,0.619728,-0.627398,0.596719,-0.578311
4.1193,0.016761,0.000000,0.000000,0.001850,0.5594,0.0000,0.0000,-0.034257,0.034257,-0.000206,0.001322,-0.000613,2.1566,1.0119,0.8521,-0.044485,0.044485,0.000000,0.633534,-0.618194,0.619728,-0.627398,0.596719,-0.578311
4.1361,0.016760,0.000000,0.000000,0.001842,0.5480,0.0000,0.0000,-0.031705,0.031705,-0.000193,0.001376,-0.000626,2.1672,0.9607,0.7973,-0.041417,0.039884,0.000000,0.633534,-0.618194,0.618194,-0.627398,0.596719,-0.578311
4.1528,0.016750,0.000000,0.000000,0.001834,0.5365,0.0000,0.0000,-0.029123,0.029123,-0.000221,0.001372,-0.000600,2.1662,1.0670,0.8047,-0.041417,0.036816,0.000000,0.633534,-0.618194,0.619728,-0.628932,0.596719,-0.578311
4.1696,0.016752,0.000000,0.000000,0.001826,0.5249,0.0000,0.0000,-0.026511,0.026511,-0.000218,0.001372,-0.000603,2.1663,1.0559,0.8039,-0.041417,0.036816,0.000000,0.633534,-0.618194,0.619728,-0.628932,0.596719,-0.578311
4.1863,0.016756,0.000000,0.000000,0.001817,0.5132,0.0000,0.0000,-0.023872,0.023872,-0.000205,0.001316,-0.000614,2.1553,1.0067,0.8578,-0.039884,0.035282,0.000000,0.633534,-0.618194,0.619728,-0.627398,0.596719,-0.578311
4.2031,0.016797,0.000000,0.000000,0.001808,0.5014,0.0000,0.0000,-0.021203,0.021203,-0.000206,0.001322,-0.000613,2.1565,1.0118,0.8522,-0.036816,0.033748,0.000000,0.633534,-0.618194,0.619728,-0.627398,0.596719,-0.578311
4.2199,0.016754,0.000000,0.000000,0.001799,0.4895,0.0000,0.0000,-0.018519,0.018519,-0.000206,0.001322,-0.000613,2.1565,1.0118,0.8522,-0.036816,0.033748,0.000000,0.633534,-0.618194,0.619728,-0.627398,0.596719,-0.578311
4.2366,0.016747,0.000000,0.000000,0.001790,0.4776,0.0000,0.0000,-0.015819,0.015819,-0.000219,0.001378,-0.000601,2.1674,1.0617,0.7989,-0.027612,0.032214,0.000000,0.633534,-0.618194,0.619728,-0.628932,0.596719,-0.578311
4.2534,0.016753,0.000000,0.000000,0.001780,0.4655,0.0000,0.0000,-0.013101,0.013101,-0.000205,0.001315,-0.000614,2.1552,1.0061,0.8583,-0.019942,0.029146,0.000000,0.633534,-0.618194,0.619728,-0.627398,0.596719,-0.578311
4.2701,0.016758,0.000000,0.000000,0.001770,0.4533,0.0000,0.0000,-0.010370,0.010370,-0.000206,0.001322,-0.000613,2.1565,1.0119,0.8521,-0.018408,0.024544,0.000000,0.633534,-0.618194,0.619728,-0.627398,0.596719,-0.578311
4.2869,0.016747,0.000000,0.000000,0.001760,0.4411,0.0000,0.0000,-0.007630,0.007630,-0.000219,0.001378,-0.000601,2.1674,1.0617,0.7989,-0.018408,0.016874,0.000000,0.633534,-0.618194,0.619728,-0.628932,0.596719,-0.578311
4.3039,0.017021,0.000000,0.000000,0.001750,0.4286,0.0000,0.0000,-0.004837,0.004837,-0.000150,0.001330,-0.000602,2.1162,0.9723,0.9115,-0.015340,0.009204,0.000000,0.633534,-0.618194,0.619728,-0.627398,0.598253,-0.578311
4.3207,0.016743,0.000000,0.000000,0.001740,0.4162,0.0000,0.0000,-0.002085,0.002085,-0.000150,0.001330,-0.000602,2.1162,0.9723,0.9115,-0.015340,0.009204,0.000000,0.633534,-0.618194,0.619728,-0.627398,0.598253,-0.578311
4.3374,0.016756,0.000000,0.000000,0.001729,0.4037,0.0000,0.0000,0.000671,-0.000671,-0.000266,0.001337,-0.000627,2.1218,1.0507,0.9015,-0.012272,0.006136,0.000000,0.633534,-0.616660,0.619728,-0.627398,0.596719,-0.578311
4.3542,0.016748,0.000000,0.000000,0.001719,0.3911,0.0000,0.0000,0.003425,-0.003425,-0.000200,0.001319,-0.000611,2.1600,1.0073,0.8476,-0.004602,0.007670,0.000000,0.633534,-0.618194,0.619728,-0.627398,0.596719,-0.578311
4.3711,0.016959,0.000000,0.000000,0.001708,0.3784,0.0000,0.0000,0.006210,-0.006210,-0.000274,0.001394,-0.000614,2.1283,1.0975,0.8543,-0.001534,0.007670,0.000000,0.633534,-0.616660,0.619728,-0.628932,0.596719,-0.578311
4.3885,0.017337,0.000000,0.000000,0.001696,0.3652,0.0000,0.0000,0.009051,-0.009051,-0.000199,0.001313,-0.000613,2.1593,1.0024,0.8525,-0.001534,0.004602,0.000000,0.633534,-0.618194,0.619728,-0.627398,0.596719,-0.578311
4.4052,0.016745,0.000000,0.000000,0.001685,0.3524,0.0000,0.0000,0.011786,-0.011786,-0.000220,0.001379,-0.000601,2.1671,1.0627,0.7989,0.000000,0.000000,0.000000,0.633534,-0.618194,0.619728,-0.628932,0.596719,-0.578311
4.4219,0.016742,0.000000,0.000000,0.001674,0.3396,0.0000,0.0000,0.014508,-0.014508,-0.000220,0.001379,-0.000601,2.1671,1.0627,0.7989,0.000000,0.000000,0.000000,0.633534,-0.618194,0.619728,-0.628932,0.596719,-0.578311
4.4387,0.016740,0.000000,0.000000,0.001662,0.3267,0.0000,0.0000,0.017216,-0.017216,-0.000218,0.001372,-0.000603,2.1663,1.0564,0.8045,0.007670,-0.006136,0.000000,0.633534,-0.618194,0.619728,-0.628932,0.596719,-0.578311
4.4554,0.016741,0.000000,0.000000,0.001650,0.3138,0.0000,0.0000,0.019906,-0.019906,-0.000218,0.001372,-0.000603,2.1663,1.0564,0.8045,0.009204,-0.010738,0.000000,0.633534,-0.618194,0.619728,-0.628932,0.596719,-0.578311
4.4722,0.016741,0.000000,0.000000,0.001638,0.3008,0.0000,0.0000,0.022577,-0.022577,-0.000205,0.001316,-0.000614,2.1554,1.0067,0.8577,0.007670,-0.010738,0.000000,0.633534,-0.618194,0.619728,-0.627398,0.596719,-0.578311
4.4889,0.016746,0.000000,0.000000,0.001626,0.2877,0.0000,0.0000,0.025226,-0.025226,-0.000151,0.001337,-0.000601,2.1175,0.9780,0.9053,0.010738,-0.013806,0.000000,0.633534,-0.618194,0.619728,-0.627398,0.598253,-0.578311
4.5057,0.016785,0.000000,0.000000,0.001614,0.2745,0.0000,0.0000,0.027856,-0.027856,-0.000157,0.001334,-0.000602,2.1214,0.9810,0.9004,0.016874,-0.016874,0.000000,0.633534,-0.618194,0.619728,-0.627398,0.598253,-0.578311
4.5224,0.016744,0.000000,0.000000,0.001601,0.2613,0.0000,0.0000,0.030452,-0.030452,-0.000157,0.001334,-0.000602,2.1214,0.9810,0.9004,0.016874,-0.016874,0.000000,0.633534,-0.618194,0.619728,-0.627398,0.598253,-0.578311
4.5392,0.016741,0.000000,0.000000,0.001589,0.2481,0.0000,0.0000,0.033017,-0.033017,-0.000211,0.001320,-0.000614,2.1600,1.0145,0.8478,0.023010,-0.021476,0.000000,0.633534,-0.618194,0.619728,-0.627398,0.596719,-0.578311
