t,loop_dt,cmd_x,cmd_y,cmd_z,cmd_roll,cmd_pitch,cmd_yaw,cmd_ant_l,cmd_ant_r,pres_x,pres_y,pres_z,pres_roll,pres_pitch,pres_yaw,pres_ant_l,pres_ant_r,pres_j0,pres_j1,pres_j2,pres_j3,pres_j4,pres_j5,pres_j6
0.0000,0.000001,-0.000673,0.000860,-0.002504,0.6027,0.5445,-0.2403,-0.012272,0.010738,-0.000673,0.000860,-0.002504,0.6027,0.5445,-0.2403,-0.012272,0.010738,0.000000,0.578311,-0.562971,0.564505,-0.582913,0.559903,-0.564505
0.0167,0.016747,-0.000661,0.000846,-0.002462,0.5926,0.5353,-0.2363,-0.012066,0.010558,-0.000673,0.000860,-0.002504,0.6027,0.5445,-0.2403,-0.012272,0.010738,0.000000,0.578311,-0.562971,0.564505,-0.582913,0.559903,-0.564505
0.0335,0.016757,-0.000650,0.000832,-0.002420,0.5825,0.5262,-0.2323,-0.011861,0.010378,-0.000673,0.000860,-0.002504,0.6027,0.5445,-0.2403,-0.013806,0.010738,0.000000,0.578311,-0.562971,0.564505,-0.582913,0.559903,-0.564505
0.0503,0.016759,-0.000639,0.000817,-0.002378,0.5724,0.5170,-0.2283,-0.011655,0.010198,-0.000673,0.000860,-0.002504,0.6027,0.5445,-0.2403,-0.013806,0.010738,0.000000,0.578311,-0.562971,0.564505,-0.582913,0.559903,-0.564505
0.0670,0.016745,-0.000627,0.000803,-0.002336,0.5624,0.5079,-0.2243,-0.011450,0.010018,-0.000685,0.000914,-0.002530,0.6126,0.5962,-0.1328,-0.012272,0.009204,0.000000,0.578311,-0.561437,0.564505,-0.582913,0.559903,-0.562971
0.0843,0.017276,-0.000616,0.000788,-0.002293,0.5520,0.4985,-0.2202,-0.011238,0.009833,-0.000399,0.000978,-0.002651,0.5819,0.7079,-0.1452,-0.012272,0.009204,0.000000,0.572175,-0.559903,0.562971,-0.582913,0.559903,-0.556835
0.1010,0.016761,-0.000605,0.000774,-0.002251,0.5419,0.4893,-0.2162,-0.011032,0.009653,-0.000279,0.000917,-0.002674,0.5738,0.8148,-0.0908,-0.012272,0.009204,0.000000,0.569107,-0.559903,0.564505,-0.582913,0.559903,-0.553767
0.1178,0.016779,-0.000593,0.000759,-0.002209,0.5318,0.4802,-0.2123,-0.010826,0.009473,-0.000292,0.000923,-0.002672,0.5747,0.8037,-0.0965,-0.013806,0.009204,0.000000,0.569107,-0.559903,0.564505,-0.582913,0.559903,-0.553767
0.1346,0.016758,-0.000582,0.000745,-0.002167,0.5217,0.4711,-0.2083,-0.010620,0.009293,-0.000263,0.001016,-0.002673,0.6350,0.8731,-0.0959,-0.013806,0.009204,0.000000,0.569107,-0.559903,0.564505,-0.584447,0.559903,-0.552233
0.1513,0.016761,-0.000571,0.000730,-0.002125,0.5116,0.4619,-0.2043,-0.010415,0.009113,-0.000263,0.001016,-0.002673,0.6350,0.8731,-0.0959,-0.013806,0.009204,0.000000,0.569107,-0.559903,0.564505,-0.584447,0.559903,-0.552233
0.1681,0.016758,-0.000559,0.000716,-0.002083,0.5015,0.4528,-0.2003,-0.010209,0.008933,-0.000253,0.000951,-0.002685,0.6179,0.8150,-0.0425,-0.013806,0.010738,0.000000,0.569107,-0.559903,0.564505,-0.582913,0.559903,-0.552233
0.1849,0.016751,-0.000548,0.000701,-0.002041,0.4914,0.4436,-0.1963,-0.010003,0.008753,-0.000255,0.000958,-0.002684,0.6197,0.8210,-0.0481,-0.012272,0.009204,0.000000,0.569107,-0.559903,0.564505,-0.582913,0.559903,-0.552233
0.2016,0.016741,-0.000537,0.000687,-0.001999,0.4814,0.4345,-0.1923,-0.009798,0.008573,-0.000295,0.000919,-0.002671,0.5699,0.8030,-0.1010,-0.012272,0.009204,0.000000,0.569107,-0.559903,0.564505,-0.582913,0.559903,-0.553767
0.2183,0.016751,-0.000526,0.000673,-0.001957,0.4713,0.4254,-0.1883,-0.009592,0.008393,-0.000290,0.000923,-0.002672,0.5751,0.8049,-0.0954,-0.010738,0.009204,0.000000,0.569107,-0.559903,0.564505,-0.582913,0.559903,-0.553767
0.2351,0.016743,-0.000514,0.000658,-0.001916,0.4612,0.4163,-0.1843,-0.009387,0.008214,-0.000290,0.000923,-0.002672,0.5751,0.8049,-0.0954,-0.007670,0.007670,0.000000,0.569107,-0.559903,0.564505,-0.582913,0.559903,-0.553767
0.2518,0.016755,-0.000503,0.000644,-0.001874,0.4511,0.4071,-0.1803,-0.009181,0.008034,-0.000290,0.000923,-0.002672,0.5751,0.8049,-0.0954,-0.007670,0.007670,0.000000,0.569107,-0.559903,0.564505,-0.582913,0.559903,-0.553767
0.2686,0.016746,-0.000492,0.000629,-0.001832,0.4410,0.3980,-0.1763,-0.008976,0.007854,-0.000251,0.000961,-0.002685,0.6241,0.8221,-0.0426,-0.010738,0.009204,0.000000,0.569107,-0.559903,0.564505,-0.582913,0.559903,-0.552233
0.2853,0.016747,-0.000481,0.000615,-0.001790,0.4309,0.3889,-0.1723,-0.008770,0.007674,-0.000255,0.000957,-0.002684,0.6190,0.8203,-0.0481,-0.013806,0.007670,0.000000,0.569107,-0.559903,0.564505,-0.582913,0.559903,-0.552233
0.3022,0.016836,-0.000469,0.000600,-0.001748,0.4208,0.3797,-0.1683,-0.008564,0.007493,-0.000255,0.000957,-0.002684,0.6190,0.8203,-0.0481,-0.012272,0.009204,0.000000,0.569107,-0.559903,0.564505,-0.582913,0.559903,-0.552233
0.3190,0.016789,-0.000458,0.000586,-0.001705,0.4107,0.3706,-0.1642,-0.008358,0.007313,-0.000255,0.000957,-0.002684,0.6190,0.8203,-0.0481,-0.012272,0.009204,0.000000,0.569107,-0.559903,0.564505,-0.582913,0.559903,-0.552233
0.3357,0.016776,-0.000447,0.000572,-0.001663,0.4006,0.3614,-0.1602,-0.008152,0.007133,-0.000255,0.000957,-0.002684,0.6190,0.8203,-0.0481,-0.012272,0.009204,0.000000,0.569107,-0.559903,0.564505,-0.582913,0.559903,-0.552233
0.3525,0.016755,-0.000435,0.000557,-0.001622,0.3905,0.3523,-0.1562,-0.007946,0.006953,-0.000255,0.000957,-0.002684,0.6190,0.8203,-0.0481,-0.012272,0.009204,0.000000,0.569107,-0.559903,0.564505,-0.582913,0.559903,-0.552233
0.3692,0.016755,-0.000424,0.000543,-0.001580,0.3804,0.3432,-0.1522,-0.007741,0.006773,-0.000295,0.000919,-0.002671,0.5699,0.8031,-0.1010,-0.007670,0.009204,0.000000,0.569107,-0.559903,0.564505,-0.582913,0.559903,-0.553767
0.3860,0.016778,-0.000413,0.000528,-0.001538,0.3703,0.3340,-0.1482,-0.007535,0.006593,-0.000250,0.000961,-0.002685,0.6247,0.8223,-0.0420,-0.012272,0.009204,0.000000,0.569107,-0.559903,0.564505,-0.582913,0.559903,-0.552233
0.4028,0.016752,-0.000402,0.000514,-0.001496,0.3602,0.3249,-0.1442,-0.007329,0.006413,-0.000250,0.000961,-0.002685,0.6247,0.8223,-0.0420,-0.012272,0.009204,0.000000,0.569107,-0.559903,0.564505,-0.582913,0.559903,-0.552233
0.4195,0.016752,-0.000390,0.000499,-0.001454,0.3501,0.3158,-0.1402,-0.007123,0.006233,-0.000255,0.000957,-0.002684,0.6190,0.8203,-0.0481,-0.012272,0.009204,0.000000,0.569107,-0.559903,0.564505,-0.582913,0.559903,-0.552233
0.4363,0.016751,-0.000379,0.000485,-0.001412,0.3400,0.3066,-0.1361,-0.006918,0.006053,-0.000255,0.000957,-0.002684,0.6190,0.8203,-0.0481,-0.007670,0.007670,0.000000,0.569107,-0.559903,0.564505,-0.582913,0.559903,-0.552233
0.4531,0.016802,-0.000368,0.000471,-0.001370,0.3299,0.2975,-0.1321,-0.006712,0.005873,-0.000255,0.000957,-0.002684,0.6190,0.8203,-0.0481,-0.004602,0.007670,0.000000,0.569107,-0.559903,0.564505,-0.582913,0.559903,-0.552233
0.4698,0.016753,-0.000357,0.000456,-0.001328,0.3198,0.2884,-0.1281,-0.006506,0.005693,-0.000255,0.000957,-0.002684,0.6190,0.8203,-0.0481,-0.006136,0.007670,0.000000,0.569107,-0.559903,0.564505,-0.582913,0.559903,-0.552233
0.4866,0.016784,-0.000345,0.000442,-0.001286,0.3097,0.2792,-0.1241,-0.006300,0.005513,-0.000295,0.000919,-0.002671,0.5700,0.8031,-0.1010,-0.007670,0.007670,0.000000,0.569107,-0.559903,0.564505,-0.582913,0.559903,-0.553767
0.5034,0.016746,-0.000334,0.000427,-0.001244,0.2996,0.2701,-0.1200,-0.006095,0.005333,-0.000295,0.000919,-0.002671,0.5700,0.8031,-0.1010,-0.007670,0.007670,0.000000,0.569107,-0.559903,0.564505,-0.582913,0.559903,-0.553767
0.5201,0.016743,-0.000323,0.000413,-0.001202,0.2895,0.2610,-0.1160,-0.005889,0.005153,-0.000290,0.000923,-0.002672,0.5751,0.8049,-0.0954,-0.007670,0.007670,0.000000,0.569107,-0.559903,0.564505,-0.582913,0.559903,-0.553767
0.5369,0.016747,-0.000311,0.000399,-0.001160,0.2794,0.2519,-0.1120,-0.005684,0.004973,-0.000251,0.000961,-0.002685,0.6241,0.8221,-0.0426,-0.004602,0.007670,0.000000,0.569107,-0.559903,0.564505,-0.582913,0.559903,-0.552233
0.5536,0.016754,-0.000300,0.000384,-0.001118,0.2693,0.2428,-0.1080,-0.005478,0.004793,-0.000255,0.000957,-0.002684,0.6190,0.8203,-0.0481,-0.003068,0.007670,0.000000,0.569107,-0.559903,0.564505,-0.582913,0.559903,-0.552233
0.5704,0.016743,-0.000289,0.000370,-0.001076,0.2592,0.2336,-0.1039,-0.005273,0.004614,-0.000255,0.000957,-0.002684,0.6190,0.8203,-0.0481,-0.006136,0.007670,0.000000,0.569107,-0.559903,0.564505,-0.582913,0.559903,-0.552233
0.5872,0.016812,-0.000278,0.000355,-0.001034,0.2491,0.2245,-0.0999,-0.005066,0.004433,-0.000255,0.000957,-0.002684,0.6190,0.8203,-0.0481,-0.007670,0.007670,0.000000,0.569107,-0.559903,0.564505,-0.582913,0.559903,-0.552233
0.6039,0.016739,-0.000266,0.000341,-0.000992,0.2390,0.2154,-0.0959,-0.004861,0.004253,-0.000255,0.000957,-0.002684,0.6190,0.8203,-0.0481,-0.007670,0.007670,0.000000,0.569107,-0.559903,0.564505,-0.582913,0.559903,-0.552233
0.6206,0.016745,-0.000255,0.000326,-0.000950,0.2289,0.2063,-0.0918,-0.004655,0.004073,-0.000255,0.000957,-0.002684,0.6190,0.8203,-0.0481,-0.003068,0.007670,0.000000,0.569107,-0.559903,0.564505,-0.582913,0.559903,-0.552233
0.6374,0.016740,-0.000244,0.000312,-0.000908,0.2188,0.1972,-0.0878,-0.004450,0.003894,-0.000255,0.000957,-0.002684,0.6190,0.8203,-0.0481,-0.001534,0.007670,0.000000,0.569107,-0.559903,0.564505,-0.582913,0.559903,-0.552233
0.6541,0.016751,-0.000233,0.000298,-0.000866,0.2087,0.1880,-0.0837,-0.004244,0.003714,-0.000295,0.000919,-0.002671,0.5699,0.8031,-0.1010,-0.007670,0.007670,0.000000,0.569107,-0.559903,0.564505,-0.582913,0.559903,-0.553767
0.6709,0.016742,-0.000221,0.000283,-0.000824,0.1986,0.1789,-0.0797,-0.004039,0.003534,-0.000250,0.000961,-0.002685,0.6247,0.8223,-0.0420,-0.009204,0.007670,0.000000,0.569107,-0.559903,0.564505,-0.582913,0.559903,-0.552233
0.6877,0.016771,-0.000210,0.000269,-0.000782,0.1885,0.1698,-0.0757,-0.003833,0.003354,-0.000295,0.000918,-0.002671,0.5694,0.8029,-0.1016,-0.003068,0.006136,0.000000,0.569107,-0.559903,0.564505,-0.582913,0.559903,-0.553767
0.7044,0.016741,-0.000199,0.000254,-0.000740,0.1784,0.1607,-0.0716,-0.003628,0.003174,-0.000295,0.000918,-0.002671,0.5694,0.8029,-0.1016,-0.003068,0.006136,0.000000,0.569107,-0.559903,0.564505,-0.582913,0.559903,-0.553767
0.7211,0.016754,-0.000188,0.000240,-0.000698,0.1683,0.1516,-0.0676,-0.003422,0.002994,-0.000250,0.000961,-0.002685,0.6247,0.8223,-0.0419,0.003068,0.006136,0.000000,0.569107,-0.559903,0.564505,-0.582913,0.559903,-0.552233
0.7379,0.016750,-0.000176,0.000226,-0.000656,0.1582,0.1425,-0.0635,-0.003216,0.002814,-0.000295,0.000918,-0.002671,0.5694,0.8029,-0.1016,-0.003068,0.006136,0.000000,0.569107,-0.559903,0.564505,-0.582913,0.559903,-0.553767
0.7546,0.016752,-0.000165,0.000211,-0.000614,0.1481,0.1334,-0.0595,-0.003011,0.002635,-0.000290,0.000923,-0.002672,0.5751,0.8049,-0.0954,-0.006136,0.006136,0.000000,0.569107,-0.559903,0.564505,-0.582913,0.559903,-0.553767
0.7714,0.016745,-0.000154,0.000197,-0.000572,0.1380,0.1243,-0.0554,-0.002805,0.002455,-0.000332,0.000961,-0.002660,0.6244,0.7887,-0.0423,-0.003068,0.004602,0.000000,0.570641,-0.559903,0.564505,-0.582913,0.559903,-0.553767
0.7882,0.016758,-0.000142,0.000182,-0.000531,0.1279,0.1152,-0.0514,-0.002600,0.002275,-0.000332,0.000961,-0.002660,0.6244,0.7887,-0.0423,0.001534,0.004602,0.000000,0.569107,-0.559903,0.564505,-0.582913,0.559903,-0.553767
0.8049,0.016743,-0.000131,0.000168,-0.000489,0.1178,0.1060,-0.0473,-0.002394,0.002095,-0.000287,0.000918,-0.002673,0.5694,0.8064,-0.1016,0.001534,0.004602,0.000000,0.569107,-0.559903,0.564505,-0.582913,0.559903,-0.553767
0.8216,0.016740,-0.000120,0.000153,-0.000447,0.1077,0.0969,-0.0433,-0.002189,0.001915,-0.000332,0.000962,-0.002660,0.6250,0.7885,-0.0417,-0.001534,0.003068,0.000000,0.570641,-0.559903,0.564505,-0.582913,0.559903,-0.553767
0.8384,0.016749,-0.000109,0.000139,-0.000405,0.0976,0.0878,-0.0392,-0.001983,0.001735,-0.000286,0.000918,-0.002673,0.5694,0.8064,-0.1016,-0.004602,0.001534,0.000000,0.569107,-0.559903,0.564505,-0.582913,0.559903,-0.553767
0.8551,0.016749,-0.000097,0.000125,-0.000363,0.0875,0.0787,-0.0352,-0.001778,0.001556,-0.000332,0.000962,-0.002660,0.6250,0.7885,-0.0417,0.000000,0.001534,0.000000,0.570641,-0.559903,0.564505,-0.582913,0.559903,-0.553767
0.8721,0.016950,-0.000086,0.000110,-0.000320,0.0772,0.0695,-0.0311,-0.001570,0.001374,-0.000327,0.000957,-0.002662,0.6192,0.7904,-0.0479,0.003068,0.001534,0.000000,0.570641,-0.559903,0.564505,-0.582913,0.559903,-0.553767
0.8888,0.016739,-0.000075,0.000096,-0.000278,0.0671,0.0604,-0.0270,-0.001364,0.001194,-0.000327,0.000957,-0.002662,0.6192,0.7904,-0.0479,0.003068,0.001534,0.000000,0.570641,-0.559903,0.564505,-0.582913,0.559903,-0.553767
0.9056,0.016743,-0.000064,0.000081,-0.000236,0.0570,0.0513,-0.0229,-0.001159,0.001014,-0.000327,0.000957,-0.002662,0.6192,0.7904,-0.0479,-0.001534,0.001534,0.000000,0.570641,-0.559903,0.564505,-0.582913,0.559903,-0.553767
0.9223,0.016746,-0.000052,0.000067,-0.000195,0.0469,0.0422,-0.0189,-0.000953,0.000834,-0.000327,0.000957,-0.002662,0.6192,0.7904,-0.0479,-0.004602,0.001534,0.000000,0.570641,-0.559903,0.564505,-0.582913,0.559903,-0.553767
0.9391,0.016744,-0.000041,0.000052,-0.000153,0.0368,0.0331,-0.0148,-0.000748,0.000654,-0.000327,0.000957,-0.002662,0.6192,0.7904,-0.0479,-0.001534,0.000000,0.000000,0.570641,-0.559903,0.564505,-0.582913,0.559903,-0.553767
0.9558,0.016747,-0.000030,0.000038,-0.000111,0.0267,0.0240,-0.0107,-0.000542,0.000475,-0.000327,0.000957,-0.002662,0.6192,0.7904,-0.0479,0.004602,0.000000,0.000000,0.570641,-0.559903,0.564505,-0.582913,0.559903,-0.553767
0.9726,0.016758,-0.000018,0.000024,-0.000069,0.0166,0.0149,-0.0067,-0.000337,0.000295,-0.000327,0.000957,-0.002662,0.6192,0.7904,-0.0479,-0.001534,0.000000,0.000000,0.570641,-0.559903,0.564505,-0.582913,0.559903,-0.553767
0.9893,0.016744,-0.000007,0.000009,-0.000027,0.0065,0.0058,-0.0026,-0.000131,0.000115,-0.000327,0.000957,-0.002662,0.6192,0.7904,-0.0479,-0.001534,0.000000,0.000000,0.570641,-0.559903,0.564505,-0.582913,0.559903,-0.553767
1.0060,0.016742,0.000000,0.000000,0.000009,0.0000,0.0000,0.0000,0.002487,-0.002487,-0.000327,0.000957,-0.002662,0.6192,0.7904,-0.0479,-0.006136,0.000000,0.000000,0.570641,-0.559903,0.564505,-0.582913,0.559903,-0.553767
1.0228,0.016742,0.000000,0.000000,0.000036,0.0000,0.0000,0.0000,0.009364,-0.009364,-0.000327,0.000957,-0.002662,0.6192,0.7904,-0.0479,-0.003068,0.000000,0.000000,0.570641,-0.559903,0.564505,-0.582913,0.559903,-0.553767
1.0395,0.016745,0.000000,0.000000,0.000062,0.0000,0.0000,0.0000,0.016216,-0.016216,-0.000327,0.000957,-0.002662,0.6192,0.7904,-0.0479,0.003068,0.000000,0.000000,0.570641,-0.559903,0.564505,-0.582913,0.559903,-0.553767
1.0563,0.016743,0.000000,0.000000,0.000088,0.0000,0.0000,0.0000,0.023023,-0.023023,-0.000327,0.000957,-0.002662,0.6192,0.7904,-0.0479,-0.001534,-0.001534,0.000000,0.570641,-0.559903,0.564505,-0.582913,0.559903,-0.553767
1.0730,0.016755,0.000000,0.000000,0.000115,0.0000,0.0000,0.0000,0.029770,-0.029770,-0.000327,0.000957,-0.002662,0.6192,0.7904,-0.0479,-0.001534,-0.003068,0.000000,0.570641,-0.559903,0.564505,-0.582913,0.559903,-0.553767
1.0898,0.016744,0.000000,0.000000,0.000141,0.0000,0.0000,0.0000,0.036431,-0.036431,-0.000327,0.000957,-0.002662,0.6192,0.7904,-0.0479,-0.001534,-0.003068,0.000000,0.570641,-0.559903,0.564505,-0.582913,0.559903,-0.553767
1.1065,0.016741,0.000000,0.000000,0.000167,0.0000,0.0000,0.0000,0.042990,-0.042990,-0.000275,0.000942,-0.002649,0.6591,0.7550,-0.1004,0.006136,-0.007670,0.000000,0.570641,-0.561437,0.564505,-0.582913,0.559903,-0.553767
1.1233,0.016746,0.000000,0.000000,0.000193,0.0000,0.0000,0.0000,0.049432,-0.049432,-0.000308,0.000928,-0.002612,0.6944,0.6900,-0.1479,0.016874,-0.013806,0.000000,0.572175,-0.562971,0.564505,-0.582913,0.559903,-0.555301
1.1400,0.016768,0.000000,0.000000,0.000220,0.0000,0.0000,0.0000,0.055746,-0.055746,-0.000304,0.000852,-0.002615,0.5913,0.6955,-0.2501,0.038350,-0.032214,0.000000,0.570641,-0.562971,0.564505,-0.582913,0.559903,-0.556835
1.1568,0.016742,0.000000,0.000000,0.000246,0.0000,0.0000,0.0000,0.061895,-0.061895,-0.000345,0.000821,-0.002602,0.5526,0.6778,-0.2930,0.046019,-0.042951,0.000000,0.570641,-0.562971,0.564505,-0.582913,0.559903,-0.558369
1.1735,0.016763,0.000000,0.000000,0.000272,0.0000,0.0000,0.0000,0.067880,-0.067880,-0.000345,0.000821,-0.002602,0.5526,0.6778,-0.2930,0.046019,-0.042951,0.000000,0.570641,-0.562971,0.564505,-0.582913,0.559903,-0.558369
1.1903,0.016740,0.000000,0.000000,0.000298,0.0000,0.0000,0.0000,0.073670,-0.073670,-0.000422,0.000825,-0.002579,0.5570,0.6463,-0.2884,0.053689,-0.053689,0.000000,0.572175,-0.562971,0.564505,-0.582913,0.559903,-0.559903
1.2070,0.016752,0.000000,0.000000,0.000324,0.0000,0.0000,0.0000,0.079260,-0.079260,-0.000467,0.000841,-0.002557,0.5181,0.6831,-0.3959,0.059825,-0.061359,0.000000,0.572175,-0.562971,0.564505,-0.584447,0.559903,-0.561437
1.2238,0.016742,0.000000,0.000000,0.000350,0.0000,0.0000,0.0000,0.084627,-0.084627,-0.000544,0.000917,-0.002536,0.6218,0.6469,-0.2772,0.064427,-0.064427,0.000000,0.575243,-0.562971,0.564505,-0.584447,0.559903,-0.561437
1.2405,0.016750,0.000000,0.000000,0.000376,0.0000,0.0000,0.0000,0.089762,-0.089762,-0.000577,0.000947,-0.002526,0.6607,0.6346,-0.2358,0.067495,-0.070563,0.000000,0.576777,-0.562971,0.564505,-0.584447,0.559903,-0.561437
1.2573,0.016748,0.000000,0.000000,0.000402,0.0000,0.0000,0.0000,0.094648,-0.094648,-0.000615,0.000983,-0.002516,0.7063,0.6199,-0.1863,0.078233,-0.076699,0.000000,0.578311,-0.562971,0.564505,-0.584447,0.559903,-0.561437
1.2740,0.016753,0.000000,0.000000,0.000428,0.0000,0.0000,0.0000,0.099274,-0.099274,-0.000615,0.000983,-0.002516,0.7063,0.6199,-0.1863,0.078233,-0.076699,0.000000,0.578311,-0.562971,0.564505,-0.584447,0.559903,-0.561437
1.2908,0.016739,0.000000,0.000000,0.000454,0.0000,0.0000,0.0000,0.103622,-0.103622,-0.000652,0.001018,-0.002505,0.7512,0.6054,-0.1376,0.092039,-0.079767,0.000000,0.579845,-0.562971,0.564505,-0.584447,0.559903,-0.561437
1.3075,0.016741,0.000000,0.000000,0.000480,0.0000,0.0000,0.0000,0.107683,-0.107683,-0.000689,0.001054,-0.002495,0.7962,0.5910,-0.0889,0.093573,-0.085903,0.000000,0.581379,-0.562971,0.564505,-0.584447,0.559903,-0.561437
1.3242,0.016742,0.000000,0.000000,0.000506,0.0000,0.0000,0.0000,0.111447,-0.111447,-0.000767,0.001050,-0.002471,0.7917,0.5591,-0.0937,0.090505,-0.093573,0.000000,0.582913,-0.562971,0.564505,-0.584447,0.559903,-0.562971
1.3410,0.016753,0.000000,0.000000,0.000532,0.0000,0.0000,0.0000,0.114905,-0.114905,-0.000853,0.001106,-0.002438,0.8037,0.5798,-0.1463,0.095107,-0.101243,0.000000,0.584447,-0.562971,0.564505,-0.585981,0.559903,-0.564505
1.3577,0.016745,0.000000,0.000000,0.000557,0.0000,0.0000,0.0000,0.118043,-0.118043,-0.000779,0.001279,-0.002369,0.7926,0.4948,0.0721,0.107379,-0.105845,0.000000,0.587515,-0.562971,0.564505,-0.587515,0.564505,-0.564505
1.3746,0.016861,0.000000,0.000000,0.000583,0.0000,0.0000,0.0000,0.120872,-0.120872,-0.000779,0.001279,-0.002369,0.7926,0.4948,0.0721,0.107379,-0.105845,0.000000,0.587515,-0.562971,0.564505,-0.587515,0.564505,-0.564505
1.3940,0.019351,0.000000,0.000000,0.000613,0.0000,0.0000,0.0000,0.123702,-0.123702,-0.000779,0.001279,-0.002369,0.7926,0.4948,0.0721,0.107379,-0.105845,0.000000,0.587515,-0.562971,0.564505,-0.587515,0.564505,-0.564505
1.4107,0.016749,0.000000,0.000000,0.000638,0.0000,0.0000,0.0000,0.125782,-0.125782,-0.000829,0.001366,-0.002216,0.6872,0.4865,-0.0052,0.116583,-0.118117,0.000000,0.590583,-0.564505,0.566039,-0.592117,0.569107,-0.569107
1.4275,0.016755,0.000000,0.000000,0.000663,0.0000,0.0000,0.0000,0.127515,-0.127515,-0.000703,0.001366,-0.002107,0.5293,0.3683,0.1087,0.110447,-0.115049,0.000000,0.592117,-0.566039,0.567573,-0.593651,0.575243,-0.572175
1.4442,0.016754,0.000000,0.000000,0.000689,0.0000,0.0000,0.0000,0.128894,-0.128894,-0.000703,0.001366,-0.002107,0.5293,0.3683,0.1087,0.110447,-0.115049,0.000000,0.592117,-0.566039,0.567573,-0.593651,0.575243,-0.572175
1.4610,0.016745,0.000000,0.000000,0.000714,0.0000,0.0000,0.0000,0.129916,-0.129916,-0.000675,0.001359,-0.002056,0.4174,0.3978,0.1494,0.113515,-0.116583,0.000000,0.592117,-0.566039,0.569107,-0.595185,0.578311,-0.573709
1.4777,0.016751,0.000000,0.000000,0.000739,0.0000,0.0000,0.0000,0.130579,-0.130579,-0.000638,0.001322,-0.001961,0.3786,0.4124,0.2523,0.122718,-0.122718,0.000000,0.593651,-0.567573,0.572175,-0.596719,0.581379,-0.575243
1.4945,0.016754,0.000000,0.000000,0.000764,0.0000,0.0000,0.0000,0.130880,-0.130880,-0.000561,0.001296,-0.001883,0.4605,0.4444,0.2959,0.130388,-0.128854,0.000000,0.595185,-0.570641,0.575243,-0.598253,0.582913,-0.575243
1.5116,0.017122,0.000000,0.000000,0.000790,0.0000,0.0000,0.0000,0.130813,-0.130813,-0.000541,0.001315,-0.001854,0.4126,0.5094,0.3446,0.130388,-0.130388,0.000000,0.595185,-0.570641,0.576777,-0.599786,0.584447,-0.575243
1.5283,0.016744,0.000000,0.000000,0.000815,0.0000,0.0000,0.0000,0.130382,-0.130382,-0.000461,0.001345,-0.001808,0.3388,0.5372,0.4464,0.125786,-0.130388,0.000000,0.595185,-0.570641,0.578311,-0.601320,0.587515,-0.575243
1.5451,0.016755,0.000000,0.000000,0.000840,0.0000,0.0000,0.0000,0.129589,-0.129589,-0.000461,0.001345,-0.001808,0.3388,0.5372,0.4464,0.125786,-0.130388,0.000000,0.595185,-0.570641,0.578311,-0.601320,0.587515,-0.575243
1.5618,0.016741,0.000000,0.000000,0.000864,0.0000,0.0000,0.0000,0.128439,-0.128439,-0.000428,0.001303,-0.001788,0.2964,0.5517,0.5431,0.130388,-0.130388,0.000000,0.595185,-0.570641,0.579845,-0.601320,0.589049,-0.575243
1.5786,0.016749,0.000000,0.000000,0.000889,0.0000,0.0000,0.0000,0.126932,-0.126932,-0.000337,0.001253,-0.001751,0.2901,0.5321,0.5871,0.131922,-0.131922,0.000000,0.595185,-0.572175,0.581379,-0.601320,0.590583,-0.575243
1.5953,0.016740,0.000000,0.000000,0.000913,0.0000,0.0000,0.0000,0.125075,-0.125075,-0.000319,0.001243,-0.001718,0.3301,0.6008,0.5289,0.128854,-0.131922,0.000000,0.595185,-0.573709,0.582913,-0.602854,0.590583,-0.575243
1.6121,0.016801,0.000000,0.000000,0.000938,0.0000,0.0000,0.0000,0.122864,-0.122864,-0.000374,0.001150,-0.001695,0.2656,0.6272,0.5349,0.125786,-0.130388,0.000000,0.595185,-0.573709,0.584447,-0.602854,0.590583,-0.576777
1.6289,0.016744,0.000000,0.000000,0.000962,0.0000,0.0000,0.0000,0.120320,-0.120320,-0.000374,0.001150,-0.001695,0.2656,0.6272,0.5349,0.125786,-0.130388,0.000000,0.595185,-0.573709,0.584447,-0.602854,0.590583,-0.576777
1.6456,0.016755,0.000000,0.000000,0.000987,0.0000,0.0000,0.0000,0.117441,-0.117441,-0.000422,0.001066,-0.001672,0.2120,0.6580,0.5343,0.125786,-0.128854,0.000000,0.595185,-0.573709,0.585981,-0.602854,0.590583,-0.578311
1.6624,0.016743,0.000000,0.000000,0.001011,0.0000,0.0000,0.0000,0.114239,-0.114239,-0.000323,0.001099,-0.001637,0.3072,0.6351,0.3734,0.122718,-0.128854,0.000000,0.595185,-0.576777,0.585981,-0.604388,0.590583,-0.578311
1.6792,0.016811,0.000000,0.000000,0.001035,0.0000,0.0000,0.0000,0.110706,-0.110706,-0.000226,0.001064,-0.001615,0.3756,0.5668,0.2831,0.119651,-0.125786,0.000000,0.595185,-0.579845,0.585981,-0.604388,0.590583,-0.578311
1.6959,0.016743,0.000000,0.000000,0.001059,0.0000,0.0000,0.0000,0.106880,-0.106880,-0.000195,0.001107,-0.001593,0.4183,0.5894,0.1848,0.122718,-0.124252,0.000000,0.595185,-0.581379,0.585981,-0.605922,0.590583,-0.578311
1.7127,0.016769,0.000000,0.000000,0.001082,0.0000,0.0000,0.0000,0.102753,-0.102753,-0.000132,0.001031,-0.001557,0.4425,0.4992,0.0337,0.118117,-0.121184,0.000000,0.595185,-0.584447,0.585981,-0.605922,0.590583,-0.579845
1.7294,0.016740,0.000000,0.000000,0.001106,0.0000,0.0000,0.0000,0.098348,-0.098348,-0.000132,0.001031,-0.001557,0.4425,0.4992,0.0337,0.118117,-0.121184,0.000000,0.595185,-0.584447,0.585981,-0.605922,0.590583,-0.579845
1.7462,0.016753,0.000000,0.000000,0.001130,0.0000,0.0000,0.0000,0.093667,-0.093667,-0.000084,0.001023,-0.001548,0.4788,0.4734,-0.0043,0.111981,-0.118117,0.000000,0.595185,-0.585981,0.585981,-0.605922,0.590583,-0.579845
1.7629,0.016744,0.000000,0.000000,0.001153,0.0000,0.0000,0.0000,0.088729,-0.088729,0.000005,0.001047,-0.001549,0.5632,0.4580,-0.0003,0.107379,-0.113515,0.000000,0.595185,-0.587515,0.585981,-0.605922,0.590583,-0.578311
1.7797,0.016754,0.000000,0.000000,0.001176,0.0000,0.0000,0.0000,0.083543,-0.083543,0.000158,0.000996,-0.001512,0.6706,0.3539,-0.1626,0.096641,-0.101243,0.000000,0.595185,-0.592117,0.585981,-0.605922,0.590583,-0.578311
1.7964,0.016747,0.000000,0.000000,0.001199,0.0000,0.0000,0.0000,0.078128,-0.078128,0.000142,0.001001,-0.001516,0.6593,0.3647,-0.1456,0.088971,-0.092039,0.000000,0.595185,-0.592117,0.585981,-0.605922,0.590583,-0.578311
1.8132,0.016764,0.000000,0.000000,0.001222,0.0000,0.0000,0.0000,0.072491,-0.072491,0.000144,0.001001,-0.001515,0.6608,0.3632,-0.1480,0.082835,-0.084369,0.000000,0.595185,-0.592117,0.585981,-0.605922,0.590583,-0.578311
1.8299,0.016745,0.000000,0.000000,0.001245,0.0000,0.0000,0.0000,0.066660,-0.066660,0.000144,0.001001,-0.001515,0.6608,0.3632,-0.1480,0.082835,-0.084369,0.000000,0.595185,-0.592117,0.585981,-0.605922,0.590583,-0.578311
1.8467,0.016750,0.000000,0.000000,0.001268,0.0000,0.0000,0.0000,0.060642,-0.060642,0.000144,0.001001,-0.001515,0.6608,0.3632,-0.1480,0.082835,-0.079767,0.000000,0.595185,-0.592117,0.585981,-0.605922,0.590583,-0.578311
1.8634,0.016750,0.000000,0.000000,0.001291,0.0000,0.0000,0.0000,0.054457,-0.054457,0.000144,0.001001,-0.001515,0.6608,0.3632,-0.1480,0.082835,-0.079767,0.000000,0.595185,-0.592117,0.585981,-0.605922,0.590583,-0.578311
1.8802,0.016757,0.000000,0.000000,0.001313,0.0000,0.0000,0.0000,0.048118,-0.048118,0.000130,0.001057,-0.001504,0.6709,0.4143,-0.2012,0.070563,-0.070563,0.000000,0.595185,-0.592117,0.585981,-0.607456,0.590583,-0.578311
1.8969,0.016737,0.000000,0.000000,0.001335,0.0000,0.0000,0.0000,0.041653,-0.041653,0.000118,0.001106,-0.001493,0.6805,0.4594,-0.2497,0.059825,-0.064427,0.000000,0.595185,-0.592117,0.585981,-0.608990,0.590583,-0.578311
1.9137,0.016768,0.000000,0.000000,0.001358,0.0000,0.0000,0.0000,0.035061,-0.035061,0.000118,0.001106,-0.001493,0.6805,0.4594,-0.2497,0.059825,-0.064427,0.000000,0.595185,-0.592117,0.585981,-0.608990,0.590583,-0.578311
1.9304,0.016739,0.000000,0.000000,0.001380,0.0000,0.0000,0.0000,0.028383,-0.028383,0.000119,0.001101,-0.001494,0.6795,0.4546,-0.2446,0.047553,-0.053689,0.000000,0.595185,-0.592117,0.585981,-0.608990,0.590583,-0.578311
1.9472,0.016730,0.000000,0.000000,0.001402,0.0000,0.0000,0.0000,0.021631,-0.021631,0.000119,0.001101,-0.001494,0.6795,0.4546,-0.2446,0.039884,-0.041417,0.000000,0.595185,-0.592117,0.585981,-0.608990,0.590583,-0.578311
1.9639,0.016743,0.000000,0.000000,0.001423,0.0000,0.0000,0.0000,0.014813,-0.014813,0.000106,0.001157,-0.001483,0.6903,0.5055,-0.2992,0.038350,-0.033748,0.000000,0.595185,-0.592117,0.585981,-0.610524,0.590583,-0.578311
1.9807,0.016764,0.000000,0.000000,0.001445,0.0000,0.0000,0.0000,0.007947,-0.007947,0.000012,0.001207,-0.001448,0.7004,0.5177,-0.3474,0.033748,-0.033748,0.000000,0.596719,-0.592117,0.585981,-0.612058,0.590583,-0.579845
1.9974,0.016743,0.000000,0.000000,0.001466,0.0000,0.0000,0.0000,0.001066,-0.001066,0.000022,0.001202,-0.001451,0.6993,0.5165,-0.3424,0.024544,-0.029146,0.000000,0.596719,-0.592117,0.585981,-0.612058,0.590583,-0.579845
2.0142,0.016765,0.000000,0.000000,0.001487,0.0000,0.0000,0.0000,-0.005826,0.005826,0.000021,0.001203,-0.001451,0.6995,0.5166,-0.3431,0.024544,-0.029146,0.000000,0.596719,-0.592117,0.585981,-0.612058,0.590583,-0.579845
2.0309,0.016738,0.000000,0.000000,0.001508,0.0000,0.0000,0.0000,-0.012691,0.012691,0.000021,0.001203,-0.001451,0.6995,0.5166,-0.3431,0.024544,-0.029146,0.000000,0.596719,-0.592117,0.585981,-0.612058,0.590583,-0.579845
2.0477,0.016748,0.000000,0.000000,0.001529,0.0000,0.0000,0.0000,-0.019525,0.019525,-0.000159,0.001415,-0.001393,0.9093,0.5046,-0.1798,0.000000,0.000000,0.000000,0.602854,-0.592117,0.585981,-0.613592,0.590583,-0.579845
2.0644,0.016738,0.000000,0.000000,0.001550,0.0000,0.0000,0.0000,-0.026302,0.026302,-0.000182,0.001432,-0.001387,0.9369,0.4907,-0.1425,-0.007670,0.006136,0.000000,0.604388,-0.592117,0.585981,-0.613592,0.590583,-0.579845
2.0811,0.016748,0.000000,0.000000,0.001571,0.0000,0.0000,0.0000,-0.033009,0.033009,-0.000303,0.001470,-0.001352,0.9840,0.4440,-0.0917,-0.012272,0.010738,0.000000,0.607456,-0.592117,0.585981,-0.613592,0.590583,-0.581379
2.0978,0.016705,0.000000,0.000000,0.001591,0.0000,0.0000,0.0000,-0.039608,0.039608,-0.000427,0.001452,-0.001307,1.0181,0.4523,0.0121,-0.021476,0.021476,0.000000,0.610524,-0.592117,0.587515,-0.613592,0.590583,-0.582913
2.1146,0.016761,0.000000,0.000000,0.001611,0.0000,0.0000,0.0000,-0.046120,0.046120,-0.000427,0.001452,-0.001307,1.0181,0.4523,0.0121,-0.021476,0.021476,0.000000,0.610524,-0.592117,0.587515,-0.613592,0.590583,-0.582913
2.1314,0.016744,0.000000,0.000000,0.001631,0.0000,0.0000,0.0000,-0.052497,0.052497,-0.000589,0.001308,-0.001187,0.9449,0.6033,-0.1060,-0.030680,0.030680,0.000000,0.612058,-0.593651,0.592117,-0.616660,0.590583,-0.587515
2.1481,0.016747,0.000000,0.000000,0.001651,0.0000,0.0000,0.0000,-0.058730,0.058730,-0.000788,0.001247,-0.001138,0.8544,0.7254,-0.0390,-0.038350,0.036816,0.000000,0.613592,-0.592117,0.595185,-0.618194,0.590583,-0.590583
2.1648,0.016737,0.000000,0.000000,0.001671,0.0000,0.0000,0.0000,-0.064797,0.064797,-0.000917,0.001216,-0.001046,0.8137,0.7660,0.0628,-0.039884,0.041417,0.000000,0.616660,-0.592117,0.598253,-0.619728,0.592117,-0.593651
2.1816,0.016760,0.000000,0.000000,0.001690,0.0000,0.0000,0.0000,-0.070693,0.070693,-0.000917,0.001165,-0.000969,0.8065,0.8126,0.1066,-0.044485,0.044485,0.000000,0.618194,-0.593651,0.601320,-0.621262,0.593651,-0.595185
2.1983,0.016738,0.000000,0.000000,0.001709,0.0000,0.0000,0.0000,-0.076386,0.076386,-0.000875,0.001052,-0.000913,0.6567,0.8248,0.2636,-0.058291,0.056757,0.000000,0.618194,-0.593651,0.604388,-0.621262,0.596719,-0.596719
2.2151,0.016763,0.000000,0.000000,0.001729,0.0000,0.0000,0.0000,-0.081876,0.081876,-0.000875,0.001052,-0.000913,0.6567,0.8248,0.2636,-0.058291,0.056757,0.000000,0.618194,-0.593651,0.604388,-0.621262,0.596719,-0.596719
2.2318,0.016741,0.000000,0.000000,0.001747,0.0000,0.0000,0.0000,-0.087131,0.087131,-0.000825,0.000969,-0.000868,0.6118,0.7882,0.2469,-0.073631,0.072097,0.000000,0.618194,-0.595185,0.605922,-0.621262,0.598253,-0.598253
2.2486,0.016749,0.000000,0.000000,0.001766,0.0000,0.0000,0.0000,-0.092148,0.092148,-0.000843,0.000844,-0.000785,0.5070,0.8409,0.1938,-0.076699,0.075165,0.000000,0.618194,-0.596719,0.608990,-0.622796,0.599786,-0.601320
2.2653,0.016742,0.000000,0.000000,0.001785,0.0000,0.0000,0.0000,-0.096909,0.096909,-0.000691,0.000928,-0.000744,0.4898,0.7830,0.1985,-0.073631,0.072097,0.000000,0.618194,-0.598253,0.608990,-0.624330,0.602854,-0.601320
2.2821,0.016759,0.000000,0.000000,0.001803,0.0000,0.0000,0.0000,-0.101405,0.101405,-0.000545,0.000903,-0.000710,0.5303,0.6851,0.1437,-0.078233,0.079767,0.000000,0.618194,-0.601320,0.608990,-0.624330,0.604388,-0.601320
2.2988,0.016741,0.000000,0.000000,0.001821,0.0000,0.0000,0.0000,-0.105617,0.105617,-0.000477,0.000795,-0.000663,0.5038,0.7280,0.2584,-0.090505,0.092039,0.000000,0.618194,-0.602854,0.612058,-0.624330,0.605922,-0.601320
2.3156,0.016757,0.000000,0.000000,0.001839,0.0000,0.0000,0.0000,-0.109539,0.109539,-0.000477,0.000795,-0.000663,0.5038,0.7280,0.2584,-0.090505,0.092039,0.000000,0.618194,-0.602854,0.612058,-0.624330,0.605922,-0.601320
2.3323,0.016742,0.000000,0.000000,0.001857,0.0000,0.0000,0.0000,-0.113155,0.113155,-0.000402,0.000886,-0.000619,0.6064,0.7543,0.0290,-0.105845,0.101243,0.000000,0.618194,-0.605922,0.612058,-0.627398,0.605922,-0.601320
2.3491,0.016750,0.000000,0.000000,0.001874,0.0000,0.0000,0.0000,-0.116460,0.116460,-0.000423,0.000821,-0.000611,0.5848,0.8023,0.1076,-0.108913,0.101243,0.000000,0.618194,-0.605922,0.613592,-0.627398,0.605922,-0.601320
2.3658,0.016741,0.000000,0.000000,0.001892,0.0000,0.0000,0.0000,-0.119441,0.119441,-0.000475,0.000812,-0.000624,0.6262,0.8313,0.0456,-0.105845,0.101243,0.000000,0.618194,-0.605922,0.613592,-0.627398,0.604388,-0.601320
2.3826,0.016749,0.000000,0.000000,0.001909,0.0000,0.0000,0.0000,-0.122092,0.122092,-0.000483,0.000869,-0.000611,0.6330,0.8785,-0.0024,-0.108913,0.111981,0.000000,0.618194,-0.605922,0.613592,-0.628932,0.604388,-0.601320
2.3995,0.016889,0.000000,0.000000,0.001926,0.0000,0.0000,0.0000,-0.124424,0.124424,-0.000415,0.000903,-0.000613,0.6819,0.7878,-0.1064,-0.119651,0.119651,0.000000,0.618194,-0.607456,0.612058,-0.628932,0.604388,-0.601320
2.4167,0.017275,0.000000,0.000000,0.001943,0.0000,0.0000,0.0000,-0.126446,0.126446,-0.000415,0.000903,-0.000613,0.6819,0.7878,-0.1064,-0.119651,0.119651,0.000000,0.618194,-0.607456,0.612058,-0.628932,0.604388,-0.601320
2.4371,0.020327,0.000000,0.000000,0.001963,0.0000,0.0000,0.0000,-0.128349,0.128349,-0.000415,0.000903,-0.000613,0.6819,0.7878,-0.1064,-0.119651,0.119651,0.000000,0.618194,-0.607456,0.612058,-0.628932,0.604388,-0.601320
2.4538,0.016752,0.000000,0.000000,0.001979,0.0000,0.0000,0.0000,-0.129524,0.129524,-0.000422,0.000931,-0.000613,0.5989,0.7982,0.0125,-0.124252,0.118117,0.000000,0.618194,-0.605922,0.612058,-0.628932,0.605922,-0.601320
2.4706,0.016757,0.000000,0.000000,0.001995,0.0000,0.0000,0.0000,-0.130341,0.130341,-0.000476,0.000801,-0.000624,0.6247,0.8317,0.0555,-0.124252,0.121184,0.000000,0.618194,-0.605922,0.613592,-0.627398,0.604388,-0.601320
2.4873,0.016756,0.000000,0.000000,0.002011,0.0000,0.0000,0.0000,-0.130796,0.130796,-0.000476,0.000801,-0.000624,0.6247,0.8317,0.0555,-0.124252,0.121184,0.000000,0.618194,-0.605922,0.613592,-0.627398,0.604388,-0.601320
2.5041,0.016744,0.000000,0.000000,0.002026,0.0000,0.0000,0.0000,-0.130889,0.130889,-0.000375,0.000870,-0.000586,0.6327,0.8095,-0.0039,-0.128854,0.122718,0.000000,0.618194,-0.607456,0.613592,-0.628932,0.605922,-0.601320
2.5208,0.016746,0.000000,0.000000,0.002042,0.0000,0.0000,0.0000,-0.130620,0.130620,-0.000413,0.000846,-0.000627,0.6708,0.7448,-0.0517,-0.133456,0.127320,0.000000,0.618194,-0.607456,0.612058,-0.627398,0.604388,-0.601320
2.5376,0.016753,0.000000,0.000000,0.002057,0.0000,0.0000,0.0000,-0.129989,0.129989,-0.000381,0.000865,-0.000586,0.6278,0.8186,0.0073,-0.133456,0.130388,0.000000,0.618194,-0.607456,0.613592,-0.628932,0.605922,-0.601320
2.5543,0.016752,0.000000,0.000000,0.002072,0.0000,0.0000,0.0000,-0.128998,0.128998,-0.000317,0.000903,-0.000590,0.6818,0.7251,-0.1079,-0.130388,0.128854,0.000000,0.618194,-0.608990,0.612058,-0.628932,0.605922,-0.601320
2.5711,0.016756,0.000000,0.000000,0.002086,0.0000,0.0000,0.0000,-0.127650,0.127650,-0.000317,0.000903,-0.000590,0.6818,0.7251,-0.1079,-0.133456,0.130388,0.000000,0.618194,-0.608990,0.613592,-0.627398,0.605922,-0.601320
2.5878,0.016749,0.000000,0.000000,0.002101,0.0000,0.0000,0.0000,-0.125949,0.125949,-0.000324,0.000787,-0.000589,0.6543,0.7355,0.0133,-0.133456,0.130388,0.000000,0.618194,-0.608990,0.613592,-0.627398,0.605922,-0.601320
2.6046,0.016738,0.000000,0.000000,0.002115,0.0000,0.0000,0.0000,-0.123900,0.123900,-0.000404,0.000784,-0.000577,0.6965,0.8695,-0.0529,-0.134990,0.130388,0.000000,0.618194,-0.608990,0.615126,-0.628932,0.604388,-0.601320
2.6213,0.016748,0.000000,0.000000,0.002129,0.0000,0.0000,0.0000,-0.121508,0.121508,-0.000287,0.000784,-0.000553,0.6916,0.7865,-0.0465,-0.131922,0.128854,0.000000,0.618194,-0.610524,0.615126,-0.628932,0.605922,-0.601320
2.6381,0.016753,0.000000,0.000000,0.002142,0.0000,0.0000,0.0000,-0.118778,0.118778,-0.000312,0.000729,-0.000543,0.6813,0.8459,0.0076,-0.128854,0.124252,0.000000,0.618194,-0.610524,0.616660,-0.628932,0.605922,-0.601320
2.6548,0.016721,0.000000,0.000000,0.002156,0.0000,0.0000,0.0000,-0.115726,0.115726,-0.000296,0.000790,-0.000557,0.6932,0.7890,-0.0528,-0.124252,0.121184,0.000000,0.618194,-0.610524,0.615126,-0.628932,0.605922,-0.601320
2.6715,0.016753,0.000000,0.000000,0.002169,0.0000,0.0000,0.0000,-0.112348,0.112348,-0.000296,0.000790,-0.000557,0.6932,0.7890,-0.0528,-0.124252,0.121184,0.000000,0.618194,-0.610524,0.615126,-0.628932,0.605922,-0.601320
2.6883,0.016740,0.000000,0.000000,0.002182,0.0000,0.0000,0.0000,-0.108661,0.108661,-0.000243,0.000799,-0.000543,0.6528,0.7608,0.0074,-0.124252,0.119651,0.000000,0.618194,-0.610524,0.615126,-0.628932,0.607456,-0.601320
2.7050,0.016742,0.000000,0.000000,0.002195,0.0000,0.0000,0.0000,-0.104674,0.104674,-0.000235,0.000775,-0.000519,0.5688,0.7128,0.0004,-0.121184,0.119651,0.000000,0.618194,-0.610524,0.615126,-0.628932,0.608990,-0.602854
2.7218,0.016743,0.000000,0.000000,0.002207,0.0000,0.0000,0.0000,-0.100396,0.100396,-0.000277,0.000738,-0.000509,0.5284,0.7010,-0.0535,-0.119651,0.116583,0.000000,0.618194,-0.610524,0.615126,-0.628932,0.608990,-0.604388
2.7385,0.016748,0.000000,0.000000,0.002219,0.0000,0.0000,0.0000,-0.095840,0.095840,-0.000163,0.000773,-0.000486,0.4546,0.6341,0.0602,-0.115049,0.113515,0.000000,0.618194,-0.610524,0.615126,-0.628932,0.612058,-0.604388
2.7553,0.016761,0.000000,0.000000,0.002231,0.0000,0.0000,0.0000,-0.091014,0.091014,-0.000201,0.000770,-0.000464,0.4625,0.7420,0.0484,-0.105845,0.108913,0.000000,0.618194,-0.610524,0.616660,-0.630466,0.612058,-0.604388
2.7720,0.016751,0.000000,0.000000,0.002243,0.0000,0.0000,0.0000,-0.085940,0.085940,-0.000201,0.000770,-0.000464,0.4625,0.7420,0.0484,-0.105845,0.108913,0.000000,0.618194,-0.610524,0.616660,-0.630466,0.612058,-0.604388
2.7888,0.016744,0.000000,0.000000,0.002254,0.0000,0.0000,0.0000,-0.080629,0.080629,-0.000198,0.000882,-0.000430,0.4828,0.7314,0.1040,-0.096641,0.102777,0.000000,0.619728,-0.610524,0.616660,-0.632000,0.613592,-0.604388
2.8055,0.016741,0.000000,0.000000,0.002266,0.0000,0.0000,0.0000,-0.075097,0.075097,-0.000198,0.000871,-0.000434,0.4807,0.7325,0.0982,-0.096641,0.102777,0.000000,0.619728,-0.610524,0.616660,-0.632000,0.613592,-0.604388
2.8222,0.016741,0.000000,0.000000,0.002277,0.0000,0.0000,0.0000,-0.069357,0.069357,-0.000297,0.001167,-0.000327,0.7879,0.7514,0.0458,-0.092039,0.088971,0.000000,0.625864,-0.613592,0.616660,-0.636602,0.613592,-0.604388
2.8390,0.016750,0.000000,0.000000,0.002287,0.0000,0.0000,0.0000,-0.063422,0.063422,-0.000274,0.001192,-0.000352,0.7665,0.6985,-0.0036,-0.088971,0.082835,0.000000,0.625864,-0.613592,0.615126,-0.636602,0.613592,-0.604388
2.8558,0.016804,0.000000,0.000000,0.002298,0.0000,0.0000,0.0000,-0.057291,0.057291,-0.000222,0.001205,-0.000337,0.7297,0.6702,0.0556,-0.078233,0.075165,0.000000,0.625864,-0.613592,0.615126,-0.636602,0.615126,-0.604388
2.8725,0.016743,0.000000,0.000000,0.002308,0.0000,0.0000,0.0000,-0.051024,0.051024,-0.000222,0.001205,-0.000337,0.7297,0.6702,0.0556,-0.078233,0.075165,0.000000,0.625864,-0.613592,0.615126,-0.636602,0.615126,-0.604388
2.8893,0.016748,0.000000,0.000000,0.002318,0.0000,0.0000,0.0000,-0.044614,0.044614,-0.000240,0.001148,-0.000325,0.7228,0.7240,0.1043,-0.069029,0.065961,0.000000,0.625864,-0.613592,0.616660,-0.636602,0.615126,-0.604388
2.9061,0.016787,0.000000,0.000000,0.002328,0.0000,0.0000,0.0000,-0.038065,0.038065,-0.000255,0.001305,-0.000304,0.7936,0.6035,0.2085,-0.059825,0.061359,0.000000,0.628932,-0.613592,0.615126,-0.636602,0.616660,-0.604388
2.9228,0.016746,0.000000,0.000000,0.002337,0.0000,0.0000,0.0000,-0.031427,0.031427,-0.000295,0.001328,-0.000295,0.8354,0.6011,0.2527,-0.050621,0.059825,0.000000,0.630466,-0.613592,0.615126,-0.636602,0.616660,-0.604388
2.9396,0.016756,0.000000,0.000000,0.002347,0.0000,0.0000,0.0000,-0.024697,0.024697,-0.000237,0.001453,-0.000249,0.8132,0.5692,0.3568,-0.044485,0.053689,0.000000,0.632000,-0.613592,0.615126,-0.638136,0.619728,-0.604388
2.9565,0.016923,0.000000,0.000000,0.002356,0.0000,0.0000,0.0000,-0.017831,0.017831,-0.000298,0.001425,-0.000230,0.8539,0.6084,0.4559,-0.035282,0.044485,0.000000,0.633534,-0.613592,0.616660,-0.638136,0.619728,-0.604388
2.9732,0.016715,0.000000,0.000000,0.002364,0.0000,0.0000,0.0000,-0.011000,0.011000,-0.000298,0.001425,-0.000230,0.8539,0.6084,0.4559,-0.035282,0.044485,0.000000,0.633534,-0.613592,0.616660,-0.638136,0.619728,-0.604388
2.9900,0.016741,0.000000,0.000000,0.002373,0.0000,0.0000,0.0000,-0.004128,0.004128,-0.000237,0.001555,-0.000222,0.8326,0.5702,0.3902,-0.026078,0.033748,0.000000,0.633534,-0.613592,0.615126,-0.639670,0.621262,-0.604388
3.0067,0.016756,0.000000,0.000000,0.002381,0.0000,0.0000,0.0000,0.002761,-0.002761,-0.000244,0.001542,-0.000222,0.8348,0.5741,0.3971,-0.019942,0.024544,0.000000,0.633534,-0.613592,0.615126,-0.639670,0.621262,-0.604388
3.0236,0.016924,0.000000,0.000000,0.002389,0.0000,0.0000,0.0000,0.009713,-0.009713,-0.000243,0.001544,-0.000222,0.8345,0.5736,0.3961,-0.016874,0.015340,0.000000,0.633534,-0.613592,0.615126,-0.639670,0.621262,-0.604388
3.0411,0.017441,0.000000,0.000000,0.002397,0.0000,0.0000,0.0000,0.016847,-0.016847,-0.000188,0.001559,-0.000210,0.7957,0.5402,0.4507,-0.009204,0.004602,0.000000,0.633534,-0.613592,0.615126,-0.639670,0.622796,-0.604388
3.0578,0.016743,0.000000,0.000000,0.002404,0.0000,0.0000,0.0000,0.023649,-0.023649,-0.000194,0.001557,-0.000211,0.7998,0.5437,0.4450,0.003068,-0.004602,0.000000,0.633534,-0.613592,0.615126,-0.639670,0.622796,-0.604388
3.0746,0.016761,0.000000,0.000000,0.002411,0.0000,0.0000,0.0000,0.030392,-0.030392,-0.000194,0.001557,-0.000211,0.7998,0.5437,0.4450,0.003068,-0.004602,0.000000,0.633534,-0.613592,0.615126,-0.639670,0.622796,-0.604388
3.0913,0.016746,0.000000,0.000000,0.002418,0.0000,0.0000,0.0000,0.037045,-0.037045,-0.000194,0.001557,-0.000211,0.7998,0.5437,0.4450,0.013806,-0.013806,0.000000,0.633534,-0.613592,0.615126,-0.639670,0.622796,-0.604388
3.1081,0.016763,0.000000,0.000000,0.002425,0.0000,0.0000,0.0000,0.043603,-0.043603,-0.000194,0.001557,-0.000211,0.7998,0.5437,0.4450,0.018408,-0.019942,0.000000,0.633534,-0.613592,0.615126,-0.639670,0.622796,-0.604388
3.1248,0.016742,0.000000,0.000000,0.002431,0.0000,0.0000,0.0000,0.050031,-0.050031,-0.000194,0.001557,-0.000211,0.7998,0.5437,0.4450,0.019942,-0.024544,0.000000,0.633534,-0.613592,0.615126,-0.639670,0.622796,-0.604388
3.1416,0.016762,0.000000,0.000000,0.002437,0.0000,0.0000,0.0000,0.056328,-0.056328,-0.000194,0.001557,-0.000211,0.7998,0.5437,0.4450,0.030680,-0.032214,0.000000,0.633534,-0.613592,0.615126,-0.639670,0.622796,-0.604388
3.1583,0.016745,0.000000,0.000000,0.002443,0.0000,0.0000,0.0000,0.062464,-0.062464,-0.000194,0.001557,-0.000211,0.7998,0.5437,0.4450,0.047553,-0.042951,0.000000,0.633534,-0.613592,0.615126,-0.639670,0.622796,-0.604388
3.1751,0.016784,0.000000,0.000000,0.002448,0.0000,0.0000,0.0000,0.068440,-0.068440,-0.000194,0.001557,-0.000211,0.7998,0.5437,0.4450,0.047553,-0.042951,0.000000,0.633534,-0.613592,0.615126,-0.639670,0.622796,-0.604388
3.1919,0.016745,0.000000,0.000000,0.002453,0.0000,0.0000,0.0000,0.074212,-0.074212,-0.000194,0.001557,-0.000211,0.7998,0.5437,0.4450,0.055223,-0.053689,0.000000,0.633534,-0.613592,0.615126,-0.639670,0.622796,-0.604388
3.2086,0.016757,0.000000,0.000000,0.002458,0.0000,0.0000,0.0000,0.079783,-0.079783,-0.000194,0.001557,-0.000211,0.7998,0.5437,0.4450,0.055223,-0.058291,0.000000,0.633534,-0.613592,0.615126,-0.639670,0.622796,-0.604388
3.2254,0.016753,0.000000,0.000000,0.002463,0.0000,0.0000,0.0000,0.085132,-0.085132,-0.000194,0.001557,-0.000211,0.7998,0.5437,0.4450,0.056757,-0.061359,0.000000,0.633534,-0.613592,0.615126,-0.639670,0.622796,-0.604388
3.2423,0.016921,0.000000,0.000000,0.002467,0.0000,0.0000,0.0000,0.090295,-0.090295,-0.000194,0.001557,-0.000211,0.7998,0.5437,0.4450,0.065961,-0.067495,0.000000,0.633534,-0.613592,0.615126,-0.639670,0.622796,-0.604388
3.2591,0.016748,0.000000,0.000000,0.002471,0.0000,0.0000,0.0000,0.095154,-0.095154,-0.000207,0.001614,-0.000200,0.8103,0.5934,0.3909,0.079767,-0.076699,0.000000,0.633534,-0.613592,0.615126,-0.641204,0.622796,-0.604388
3.2758,0.016754,0.000000,0.000000,0.002475,0.0000,0.0000,0.0000,0.099752,-0.099752,-0.000207,0.001614,-0.000200,0.8103,0.5934,0.3909,0.079767,-0.076699,0.000000,0.633534,-0.613592,0.615126,-0.641204,0.622796,-0.604388
3.2925,0.016742,0.000000,0.000000,0.002479,0.0000,0.0000,0.0000,0.104070,-0.104070,-0.000231,0.001609,-0.000177,0.8094,0.6890,0.3966,0.092039,-0.082835,0.000000,0.633534,-0.613592,0.616660,-0.642738,0.622796,-0.604388
3.3093,0.016753,0.000000,0.000000,0.002482,0.0000,0.0000,0.0000,0.108103,-0.108103,-0.000229,0.001610,-0.000180,0.8095,0.6790,0.3960,0.090505,-0.088971,0.000000,0.633534,-0.613592,0.616660,-0.642738,0.622796,-0.604388
3.3260,0.016740,0.000000,0.000000,0.002485,0.0000,0.0000,0.0000,0.111834,-0.111834,-0.000216,0.001665,-0.000192,0.8202,0.6293,0.3412,0.088971,-0.096641,0.000000,0.633534,-0.613592,0.615126,-0.642738,0.622796,-0.604388
3.3428,0.016763,0.000000,0.000000,0.002488,0.0000,0.0000,0.0000,0.115259,-0.115259,-0.000189,0.001676,-0.000155,0.7804,0.7018,0.4012,0.101243,-0.102777,0.000000,0.633534,-0.613592,0.616660,-0.644272,0.624330,-0.604388
3.3595,0.016745,0.000000,0.000000,0.002490,0.0000,0.0000,0.0000,0.118363,-0.118363,-0.000189,0.001676,-0.000155,0.7804,0.7018,0.4012,0.101243,-0.102777,0.000000,0.633534,-0.613592,0.616660,-0.644272,0.624330,-0.604388
3.3763,0.016757,0.000000,0.000000,0.002492,0.0000,0.0000,0.0000,0.121140,-0.121140,-0.000261,0.001619,-0.000182,0.7742,0.6095,0.2860,0.113515,-0.107379,0.000000,0.633534,-0.613592,0.615126,-0.642738,0.622796,-0.605922
3.3931,0.016746,0.000000,0.000000,0.002494,0.0000,0.0000,0.0000,0.123580,-0.123580,-0.000253,0.001546,-0.000141,0.6762,0.6190,0.3524,0.111981,-0.110447,0.000000,0.633534,-0.613592,0.616660,-0.642738,0.624330,-0.607456
3.4098,0.016747,0.000000,0.000000,0.002496,0.0000,0.0000,0.0000,0.125679,-0.125679,-0.000282,0.001569,-0.000145,0.6482,0.5498,0.2360,0.110447,-0.118117,0.000000,0.633534,-0.613592,0.615126,-0.642738,0.624330,-0.608990
3.4266,0.016754,0.000000,0.000000,0.002497,0.0000,0.0000,0.0000,0.127431,-0.127431,-0.000375,0.001511,-0.000144,0.6411,0.5732,0.1391,0.118117,-0.122718,0.000000,0.633534,-0.613592,0.615126,-0.642738,0.622796,-0.610524
3.4434,0.016845,0.000000,0.000000,0.002498,0.0000,0.0000,0.0000,0.128836,-0.128836,-0.000351,0.001494,-0.000119,0.5540,0.5200,0.1488,0.128854,-0.124252,0.000000,0.633534,-0.613592,0.615126,-0.642738,0.624330,-0.612058
3.4603,0.016882,0.000000,0.000000,0.002499,0.0000,0.0000,0.0000,0.129882,-0.129882,-0.000351,0.001494,-0.000119,0.5540,0.5200,0.1488,0.128854,-0.124252,0.000000,0.633534,-0.613592,0.615126,-0.642738,0.624330,-0.612058
3.4771,0.016772,0.000000,0.000000,0.002500,0.0000,0.0000,0.0000,0.130560,-0.130560,-0.000351,0.001494,-0.000119,0.5540,0.5200,0.1488,0.128854,-0.124252,0.000000,0.633534,-0.613592,0.615126,-0.642738,0.624330,-0.612058
3.4938,0.016751,0.000000,0.000000,0.002500,0.0000,0.0000,0.0000,0.130875,-0.130875,-0.000436,0.001417,-0.000096,0.4654,0.4911,0.0382,0.122718,-0.127320,0.000000,0.633534,-0.613592,0.615126,-0.642738,0.624330,-0.615126
3.5106,0.016759,0.000000,0.000000,0.002500,0.0000,0.0000,0.0000,0.130828,-0.130828,-0.000427,0.001425,-0.000099,0.4747,0.4942,0.0497,0.125786,-0.128854,0.000000,0.633534,-0.613592,0.615126,-0.642738,0.624330,-0.615126
3.5273,0.016739,0.000000,0.000000,0.002500,0.0000,0.0000,0.0000,0.130419,-0.130419,-0.000427,0.001425,-0.000099,0.4747,0.4942,0.0497,0.125786,-0.128854,0.000000,0.633534,-0.613592,0.615126,-0.642738,0.624330,-0.615126
3.5441,0.016756,0.000000,0.000000,0.002499,0.0000,0.0000,0.0000,0.129648,-0.129648,-0.000483,0.001408,-0.000111,0.5127,0.5274,-0.0059,0.131922,-0.128854,0.000000,0.633534,-0.613592,0.615126,-0.642738,0.622796,-0.615126
3.5608,0.016742,0.000000,0.000000,0.002498,0.0000,0.0000,0.0000,0.128519,-0.128519,-0.000491,0.001466,-0.000098,0.5199,0.5738,-0.0551,0.130388,-0.128854,0.000000,0.633534,-0.613592,0.615126,-0.644272,0.622796,-0.615126
3.5776,0.016767,0.000000,0.000000,0.002497,0.0000,0.0000,0.0000,0.127033,-0.127033,-0.000422,0.001420,-0.000098,0.4689,0.4856,0.0594,0.127320,-0.130388,0.000000,0.633534,-0.613592,0.615126,-0.642738,0.624330,-0.615126
3.5943,0.016740,0.000000,0.000000,0.002496,0.0000,0.0000,0.0000,0.125197,-0.125197,-0.000429,0.001424,-0.000098,0.4743,0.4948,0.0475,0.130388,-0.130388,0.000000,0.633534,-0.613592,0.615126,-0.642738,0.624330,-0.615126
3.6111,0.016765,0.000000,0.000000,0.002494,0.0000,0.0000,0.0000,0.123011,-0.123011,-0.000429,0.001424,-0.000098,0.4743,0.4948,0.0475,0.130388,-0.130388,0.000000,0.633534,-0.613592,0.615126,-0.642738,0.624330,-0.615126
3.6278,0.016740,0.000000,0.000000,0.002492,0.0000,0.0000,0.0000,0.120489,-0.120489,-0.000483,0.001408,-0.000111,0.5127,0.5274,-0.0057,0.128854,-0.130388,0.000000,0.633534,-0.613592,0.615126,-0.642738,0.622796,-0.615126
3.6446,0.016754,0.000000,0.000000,0.002490,0.0000,0.0000,0.0000,0.117630,-0.117630,-0.000490,0.001354,-0.000096,0.4978,0.5748,0.0546,0.125786,-0.128854,0.000000,0.633534,-0.613592,0.616660,-0.642738,0.622796,-0.615126
3.6613,0.016746,0.000000,0.000000,0.002487,0.0000,0.0000,0.0000,0.114448,-0.114448,-0.000435,0.001488,-0.000087,0.4824,0.5354,-0.0070,0.122718,-0.127320,0.000000,0.633534,-0.613592,0.615126,-0.644272,0.624330,-0.615126
3.6781,0.016763,0.000000,0.000000,0.002484,0.0000,0.0000,0.0000,0.110945,-0.110945,-0.000454,0.001418,-0.000075,0.4731,0.5903,0.0542,0.124252,-0.127320,0.000000,0.633534,-0.613592,0.616660,-0.644272,0.624330,-0.615126
3.6948,0.016739,0.000000,0.000000,0.002481,0.0000,0.0000,0.0000,0.107140,-0.107140,-0.000426,0.001425,-0.000101,0.4739,0.4839,0.0481,0.121184,-0.125786,0.000000,0.633534,-0.613592,0.615126,-0.642738,0.624330,-0.615126
3.7116,0.016758,0.000000,0.000000,0.002478,0.0000,0.0000,0.0000,0.103034,-0.103034,-0.000429,0.001424,-0.000098,0.4738,0.4949,0.0487,0.115049,-0.121184,0.000000,0.633534,-0.613592,0.615126,-0.642738,0.624330,-0.615126
3.7283,0.016749,0.000000,0.000000,0.002474,0.0000,0.0000,0.0000,0.098645,-0.098645,-0.000429,0.001424,-0.000098,0.4738,0.4949,0.0487,0.115049,-0.121184,0.000000,0.633534,-0.613592,0.615126,-0.642738,0.624330,-0.615126
3.7451,0.016752,0.000000,0.000000,0.002470,0.0000,0.0000,0.0000,0.093983,-0.093983,-0.000429,0.001424,-0.000098,0.4738,0.4949,0.0487,0.110447,-0.118117,0.000000,0.633534,-0.613592,0.615126,-0.642738,0.624330,-0.615126
3.7618,0.016739,0.000000,0.000000,0.002466,0.0000,0.0000,0.0000,0.089063,-0.089063,-0.000429,0.001424,-0.000098,0.4738,0.4949,0.0487,0.108913,-0.115049,0.000000,0.633534,-0.613592,0.615126,-0.642738,0.624330,-0.615126
3.7786,0.016759,0.000000,0.000000,0.002462,0.0000,0.0000,0.0000,0.083892,-0.083892,-0.000442,0.001480,-0.000087,0.4849,0.5437,-0.0063,0.104311,-0.110447,0.000000,0.633534,-0.613592,0.615126,-0.644272,0.624330,-0.615126
3.7953,0.016743,0.000000,0.000000,0.002457,0.0000,0.0000,0.0000,0.078493,-0.078493,-0.000427,0.001418,-0.000099,0.4726,0.4887,0.0544,0.098175,-0.102777,0.000000,0.633534,-0.613592,0.615126,-0.642738,0.624330,-0.615126
3.8121,0.016758,0.000000,0.000000,0.002452,0.0000,0.0000,0.0000,0.072871,-0.072871,-0.000497,0.001465,-0.000099,0.5241,0.5779,-0.0613,0.090505,-0.092039,0.000000,0.633534,-0.613592,0.615126,-0.644272,0.622796,-0.615126
3.8288,0.016737,0.000000,0.000000,0.002447,0.0000,0.0000,0.0000,0.067056,-0.067056,-0.000497,0.001465,-0.000099,0.5241,0.5779,-0.0613,0.090505,-0.092039,0.000000,0.633534,-0.613592,0.615126,-0.644272,0.622796,-0.615126
3.8456,0.016750,0.000000,0.000000,0.002441,0.0000,0.0000,0.0000,0.061050,-0.061050,-0.000421,0.001420,-0.000098,0.4685,0.4852,0.0601,0.082835,-0.084369,0.000000,0.633534,-0.613592,0.615126,-0.642738,0.624330,-0.615126
3.8623,0.016740,0.000000,0.000000,0.002436,0.0000,0.0000,0.0000,0.054879,-0.054879,-0.000429,0.001424,-0.000098,0.4743,0.4948,0.0474,0.081301,-0.079767,0.000000,0.633534,-0.613592,0.615126,-0.642738,0.624330,-0.615126
3.8791,0.016755,0.000000,0.000000,0.002429,0.0000,0.0000,0.0000,0.048550,-0.048550,-0.000428,0.001424,-0.000098,0.4735,0.4935,0.0492,0.079767,-0.075165,0.000000,0.633534,-0.613592,0.615126,-0.642738,0.624330,-0.615126
3.8958,0.016740,0.000000,0.000000,0.002423,0.0000,0.0000,0.0000,0.042093,-0.042093,-0.000428,0.001424,-0.000098,0.4735,0.4935,0.0492,0.061359,-0.062893,0.000000,0.633534,-0.613592,0.615126,-0.642738,0.624330,-0.615126
3.9125,0.016755,0.000000,0.000000,0.002416,0.0000,0.0000,0.0000,0.035513,-0.035513,-0.000428,0.001424,-0.000098,0.4735,0.4935,0.0492,0.049087,-0.052155,0.000000,0.633534,-0.613592,0.615126,-0.642738,0.624330,-0.615126
3.9293,0.016736,0.000000,0.000000,0.002410,0.0000,0.0000,0.0000,0.028843,-0.028843,-0.000428,0.001424,-0.000098,0.4735,0.4935,0.0492,0.049087,-0.052155,0.000000,0.633534,-0.613592,0.615126,-0.642738,0.624330,-0.615126
3.9460,0.016751,0.000000,0.000000,0.002402,0.0000,0.0000,0.0000,0.022087,-0.022087,-0.000428,0.001424,-0.000098,0.4735,0.4935,0.0492,0.039884,-0.039884,0.000000,0.633534,-0.613592,0.615126,-0.642738,0.624330,-0.615126
3.9628,0.016747,0.000000,0.000000,0.002395,0.0000,0.0000,0.0000,0.015272,-0.015272,-0.000483,0.001408,-0.000111,0.5128,0.5275,-0.0058,0.033748,-0.036816,0.000000,0.633534,-0.613592,0.615126,-0.642738,0.622796,-0.615126
3.9795,0.016751,0.000000,0.000000,0.002387,0.0000,0.0000,0.0000,0.008412,-0.008412,-0.000422,0.001426,-0.000097,0.4697,0.4904,0.0543,0.032214,-0.036816,0.000000,0.633534,-0.613592,0.615126,-0.642738,0.624330,-0.615126
3.9963,0.016739,0.000000,0.000000,0.002379,0.0000,0.0000,0.0000,0.001534,-0.001534,-0.000429,0.001424,-0.000098,0.4742,0.4943,0.0480,0.027612,-0.032214,0.000000,0.633534,-0.613592,0.615126,-0.642738,0.624330,-0.615126
4.0130,0.016756,0.000000,0.000000,0.002371,0.0000,0.0000,0.0000,-0.005355,0.005355,-0.000429,0.001424,-0.000098,0.4742,0.4943,0.0480,0.027612,-0.032214,0.000000,0.633534,-0.613592,0.615126,-0.642738,0.624330,-0.615126
4.0298,0.016742,0.000000,0.000000,0.002363,0.0000,0.0000,0.0000,-0.012224,0.012224,-0.000442,0.001480,-0.000087,0.4849,0.5437,-0.0063,0.015340,-0.018408,0.000000,0.633534,-0.613592,0.615126,-0.644272,0.624330,-0.615126
4.0465,0.016750,0.000000,0.000000,0.002354,0.0000,0.0000,0.0000,-0.019061,0.019061,-0.000427,0.001418,-0.000099,0.4726,0.4887,0.0544,0.001534,-0.001534,0.000000,0.633534,-0.613592,0.615126,-0.642738,0.624330,-0.615126
4.0633,0.016741,0.000000,0.000000,0.002345,0.0000,0.0000,0.0000,-0.025843,0.025843,-0.000442,0.001481,-0.000087,0.4851,0.5443,-0.0069,-0.007670,0.006136,0.000000,0.633534,-0.613592,0.615126,-0.644272,0.624330,-0.615126
4.0800,0.016750,0.000000,0.000000,0.002336,0.0000,0.0000,0.0000,-0.032557,0.032557,-0.000317,0.001418,-0.000074,0.4720,0.4198,0.0544,-0.012272,0.013806,0.000000,0.633534,-0.615126,0.615126,-0.642738,0.625864,-0.615126
4.0967,0.016740,0.000000,0.000000,0.002326,0.0000,0.0000,0.0000,-0.039176,0.039176,-0.000343,0.001369,-0.000063,0.4626,0.4836,0.1027,-0.019942,0.021476,0.000000,0.633534,-0.615126,0.616660,-0.642738,0.625864,-0.615126
4.1135,0.016764,0.000000,0.000000,0.002317,0.0000,0.0000,0.0000,-0.045697,0.045697,-0.000343,0.001369,-0.000063,0.4626,0.4836,0.1027,-0.019942,0.021476,0.000000,0.633534,-0.615126,0.616660,-0.642738,0.625864,-0.615126
4.1303,0.016741,0.000000,0.000000,0.002307,0.0000,0.0000,0.0000,-0.052082,0.052082,-0.000273,0.001445,-0.000065,0.4355,0.3926,0.0975,-0.032214,0.027612,0.000000,0.633534,-0.615126,0.615126,-0.642738,0.627398,-0.615126
4.1470,0.016748,0.000000,0.000000,0.002296,0.0000,0.0000,0.0000,-0.058326,0.058326,-0.000293,0.001494,-0.000053,0.4494,0.4520,0.0430,-0.038350,0.033748,0.000000,0.633534,-0.615126,0.615126,-0.644272,0.627398,-0.615126
4.1637,0.016749,0.000000,0.000000,0.002286,0.0000,0.0000,0.0000,-0.064408,0.064408,-0.000291,0.001489,-0.000055,0.4479,0.4458,0.0487,-0.039884,0.044485,0.000000,0.633534,-0.615126,0.615126,-0.644272,0.627398,-0.615126
4.1813,0.017567,0.000000,0.000000,0.002274,0.0000,0.0000,0.0000,-0.070596,0.070596,-0.000278,0.001433,-0.000066,0.4371,0.3965,0.1031,-0.044485,0.052155,0.000000,0.633534,-0.615126,0.615126,-0.642738,0.627398,-0.615126
4.1981,0.016746,0.000000,0.000000,0.002263,0.0000,0.0000,0.0000,-0.076295,0.076295,-0.000279,0.001439,-0.000065,0.4382,0.4016,0.0975,-0.055223,0.059825,0.000000,0.633534,-0.615126,0.615126,-0.642738,0.627398,-0.615126
4.2148,0.016764,0.000000,0.000000,0.002252,0.0000,0.0000,0.0000,-0.081788,0.081788,-0.000279,0.001439,-0.000065,0.4382,0.4016,0.0975,-0.055223,0.059825,0.000000,0.633534,-0.615126,0.615126,-0.642738,0.627398,-0.615126
4.2316,0.016817,0.000000,0.000000,0.002240,0.0000,0.0000,0.0000,-0.087071,0.087071,-0.000334,0.001454,-0.000077,0.3997,0.4364,0.1525,-0.070563,0.069029,0.000000,0.633534,-0.613592,0.615126,-0.642738,0.627398,-0.615126
4.2484,0.016752,0.000000,0.000000,0.002229,0.0000,0.0000,0.0000,-0.092092,0.092092,-0.000274,0.001436,-0.000063,0.4421,0.3975,0.0923,-0.078233,0.070563,0.000000,0.633534,-0.615126,0.615126,-0.642738,0.627398,-0.615126
4.2651,0.016753,0.000000,0.000000,0.002217,0.0000,0.0000,0.0000,-0.096858,0.096858,-0.000334,0.001455,-0.000077,0.3993,0.4368,0.1531,-0.075165,0.073631,0.000000,0.633534,-0.613592,0.615126,-0.642738,0.627398,-0.615126
4.2819,0.016755,0.000000,0.000000,0.002204,0.0000,0.0000,0.0000,-0.101357,0.101357,-0.000274,0.001436,-0.000063,0.4422,0.3974,0.0922,-0.078233,0.082835,0.000000,0.633534,-0.615126,0.615126,-0.642738,0.627398,-0.615126
4.2987,0.016809,0.000000,0.000000,0.002192,0.0000,0.0000,0.0000,-0.105588,0.105588,-0.000280,0.001438,-0.000065,0.4377,0.4015,0.0986,-0.090505,0.098175,0.000000,0.633534,-0.615126,0.615126,-0.642738,0.627398,-0.615126
4.3155,0.016762,0.000000,0.000000,0.002179,0.0000,0.0000,0.0000,-0.109514,0.109514,-0.000280,0.001438,-0.000065,0.4377,0.4015,0.0986,-0.090505,0.098175,0.000000,0.633534,-0.615126,0.615126,-0.642738,0.627398,-0.615126
4.3322,0.016748,0.000000,0.000000,0.002166,0.0000,0.0000,0.0000,-0.113133,0.113133,-0.000280,0.001438,-0.000065,0.4377,0.4015,0.0986,-0.105845,0.099709,0.000000,0.633534,-0.615126,0.615126,-0.642738,0.627398,-0.615126
4.3490,0.016752,0.000000,0.000000,0.002153,0.0000,0.0000,0.0000,-0.116440,0.116440,-0.000293,0.001495,-0.000053,0.4492,0.4510,0.0429,-0.108913,0.096641,0.000000,0.633534,-0.615126,0.615126,-0.644272,0.627398,-0.615126
4.3657,0.016748,0.000000,0.000000,0.002139,0.0000,0.0000,0.0000,-0.119424,0.119424,-0.000332,0.001449,-0.000078,0.3986,0.4313,0.1582,-0.105845,0.101243,0.000000,0.633534,-0.613592,0.615126,-0.642738,0.627398,-0.615126
4.3825,0.016758,0.000000,0.000000,0.002125,0.0000,0.0000,0.0000,-0.122079,0.122079,-0.000274,0.001437,-0.000063,0.4422,0.3980,0.0917,-0.108913,0.113515,0.000000,0.633534,-0.615126,0.615126,-0.642738,0.627398,-0.615126
4.3992,0.016742,0.000000,0.000000,0.002111,0.0000,0.0000,0.0000,-0.124394,0.124394,-0.000306,0.001439,-0.000041,0.4379,0.5022,0.0984,-0.119651,0.119651,0.000000,0.633534,-0.615126,0.616660,-0.644272,0.627398,-0.615126
4.4160,0.016767,0.000000,0.000000,0.002097,0.0000,0.0000,0.0000,-0.126367,0.126367,-0.000306,0.001439,-0.000041,0.4379,0.5022,0.0984,-0.119651,0.119651,0.000000,0.633534,-0.615126,0.616660,-0.644272,0.627398,-0.615126
4.4327,0.016750,0.000000,0.000000,0.002083,0.0000,0.0000,0.0000,-0.127988,0.127988,-0.000290,0.001494,-0.000056,0.4491,0.4405,0.0430,-0.124252,0.118117,0.000000,0.633534,-0.615126,0.615126,-0.644272,0.627398,-0.615126
4.4495,0.016756,0.000000,0.000000,0.002068,0.0000,0.0000,0.0000,-0.129255,0.129255,-0.000292,0.001489,-0.000054,0.4480,0.4470,0.0487,-0.124252,0.119651,0.000000,0.633534,-0.615126,0.615126,-0.644272,0.627398,-0.615126
4.4662,0.016747,0.000000,0.000000,0.002053,0.0000,0.0000,0.0000,-0.130164,0.130164,-0.000278,0.001433,-0.000066,0.4371,0.3964,0.1031,-0.125786,0.125786,0.000000,0.633534,-0.615126,0.615126,-0.642738,0.627398,-0.615126
4.4830,0.016760,0.000000,0.000000,0.002038,0.0000,0.0000,0.0000,-0.130713,0.130713,-0.000292,0.001383,-0.000052,0.4274,0.4525,0.1522,-0.133456,0.125786,0.000000,0.633534,-0.615126,0.616660,-0.642738,0.627398,-0.615126
4.4998,0.016782,0.000000,0.000000,0.002023,0.0000,0.0000,0.0000,-0.130900,0.130900,-0.000292,0.001383,-0.000052,0.4274,0.4525,0.1522,-0.133456,0.125786,0.000000,0.633534,-0.615126,0.616660,-0.642738,0.627398,-0.615126
4.5166,0.016845,0.000000,0.000000,0.002007,0.0000,0.0000,0.0000,-0.130721,0.130721,-0.000292,0.001383,-0.000052,0.4274,0.4525,0.1522,-0.133456,0.125786,0.000000,0.633534,-0.615126,0.616660,-0.642738,0.627398,-0.615126
4.5334,0.016753,0.000000,0.000000,0.001991,0.0000,0.0000,0.0000,-0.130181,0.130181,-0.000292,0.001383,-0.000052,0.4274,0.4525,0.1522,-0.133456,0.125786,0.000000,0.633534,-0.615126,0.616660,-0.642738,0.627398,-0.615126
