t,loop_dt,cmd_x,cmd_y,cmd_z,cmd_roll,cmd_pitch,cmd_yaw,cmd_ant_l,cmd_ant_r,pres_x,pres_y,pres_z,pres_roll,pres_pitch,pres_yaw,pres_ant_l,pres_ant_r,pres_j0,pres_j1,pres_j2,pres_j3,pres_j4,pres_j5,pres_j6
0.0000,0.000001,0.000162,0.000788,-0.002398,0.2443,0.3174,0.0901,-0.004602,0.003068,0.000162,0.000788,-0.002398,0.2443,0.3174,0.0901,-0.004602,0.003068,0.000000,0.572175,-0.567573,0.567573,-0.582913,0.575243,-0.561437
0.0168,0.016749,0.000159,0.000774,-0.002358,0.2402,0.3121,0.0886,-0.004525,0.003017,0.000143,0.000767,-0.002424,0.1508,0.3727,0.0960,-0.004602,0.003068,0.000000,0.570641,-0.566039,0.567573,-0.582913,0.575243,-0.561437
0.0335,0.016767,0.000156,0.000761,-0.002317,0.2361,0.3068,0.0871,-0.004448,0.002965,0.000144,0.000846,-0.002385,0.2600,0.3668,0.0420,-0.004602,0.003068,0.000000,0.572175,-0.567573,0.567573,-0.584447,0.575243,-0.561437
0.0503,0.016745,0.000153,0.000748,-0.002277,0.2320,0.3015,0.0856,-0.004371,0.002914,0.000144,0.000760,-0.002425,0.1492,0.3676,0.1010,-0.004602,0.001534,0.000000,0.570641,-0.566039,0.567573,-0.582913,0.575243,-0.561437
0.0671,0.016790,0.000151,0.000735,-0.002237,0.2279,0.2962,0.0840,-0.004293,0.002862,0.000266,0.000808,-0.002459,0.2103,0.4178,0.1480,-0.004602,0.001534,0.000000,0.569107,-0.566039,0.567573,-0.582913,0.575243,-0.558369
0.0838,0.016748,0.000148,0.000722,-0.002197,0.2238,0.2908,0.0825,-0.004216,0.002811,0.000266,0.000808,-0.002459,0.2103,0.4178,0.1480,-0.004602,0.001534,0.000000,0.569107,-0.566039,0.567573,-0.582913,0.575243,-0.558369
0.1005,0.016748,0.000145,0.000708,-0.002157,0.2197,0.2855,0.0810,-0.004139,0.002759,0.000483,0.000856,-0.002557,0.2144,0.5646,0.2489,-0.003068,0.001534,0.000000,0.564505,-0.564505,0.567573,-0.582913,0.575243,-0.552233
0.1173,0.016749,0.000143,0.000695,-0.002117,0.2156,0.2802,0.0795,-0.004062,0.002708,0.000502,0.000812,-0.002559,0.1640,0.5653,0.1850,-0.004602,0.001534,0.000000,0.562971,-0.564505,0.567573,-0.582913,0.575243,-0.552233
0.1341,0.016769,0.000140,0.000682,-0.002076,0.2115,0.2749,0.0780,-0.003985,0.002657,0.000540,0.000855,-0.002572,0.2192,0.5825,0.2449,-0.004602,0.001534,0.000000,0.562971,-0.564505,0.567573,-0.582913,0.575243,-0.550699
0.1508,0.016751,0.000137,0.000669,-0.002036,0.2074,0.2696,0.0764,-0.003908,0.002605,0.000536,0.000851,-0.002570,0.2134,0.5807,0.2386,-0.004602,0.001534,0.000000,0.562971,-0.564505,0.567573,-0.582913,0.575243,-0.550699
0.1676,0.016786,0.000134,0.000656,-0.001996,0.2033,0.2643,0.0749,-0.003831,0.002554,0.000536,0.000851,-0.002570,0.2134,0.5807,0.2386,-0.004602,0.001534,0.000000,0.562971,-0.564505,0.567573,-0.582913,0.575243,-0.550699
0.1844,0.016750,0.000132,0.000642,-0.001956,0.1992,0.2590,0.0734,-0.003754,0.002502,0.000536,0.000851,-0.002570,0.2134,0.5807,0.2386,-0.004602,0.001534,0.000000,0.562971,-0.564505,0.567573,-0.582913,0.575243,-0.550699
0.2011,0.016774,0.000129,0.000629,-0.001916,0.1951,0.2536,0.0719,-0.003676,0.002451,0.000536,0.000851,-0.002570,0.2134,0.5807,0.2386,-0.004602,0.001534,0.000000,0.562971,-0.564505,0.567573,-0.582913,0.575243,-0.550699
0.2179,0.016748,0.000126,0.000616,-0.001875,0.1910,0.2483,0.0704,-0.003599,0.002400,0.000455,0.000852,-0.002545,0.2141,0.5477,0.2395,-0.004602,0.001534,0.000000,0.564505,-0.564505,0.567573,-0.582913,0.575243,-0.552233
0.2346,0.016768,0.000124,0.000603,-0.001835,0.1869,0.2430,0.0689,-0.003522,0.002348,0.000504,0.000813,-0.002560,0.1640,0.5671,0.1860,-0.004602,0.001534,0.000000,0.562971,-0.564505,0.567573,-0.582913,0.575243,-0.552233
0.2514,0.016752,0.000121,0.000590,-0.001795,0.1828,0.2377,0.0673,-0.003445,0.002297,0.000540,0.000855,-0.002572,0.2192,0.5823,0.2448,-0.004602,0.001534,0.000000,0.562971,-0.564505,0.567573,-0.582913,0.575243,-0.550699
0.2682,0.016794,0.000118,0.000576,-0.001755,0.1787,0.2324,0.0658,-0.003368,0.002245,0.000536,0.000851,-0.002570,0.2134,0.5808,0.2387,-0.004602,0.001534,0.000000,0.562971,-0.564505,0.567573,-0.582913,0.575243,-0.550699
0.2849,0.016748,0.000115,0.000563,-0.001715,0.1746,0.2270,0.0643,-0.003291,0.002194,0.000536,0.000851,-0.002570,0.2134,0.5808,0.2387,-0.004602,0.001534,0.000000,0.562971,-0.564505,0.567573,-0.582913,0.575243,-0.550699
0.3017,0.016749,0.000113,0.000550,-0.001674,0.1706,0.2217,0.0628,-0.003214,0.002142,0.000536,0.000851,-0.002570,0.2134,0.5808,0.2387,-0.004602,0.001534,0.000000,0.562971,-0.564505,0.567573,-0.582913,0.575243,-0.550699
0.3184,0.016742,0.000110,0.000537,-0.001634,0.1665,0.2164,0.0613,-0.003137,0.002091,0.000536,0.000851,-0.002570,0.2134,0.5808,0.2387,-0.004602,0.001534,0.000000,0.562971,-0.564505,0.567573,-0.582913,0.575243,-0.550699
0.3352,0.016761,0.000107,0.000524,-0.001594,0.1624,0.2111,0.0598,-0.003059,0.002040,0.000496,0.000813,-0.002557,0.1641,0.5636,0.1860,-0.004602,0.001534,0.000000,0.562971,-0.564505,0.567573,-0.582913,0.575243,-0.552233
0.3519,0.016744,0.000105,0.000510,-0.001554,0.1583,0.2058,0.0583,-0.002982,0.001988,0.000540,0.000855,-0.002572,0.2192,0.5827,0.2448,-0.004602,0.001534,0.000000,0.562971,-0.564505,0.567573,-0.582913,0.575243,-0.550699
0.3687,0.016803,0.000102,0.000497,-0.001514,0.1542,0.2004,0.0567,-0.002905,0.001937,0.000540,0.000855,-0.002572,0.2192,0.5827,0.2448,-0.004602,0.001534,0.000000,0.562971,-0.564505,0.567573,-0.582913,0.575243,-0.550699
0.3855,0.016748,0.000099,0.000484,-0.001473,0.1501,0.1951,0.0552,-0.002828,0.001885,0.000536,0.000851,-0.002570,0.2134,0.5807,0.2387,-0.004602,0.001534,0.000000,0.562971,-0.564505,0.567573,-0.582913,0.575243,-0.550699
0.4022,0.016750,0.000097,0.000471,-0.001433,0.1460,0.1898,0.0537,-0.002751,0.001834,0.000536,0.000851,-0.002570,0.2134,0.5807,0.2387,-0.003068,0.001534,0.000000,0.562971,-0.564505,0.567573,-0.582913,0.575243,-0.550699
0.4193,0.017057,0.000094,0.000457,-0.001392,0.1418,0.1844,0.0522,-0.002672,0.001782,0.000536,0.000851,-0.002570,0.2134,0.5807,0.2387,-0.001534,0.001534,0.000000,0.562971,-0.564505,0.567573,-0.582913,0.575243,-0.550699
0.4441,0.024771,0.000090,0.000438,-0.001333,0.1358,0.1765,0.0499,-0.002558,0.001706,0.000536,0.000851,-0.002570,0.2134,0.5807,0.2387,-0.001534,0.001534,0.000000,0.562971,-0.564505,0.567573,-0.582913,0.575243,-0.550699
0.4608,0.016752,0.000087,0.000425,-0.001293,0.1317,0.1712,0.0484,-0.002481,0.001654,0.000536,0.000851,-0.002570,0.2134,0.5807,0.2387,-0.001534,0.001534,0.000000,0.562971,-0.564505,0.567573,-0.582913,0.575243,-0.550699
0.4776,0.016748,0.000084,0.000411,-0.001253,0.1276,0.1659,0.0469,-0.002404,0.001603,0.000536,0.000851,-0.002570,0.2134,0.5807,0.2387,-0.001534,0.001534,0.000000,0.562971,-0.564505,0.567573,-0.582913,0.575243,-0.550699
0.4943,0.016754,0.000082,0.000398,-0.001213,0.1235,0.1606,0.0454,-0.002327,0.001551,0.000536,0.000851,-0.002570,0.2134,0.5807,0.2387,-0.001534,0.001534,0.000000,0.562971,-0.564505,0.567573,-0.582913,0.575243,-0.550699
0.5111,0.016743,0.000079,0.000385,-0.001172,0.1194,0.1553,0.0439,-0.002250,0.001500,0.000536,0.000851,-0.002570,0.2134,0.5807,0.2387,-0.001534,0.001534,0.000000,0.562971,-0.564505,0.567573,-0.582913,0.575243,-0.550699
0.5278,0.016763,0.000076,0.000372,-0.001132,0.1153,0.1500,0.0424,-0.002173,0.001449,0.000536,0.000851,-0.002570,0.2134,0.5807,0.2387,-0.001534,0.001534,0.000000,0.562971,-0.564505,0.567573,-0.582913,0.575243,-0.550699
0.5446,0.016746,0.000074,0.000359,-0.001092,0.1112,0.1446,0.0409,-0.002096,0.001397,0.000536,0.000851,-0.002570,0.2134,0.5807,0.2387,-0.001534,0.001534,0.000000,0.562971,-0.564505,0.567573,-0.582913,0.575243,-0.550699
0.5613,0.016769,0.000071,0.000345,-0.001052,0.1071,0.1393,0.0394,-0.002019,0.001346,0.000536,0.000851,-0.002570,0.2134,0.5807,0.2387,-0.001534,0.001534,0.000000,0.562971,-0.564505,0.567573,-0.582913,0.575243,-0.550699
0.5781,0.016752,0.000068,0.000332,-0.001012,0.1030,0.1340,0.0379,-0.001942,0.001294,0.000536,0.000851,-0.002570,0.2134,0.5807,0.2387,-0.001534,0.000000,0.000000,0.562971,-0.564505,0.567573,-0.582913,0.575243,-0.550699
0.5948,0.016756,0.000065,0.000319,-0.000971,0.0989,0.1287,0.0364,-0.001865,0.001243,0.000536,0.000851,-0.002570,0.2134,0.5807,0.2387,-0.001534,0.000000,0.000000,0.562971,-0.564505,0.567573,-0.582913,0.575243,-0.550699
0.6116,0.016746,0.000063,0.000306,-0.000931,0.0948,0.1234,0.0348,-0.001787,0.001192,0.000536,0.000851,-0.002570,0.2134,0.5807,0.2387,-0.001534,0.000000,0.000000,0.562971,-0.564505,0.567573,-0.582913,0.575243,-0.550699
0.6283,0.016750,0.000060,0.000293,-0.000891,0.0907,0.1180,0.0333,-0.001710,0.001140,0.000536,0.000851,-0.002570,0.2134,0.5807,0.2387,-0.001534,0.000000,0.000000,0.562971,-0.564505,0.567573,-0.582913,0.575243,-0.550699
0.6451,0.016773,0.000057,0.000279,-0.000851,0.0866,0.1127,0.0318,-0.001633,0.001089,0.000496,0.000813,-0.002557,0.1641,0.5637,0.1860,-0.001534,0.000000,0.000000,0.562971,-0.564505,0.567573,-0.582913,0.575243,-0.552233
0.6619,0.016752,0.000055,0.000266,-0.000811,0.0826,0.1074,0.0303,-0.001556,0.001037,0.000496,0.000813,-0.002557,0.1641,0.5637,0.1860,-0.001534,0.000000,0.000000,0.562971,-0.564505,0.567573,-0.582913,0.575243,-0.552233
0.6786,0.016744,0.000052,0.000253,-0.000771,0.0785,0.1021,0.0288,-0.001479,0.000986,0.000500,0.000817,-0.002559,0.1692,0.5654,0.1915,-0.001534,0.000000,0.000000,0.562971,-0.564505,0.567573,-0.582913,0.575243,-0.552233
0.6954,0.016753,0.000049,0.000240,-0.000730,0.0744,0.0968,0.0273,-0.001402,0.000935,0.000500,0.000817,-0.002559,0.1692,0.5654,0.1915,-0.001534,0.000000,0.000000,0.562971,-0.564505,0.567573,-0.582913,0.575243,-0.552233
0.7121,0.016744,0.000046,0.000227,-0.000690,0.0703,0.0914,0.0258,-0.001325,0.000883,0.000500,0.000817,-0.002559,0.1692,0.5654,0.1915,-0.001534,0.000000,0.000000,0.562971,-0.564505,0.567573,-0.582913,0.575243,-0.552233
0.7289,0.016756,0.000044,0.000214,-0.000650,0.0662,0.0861,0.0243,-0.001248,0.000832,0.000500,0.000817,-0.002559,0.1692,0.5654,0.1915,-0.001534,0.000000,0.000000,0.562971,-0.564505,0.567573,-0.582913,0.575243,-0.552233
0.7456,0.016749,0.000041,0.000200,-0.000610,0.0621,0.0808,0.0228,-0.001171,0.000780,0.000500,0.000817,-0.002559,0.1692,0.5654,0.1915,-0.001534,0.000000,0.000000,0.562971,-0.564505,0.567573,-0.582913,0.575243,-0.552233
0.7624,0.016752,0.000038,0.000187,-0.000570,0.0580,0.0755,0.0213,-0.001094,0.000729,0.000500,0.000817,-0.002559,0.1692,0.5654,0.1915,-0.001534,0.000000,0.000000,0.562971,-0.564505,0.567573,-0.582913,0.575243,-0.552233
0.7791,0.016727,0.000036,0.000174,-0.000530,0.0539,0.0702,0.0198,-0.001017,0.000678,0.000459,0.000855,-0.002546,0.2187,0.5493,0.2444,-0.001534,0.000000,0.000000,0.564505,-0.564505,0.567573,-0.582913,0.575243,-0.552233
0.7958,0.016751,0.000033,0.000161,-0.000490,0.0498,0.0649,0.0183,-0.000940,0.000626,0.000463,0.000851,-0.002548,0.2136,0.5510,0.2389,-0.001534,0.000000,0.000000,0.564505,-0.564505,0.567573,-0.582913,0.575243,-0.552233
0.8126,0.016746,0.000030,0.000148,-0.000449,0.0458,0.0595,0.0168,-0.000862,0.000575,0.000463,0.000851,-0.002548,0.2136,0.5510,0.2389,-0.001534,0.000000,0.000000,0.564505,-0.564505,0.567573,-0.582913,0.575243,-0.552233
0.8293,0.016749,0.000028,0.000134,-0.000409,0.0417,0.0542,0.0153,-0.000785,0.000524,0.000504,0.000813,-0.002560,0.1641,0.5667,0.1860,-0.001534,0.000000,0.000000,0.562971,-0.564505,0.567573,-0.582913,0.575243,-0.552233
0.8461,0.016782,0.000025,0.000121,-0.000369,0.0376,0.0489,0.0138,-0.000708,0.000472,0.000459,0.000856,-0.002546,0.2193,0.5492,0.2450,-0.001534,0.000000,0.000000,0.564505,-0.564505,0.567573,-0.582913,0.575243,-0.552233
0.8629,0.016756,0.000022,0.000108,-0.000329,0.0335,0.0436,0.0123,-0.000631,0.000421,0.000459,0.000856,-0.002546,0.2193,0.5492,0.2450,-0.001534,0.000000,0.000000,0.564505,-0.564505,0.567573,-0.582913,0.575243,-0.552233
0.8796,0.016744,0.000019,0.000095,-0.000289,0.0294,0.0382,0.0108,-0.000554,0.000369,0.000463,0.000851,-0.002548,0.2135,0.5510,0.2389,-0.001534,0.000000,0.000000,0.564505,-0.564505,0.567573,-0.582913,0.575243,-0.552233
0.8964,0.016749,0.000017,0.000082,-0.000248,0.0253,0.0329,0.0093,-0.000477,0.000318,0.000477,0.000797,-0.002522,0.2033,0.4982,0.0451,-0.001534,0.000000,-0.001534,0.564505,-0.566039,0.567573,-0.582913,0.575243,-0.553767
0.9131,0.016745,0.000014,0.000068,-0.000208,0.0212,0.0276,0.0078,-0.000400,0.000267,0.000475,0.000803,-0.002525,0.2043,0.5038,0.1441,-0.001534,0.000000,0.000000,0.564505,-0.566039,0.567573,-0.582913,0.575243,-0.553767
0.9299,0.016749,0.000011,0.000055,-0.000168,0.0171,0.0223,0.0063,-0.000323,0.000215,0.000475,0.000803,-0.002525,0.2043,0.5038,0.1441,-0.001534,0.000000,0.000000,0.564505,-0.566039,0.567573,-0.582913,0.575243,-0.553767
0.9466,0.016747,0.000009,0.000042,-0.000128,0.0130,0.0170,0.0048,-0.000246,0.000164,0.000475,0.000803,-0.002525,0.2043,0.5038,0.1441,-0.001534,0.000000,0.000000,0.564505,-0.566039,0.567573,-0.582913,0.575243,-0.553767
0.9634,0.016753,0.000006,0.000029,-0.000088,0.0089,0.0116,0.0033,-0.000169,0.000112,0.000475,0.000803,-0.002525,0.2043,0.5038,0.1441,-0.001534,0.000000,0.000000,0.564505,-0.566039,0.567573,-0.582913,0.575243,-0.553767
0.9801,0.016738,0.000003,0.000016,-0.000048,0.0049,0.0063,0.0018,-0.000092,0.000061,0.000515,0.000841,-0.002537,0.2541,0.5204,0.1962,-0.001534,0.000000,0.000000,0.564505,-0.566039,0.567573,-0.582913,0.575243,-0.552233
0.9968,0.016746,0.000001,0.000002,-0.000008,0.0008,0.0010,0.0003,-0.000015,0.000010,0.000471,0.000799,-0.002523,0.1990,0.5014,0.1375,-0.001534,0.000000,0.000000,0.564505,-0.566039,0.567573,-0.582913,0.575243,-0.553767
1.0136,0.016742,0.000000,0.000000,0.000009,0.0000,0.0000,0.0000,0.003724,-0.003724,0.000475,0.000803,-0.002525,0.2048,0.5034,0.1436,-0.001534,0.000000,0.000000,0.564505,-0.566039,0.567573,-0.582913,0.575243,-0.553767
1.0303,0.016747,0.000000,0.000000,0.000019,0.0000,0.0000,0.0000,0.008304,-0.008304,0.000462,0.000748,-0.002511,0.1940,0.5547,0.1964,-0.001534,0.000000,0.000000,0.564505,-0.566039,0.569107,-0.582913,0.575243,-0.553767
1.0472,0.016890,0.000000,0.000000,0.000030,0.0000,0.0000,0.0000,0.012900,-0.012900,0.000476,0.000808,-0.002526,0.2053,0.4979,0.1375,-0.001534,0.000000,0.000000,0.564505,-0.566039,0.567573,-0.582913,0.575243,-0.553767
1.0640,0.016752,0.000000,0.000000,0.000040,0.0000,0.0000,0.0000,0.017422,-0.017422,0.000476,0.000808,-0.002526,0.2053,0.4979,0.1375,-0.001534,0.000000,0.000000,0.564505,-0.566039,0.567573,-0.582913,0.575243,-0.553767
1.0807,0.016743,0.000000,0.000000,0.000051,0.0000,0.0000,0.0000,0.021894,-0.021894,0.000475,0.000802,-0.002524,0.2041,0.5038,0.1436,0.000000,-0.001534,0.000000,0.564505,-0.566039,0.567573,-0.582913,0.575243,-0.553767
1.0975,0.016750,0.000000,0.000000,0.000061,0.0000,0.0000,0.0000,0.026307,-0.026307,0.000475,0.000802,-0.002524,0.2041,0.5038,0.1436,0.006136,-0.004602,0.000000,0.564505,-0.566039,0.567573,-0.582913,0.575243,-0.553767
1.1142,0.016751,0.000000,0.000000,0.000072,0.0000,0.0000,0.0000,0.030647,-0.030647,0.000421,0.000787,-0.002499,0.2441,0.5387,0.2499,0.013806,-0.009204,0.000000,0.566039,-0.566039,0.569107,-0.582913,0.575243,-0.553767
1.1310,0.016743,0.000000,0.000000,0.000082,0.0000,0.0000,0.0000,0.034900,-0.034900,0.000399,0.000881,-0.002503,0.3001,0.4677,0.2389,0.018408,-0.015340,0.000000,0.567573,-0.566039,0.567573,-0.582913,0.575243,-0.553767
1.1477,0.016749,0.000000,0.000000,0.000093,0.0000,0.0000,0.0000,0.039059,-0.039059,0.000399,0.000881,-0.002503,0.3001,0.4677,0.2389,0.018408,-0.015340,0.000000,0.567573,-0.566039,0.567573,-0.582913,0.575243,-0.553767
1.1645,0.016750,0.000000,0.000000,0.000103,0.0000,0.0000,0.0000,0.043109,-0.043109,0.000320,0.000872,-0.002477,0.2943,0.4419,0.2403,0.021476,-0.023010,0.000000,0.569107,-0.566039,0.567573,-0.582913,0.575243,-0.555301
1.1812,0.016747,0.000000,0.000000,0.000114,0.0000,0.0000,0.0000,0.047040,-0.047040,0.000234,0.000819,-0.002442,0.2846,0.4629,0.2939,0.029146,-0.030680,0.000000,0.570641,-0.566039,0.569107,-0.582913,0.575243,-0.556835
1.1980,0.016747,0.000000,0.000000,0.000124,0.0000,0.0000,0.0000,0.050840,-0.050840,0.000175,0.000879,-0.002433,0.2960,0.3761,0.2351,0.036816,-0.035282,0.000000,0.572175,-0.566039,0.567573,-0.582913,0.575243,-0.558369
1.2147,0.016755,0.000000,0.000000,0.000134,0.0000,0.0000,0.0000,0.054501,-0.054501,0.000019,0.000873,-0.002384,0.2949,0.3188,0.2417,0.035282,-0.038350,0.000000,0.575243,-0.566039,0.567573,-0.582913,0.575243,-0.561437
1.2315,0.016746,0.000000,0.000000,0.000145,0.0000,0.0000,0.0000,0.058010,-0.058010,-0.000046,0.000874,-0.002364,0.2950,0.2916,0.2413,0.036816,-0.039884,0.000000,0.576777,-0.566039,0.567573,-0.582913,0.575243,-0.562971
1.2482,0.016745,0.000000,0.000000,0.000155,0.0000,0.0000,0.0000,0.061358,-0.061358,-0.000046,0.000874,-0.002364,0.2950,0.2916,0.2413,0.042951,-0.046019,0.000000,0.578311,-0.566039,0.567573,-0.582913,0.575243,-0.564505
1.2649,0.016741,0.000000,0.000000,0.000166,0.0000,0.0000,0.0000,0.064535,-0.064535,-0.000121,0.000874,-0.002342,0.2950,0.2612,0.2416,0.042951,-0.046019,0.000000,0.578311,-0.566039,0.567573,-0.582913,0.575243,-0.564505
1.2817,0.016742,0.000000,0.000000,0.000176,0.0000,0.0000,0.0000,0.067534,-0.067534,-0.000113,0.000874,-0.002344,0.2950,0.2644,0.2415,0.055223,-0.050621,0.000000,0.578311,-0.566039,0.567573,-0.582913,0.575243,-0.564505
1.2984,0.016743,0.000000,0.000000,0.000186,0.0000,0.0000,0.0000,0.070346,-0.070346,-0.000195,0.000874,-0.002319,0.2951,0.2309,0.2418,0.061359,-0.058291,0.000000,0.579845,-0.566039,0.567573,-0.582913,0.575243,-0.566039
1.3154,0.017000,0.000000,0.000000,0.000197,0.0000,0.0000,0.0000,0.073003,-0.073003,-0.000146,0.000913,-0.002334,0.3447,0.2517,0.2952,0.058291,-0.061359,0.000000,0.579845,-0.566039,0.567573,-0.582913,0.575243,-0.564505
1.3322,0.016763,0.000000,0.000000,0.000207,0.0000,0.0000,0.0000,0.075418,-0.075418,-0.000192,0.000870,-0.002320,0.2899,0.2322,0.2362,0.056757,-0.061359,0.000000,0.579845,-0.566039,0.567573,-0.582913,0.575243,-0.566039
1.3489,0.016745,0.000000,0.000000,0.000217,0.0000,0.0000,0.0000,0.077622,-0.077622,-0.000192,0.000870,-0.002320,0.2899,0.2322,0.2362,0.064427,-0.065961,0.000000,0.578311,-0.566039,0.567573,-0.582913,0.575243,-0.566039
1.3657,0.016743,0.000000,0.000000,0.000228,0.0000,0.0000,0.0000,0.079612,-0.079612,-0.000146,0.000836,-0.002333,0.2460,0.2501,0.1886,0.064427,-0.065961,0.000000,0.578311,-0.566039,0.567573,-0.582913,0.575243,-0.566039
1.3824,0.016744,0.000000,0.000000,0.000238,0.0000,0.0000,0.0000,0.081381,-0.081381,-0.000151,0.000840,-0.002332,0.2505,0.2482,0.1936,0.075165,-0.073631,0.000000,0.578311,-0.566039,0.567573,-0.582913,0.575243,-0.566039
1.3992,0.016744,0.000000,0.000000,0.000248,0.0000,0.0000,0.0000,0.082925,-0.082925,-0.000151,0.000840,-0.002332,0.2505,0.2482,0.1936,0.076699,-0.075165,0.000000,0.578311,-0.566039,0.567573,-0.582913,0.575243,-0.566039
1.4160,0.016791,0.000000,0.000000,0.000258,0.0000,0.0000,0.0000,0.084243,-0.084243,-0.000191,0.000801,-0.002319,0.2004,0.2312,0.1396,0.075165,-0.075165,0.000000,0.578311,-0.566039,0.567573,-0.582913,0.575243,-0.567573
1.4327,0.016757,0.000000,0.000000,0.000269,0.0000,0.0000,0.0000,0.085324,-0.085324,-0.000228,0.000844,-0.002309,0.2554,0.2170,0.1989,0.073631,-0.075165,0.000000,0.579845,-0.566039,0.567573,-0.582913,0.575243,-0.567573
1.4495,0.016755,0.000000,0.000000,0.000279,0.0000,0.0000,0.0000,0.086169,-0.086169,-0.000228,0.000844,-0.002309,0.2554,0.2170,0.1989,0.081301,-0.075165,0.000000,0.579845,-0.566039,0.567573,-0.584447,0.575243,-0.567573
1.4664,0.016923,0.000000,0.000000,0.000289,0.0000,0.0000,0.0000,0.086781,-0.086781,-0.000237,0.000894,-0.002298,0.2603,0.2696,0.1391,0.081301,-0.075165,0.000000,0.579845,-0.566039,0.567573,-0.584447,0.575243,-0.567573
1.4832,0.016839,0.000000,0.000000,0.000299,0.0000,0.0000,0.0000,0.087145,-0.087145,-0.000237,0.000894,-0.002298,0.2603,0.2696,0.1391,0.081301,-0.075165,0.000000,0.579845,-0.566039,0.567573,-0.584447,0.575243,-0.567573
1.5000,0.016773,0.000000,0.000000,0.000309,0.0000,0.0000,0.0000,0.087266,-0.087266,-0.000237,0.000894,-0.002298,0.2603,0.2696,0.1391,0.081301,-0.075165,0.000000,0.579845,-0.566039,0.567573,-0.584447,0.575243,-0.567573
1.5168,0.016752,0.000000,0.000000,0.000319,0.0000,0.0000,0.0000,0.087146,-0.087146,-0.000182,0.000795,-0.002323,0.1994,0.2290,0.1453,0.081301,-0.076699,0.000000,0.578311,-0.566039,0.567573,-0.582913,0.575243,-0.567573
1.5338,0.017005,0.000000,0.000000,0.000329,0.0000,0.0000,0.0000,0.086776,-0.086776,-0.000188,0.000805,-0.002320,0.2058,0.2332,0.1446,0.084369,-0.076699,0.000000,0.578311,-0.566039,0.567573,-0.582913,0.575243,-0.567573
1.5505,0.016746,0.000000,0.000000,0.000339,0.0000,0.0000,0.0000,0.086170,-0.086170,-0.000147,0.000843,-0.002296,0.2550,0.2486,0.0377,0.088971,-0.078233,0.000000,0.578311,-0.567573,0.567573,-0.584447,0.575243,-0.567573
1.5673,0.016777,0.000000,0.000000,0.000349,0.0000,0.0000,0.0000,0.085324,-0.085324,-0.000138,0.000784,-0.002310,0.2392,0.1960,0.1025,0.085903,-0.081301,0.000000,0.578311,-0.567573,0.567573,-0.582913,0.575243,-0.567573
1.5840,0.016746,0.000000,0.000000,0.000359,0.0000,0.0000,0.0000,0.084243,-0.084243,-0.000138,0.000784,-0.002310,0.2392,0.1960,0.1025,0.085903,-0.081301,0.000000,0.578311,-0.567573,0.567573,-0.582913,0.575243,-0.567573
1.6008,0.016748,0.000000,0.000000,0.000369,0.0000,0.0000,0.0000,0.082929,-0.082929,-0.000098,0.000829,-0.002284,0.2907,0.2173,-0.0113,0.082835,-0.084369,0.000000,0.578311,-0.569107,0.567573,-0.584447,0.575243,-0.567573
1.6175,0.016742,0.000000,0.000000,0.000378,0.0000,0.0000,0.0000,0.081386,-0.081386,-0.000049,0.000809,-0.002274,0.3244,0.1799,-0.0529,0.085903,-0.085903,0.000000,0.578311,-0.570641,0.567573,-0.584447,0.575243,-0.567573
1.6344,0.016908,0.000000,0.000000,0.000388,0.0000,0.0000,0.0000,0.079599,-0.079599,-0.000041,0.000756,-0.002287,0.3102,0.1328,0.0051,0.087437,-0.085903,0.000000,0.578311,-0.570641,0.567573,-0.582913,0.575243,-0.567573
1.6512,0.016745,0.000000,0.000000,0.000398,0.0000,0.0000,0.0000,0.077608,-0.077608,-0.000055,0.000816,-0.002274,0.3223,0.1887,-0.0546,0.082835,-0.084369,0.000000,0.578311,-0.570641,0.567573,-0.584447,0.575243,-0.567573
1.6679,0.016747,0.000000,0.000000,0.000407,0.0000,0.0000,0.0000,0.075402,-0.075402,-0.000053,0.000810,-0.002276,0.3211,0.1828,-0.0484,0.078233,-0.082835,0.000000,0.578311,-0.570641,0.567573,-0.584447,0.575243,-0.567573
1.6847,0.016746,0.000000,0.000000,0.000417,0.0000,0.0000,0.0000,0.072988,-0.072988,-0.000053,0.000810,-0.002276,0.3211,0.1828,-0.0484,0.078233,-0.082835,0.000000,0.578311,-0.570641,0.567573,-0.584447,0.575243,-0.567573
1.7014,0.016751,0.000000,0.000000,0.000427,0.0000,0.0000,0.0000,0.070371,-0.070371,-0.000094,0.000850,-0.002263,0.3710,0.1675,0.0047,0.081301,-0.078233,0.000000,0.579845,-0.570641,0.567573,-0.584447,0.575243,-0.567573
1.7182,0.016745,0.000000,0.000000,0.000436,0.0000,0.0000,0.0000,0.067560,-0.067560,-0.000103,0.000900,-0.002253,0.3764,0.2200,-0.0545,0.081301,-0.078233,0.000000,0.579845,-0.570641,0.567573,-0.585981,0.575243,-0.567573
1.7350,0.016830,0.000000,0.000000,0.000446,0.0000,0.0000,0.0000,0.064546,-0.064546,-0.000075,0.000911,-0.002254,0.3367,0.2813,-0.1557,0.075165,-0.076699,0.000000,0.578311,-0.570641,0.567573,-0.587515,0.575243,-0.567573
1.7517,0.016750,0.000000,0.000000,0.000455,0.0000,0.0000,0.0000,0.061368,-0.061368,-0.000078,0.000910,-0.002254,0.3409,0.2749,-0.1452,0.067495,-0.072097,0.000000,0.578311,-0.570641,0.567573,-0.587515,0.575243,-0.567573
1.7691,0.017309,0.000000,0.000000,0.000465,0.0000,0.0000,0.0000,0.057905,-0.057905,-0.000103,0.001020,-0.002231,0.3618,0.3772,-0.2537,0.062893,-0.067495,0.000000,0.578311,-0.570641,0.567573,-0.590583,0.575243,-0.567573
1.7858,0.016751,0.000000,0.000000,0.000474,0.0000,0.0000,0.0000,0.054391,-0.054391,-0.000103,0.001020,-0.002231,0.3618,0.3772,-0.2537,0.062893,-0.067495,0.000000,0.578311,-0.570641,0.567573,-0.590583,0.575243,-0.567573
1.8025,0.016745,0.000000,0.000000,0.000483,0.0000,0.0000,0.0000,0.050727,-0.050727,-0.000101,0.001009,-0.002233,0.3597,0.3665,-0.2424,0.062893,-0.065961,0.000000,0.578311,-0.570641,0.567573,-0.590583,0.575243,-0.567573
1.8193,0.016747,0.000000,0.000000,0.000492,0.0000,0.0000,0.0000,0.046923,-0.046923,-0.000114,0.001065,-0.002221,0.3706,0.4183,-0.2974,0.062893,-0.065961,0.000000,0.578311,-0.570641,0.567573,-0.592117,0.575243,-0.567573
1.8360,0.016746,0.000000,0.000000,0.000501,0.0000,0.0000,0.0000,0.042989,-0.042989,-0.000154,0.001098,-0.002211,0.4194,0.3969,-0.2378,0.058291,-0.061359,0.000000,0.579845,-0.570641,0.567573,-0.592117,0.575243,-0.567573
1.8528,0.016747,0.000000,0.000000,0.000511,0.0000,0.0000,0.0000,0.038936,-0.038936,-0.000109,0.001056,-0.002224,0.3644,0.4151,-0.2978,0.052155,-0.055223,0.000000,0.578311,-0.570641,0.567573,-0.592117,0.575243,-0.567573
1.8695,0.016754,0.000000,0.000000,0.000520,0.0000,0.0000,0.0000,0.034773,-0.034773,-0.000113,0.001060,-0.002222,0.3702,0.4132,-0.2916,0.046019,-0.046019,0.000000,0.578311,-0.570641,0.567573,-0.592117,0.575243,-0.567573
1.8863,0.016745,0.000000,0.000000,0.000529,0.0000,0.0000,0.0000,0.030516,-0.030516,-0.000113,0.001060,-0.002222,0.3702,0.4132,-0.2916,0.046019,-0.046019,0.000000,0.578311,-0.570641,0.567573,-0.592117,0.575243,-0.567573
1.9030,0.016748,0.000000,0.000000,0.000537,0.0000,0.0000,0.0000,0.026174,-0.026174,-0.000113,0.001060,-0.002222,0.3702,0.4132,-0.2916,0.039884,-0.039884,0.000000,0.578311,-0.570641,0.567573,-0.592117,0.575243,-0.567573
1.9198,0.016751,0.000000,0.000000,0.000546,0.0000,0.0000,0.0000,0.021759,-0.021759,-0.000113,0.001060,-0.002222,0.3702,0.4132,-0.2916,0.036816,-0.041417,0.000000,0.578311,-0.570641,0.567573,-0.592117,0.575243,-0.567573
1.9365,0.016755,0.000000,0.000000,0.000555,0.0000,0.0000,0.0000,0.017283,-0.017283,-0.000113,0.001060,-0.002222,0.3702,0.4132,-0.2916,0.038350,-0.039884,0.000000,0.578311,-0.570641,0.567573,-0.592117,0.575243,-0.567573
1.9533,0.016748,0.000000,0.000000,0.000564,0.0000,0.0000,0.0000,0.012761,-0.012761,-0.000113,0.001060,-0.002222,0.3702,0.4132,-0.2916,0.032214,-0.033748,0.000000,0.578311,-0.570641,0.567573,-0.592117,0.575243,-0.567573
1.9703,0.016993,0.000000,0.000000,0.000573,0.0000,0.0000,0.0000,0.008136,-0.008136,-0.000154,0.001099,-0.002210,0.4194,0.3975,-0.2384,0.021476,-0.024544,0.000000,0.579845,-0.570641,0.567573,-0.592117,0.575243,-0.567573
1.9870,0.016746,0.000000,0.000000,0.000581,0.0000,0.0000,0.0000,0.003556,-0.003556,-0.000154,0.001099,-0.002210,0.4194,0.3975,-0.2384,0.021476,-0.024544,0.000000,0.579845,-0.570641,0.567573,-0.592117,0.575243,-0.567573
2.0038,0.016742,0.000000,0.000000,0.000590,0.0000,0.0000,0.0000,-0.001033,0.001033,-0.000109,0.001056,-0.002224,0.3644,0.4150,-0.2978,0.015340,-0.013806,0.000000,0.578311,-0.570641,0.567573,-0.592117,0.575243,-0.567573
2.0205,0.016741,0.000000,0.000000,0.000598,0.0000,0.0000,0.0000,-0.005619,0.005619,-0.000113,0.001060,-0.002222,0.3702,0.4132,-0.2916,0.010738,-0.010738,0.000000,0.578311,-0.570641,0.567573,-0.592117,0.575243,-0.567573
2.0373,0.016794,0.000000,0.000000,0.000607,0.0000,0.0000,0.0000,-0.010204,0.010204,-0.000113,0.001060,-0.002222,0.3702,0.4132,-0.2916,0.007670,-0.010738,0.000000,0.578311,-0.570641,0.567573,-0.592117,0.575243,-0.567573
2.0540,0.016742,0.000000,0.000000,0.000615,0.0000,0.0000,0.0000,-0.014746,0.014746,-0.000126,0.001006,-0.002209,0.3591,0.4651,-0.2387,0.006136,-0.007670,0.000000,0.578311,-0.570641,0.569107,-0.592117,0.575243,-0.567573
2.0710,0.016984,0.000000,0.000000,0.000623,0.0000,0.0000,0.0000,-0.019312,0.019312,-0.000112,0.001066,-0.002224,0.3707,0.4080,-0.2977,0.000000,0.000000,0.000000,0.578311,-0.570641,0.567573,-0.592117,0.575243,-0.567573
2.0878,0.016753,0.000000,0.000000,0.000631,0.0000,0.0000,0.0000,-0.023762,0.023762,-0.000112,0.001066,-0.002224,0.3707,0.4080,-0.2977,0.000000,0.000000,0.000000,0.578311,-0.570641,0.567573,-0.592117,0.575243,-0.567573
2.1045,0.016745,0.000000,0.000000,0.000640,0.0000,0.0000,0.0000,-0.028145,0.028145,-0.000154,0.001098,-0.002210,0.4194,0.3980,-0.2378,-0.009204,0.010738,0.000000,0.579845,-0.570641,0.567573,-0.592117,0.575243,-0.567573
2.1213,0.016742,0.000000,0.000000,0.000648,0.0000,0.0000,0.0000,-0.032449,0.032449,-0.000150,0.001095,-0.002212,0.4143,0.3991,-0.2441,-0.015340,0.015340,0.000000,0.579845,-0.570641,0.567573,-0.592117,0.575243,-0.567573
2.1382,0.016942,0.000000,0.000000,0.000656,0.0000,0.0000,0.0000,-0.036712,0.036712,-0.000109,0.001056,-0.002223,0.3650,0.4149,-0.2972,-0.021476,0.013806,0.000000,0.578311,-0.570641,0.567573,-0.592117,0.575243,-0.567573
2.1550,0.016750,0.000000,0.000000,0.000664,0.0000,0.0000,0.0000,-0.040825,0.040825,-0.000154,0.001099,-0.002210,0.4200,0.3973,-0.2379,-0.026078,0.016874,0.000000,0.579845,-0.570641,0.567573,-0.592117,0.575243,-0.567573
2.1717,0.016753,0.000000,0.000000,0.000671,0.0000,0.0000,0.0000,-0.044826,0.044826,-0.000162,0.001040,-0.002199,0.4037,0.4509,-0.1905,-0.027612,0.026078,0.000000,0.579845,-0.570641,0.569107,-0.592117,0.575243,-0.567573
2.1885,0.016745,0.000000,0.000000,0.000679,0.0000,0.0000,0.0000,-0.048701,0.048701,-0.000162,0.001040,-0.002199,0.4037,0.4509,-0.1905,-0.027612,0.026078,0.000000,0.579845,-0.570641,0.569107,-0.592117,0.575243,-0.567573
2.2052,0.016748,0.000000,0.000000,0.000687,0.0000,0.0000,0.0000,-0.052442,0.052442,-0.000310,0.000977,-0.002137,0.4344,0.4995,-0.0342,-0.042951,0.041417,0.000000,0.582913,-0.570641,0.572175,-0.592117,0.575243,-0.569107
2.2220,0.016744,0.000000,0.000000,0.000695,0.0000,0.0000,0.0000,-0.056037,0.056037,-0.000308,0.001007,-0.002132,0.5196,0.5473,0.1108,-0.047553,0.039884,0.000000,0.584447,-0.570641,0.573709,-0.592117,0.575243,-0.567573
2.2387,0.016742,0.000000,0.000000,0.000702,0.0000,0.0000,0.0000,-0.059476,0.059476,-0.000403,0.001027,-0.002096,0.5992,0.5623,0.2574,-0.047553,0.042951,0.000000,0.587515,-0.570641,0.575243,-0.592117,0.575243,-0.567573
2.2554,0.016752,0.000000,0.000000,0.000710,0.0000,0.0000,0.0000,-0.062753,0.062753,-0.000501,0.000995,-0.002051,0.6682,0.6320,0.4580,-0.053689,0.052155,0.000000,0.590583,-0.570641,0.578311,-0.592117,0.575243,-0.567573
2.2722,0.016740,0.000000,0.000000,0.000717,0.0000,0.0000,0.0000,-0.065854,0.065854,-0.000501,0.000995,-0.002051,0.6682,0.6320,0.4580,-0.053689,0.052155,0.000000,0.590583,-0.570641,0.578311,-0.592117,0.575243,-0.567573
2.2889,0.016758,0.000000,0.000000,0.000724,0.0000,0.0000,0.0000,-0.068776,0.068776,-0.000627,0.000983,-0.002007,0.6992,0.6272,0.5455,-0.059825,0.059825,0.000000,0.593651,-0.570641,0.579845,-0.592117,0.575243,-0.569107
2.3057,0.016744,0.000000,0.000000,0.000731,0.0000,0.0000,0.0000,-0.071505,0.071505,-0.000614,0.000984,-0.002012,0.6959,0.6277,0.5364,-0.059825,0.059825,0.000000,0.593651,-0.570641,0.579845,-0.592117,0.575243,-0.569107
2.3224,0.016755,0.000000,0.000000,0.000739,0.0000,0.0000,0.0000,-0.074038,0.074038,-0.000777,0.000860,-0.001937,0.7120,0.7323,0.7540,-0.064427,0.058291,0.000000,0.596719,-0.570641,0.584447,-0.592117,0.575243,-0.570641
2.3396,0.017118,0.000000,0.000000,0.000746,0.0000,0.0000,0.0000,-0.076414,0.076414,-0.000757,0.000780,-0.001920,0.6498,0.8899,0.7315,-0.067495,0.067495,0.000000,0.595185,-0.570641,0.587515,-0.593651,0.575243,-0.570641
2.3563,0.016762,0.000000,0.000000,0.000753,0.0000,0.0000,0.0000,-0.078526,0.078526,-0.000757,0.000780,-0.001920,0.6498,0.8899,0.7315,-0.076699,0.075165,0.000000,0.596719,-0.570641,0.587515,-0.593651,0.575243,-0.572175
2.3731,0.016760,0.000000,0.000000,0.000760,0.0000,0.0000,0.0000,-0.080421,0.080421,-0.000841,0.000789,-0.001897,0.6559,0.8403,0.7342,-0.076699,0.075165,0.000000,0.596719,-0.570641,0.587515,-0.593651,0.575243,-0.572175
2.3898,0.016757,0.000000,0.000000,0.000766,0.0000,0.0000,0.0000,-0.082092,0.082092,-0.000775,0.000710,-0.001862,0.5555,0.9799,0.7872,-0.079767,0.075165,0.000000,0.595185,-0.570641,0.590583,-0.595185,0.576777,-0.572175
2.4068,0.016996,0.000000,0.000000,0.000773,0.0000,0.0000,0.0000,-0.083555,0.083555,-0.000728,0.000733,-0.001853,0.5266,0.9312,0.8348,-0.075165,0.073631,0.000000,0.595185,-0.570641,0.590583,-0.595185,0.578311,-0.572175
2.4236,0.016758,0.000000,0.000000,0.000780,0.0000,0.0000,0.0000,-0.084764,0.084764,-0.000705,0.000857,-0.001817,0.5124,1.0045,0.7754,-0.075165,0.079767,0.000000,0.595185,-0.570641,0.590583,-0.598253,0.579845,-0.572175
2.4403,0.016757,0.000000,0.000000,0.000786,0.0000,0.0000,0.0000,-0.085739,0.085739,-0.000680,0.000860,-0.001784,0.4745,1.0647,0.8351,-0.084369,0.081301,0.000000,0.595185,-0.570641,0.592117,-0.599786,0.581379,-0.572175
2.4571,0.016775,0.000000,0.000000,0.000793,0.0000,0.0000,0.0000,-0.086476,0.086476,-0.000680,0.000860,-0.001784,0.4745,1.0647,0.8351,-0.085903,0.079767,0.000000,0.595185,-0.570641,0.593651,-0.601320,0.582913,-0.572175
2.4739,0.016746,0.000000,0.000000,0.000799,0.0000,0.0000,0.0000,-0.086973,0.086973,-0.000654,0.000876,-0.001751,0.4391,1.1262,0.8823,-0.085903,0.079767,0.000000,0.595185,-0.570641,0.593651,-0.601320,0.582913,-0.572175
2.4906,0.016774,0.000000,0.000000,0.000806,0.0000,0.0000,0.0000,-0.087229,0.087229,-0.000616,0.000945,-0.001730,0.4146,1.1369,0.8767,-0.081301,0.085903,0.000000,0.595185,-0.570641,0.593651,-0.602854,0.584447,-0.572175
2.5075,0.016852,0.000000,0.000000,0.000812,0.0000,0.0000,0.0000,-0.087242,0.087242,-0.000525,0.001025,-0.001696,0.3497,1.1189,0.9300,-0.084369,0.085903,0.000000,0.595185,-0.570641,0.593651,-0.604388,0.587515,-0.572175
2.5243,0.016794,0.000000,0.000000,0.000818,0.0000,0.0000,0.0000,-0.087013,0.087013,-0.000525,0.001025,-0.001696,0.3497,1.1189,0.9300,-0.084369,0.085903,0.000000,0.595185,-0.570641,0.593651,-0.604388,0.587515,-0.572175
2.5411,0.016858,0.000000,0.000000,0.000824,0.0000,0.0000,0.0000,-0.086538,0.086538,-0.000525,0.001025,-0.001696,0.3497,1.1189,0.9300,-0.084369,0.085903,0.000000,0.595185,-0.570641,0.593651,-0.604388,0.587515,-0.572175
2.5579,0.016767,0.000000,0.000000,0.000830,0.0000,0.0000,0.0000,-0.085826,0.085826,-0.000525,0.001025,-0.001696,0.3497,1.1189,0.9300,-0.084369,0.085903,0.000000,0.595185,-0.570641,0.593651,-0.604388,0.587515,-0.572175
2.5747,0.016743,0.000000,0.000000,0.000836,0.0000,0.0000,0.0000,-0.084877,0.084877,-0.000440,0.001103,-0.001663,0.2892,1.1040,0.9772,-0.082835,0.087437,0.000000,0.595185,-0.570641,0.593651,-0.605922,0.590583,-0.572175
2.5914,0.016760,0.000000,0.000000,0.000841,0.0000,0.0000,0.0000,-0.083692,0.083692,-0.000449,0.001095,-0.001666,0.2956,1.1056,0.9723,-0.085903,0.085903,0.000000,0.595185,-0.570641,0.593651,-0.605922,0.590583,-0.572175
2.6082,0.016745,0.000000,0.000000,0.000847,0.0000,0.0000,0.0000,-0.082277,0.082277,-0.000449,0.001095,-0.001666,0.2956,1.1056,0.9723,-0.085903,0.085903,0.000000,0.595185,-0.570641,0.593651,-0.605922,0.590583,-0.572175
2.6249,0.016786,0.000000,0.000000,0.000853,0.0000,0.0000,0.0000,-0.080629,0.080629,-0.000447,0.001096,-0.001666,0.2947,1.1053,0.9730,-0.088971,0.085903,0.000000,0.595185,-0.570641,0.593651,-0.605922,0.590583,-0.572175
2.6417,0.016745,0.000000,0.000000,0.000858,0.0000,0.0000,0.0000,-0.078762,0.078762,-0.000447,0.001096,-0.001666,0.2947,1.1053,0.9730,-0.085903,0.084369,0.000000,0.595185,-0.570641,0.593651,-0.605922,0.590583,-0.572175
2.6586,0.016889,0.000000,0.000000,0.000863,0.0000,0.0000,0.0000,-0.076658,0.076658,-0.000447,0.001096,-0.001666,0.2947,1.1053,0.9730,-0.079767,0.082835,0.000000,0.595185,-0.570641,0.593651,-0.605922,0.590583,-0.572175
2.6753,0.016754,0.000000,0.000000,0.000869,0.0000,0.0000,0.0000,-0.074358,0.074358,-0.000461,0.001151,-0.001654,0.3059,1.1564,0.9186,-0.082835,0.081301,0.000000,0.595185,-0.570641,0.593651,-0.607456,0.590583,-0.572175
2.6923,0.016936,0.000000,0.000000,0.000874,0.0000,0.0000,0.0000,-0.071824,0.071824,-0.000459,0.001145,-0.001655,0.3047,1.1511,0.9243,-0.082835,0.078233,0.000000,0.595185,-0.570641,0.593651,-0.607456,0.590583,-0.572175
2.7090,0.016746,0.000000,0.000000,0.000879,0.0000,0.0000,0.0000,-0.069118,0.069118,-0.000459,0.001145,-0.001655,0.3047,1.1511,0.9243,-0.082835,0.078233,0.000000,0.595185,-0.570641,0.593651,-0.607456,0.590583,-0.572175
2.7258,0.016749,0.000000,0.000000,0.000884,0.0000,0.0000,0.0000,-0.066221,0.066221,-0.000459,0.001145,-0.001655,0.3047,1.1511,0.9243,-0.076699,0.076699,0.000000,0.595185,-0.570641,0.593651,-0.607456,0.590583,-0.572175
2.7425,0.016745,0.000000,0.000000,0.000889,0.0000,0.0000,0.0000,-0.063141,0.063141,-0.000472,0.001202,-0.001644,0.3157,1.2026,0.8695,-0.073631,0.075165,0.000000,0.595185,-0.570641,0.593651,-0.608990,0.590583,-0.572175
2.7593,0.016745,0.000000,0.000000,0.000894,0.0000,0.0000,0.0000,-0.059886,0.059886,-0.000471,0.001196,-0.001645,0.3146,1.1972,0.8752,-0.073631,0.070563,0.000000,0.595185,-0.570641,0.593651,-0.608990,0.590583,-0.572175
2.7760,0.016744,0.000000,0.000000,0.000898,0.0000,0.0000,0.0000,-0.056466,0.056466,-0.000471,0.001196,-0.001645,0.3146,1.1972,0.8752,-0.070563,0.069029,0.000000,0.595185,-0.570641,0.593651,-0.608990,0.590583,-0.572175
2.7930,0.016961,0.000000,0.000000,0.000903,0.0000,0.0000,0.0000,-0.052842,0.052842,-0.000471,0.001196,-0.001645,0.3146,1.1972,0.8752,-0.064427,0.067495,0.000000,0.595185,-0.570641,0.593651,-0.608990,0.590583,-0.572175
2.8097,0.016742,0.000000,0.000000,0.000907,0.0000,0.0000,0.0000,-0.049118,0.049118,-0.000471,0.001196,-0.001645,0.3146,1.1972,0.8752,-0.064427,0.067495,0.000000,0.595185,-0.570641,0.593651,-0.608990,0.590583,-0.572175
2.8265,0.016756,0.000000,0.000000,0.000912,0.0000,0.0000,0.0000,-0.045255,0.045255,-0.000471,0.001196,-0.001645,0.3146,1.1972,0.8752,-0.061359,0.065961,0.000000,0.595185,-0.570641,0.593651,-0.608990,0.590583,-0.572175
2.8432,0.016745,0.000000,0.000000,0.000916,0.0000,0.0000,0.0000,-0.041269,0.041269,-0.000471,0.001196,-0.001645,0.3146,1.1972,0.8752,-0.056757,0.062893,0.000000,0.595185,-0.570641,0.593651,-0.608990,0.590583,-0.572175
2.8600,0.016776,0.000000,0.000000,0.000920,0.0000,0.0000,0.0000,-0.037161,0.037161,-0.000471,0.001196,-0.001645,0.3146,1.1972,0.8752,-0.050621,0.061359,0.000000,0.595185,-0.570641,0.593651,-0.608990,0.590583,-0.572175
2.8767,0.016745,0.000000,0.000000,0.000924,0.0000,0.0000,0.0000,-0.032958,0.032958,-0.000471,0.001196,-0.001645,0.3146,1.1972,0.8752,-0.052155,0.058291,0.000000,0.595185,-0.570641,0.593651,-0.608990,0.590583,-0.572175
2.8935,0.016785,0.000000,0.000000,0.000928,0.0000,0.0000,0.0000,-0.028653,0.028653,-0.000471,0.001196,-0.001645,0.3146,1.1972,0.8752,-0.047553,0.050621,0.000000,0.595185,-0.570641,0.593651,-0.608990,0.590583,-0.572175
2.9103,0.016741,0.000000,0.000000,0.000932,0.0000,0.0000,0.0000,-0.024280,0.024280,-0.000471,0.001196,-0.001645,0.3146,1.1972,0.8752,-0.047553,0.050621,0.000000,0.595185,-0.570641,0.593651,-0.608990,0.590583,-0.572175
2.9270,0.016751,0.000000,0.000000,0.000936,0.0000,0.0000,0.0000,-0.019838,0.019838,-0.000471,0.001196,-0.001645,0.3146,1.1972,0.8752,-0.038350,0.042951,0.000000,0.595185,-0.570641,0.593651,-0.608990,0.590583,-0.572175
2.9437,0.016744,0.000000,0.000000,0.000940,0.0000,0.0000,0.0000,-0.015342,0.015342,-0.000471,0.001196,-0.001645,0.3146,1.1972,0.8752,-0.033748,0.035282,0.000000,0.595185,-0.570641,0.593651,-0.608990,0.590583,-0.572175
2.9605,0.016747,0.000000,0.000000,0.000943,0.0000,0.0000,0.0000,-0.010803,0.010803,-0.000471,0.001196,-0.001645,0.3146,1.1972,0.8752,-0.029146,0.030680,0.000000,0.595185,-0.570641,0.593651,-0.608990,0.590583,-0.572175
2.9772,0.016749,0.000000,0.000000,0.000947,0.0000,0.0000,0.0000,-0.006234,0.006234,-0.000471,0.001196,-0.001645,0.3146,1.1972,0.8752,-0.026078,0.027612,0.000000,0.595185,-0.570641,0.593651,-0.608990,0.590583,-0.572175
2.9946,0.017337,0.000000,0.000000,0.000950,0.0000,0.0000,0.0000,-0.001486,0.001486,-0.000471,0.001196,-0.001645,0.3146,1.1972,0.8752,-0.018408,0.021476,0.000000,0.595185,-0.570641,0.593651,-0.608990,0.590583,-0.572175
3.0113,0.016742,0.000000,0.000000,0.000953,0.0000,0.0000,0.0000,0.003103,-0.003103,-0.000471,0.001196,-0.001645,0.3146,1.1972,0.8752,-0.018408,0.021476,0.000000,0.595185,-0.570641,0.593651,-0.608990,0.590583,-0.572175
3.0281,0.016752,0.000000,0.000000,0.000956,0.0000,0.0000,0.0000,0.007686,-0.007686,-0.000471,0.001196,-0.001645,0.3146,1.1972,0.8752,-0.012272,0.012272,0.000000,0.595185,-0.570641,0.593651,-0.608990,0.590583,-0.572175
3.0448,0.016747,0.000000,0.000000,0.000959,0.0000,0.0000,0.0000,0.012247,-0.012247,-0.000471,0.001196,-0.001645,0.3146,1.1972,0.8752,-0.010738,0.007670,0.000000,0.595185,-0.570641,0.593651,-0.608990,0.590583,-0.572175
3.0616,0.016743,0.000000,0.000000,0.000962,0.0000,0.0000,0.0000,0.016773,-0.016773,-0.000471,0.001196,-0.001645,0.3146,1.1972,0.8752,-0.004602,0.004602,0.000000,0.595185,-0.570641,0.593651,-0.608990,0.590583,-0.572175
3.0783,0.016747,0.000000,0.000000,0.000965,0.0000,0.0000,0.0000,0.021253,-0.021253,-0.000471,0.001196,-0.001645,0.3146,1.1972,0.8752,0.004602,0.000000,0.000000,0.595185,-0.570641,0.593651,-0.608990,0.590583,-0.572175
3.0951,0.016755,0.000000,0.000000,0.000968,0.0000,0.0000,0.0000,0.025677,-0.025677,-0.000471,0.001196,-0.001645,0.3146,1.1972,0.8752,0.010738,-0.006136,0.000000,0.595185,-0.570641,0.593651,-0.608990,0.590583,-0.572175
3.1118,0.016747,0.000000,0.000000,0.000970,0.0000,0.0000,0.0000,0.030027,-0.030027,-0.000471,0.001196,-0.001645,0.3146,1.1972,0.8752,0.010738,-0.006136,0.000000,0.595185,-0.570641,0.593651,-0.608990,0.590583,-0.572175
3.1286,0.016758,0.000000,0.000000,0.000973,0.0000,0.0000,0.0000,0.034298,-0.034298,-0.000471,0.001196,-0.001645,0.3146,1.1972,0.8752,0.013806,-0.019942,0.000000,0.595185,-0.570641,0.593651,-0.608990,0.590583,-0.572175
3.1453,0.016743,0.000000,0.000000,0.000975,0.0000,0.0000,0.0000,0.038469,-0.038469,-0.000471,0.001196,-0.001645,0.3146,1.1972,0.8752,0.018408,-0.019942,0.000000,0.595185,-0.570641,0.593651,-0.608990,0.590583,-0.572175
3.1621,0.016757,0.000000,0.000000,0.000978,0.0000,0.0000,0.0000,0.042538,-0.042538,-0.000471,0.001196,-0.001645,0.3146,1.1972,0.8752,0.029146,-0.023010,0.000000,0.595185,-0.570641,0.593651,-0.608990,0.590583,-0.572175
3.1788,0.016745,0.000000,0.000000,0.000980,0.0000,0.0000,0.0000,0.046485,-0.046485,-0.000471,0.001196,-0.001645,0.3146,1.1972,0.8752,0.039884,-0.030680,0.000000,0.595185,-0.570641,0.593651,-0.608990,0.590583,-0.572175
3.1956,0.016773,0.000000,0.000000,0.000982,0.0000,0.0000,0.0000,0.050311,-0.050311,-0.000471,0.001196,-0.001645,0.3146,1.1972,0.8752,0.044485,-0.041417,0.000000,0.595185,-0.570641,0.593651,-0.608990,0.590583,-0.572175
3.2123,0.016740,0.000000,0.000000,0.000984,0.0000,0.0000,0.0000,0.053989,-0.053989,-0.000471,0.001196,-0.001645,0.3146,1.1972,0.8752,0.044485,-0.041417,0.000000,0.595185,-0.570641,0.593651,-0.608990,0.590583,-0.572175
3.2291,0.016759,0.000000,0.000000,0.000986,0.0000,0.0000,0.0000,0.057522,-0.057522,-0.000471,0.001196,-0.001645,0.3146,1.1972,0.8752,0.039884,-0.047553,0.000000,0.595185,-0.570641,0.593651,-0.608990,0.590583,-0.572175
3.2458,0.016757,0.000000,0.000000,0.000987,0.0000,0.0000,0.0000,0.060896,-0.060896,-0.000553,0.001118,-0.001619,0.2155,1.1623,0.7665,0.041417,-0.047553,0.000000,0.595185,-0.570641,0.593651,-0.608990,0.590583,-0.575243
3.2626,0.016759,0.000000,0.000000,0.000989,0.0000,0.0000,0.0000,0.064101,-0.064101,-0.000544,0.001126,-0.001622,0.2259,1.1660,0.7778,0.047553,-0.047553,0.000000,0.595185,-0.570641,0.593651,-0.608990,0.590583,-0.575243
3.2793,0.016743,0.000000,0.000000,0.000990,0.0000,0.0000,0.0000,0.067126,-0.067126,-0.000586,0.001086,-0.001608,0.1753,1.1480,0.7225,0.056757,-0.052155,0.000000,0.595185,-0.570641,0.593651,-0.608990,0.590583,-0.576777
3.2961,0.016778,0.000000,0.000000,0.000992,0.0000,0.0000,0.0000,0.069970,-0.069970,-0.000586,0.001086,-0.001608,0.1753,1.1480,0.7225,0.056757,-0.052155,0.000000,0.595185,-0.570641,0.593651,-0.608990,0.590583,-0.576777
3.3129,0.016740,0.000000,0.000000,0.000993,0.0000,0.0000,0.0000,0.072615,-0.072615,-0.000622,0.001052,-0.001597,0.1311,1.1324,0.6742,0.065961,-0.059825,0.000000,0.595185,-0.570641,0.593651,-0.608990,0.590583,-0.578311
3.3296,0.016747,0.000000,0.000000,0.000994,0.0000,0.0000,0.0000,0.075060,-0.075060,-0.000659,0.001016,-0.001585,0.0863,1.1165,0.6251,0.065961,-0.067495,0.000000,0.595185,-0.570641,0.593651,-0.608990,0.590583,-0.579845
3.3464,0.016742,0.000000,0.000000,0.000995,0.0000,0.0000,0.0000,0.077296,-0.077296,-0.000655,0.001020,-0.001587,0.0910,1.1182,0.6302,0.062893,-0.069029,0.000000,0.595185,-0.570641,0.593651,-0.608990,0.590583,-0.579845
3.3631,0.016757,0.000000,0.000000,0.000996,0.0000,0.0000,0.0000,0.079320,-0.079320,-0.000615,0.001058,-0.001599,0.1399,1.1355,0.6838,0.067495,-0.070563,0.000000,0.595185,-0.570641,0.593651,-0.608990,0.590583,-0.578311
3.3798,0.016739,0.000000,0.000000,0.000997,0.0000,0.0000,0.0000,0.081123,-0.081123,-0.000619,0.001054,-0.001598,0.1348,1.1337,0.6782,0.076699,-0.073631,0.000000,0.595185,-0.570641,0.593651,-0.608990,0.590583,-0.578311
3.3966,0.016762,0.000000,0.000000,0.000998,0.0000,0.0000,0.0000,0.082704,-0.082704,-0.000619,0.001054,-0.001598,0.1348,1.1337,0.6782,0.076699,-0.073631,0.000000,0.595185,-0.570641,0.593651,-0.608990,0.590583,-0.578311
3.4133,0.016719,0.000000,0.000000,0.000999,0.0000,0.0000,0.0000,0.084052,-0.084052,-0.000619,0.001054,-0.001598,0.1348,1.1337,0.6782,0.079767,-0.075165,0.000000,0.595185,-0.570641,0.593651,-0.608990,0.590583,-0.578311
3.4301,0.016761,0.000000,0.000000,0.000999,0.0000,0.0000,0.0000,0.085170,-0.085170,-0.000619,0.001054,-0.001598,0.1348,1.1337,0.6782,0.078233,-0.075165,0.000000,0.595185,-0.570641,0.593651,-0.608990,0.590583,-0.578311
3.4468,0.016745,0.000000,0.000000,0.000999,0.0000,0.0000,0.0000,0.086052,-0.086052,-0.000619,0.001054,-0.001598,0.1348,1.1337,0.6782,0.076699,-0.075165,0.000000,0.595185,-0.570641,0.593651,-0.608990,0.590583,-0.578311
3.4636,0.016755,0.000000,0.000000,0.001000,0.0000,0.0000,0.0000,0.086696,-0.086696,-0.000659,0.001016,-0.001585,0.0859,1.1164,0.6246,0.085903,-0.075165,0.000000,0.595185,-0.570641,0.593651,-0.608990,0.590583,-0.579845
3.4804,0.016856,0.000000,0.000000,0.001000,0.0000,0.0000,0.0000,0.087102,-0.087102,-0.000614,0.001059,-0.001599,0.1404,1.1357,0.6844,0.088971,-0.076699,0.000000,0.595185,-0.570641,0.593651,-0.608990,0.590583,-0.578311
3.4972,0.016753,0.000000,0.000000,0.001000,0.0000,0.0000,0.0000,0.087263,-0.087263,-0.000614,0.001059,-0.001599,0.1404,1.1357,0.6844,0.088971,-0.076699,0.000000,0.595185,-0.570641,0.593651,-0.608990,0.590583,-0.578311
3.5139,0.016749,0.000000,0.000000,0.001000,0.0000,0.0000,0.0000,0.087183,-0.087183,-0.000660,0.001015,-0.001585,0.0853,1.1161,0.6240,0.085903,-0.078233,0.000000,0.595185,-0.570641,0.593651,-0.608990,0.590583,-0.579845
3.5307,0.016749,0.000000,0.000000,0.001000,0.0000,0.0000,0.0000,0.086861,-0.086861,-0.000655,0.001020,-0.001587,0.0911,1.1182,0.6303,0.082835,-0.081301,0.000000,0.595185,-0.570641,0.593651,-0.608990,0.590583,-0.579845
3.5474,0.016747,0.000000,0.000000,0.001000,0.0000,0.0000,0.0000,0.086299,-0.086299,-0.000615,0.001058,-0.001599,0.1399,1.1355,0.6838,0.088971,-0.082835,0.000000,0.595185,-0.570641,0.593651,-0.608990,0.590583,-0.578311
3.5642,0.016754,0.000000,0.000000,0.000999,0.0000,0.0000,0.0000,0.085497,-0.085497,-0.000619,0.001054,-0.001598,0.1348,1.1337,0.6782,0.088971,-0.085903,0.000000,0.595185,-0.570641,0.593651,-0.608990,0.590583,-0.578311
3.5810,0.016758,0.000000,0.000000,0.000999,0.0000,0.0000,0.0000,0.084459,-0.084459,-0.000619,0.001054,-0.001598,0.1348,1.1337,0.6782,0.088971,-0.085903,0.000000,0.595185,-0.570641,0.593651,-0.608990,0.590583,-0.578311
3.5977,0.016751,0.000000,0.000000,0.000998,0.0000,0.0000,0.0000,0.083187,-0.083187,-0.000619,0.001054,-0.001598,0.1348,1.1337,0.6782,0.088971,-0.085903,0.000000,0.595185,-0.570641,0.593651,-0.608990,0.590583,-0.578311
3.6145,0.016760,0.000000,0.000000,0.000997,0.0000,0.0000,0.0000,0.081684,-0.081684,-0.000659,0.001016,-0.001585,0.0859,1.1164,0.6246,0.082835,-0.087437,0.000000,0.595185,-0.570641,0.593651,-0.608990,0.590583,-0.579845
3.6313,0.016792,0.000000,0.000000,0.000997,0.0000,0.0000,0.0000,0.079951,-0.079951,-0.000655,0.001020,-0.001587,0.0910,1.1182,0.6302,0.090505,-0.087437,0.000000,0.595185,-0.570641,0.593651,-0.608990,0.590583,-0.579845
3.6480,0.016751,0.000000,0.000000,0.000996,0.0000,0.0000,0.0000,0.078001,-0.078001,-0.000615,0.001058,-0.001599,0.1399,1.1355,0.6838,0.087437,-0.087437,0.000000,0.595185,-0.570641,0.593651,-0.608990,0.590583,-0.578311
3.6648,0.016759,0.000000,0.000000,0.000995,0.0000,0.0000,0.0000,0.075833,-0.075833,-0.000615,0.001058,-0.001599,0.1399,1.1355,0.6838,0.087437,-0.087437,0.000000,0.595185,-0.570641,0.593651,-0.608990,0.590583,-0.578311
3.6815,0.016749,0.000000,0.000000,0.000994,0.0000,0.0000,0.0000,0.073457,-0.073457,-0.000619,0.001054,-0.001598,0.1348,1.1337,0.6782,0.079767,-0.085903,0.000000,0.595185,-0.570641,0.593651,-0.608990,0.590583,-0.578311
3.6983,0.016763,0.000000,0.000000,0.000992,0.0000,0.0000,0.0000,0.070875,-0.070875,-0.000659,0.001016,-0.001585,0.0859,1.1164,0.6246,0.078233,-0.081301,0.000000,0.595185,-0.570641,0.593651,-0.608990,0.590583,-0.579845
3.7150,0.016751,0.000000,0.000000,0.000991,0.0000,0.0000,0.0000,0.068099,-0.068099,-0.000655,0.001020,-0.001587,0.0910,1.1182,0.6302,0.081301,-0.073631,0.000000,0.595185,-0.570641,0.593651,-0.608990,0.590583,-0.579845
3.7318,0.016784,0.000000,0.000000,0.000989,0.0000,0.0000,0.0000,0.065128,-0.065128,-0.000615,0.001058,-0.001599,0.1399,1.1355,0.6838,0.076699,-0.073631,0.000000,0.595185,-0.570641,0.593651,-0.608990,0.590583,-0.578311
3.7486,0.016756,0.000000,0.000000,0.000988,0.0000,0.0000,0.0000,0.061982,-0.061982,-0.000660,0.001015,-0.001585,0.0854,1.1162,0.6241,0.070563,-0.072097,0.000000,0.595185,-0.570641,0.593651,-0.608990,0.590583,-0.579845
3.7653,0.016755,0.000000,0.000000,0.000986,0.0000,0.0000,0.0000,0.058664,-0.058664,-0.000660,0.001015,-0.001585,0.0854,1.1162,0.6241,0.070563,-0.072097,0.000000,0.595185,-0.570641,0.593651,-0.608990,0.590583,-0.579845
3.7821,0.016749,0.000000,0.000000,0.000984,0.0000,0.0000,0.0000,0.055185,-0.055185,-0.000614,0.001059,-0.001599,0.1405,1.1357,0.6844,0.064427,-0.067495,0.000000,0.595185,-0.570641,0.593651,-0.608990,0.590583,-0.578311
3.7988,0.016751,0.000000,0.000000,0.000982,0.0000,0.0000,0.0000,0.051553,-0.051553,-0.000619,0.001054,-0.001598,0.1347,1.1337,0.6781,0.062893,-0.065961,0.000000,0.595185,-0.570641,0.593651,-0.608990,0.590583,-0.578311
3.8156,0.016748,0.000000,0.000000,0.000980,0.0000,0.0000,0.0000,0.047779,-0.047779,-0.000659,0.001016,-0.001585,0.0859,1.1164,0.6246,0.062893,-0.065961,0.000000,0.595185,-0.570641,0.593651,-0.608990,0.590583,-0.579845
3.8323,0.016749,0.000000,0.000000,0.000978,0.0000,0.0000,0.0000,0.043872,-0.043872,-0.000655,0.001020,-0.001587,0.0910,1.1182,0.6302,0.059825,-0.062893,0.000000,0.595185,-0.570641,0.593651,-0.608990,0.590583,-0.579845
3.8491,0.016754,0.000000,0.000000,0.000976,0.0000,0.0000,0.0000,0.039842,-0.039842,-0.000655,0.001020,-0.001587,0.0910,1.1182,0.6302,0.059825,-0.062893,0.000000,0.595185,-0.570641,0.593651,-0.608990,0.590583,-0.579845
3.8658,0.016752,0.000000,0.000000,0.000974,0.0000,0.0000,0.0000,0.035703,-0.035703,-0.000615,0.001058,-0.001599,0.1399,1.1355,0.6838,0.053689,-0.055223,0.000000,0.595185,-0.570641,0.593651,-0.608990,0.590583,-0.578311
3.8825,0.016712,0.000000,0.000000,0.000971,0.0000,0.0000,0.0000,0.031475,-0.031475,-0.000660,0.001015,-0.001585,0.0854,1.1162,0.6241,0.046019,-0.044485,0.000000,0.595185,-0.570641,0.593651,-0.608990,0.590583,-0.579845
3.8993,0.016749,0.000000,0.000000,0.000969,0.0000,0.0000,0.0000,0.027150,-0.027150,-0.000655,0.001020,-0.001587,0.0911,1.1182,0.6303,0.039884,-0.042951,0.000000,0.595185,-0.570641,0.593651,-0.608990,0.590583,-0.579845
3.9160,0.016750,0.000000,0.000000,0.000966,0.0000,0.0000,0.0000,0.022751,-0.022751,-0.000615,0.001058,-0.001599,0.1399,1.1355,0.6838,0.038350,-0.042951,0.000000,0.595185,-0.570641,0.593651,-0.608990,0.590583,-0.578311
3.9330,0.016983,0.000000,0.000000,0.000963,0.0000,0.0000,0.0000,0.018225,-0.018225,-0.000660,0.001015,-0.001585,0.0854,1.1162,0.6241,0.038350,-0.036816,0.000000,0.595185,-0.570641,0.593651,-0.608990,0.590583,-0.579845
3.9498,0.016777,0.000000,0.000000,0.000960,0.0000,0.0000,0.0000,0.013704,-0.013704,-0.000614,0.001059,-0.001599,0.1405,1.1357,0.6844,0.030680,-0.029146,0.000000,0.595185,-0.570641,0.593651,-0.608990,0.590583,-0.578311
3.9666,0.016747,0.000000,0.000000,0.000957,0.0000,0.0000,0.0000,0.009153,-0.009153,-0.000614,0.001059,-0.001599,0.1405,1.1357,0.6844,0.030680,-0.029146,0.000000,0.595185,-0.570641,0.593651,-0.608990,0.590583,-0.578311
3.9833,0.016747,0.000000,0.000000,0.000954,0.0000,0.0000,0.0000,0.004577,-0.004577,-0.000619,0.001054,-0.001598,0.1347,1.1337,0.6781,0.019942,-0.019942,0.000000,0.595185,-0.570641,0.593651,-0.608990,0.590583,-0.578311
4.0000,0.016741,0.000000,0.000000,0.000951,0.0000,0.0000,0.0000,-0.000011,0.000011,-0.000619,0.001054,-0.001598,0.1347,1.1337,0.6781,0.013806,-0.016874,0.000000,0.595185,-0.570641,0.593651,-0.608990,0.590583,-0.578311
4.0169,0.016848,0.000000,0.000000,0.000948,0.0000,0.0000,0.0000,-0.004628,0.004628,-0.000619,0.001054,-0.001598,0.1347,1.1337,0.6781,0.010738,-0.016874,0.000000,0.595185,-0.570641,0.593651,-0.608990,0.590583,-0.578311
4.0336,0.016757,0.000000,0.000000,0.000944,0.0000,0.0000,0.0000,-0.009207,0.009207,-0.000619,0.001054,-0.001598,0.1347,1.1337,0.6781,0.010738,-0.010738,0.000000,0.595185,-0.570641,0.593651,-0.608990,0.590583,-0.578311
4.0504,0.016802,0.000000,0.000000,0.000941,0.0000,0.0000,0.0000,-0.013773,0.013773,-0.000619,0.001054,-0.001598,0.1347,1.1337,0.6781,0.004602,-0.001534,0.000000,0.595185,-0.570641,0.593651,-0.608990,0.590583,-0.578311
4.0672,0.016748,0.000000,0.000000,0.000937,0.0000,0.0000,0.0000,-0.018286,0.018286,-0.000619,0.001054,-0.001598,0.1347,1.1337,0.6781,0.004602,-0.001534,0.000000,0.595185,-0.570641,0.593651,-0.608990,0.590583,-0.578311
4.0839,0.016752,0.000000,0.000000,0.000933,0.0000,0.0000,0.0000,-0.022749,0.022749,-0.000619,0.001054,-0.001598,0.1347,1.1337,0.6781,-0.007670,0.007670,0.000000,0.595185,-0.570641,0.593651,-0.608990,0.590583,-0.578311
4.1007,0.016747,0.000000,0.000000,0.000930,0.0000,0.0000,0.0000,-0.027148,0.027148,-0.000659,0.001016,-0.001585,0.0859,1.1164,0.6246,-0.010738,0.009204,0.000000,0.595185,-0.570641,0.593651,-0.608990,0.590583,-0.579845
4.1175,0.016755,0.000000,0.000000,0.000926,0.0000,0.0000,0.0000,-0.031474,0.031474,-0.000614,0.001059,-0.001599,0.1404,1.1357,0.6844,-0.009204,0.009204,0.000000,0.595185,-0.570641,0.593651,-0.608990,0.590583,-0.578311
4.1342,0.016746,0.000000,0.000000,0.000922,0.0000,0.0000,0.0000,-0.035711,0.035711,-0.000619,0.001054,-0.001598,0.1347,1.1337,0.6782,-0.013806,0.013806,0.000000,0.595185,-0.570641,0.593651,-0.608990,0.590583,-0.578311
4.1510,0.016767,0.000000,0.000000,0.000918,0.0000,0.0000,0.0000,-0.039854,0.039854,-0.000619,0.001054,-0.001598,0.1347,1.1337,0.6782,-0.026078,0.024544,0.000000,0.595185,-0.570641,0.593651,-0.608990,0.590583,-0.578311
4.1677,0.016746,0.000000,0.000000,0.000913,0.0000,0.0000,0.0000,-0.043881,0.043881,-0.000619,0.001054,-0.001598,0.1347,1.1337,0.6782,-0.026078,0.024544,0.000000,0.595185,-0.570641,0.593651,-0.608990,0.590583,-0.578311
4.1845,0.016752,0.000000,0.000000,0.000909,0.0000,0.0000,0.0000,-0.047788,0.047788,-0.000659,0.001016,-0.001585,0.0859,1.1164,0.6246,-0.035282,0.033748,0.000000,0.595185,-0.570641,0.593651,-0.608990,0.590583,-0.579845
4.2013,0.016812,0.000000,0.000000,0.000904,0.0000,0.0000,0.0000,-0.051576,0.051576,-0.000614,0.001059,-0.001599,0.1404,1.1357,0.6844,-0.035282,0.035282,0.000000,0.595185,-0.570641,0.593651,-0.608990,0.590583,-0.578311
4.2180,0.016752,0.000000,0.000000,0.000900,0.0000,0.0000,0.0000,-0.055208,0.055208,-0.000619,0.001054,-0.001598,0.1347,1.1337,0.6782,-0.032214,0.033748,0.000000,0.595185,-0.570641,0.593651,-0.608990,0.590583,-0.578311
4.2348,0.016787,0.000000,0.000000,0.000895,0.0000,0.0000,0.0000,-0.058694,0.058694,-0.000619,0.001054,-0.001598,0.1347,1.1337,0.6782,-0.038350,0.039884,0.000000,0.595185,-0.570641,0.593651,-0.608990,0.590583,-0.578311
4.2516,0.016748,0.000000,0.000000,0.000891,0.0000,0.0000,0.0000,-0.062009,0.062009,-0.000619,0.001054,-0.001598,0.1347,1.1337,0.6782,-0.038350,0.039884,0.000000,0.595185,-0.570641,0.593651,-0.608990,0.590583,-0.578311
4.2683,0.016757,0.000000,0.000000,0.000886,0.0000,0.0000,0.0000,-0.065154,0.065154,-0.000619,0.001054,-0.001598,0.1347,1.1337,0.6782,-0.053689,0.052155,0.000000,0.595185,-0.570641,0.593651,-0.608990,0.590583,-0.578311
4.2851,0.016748,0.000000,0.000000,0.000881,0.0000,0.0000,0.0000,-0.068117,0.068117,-0.000659,0.001016,-0.001585,0.0859,1.1164,0.6246,-0.058291,0.052155,0.000000,0.595185,-0.570641,0.593651,-0.608990,0.590583,-0.579845
4.3018,0.016749,0.000000,0.000000,0.000876,0.0000,0.0000,0.0000,-0.070892,0.070892,-0.000614,0.001059,-0.001599,0.1404,1.1357,0.6844,-0.053689,0.049087,0.000000,0.595185,-0.570641,0.593651,-0.608990,0.590583,-0.578311
4.3186,0.016750,0.000000,0.000000,0.000871,0.0000,0.0000,0.0000,-0.073470,0.073470,-0.000619,0.001054,-0.001598,0.1347,1.1337,0.6782,-0.052155,0.055223,0.000000,0.595185,-0.570641,0.593651,-0.608990,0.590583,-0.578311
4.3355,0.016937,0.000000,0.000000,0.000865,0.0000,0.0000,0.0000,-0.075871,0.075871,-0.000619,0.001054,-0.001598,0.1347,1.1337,0.6782,-0.062893,0.067495,0.000000,0.595185,-0.570641,0.593651,-0.608990,0.590583,-0.578311
4.3523,0.016775,0.000000,0.000000,0.000860,0.0000,0.0000,0.0000,-0.078037,0.078037,-0.000619,0.001054,-0.001598,0.1347,1.1337,0.6782,-0.062893,0.067495,0.000000,0.595185,-0.570641,0.593651,-0.608990,0.590583,-0.578311
4.3690,0.016739,0.000000,0.000000,0.000855,0.0000,0.0000,0.0000,-0.079982,0.079982,-0.000619,0.001054,-0.001598,0.1347,1.1337,0.6782,-0.076699,0.072097,0.000000,0.595185,-0.570641,0.593651,-0.608990,0.590583,-0.578311
4.3858,0.016744,0.000000,0.000000,0.000849,0.0000,0.0000,0.0000,-0.081706,0.081706,-0.000659,0.001016,-0.001585,0.0859,1.1164,0.6246,-0.078233,0.067495,0.000000,0.595185,-0.570641,0.593651,-0.608990,0.590583,-0.579845
4.4025,0.016744,0.000000,0.000000,0.000843,0.0000,0.0000,0.0000,-0.083205,0.083205,-0.000614,0.001059,-0.001599,0.1404,1.1357,0.6844,-0.072097,0.070563,0.000000,0.595185,-0.570641,0.593651,-0.608990,0.590583,-0.578311
4.4193,0.016748,0.000000,0.000000,0.000838,0.0000,0.0000,0.0000,-0.084474,0.084474,-0.000619,0.001054,-0.001598,0.1347,1.1337,0.6782,-0.084369,0.079767,0.000000,0.595185,-0.570641,0.593651,-0.608990,0.590583,-0.578311
4.4364,0.017112,0.000000,0.000000,0.000832,0.0000,0.0000,0.0000,-0.085528,0.085528,-0.000659,0.001016,-0.001585,0.0859,1.1164,0.6246,-0.084369,0.079767,0.000000,0.595185,-0.570641,0.593651,-0.608990,0.590583,-0.579845
4.4531,0.016772,0.000000,0.000000,0.000826,0.0000,0.0000,0.0000,-0.086322,0.086322,-0.000659,0.001016,-0.001585,0.0859,1.1164,0.6246,-0.084369,0.079767,0.000000,0.595185,-0.570641,0.593651,-0.608990,0.590583,-0.579845
4.4699,0.016742,0.000000,0.000000,0.000820,0.0000,0.0000,0.0000,-0.086876,0.086876,-0.000614,0.001059,-0.001599,0.1404,1.1357,0.6844,-0.079767,0.084369,0.000000,0.595185,-0.570641,0.593651,-0.608990,0.590583,-0.578311
4.4866,0.016743,0.000000,0.000000,0.000814,0.0000,0.0000,0.0000,-0.087189,0.087189,-0.000660,0.001015,-0.001585,0.0853,1.1161,0.6240,-0.082835,0.084369,0.000000,0.595185,-0.570641,0.593651,-0.608990,0.590583,-0.579845
4.5034,0.016745,0.000000,0.000000,0.000808,0.0000,0.0000,0.0000,-0.087262,0.087262,-0.000614,0.001059,-0.001599,0.1405,1.1357,0.6844,-0.088971,0.084369,0.000000,0.595185,-0.570641,0.593651,-0.608990,0.590583,-0.578311
4.5201,0.016746,0.000000,0.000000,0.000802,0.0000,0.0000,0.0000,-0.087092,0.087092,-0.000660,0.001015,-0.001585,0.0853,1.1161,0.6240,-0.085903,0.084369,0.000000,0.595185,-0.570641,0.593651,-0.608990,0.590583,-0.579845
4.5369,0.016746,0.000000,0.000000,0.000795,0.0000,0.0000,0.0000,-0.086682,0.086682,-0.000660,0.001015,-0.001585,0.0853,1.1161,0.6240,-0.085903,0.084369,0.000000,0.595185,-0.570641,0.593651,-0.608990,0.590583,-0.579845
4.5536,0.016748,0.000000,0.000000,0.000789,0.0000,0.0000,0.0000,-0.086032,0.086032,-0.000614,0.001059,-0.001599,0.1405,1.1357,0.6844,-0.082835,0.084369,0.000000,0.595185,-0.570641,0.593651,-0.608990,0.590583,-0.578311
