t,loop_dt,cmd_x,cmd_y,cmd_z,cmd_roll,cmd_pitch,cmd_yaw,cmd_ant_l,cmd_ant_r,pres_x,pres_y,pres_z,pres_roll,pres_pitch,pres_yaw,pres_ant_l,pres_ant_r,pres_j0,pres_j1,pres_j2,pres_j3,pres_j4,pres_j5,pres_j6
0.0000,0.000001,-0.000108,0.000951,-0.002353,0.5020,0.4169,4.8079,-0.177942,0.174874,-0.000108,0.000951,-0.002353,0.5020,0.4169,4.8079,-0.177942,0.174874,0.000000,0.604388,-0.544563,0.593651,-0.561437,0.598253,-0.538427
0.0168,0.016769,-0.000106,0.000935,-0.002313,0.4933,0.4103,4.7274,-0.177885,0.174868,-0.000104,0.000947,-0.002354,0.4970,0.4183,4.8023,-0.177942,0.174874,0.000000,0.604388,-0.544563,0.593651,-0.561437,0.598253,-0.538427
0.0335,0.016743,-0.000104,0.000919,-0.002274,0.4846,0.4037,4.6469,-0.177828,0.174862,-0.000104,0.000947,-0.002354,0.4970,0.4183,4.8023,-0.177942,0.174874,0.000000,0.604388,-0.544563,0.593651,-0.561437,0.598253,-0.538427
0.0504,0.016905,-0.000103,0.000903,-0.002234,0.4759,0.3970,4.5657,-0.177770,0.174857,-0.000104,0.000947,-0.002354,0.4970,0.4183,4.8023,-0.177942,0.174874,0.000000,0.604388,-0.544563,0.593651,-0.561437,0.598253,-0.538427
0.0672,0.016771,-0.000101,0.000887,-0.002195,0.4672,0.3903,4.4851,-0.177713,0.174851,-0.000104,0.000947,-0.002354,0.4970,0.4183,4.8023,-0.177942,0.174874,0.000000,0.604388,-0.544563,0.593651,-0.561437,0.598253,-0.538427
0.0843,0.017159,-0.000099,0.000871,-0.002154,0.4584,0.3835,4.4027,-0.177654,0.174845,-0.000104,0.000947,-0.002354,0.4970,0.4183,4.8023,-0.177942,0.174874,0.000000,0.604388,-0.544563,0.593651,-0.561437,0.598253,-0.538427
0.1011,0.016749,-0.000097,0.000855,-0.002115,0.4497,0.3768,4.3222,-0.177597,0.174839,0.000207,0.001104,-0.002595,0.5427,0.6117,4.9504,-0.177942,0.174874,0.000000,0.596719,-0.539961,0.590583,-0.559903,0.596719,-0.527689
0.1179,0.016774,-0.000095,0.000839,-0.002075,0.4411,0.3701,4.2416,-0.177540,0.174834,0.000207,0.001104,-0.002595,0.5427,0.6117,4.9504,-0.177942,0.174874,0.000000,0.598253,-0.538427,0.589049,-0.561437,0.598253,-0.526155
0.1346,0.016744,-0.000094,0.000823,-0.002036,0.4325,0.3634,4.1611,-0.177483,0.174828,0.000174,0.001306,-0.002576,0.5808,0.6049,5.0417,-0.177942,0.174874,0.000000,0.598253,-0.538427,0.589049,-0.561437,0.598253,-0.526155
0.1514,0.016757,-0.000092,0.000807,-0.001997,0.4238,0.3566,4.0805,-0.177426,0.174822,0.000205,0.001268,-0.002581,0.6174,0.6742,5.1394,-0.179476,0.174874,0.000000,0.598253,-0.538427,0.590583,-0.561437,0.598253,-0.524621
0.1681,0.016749,-0.000090,0.000791,-0.001957,0.4152,0.3499,4.0000,-0.177369,0.174817,0.000243,0.001233,-0.002591,0.5653,0.6803,5.0747,-0.179476,0.174874,0.000000,0.596719,-0.538427,0.590583,-0.561437,0.598253,-0.524621
0.1849,0.016765,-0.000088,0.000775,-0.001918,0.4066,0.3431,3.9194,-0.177312,0.174811,0.000198,0.001275,-0.002579,0.6190,0.6664,5.1359,-0.179476,0.174874,0.000000,0.598253,-0.538427,0.590583,-0.561437,0.598253,-0.524621
0.2016,0.016743,-0.000086,0.000759,-0.001878,0.3981,0.3364,3.8389,-0.177254,0.174805,0.000161,0.001310,-0.002603,0.6612,0.6525,5.0213,-0.179476,0.174874,0.000000,0.598253,-0.538427,0.589049,-0.561437,0.596719,-0.524621
0.2184,0.016775,-0.000084,0.000743,-0.001839,0.3895,0.3296,3.7582,-0.177197,0.174799,0.000161,0.001310,-0.002603,0.6612,0.6525,5.0213,-0.179476,0.174874,0.000000,0.598253,-0.538427,0.589049,-0.561437,0.596719,-0.524621
0.2351,0.016741,-0.000083,0.000727,-0.001800,0.3809,0.3228,3.6777,-0.177140,0.174794,0.000125,0.001268,-0.002586,0.6050,0.6343,4.9804,-0.179476,0.174874,0.000000,0.598253,-0.538427,0.589049,-0.561437,0.596719,-0.526155
0.2519,0.016747,-0.000081,0.000711,-0.001760,0.3723,0.3160,3.5972,-0.177083,0.174788,0.000183,0.001288,-0.002577,0.5743,0.6026,5.0385,-0.179476,0.174874,0.000000,0.598253,-0.538427,0.589049,-0.561437,0.598253,-0.526155
0.2686,0.016747,-0.000079,0.000695,-0.001721,0.3638,0.3092,3.5166,-0.177026,0.174782,0.000216,0.001324,-0.002593,0.6294,0.6255,5.0853,-0.179476,0.174874,0.000000,0.598253,-0.538427,0.589049,-0.561437,0.598253,-0.524621
0.2854,0.016756,-0.000077,0.000679,-0.001681,0.3552,0.3024,3.4360,-0.176969,0.174777,0.000200,0.001266,-0.002579,0.6124,0.6721,5.1348,-0.179476,0.173340,0.000000,0.598253,-0.538427,0.590583,-0.561437,0.598253,-0.524621
0.3021,0.016743,-0.000075,0.000663,-0.001642,0.3467,0.2955,3.3555,-0.176912,0.174771,0.000148,0.001256,-0.002591,0.6506,0.7009,5.0758,-0.179476,0.173340,0.000000,0.598253,-0.538427,0.590583,-0.561437,0.596719,-0.524621
0.3189,0.016741,-0.000074,0.000648,-0.001603,0.3382,0.2887,3.2750,-0.176855,0.174765,0.000148,0.001256,-0.002591,0.6506,0.7009,5.0758,-0.179476,0.173340,0.000000,0.598253,-0.538427,0.590583,-0.561437,0.596719,-0.524621
0.3356,0.016749,-0.000072,0.000632,-0.001563,0.3297,0.2818,3.1944,-0.176798,0.174759,0.000153,0.001257,-0.002590,0.6466,0.6979,5.0820,-0.179476,0.173340,0.000000,0.598253,-0.538427,0.590583,-0.561437,0.596719,-0.524621
0.3524,0.016750,-0.000070,0.000616,-0.001524,0.3212,0.2750,3.1138,-0.176741,0.174754,0.000220,0.001328,-0.002591,0.6218,0.6156,5.0808,-0.179476,0.173340,0.000000,0.598253,-0.538427,0.589049,-0.561437,0.598253,-0.524621
0.3691,0.016744,-0.000068,0.000600,-0.001484,0.3127,0.2681,3.0333,-0.176683,0.174748,0.000173,0.001282,-0.002577,0.5726,0.6045,5.0281,-0.179476,0.174874,0.000000,0.598253,-0.538427,0.589049,-0.561437,0.598253,-0.526155
0.3859,0.016815,-0.000066,0.000584,-0.001445,0.3042,0.2611,2.9524,-0.176626,0.174742,0.000218,0.001325,-0.002593,0.6295,0.6253,5.0864,-0.179476,0.173340,0.000000,0.598253,-0.538427,0.589049,-0.561437,0.598253,-0.524621
0.4027,0.016743,-0.000065,0.000568,-0.001405,0.2957,0.2542,2.8719,-0.176569,0.174737,0.000146,0.001250,-0.002590,0.6488,0.7058,5.0809,-0.179476,0.173340,0.000000,0.598253,-0.538427,0.590583,-0.561437,0.596719,-0.524621
0.4194,0.016760,-0.000063,0.000552,-0.001366,0.2872,0.2473,2.7912,-0.176512,0.174731,0.000146,0.001250,-0.002590,0.6488,0.7058,5.0809,-0.179476,0.173340,0.000000,0.598253,-0.538427,0.590583,-0.561437,0.596719,-0.524621
0.4362,0.016754,-0.000061,0.000536,-0.001327,0.2788,0.2404,2.7106,-0.176455,0.174725,0.000220,0.001328,-0.002591,0.6216,0.6148,5.0809,-0.179476,0.173340,0.000000,0.598253,-0.538427,0.589049,-0.561437,0.598253,-0.524621
0.4529,0.016743,-0.000059,0.000520,-0.001287,0.2703,0.2334,2.6301,-0.176398,0.174719,0.000200,0.001265,-0.002579,0.6132,0.6732,5.1353,-0.179476,0.173340,0.000000,0.598253,-0.538427,0.590583,-0.561437,0.598253,-0.524621
0.4697,0.016745,-0.000057,0.000504,-0.001248,0.2619,0.2265,2.5495,-0.176341,0.174714,0.000202,0.001272,-0.002580,0.6140,0.6671,5.1296,-0.179476,0.173340,0.000000,0.598253,-0.538427,0.590583,-0.561437,0.598253,-0.524621
0.4865,0.016859,-0.000055,0.000488,-0.001208,0.2534,0.2194,2.4684,-0.176283,0.174708,0.000162,0.001233,-0.002566,0.5621,0.6481,5.0773,-0.179476,0.173340,0.000000,0.598253,-0.538427,0.590583,-0.561437,0.598253,-0.526155
0.5033,0.016744,-0.000054,0.000472,-0.001169,0.2450,0.2125,2.3879,-0.176226,0.174702,0.000219,0.001222,-0.002554,0.6093,0.6139,5.0300,-0.177942,0.173340,0.000000,0.598253,-0.539961,0.590583,-0.561437,0.598253,-0.526155
0.5200,0.016743,-0.000052,0.000456,-0.001129,0.2366,0.2055,2.3073,-0.176169,0.174697,0.000219,0.001222,-0.002554,0.6093,0.6139,5.0300,-0.177942,0.173340,0.000000,0.598253,-0.539961,0.590583,-0.561437,0.598253,-0.526155
0.5368,0.016746,-0.000050,0.000440,-0.001090,0.2282,0.1985,2.2268,-0.176112,0.174691,0.000159,0.001207,-0.002566,0.6409,0.6512,4.9811,-0.177942,0.173340,0.000000,0.598253,-0.539961,0.590583,-0.561437,0.596719,-0.526155
0.5535,0.016745,-0.000048,0.000424,-0.001050,0.2198,0.1914,2.1462,-0.176055,0.174685,0.000232,0.001279,-0.002565,0.6123,0.5646,4.9857,-0.177942,0.173340,0.000000,0.598253,-0.539961,0.589049,-0.561437,0.598253,-0.526155
0.5703,0.016746,-0.000046,0.000409,-0.001011,0.2114,0.1844,2.0656,-0.175998,0.174679,0.000224,0.001272,-0.002566,0.6153,0.5736,4.9852,-0.179476,0.173340,0.000000,0.598253,-0.539961,0.589049,-0.561437,0.598253,-0.526155
0.5870,0.016761,-0.000045,0.000393,-0.000972,0.2030,0.1774,1.9850,-0.175941,0.174674,0.000158,0.001202,-0.002564,0.6403,0.6554,4.9857,-0.179476,0.173340,0.000000,0.598253,-0.539961,0.590583,-0.561437,0.596719,-0.526155
0.6038,0.016753,-0.000043,0.000377,-0.000932,0.1947,0.1703,1.9044,-0.175884,0.174668,0.000219,0.001225,-0.002554,0.6011,0.6132,5.0395,-0.177942,0.173340,0.000000,0.598253,-0.539961,0.590583,-0.561437,0.598253,-0.526155
0.6205,0.016741,-0.000041,0.000361,-0.000893,0.1863,0.1632,1.8239,-0.175827,0.174662,0.000219,0.001225,-0.002554,0.6011,0.6132,5.0395,-0.177942,0.173340,0.000000,0.598253,-0.539961,0.590583,-0.561437,0.598253,-0.526155
0.6373,0.016744,-0.000039,0.000345,-0.000853,0.1780,0.1561,1.7434,-0.175769,0.174657,0.000159,0.001207,-0.002566,0.6417,0.6513,4.9801,-0.179476,0.173340,0.000000,0.598253,-0.539961,0.590583,-0.561437,0.596719,-0.526155
0.6540,0.016742,-0.000037,0.000329,-0.000814,0.1697,0.1491,1.6628,-0.175712,0.174651,0.000232,0.001279,-0.002565,0.6122,0.5646,4.9858,-0.177942,0.173340,0.000000,0.598253,-0.539961,0.589049,-0.561437,0.598253,-0.526155
0.6708,0.016746,-0.000036,0.000313,-0.000775,0.1614,0.1420,1.5823,-0.175655,0.174645,0.000157,0.001201,-0.002564,0.6406,0.6563,4.9857,-0.177942,0.173340,0.000000,0.598253,-0.539961,0.590583,-0.561437,0.596719,-0.526155
0.6875,0.016749,-0.000034,0.000297,-0.000735,0.1531,0.1348,1.5018,-0.175598,0.174639,0.000165,0.001209,-0.002565,0.6376,0.6468,4.9857,-0.179476,0.173340,0.000000,0.598253,-0.539961,0.590583,-0.561437,0.596719,-0.526155
0.7047,0.017161,-0.000032,0.000281,-0.000695,0.1446,0.1275,1.4192,-0.175540,0.174634,0.000231,0.001279,-0.002566,0.6127,0.5651,4.9852,-0.179476,0.173340,0.000000,0.598253,-0.539961,0.589049,-0.561437,0.598253,-0.526155
0.7214,0.016740,-0.000030,0.000265,-0.000655,0.1363,0.1204,1.3387,-0.175483,0.174628,0.000231,0.001279,-0.002566,0.6127,0.5651,4.9852,-0.179476,0.173340,0.000000,0.598253,-0.539961,0.589049,-0.561437,0.598253,-0.526155
0.7382,0.016750,-0.000028,0.000249,-0.000616,0.1280,0.1133,1.2582,-0.175426,0.174622,0.000172,0.001179,-0.002539,0.5522,0.6030,4.9867,-0.179476,0.173340,0.000000,0.598253,-0.539961,0.590583,-0.561437,0.598253,-0.527689
0.7549,0.016759,-0.000026,0.000233,-0.000577,0.1197,0.1061,1.1776,-0.175368,0.174616,0.000178,0.001189,-0.002542,0.5585,0.5991,4.9865,-0.177942,0.173340,0.000000,0.598253,-0.539961,0.590583,-0.561437,0.598253,-0.527689
0.7717,0.016754,-0.000025,0.000217,-0.000537,0.1115,0.0989,1.0971,-0.175311,0.174611,0.000178,0.001189,-0.002542,0.5585,0.5991,4.9865,-0.177942,0.173340,0.000000,0.598253,-0.539961,0.590583,-0.561437,0.598253,-0.527689
0.7884,0.016743,-0.000023,0.000201,-0.000498,0.1032,0.0917,1.0166,-0.175254,0.174605,0.000191,0.001243,-0.002554,0.5691,0.5505,4.9322,-0.177942,0.173340,0.000000,0.598253,-0.539961,0.589049,-0.561437,0.598253,-0.527689
0.8060,0.017571,-0.000021,0.000184,-0.000456,0.0946,0.0842,0.9321,-0.175194,0.174599,0.000135,0.001222,-0.002563,0.6046,0.5892,4.8840,-0.177942,0.173340,0.000000,0.598253,-0.539961,0.589049,-0.561437,0.596719,-0.527689
0.8227,0.016766,-0.000019,0.000169,-0.000417,0.0864,0.0770,0.8515,-0.175137,0.174593,0.000135,0.001222,-0.002563,0.6046,0.5892,4.8840,-0.177942,0.173340,0.000000,0.598253,-0.539961,0.589049,-0.561437,0.596719,-0.527689
0.8395,0.016752,-0.000017,0.000153,-0.000378,0.0781,0.0697,0.7710,-0.175080,0.174588,0.000141,0.001224,-0.002562,0.6009,0.5852,4.8890,-0.177942,0.173340,0.000000,0.598253,-0.539961,0.589049,-0.561437,0.596719,-0.527689
0.8562,0.016749,-0.000016,0.000137,-0.000338,0.0699,0.0625,0.6905,-0.175023,0.174582,0.000234,0.001169,-0.002526,0.5951,0.5648,4.9439,-0.177942,0.173340,0.000000,0.598253,-0.541495,0.590583,-0.561437,0.598253,-0.527689
0.8730,0.016760,-0.000014,0.000121,-0.000299,0.0617,0.0553,0.6100,-0.174966,0.174576,0.000118,0.001175,-0.002554,0.5906,0.6368,4.9371,-0.177942,0.173340,0.000000,0.598253,-0.539961,0.590583,-0.561437,0.596719,-0.527689
0.8898,0.016762,-0.000012,0.000105,-0.000259,0.0536,0.0480,0.5294,-0.174909,0.174571,0.000183,0.001159,-0.002537,0.6328,0.5931,4.8850,-0.177942,0.173340,0.000000,0.598253,-0.541495,0.590583,-0.561437,0.596719,-0.527689
0.9065,0.016758,-0.000010,0.000089,-0.000220,0.0454,0.0407,0.4489,-0.174852,0.174565,0.000183,0.001159,-0.002537,0.6328,0.5931,4.8850,-0.179476,0.173340,0.000000,0.598253,-0.541495,0.590583,-0.561437,0.598253,-0.527689
0.9233,0.016758,-0.000008,0.000073,-0.000180,0.0372,0.0335,0.3684,-0.174794,0.174559,0.000230,0.001176,-0.002528,0.5918,0.5640,4.9443,-0.179476,0.173340,0.000000,0.598253,-0.541495,0.590583,-0.561437,0.598253,-0.527689
0.9400,0.016758,-0.000006,0.000057,-0.000141,0.0291,0.0262,0.2879,-0.174737,0.174553,0.000225,0.001174,-0.002529,0.5961,0.5670,4.9381,-0.179476,0.173340,0.000000,0.598253,-0.541495,0.590583,-0.561437,0.598253,-0.527689
0.9570,0.016999,-0.000005,0.000041,-0.000101,0.0208,0.0188,0.2063,-0.174679,0.174548,0.000225,0.001174,-0.002529,0.5961,0.5670,4.9381,-0.179476,0.173340,0.000000,0.598253,-0.541495,0.590583,-0.561437,0.598253,-0.527689
0.9738,0.016756,-0.000003,0.000025,-0.000062,0.0127,0.0115,0.1258,-0.174622,0.174542,0.000158,0.001213,-0.002527,0.6418,0.6540,4.8318,-0.177942,0.173340,0.000000,0.598253,-0.541495,0.590583,-0.562971,0.596719,-0.527689
0.9906,0.016777,-0.000001,0.000009,-0.000022,0.0046,0.0041,0.0453,-0.174565,0.174536,0.000207,0.001279,-0.002504,0.6101,0.6646,4.8436,-0.177942,0.173340,0.000000,0.598253,-0.541495,0.590583,-0.564505,0.598253,-0.527689
1.0073,0.016766,0.000000,0.000000,0.000014,0.0000,0.0166,0.0000,-0.173326,0.173326,0.000207,0.001279,-0.002504,0.6101,0.6646,4.8436,-0.177942,0.173340,0.000000,0.598253,-0.544563,0.590583,-0.567573,0.598253,-0.530757
1.0241,0.016743,0.000000,0.000000,0.000045,0.0000,0.0545,0.0000,-0.170573,0.170573,0.000202,0.001274,-0.002424,0.6125,0.6590,4.5243,-0.177942,0.173340,0.000000,0.598253,-0.544563,0.590583,-0.567573,0.598253,-0.530757
1.0408,0.016754,0.000000,0.000000,0.000077,0.0000,0.0924,0.0000,-0.167822,0.167822,0.000243,0.001316,-0.002285,0.6620,0.6699,3.9736,-0.177942,0.173340,0.000000,0.598253,-0.550699,0.590583,-0.573709,0.598253,-0.535359
1.0576,0.016752,0.000000,0.000000,0.000109,0.0000,0.1302,0.0000,-0.165079,0.165079,0.000185,0.001298,-0.002190,0.6925,0.6954,3.4987,-0.177942,0.173340,0.000000,0.598253,-0.555301,0.590583,-0.578311,0.596719,-0.539961
1.0744,0.016761,0.000000,0.000000,0.000140,0.0000,0.1681,0.0000,-0.162343,0.162343,0.000246,0.001318,-0.002110,0.6512,0.6543,3.2824,-0.176408,0.173340,0.000000,0.598253,-0.558369,0.590583,-0.581379,0.598253,-0.543029
1.0911,0.016748,0.000000,0.000000,0.000172,0.0000,0.2059,0.0000,-0.159621,0.159621,0.000240,0.001317,-0.002039,0.6545,0.6539,2.9850,-0.174874,0.171806,0.000000,0.598253,-0.561437,0.590583,-0.584447,0.598253,-0.546097
1.1080,0.016907,0.000000,0.000000,0.000203,0.0000,0.2440,0.0000,-0.156889,0.156889,0.000240,0.001317,-0.002039,0.6545,0.6539,2.9850,-0.174874,0.171806,0.000000,0.598253,-0.561437,0.590583,-0.584447,0.598253,-0.546097
1.1288,0.020775,0.000000,0.000000,0.000242,0.0000,0.2908,0.0000,-0.153557,0.153557,0.000240,0.001317,-0.002039,0.6545,0.6539,2.9850,-0.174874,0.171806,0.000000,0.598253,-0.561437,0.590583,-0.584447,0.598253,-0.546097
1.1458,0.017055,0.000000,0.000000,0.000275,0.0000,0.3292,0.0000,-0.150845,0.150845,0.000240,0.001317,-0.002039,0.6545,0.6539,2.9850,-0.174874,0.171806,0.000000,0.598253,-0.561437,0.590583,-0.584447,0.598253,-0.546097
1.1626,0.016744,0.000000,0.000000,0.000306,0.0000,0.3668,0.0000,-0.148206,0.148206,0.000134,0.001320,-0.001953,0.6503,0.7165,2.5350,-0.170272,0.171806,0.000000,0.598253,-0.564505,0.590583,-0.589049,0.596719,-0.550699
1.1793,0.016749,0.000000,0.000000,0.000337,0.0000,0.4044,0.0000,-0.145593,0.145593,0.000092,0.001337,-0.001897,0.6103,0.7410,2.3145,-0.164136,0.171806,0.000000,0.598253,-0.566039,0.590583,-0.592117,0.596719,-0.553767
1.1961,0.016742,0.000000,0.000000,0.000369,0.0000,0.4419,0.0000,-0.143010,0.143010,0.000149,0.001320,-0.001890,0.6546,0.7026,2.2841,-0.161068,0.171806,0.000000,0.598253,-0.567573,0.590583,-0.592117,0.596719,-0.553767
1.2128,0.016760,0.000000,0.000000,0.000400,0.0000,0.4793,0.0000,-0.140455,0.140455,0.000171,0.001244,-0.001839,0.5510,0.6003,2.1807,-0.161068,0.170272,0.000000,0.598253,-0.569107,0.590583,-0.592117,0.598253,-0.556835
1.2296,0.016748,0.000000,0.000000,0.000431,0.0000,0.5167,0.0000,-0.137936,0.137936,0.000074,0.001198,-0.001842,0.5495,0.6266,2.0842,-0.156466,0.167204,0.000000,0.598253,-0.569107,0.590583,-0.592117,0.596719,-0.558369
1.2463,0.016758,0.000000,0.000000,0.000462,0.0000,0.5540,0.0000,-0.135452,0.135452,0.000074,0.001198,-0.001842,0.5495,0.6266,2.0842,-0.156466,0.167204,0.000000,0.598253,-0.569107,0.590583,-0.592117,0.596719,-0.558369
1.2631,0.016745,0.000000,0.000000,0.000494,0.0000,0.5912,0.0000,-0.133009,0.133009,0.000084,0.001203,-0.001842,0.5497,0.6239,2.0943,-0.148796,0.158000,0.000000,0.598253,-0.569107,0.590583,-0.592117,0.596719,-0.558369
1.2798,0.016726,0.000000,0.000000,0.000525,0.0000,0.6282,0.0000,-0.130611,0.130611,0.000096,0.001148,-0.001815,0.5393,0.5703,1.9863,-0.142660,0.148796,0.000000,0.598253,-0.570641,0.590583,-0.592117,0.596719,-0.559903
1.2966,0.016751,0.000000,0.000000,0.000556,0.0000,0.6652,0.0000,-0.128252,0.128252,0.000095,0.001153,-0.001818,0.5403,0.5759,1.9975,-0.139592,0.141126,0.000000,0.598253,-0.570641,0.590583,-0.592117,0.596719,-0.559903
1.3133,0.016750,0.000000,0.000000,0.000587,0.0000,0.7021,0.0000,-0.125940,0.125940,0.000136,0.001224,-0.001794,0.5123,0.5932,1.9964,-0.136524,0.136524,0.000000,0.598253,-0.570641,0.590583,-0.593651,0.598253,-0.559903
1.3301,0.016803,0.000000,0.000000,0.000618,0.0000,0.7390,0.0000,-0.123669,0.123669,0.000119,0.001272,-0.001784,0.5254,0.6430,1.9427,-0.131922,0.128854,0.000000,0.598253,-0.570641,0.590583,-0.595185,0.598253,-0.559903
1.3469,0.016760,0.000000,0.000000,0.000649,0.0000,0.7757,0.0000,-0.121454,0.121454,0.000119,0.001272,-0.001784,0.5254,0.6430,1.9427,-0.131922,0.128854,0.000000,0.598253,-0.570641,0.590583,-0.595185,0.598253,-0.559903
1.3636,0.016758,0.000000,0.000000,0.000679,0.0000,0.8122,0.0000,-0.119293,0.119293,0.000108,0.001322,-0.001773,0.5343,0.6894,1.8945,-0.128854,0.127320,0.000000,0.598253,-0.570641,0.590583,-0.596719,0.598253,-0.559903
1.3804,0.016751,0.000000,0.000000,0.000710,0.0000,0.8487,0.0000,-0.117188,0.117188,0.000083,0.001427,-0.001751,0.5540,0.7876,1.7918,-0.125786,0.124252,0.000000,0.598253,-0.570641,0.590583,-0.599786,0.598253,-0.559903
1.3971,0.016752,0.000000,0.000000,0.000741,0.0000,0.8849,0.0000,-0.115139,0.115139,0.000072,0.001472,-0.001741,0.5623,0.8288,1.7486,-0.125786,0.122718,0.000000,0.598253,-0.570641,0.590583,-0.601320,0.598253,-0.559903
1.4139,0.016751,0.000000,0.000000,0.000771,0.0000,0.9211,0.0000,-0.113151,0.113151,0.000060,0.001523,-0.001730,0.5718,0.8758,1.6992,-0.122718,0.121184,0.000000,0.598253,-0.570641,0.590583,-0.602854,0.598253,-0.559903
1.4311,0.017241,0.000000,0.000000,0.000803,0.0000,0.9581,0.0000,-0.111167,0.111167,-0.000006,0.001557,-0.001732,0.6196,0.9559,1.5968,-0.119651,0.118117,0.000000,0.598253,-0.570641,0.590583,-0.604388,0.596719,-0.559903
1.4479,0.016759,0.000000,0.000000,0.000833,0.0000,0.9939,0.0000,-0.109304,0.109304,-0.000006,0.001557,-0.001732,0.6196,0.9559,1.5968,-0.119651,0.118117,0.000000,0.598253,-0.570641,0.590583,-0.604388,0.596719,-0.559903
1.4646,0.016744,0.000000,0.000000,0.000863,0.0000,1.0296,0.0000,-0.107507,0.107507,0.000042,0.001625,-0.001708,0.5866,0.9651,1.6071,-0.116583,0.116583,0.000000,0.598253,-0.570641,0.590583,-0.605922,0.598253,-0.559903
1.4814,0.016747,0.000000,0.000000,0.000894,0.0000,1.0651,0.0000,-0.105777,0.105777,0.000024,0.001673,-0.001699,0.6004,1.0153,1.5520,-0.113515,0.116583,0.000000,0.598253,-0.570641,0.590583,-0.607456,0.598253,-0.559903
1.4981,0.016767,0.000000,0.000000,0.000924,0.0000,1.1005,0.0000,-0.104113,0.104113,-0.000025,0.001670,-0.001651,0.5984,1.2136,1.5580,-0.110447,0.115049,0.000000,0.598253,-0.570641,0.593651,-0.610524,0.598253,-0.559903
1.5149,0.016751,0.000000,0.000000,0.000954,0.0000,1.1356,0.0000,-0.102521,0.102521,-0.000033,0.001726,-0.001644,0.6091,1.2439,1.5033,-0.108913,0.113515,0.000000,0.598253,-0.570641,0.593651,-0.612058,0.598253,-0.559903
1.5316,0.016750,0.000000,0.000000,0.000984,0.0000,1.1706,0.0000,-0.101001,0.101001,-0.000057,0.001721,-0.001621,0.6078,1.3424,1.5091,-0.107379,0.111981,0.000000,0.598253,-0.570641,0.595185,-0.613592,0.598253,-0.559903
1.5484,0.016760,0.000000,0.000000,0.001013,0.0000,1.2054,0.0000,-0.099553,0.099553,-0.000057,0.001721,-0.001621,0.6078,1.3424,1.5091,-0.107379,0.111981,0.000000,0.598253,-0.570641,0.595185,-0.613592,0.598253,-0.559903
1.5652,0.016750,0.000000,0.000000,0.001043,0.0000,1.2400,0.0000,-0.098181,0.098181,-0.000067,0.001667,-0.001610,0.5971,1.3827,1.5627,-0.105845,0.107379,0.000000,0.598253,-0.570641,0.596719,-0.613592,0.598253,-0.559903
1.5819,0.016755,0.000000,0.000000,0.001073,0.0000,1.2744,0.0000,-0.096885,0.096885,-0.000104,0.001729,-0.001576,0.6085,1.5310,1.5031,-0.104311,0.102777,0.000000,0.598253,-0.570641,0.598253,-0.616660,0.598253,-0.559903
1.5987,0.016746,0.000000,0.000000,0.001102,0.0000,1.3086,0.0000,-0.095666,0.095666,-0.000138,0.001668,-0.001542,0.5962,1.6674,1.5638,-0.102777,0.096641,0.000000,0.598253,-0.570641,0.601320,-0.618194,0.598253,-0.559903
1.6154,0.016750,0.000000,0.000000,0.001131,0.0000,1.3426,0.0000,-0.094526,0.094526,-0.000214,0.001660,-0.001533,0.6359,1.7881,1.5043,-0.101243,0.096641,0.000000,0.598253,-0.570641,0.602854,-0.619728,0.596719,-0.559903
1.6322,0.016802,0.000000,0.000000,0.001161,0.0000,1.3765,0.0000,-0.093463,0.093463,-0.000189,0.001622,-0.001485,0.5818,1.8936,1.6184,-0.099709,0.096641,0.000000,0.598253,-0.570641,0.605922,-0.621262,0.598253,-0.559903
1.6490,0.016752,0.000000,0.000000,0.001190,0.0000,1.4100,0.0000,-0.092484,0.092484,-0.000189,0.001622,-0.001485,0.5818,1.8936,1.6184,-0.099709,0.096641,0.000000,0.598253,-0.570641,0.605922,-0.621262,0.598253,-0.559903
1.6657,0.016759,0.000000,0.000000,0.001219,0.0000,1.4434,0.0000,-0.091586,0.091586,-0.000246,0.001610,-0.001466,0.6256,1.9183,1.7159,-0.099709,0.096641,0.000000,0.599786,-0.570641,0.607456,-0.621262,0.598253,-0.559903
1.6825,0.016756,0.000000,0.000000,0.001247,0.0000,1.4765,0.0000,-0.090771,0.090771,-0.000236,0.001629,-0.001444,0.5823,2.0824,1.5967,-0.095107,0.093573,0.000000,0.598253,-0.570641,0.608990,-0.624330,0.598253,-0.559903
1.6992,0.016749,0.000000,0.000000,0.001276,0.0000,1.5094,0.0000,-0.090040,0.090040,-0.000291,0.001611,-0.001422,0.6249,2.1009,1.7186,-0.093573,0.092039,0.000000,0.599786,-0.570641,0.610524,-0.624330,0.598253,-0.559903
1.7160,0.016754,0.000000,0.000000,0.001305,0.0000,1.5420,0.0000,-0.089393,0.089393,-0.000335,0.001615,-0.001376,0.6198,2.3011,1.7064,-0.093573,0.090505,0.000000,0.599786,-0.570641,0.613592,-0.627398,0.598253,-0.559903
1.7327,0.016761,0.000000,0.000000,0.001333,0.0000,1.5744,0.0000,-0.088831,0.088831,-0.000367,0.001559,-0.001344,0.6089,2.4313,1.7626,-0.093573,0.090505,0.000000,0.599786,-0.570641,0.616660,-0.628932,0.598253,-0.559903
1.7495,0.016750,0.000000,0.000000,0.001361,0.0000,1.6065,0.0000,-0.088354,0.088354,-0.000367,0.001559,-0.001344,0.6089,2.4313,1.7626,-0.093573,0.090505,0.000000,0.599786,-0.570641,0.616660,-0.628932,0.598253,-0.559903
1.7662,0.016748,0.000000,0.000000,0.001389,0.0000,1.6384,0.0000,-0.087963,0.087963,-0.000388,0.001566,-0.001324,0.6097,2.5185,1.7570,-0.093573,0.090505,0.000000,0.599786,-0.570641,0.618194,-0.630466,0.598253,-0.559903
1.7830,0.016783,0.000000,0.000000,0.001417,0.0000,1.6700,0.0000,-0.087659,0.087659,-0.000423,0.001622,-0.001290,0.6201,2.6610,1.7034,-0.093573,0.090505,0.000000,0.599786,-0.570641,0.619728,-0.633534,0.598253,-0.559903
1.7998,0.016798,0.000000,0.000000,0.001445,0.0000,1.7015,0.0000,-0.087441,0.087441,-0.000456,0.001561,-0.001257,0.6075,2.7968,1.7641,-0.092039,0.090505,0.000000,0.599786,-0.570641,0.622796,-0.635068,0.598253,-0.559903
1.8166,0.016753,0.000000,0.000000,0.001473,0.0000,1.7325,0.0000,-0.087310,0.087310,-0.000477,0.001568,-0.001237,0.6085,2.8833,1.7580,-0.092039,0.090505,0.000000,0.599786,-0.570641,0.624330,-0.636602,0.598253,-0.559903
1.8333,0.016754,0.000000,0.000000,0.001500,0.0000,1.7633,0.0000,-0.087266,0.087266,-0.000487,0.001624,-0.001228,0.6194,2.9250,1.7041,-0.090505,0.090505,0.000000,0.599786,-0.570641,0.624330,-0.638136,0.598253,-0.559903
1.8501,0.016753,0.000000,0.000000,0.001527,0.0000,1.7939,0.0000,-0.087310,0.087310,-0.000487,0.001624,-0.001228,0.6194,2.9250,1.7041,-0.090505,0.090505,0.000000,0.599786,-0.570641,0.624330,-0.638136,0.598253,-0.559903
1.8668,0.016743,0.000000,0.000000,0.001554,0.0000,1.8241,0.0000,-0.087440,0.087440,-0.000499,0.001675,-0.001217,0.6293,2.9713,1.6551,-0.087437,0.090505,0.000000,0.599786,-0.570641,0.624330,-0.639670,0.598253,-0.559903
1.8836,0.016757,0.000000,0.000000,0.001581,0.0000,1.8540,0.0000,-0.087658,0.087658,-0.000510,0.001726,-0.001207,0.6393,3.0170,1.6056,-0.087437,0.090505,0.000000,0.599786,-0.570641,0.624330,-0.641204,0.598253,-0.559903
1.9003,0.016747,0.000000,0.000000,0.001608,0.0000,1.8836,0.0000,-0.087961,0.087961,-0.000521,0.001778,-0.001197,0.6493,3.0628,1.5561,-0.087437,0.090505,0.000000,0.599786,-0.570641,0.624330,-0.642738,0.598253,-0.559903
1.9171,0.016749,0.000000,0.000000,0.001635,0.0000,1.9130,0.0000,-0.088351,0.088351,-0.000532,0.001829,-0.001187,0.6594,3.1084,1.5065,-0.087437,0.090505,0.000000,0.599786,-0.570641,0.624330,-0.644272,0.598253,-0.559903
1.9338,0.016758,0.000000,0.000000,0.001661,0.0000,1.9420,0.0000,-0.088828,0.088828,-0.000543,0.001880,-0.001177,0.6695,3.1541,1.4570,-0.087437,0.090505,0.000000,0.599786,-0.570641,0.624330,-0.645806,0.598253,-0.559903
1.9506,0.016746,0.000000,0.000000,0.001687,0.0000,1.9707,0.0000,-0.089389,0.089389,-0.000543,0.001880,-0.001177,0.6695,3.1541,1.4570,-0.087437,0.090505,0.000000,0.599786,-0.570641,0.624330,-0.645806,0.598253,-0.559903
1.9673,0.016742,0.000000,0.000000,0.001713,0.0000,1.9991,0.0000,-0.090035,0.090035,-0.000595,0.001892,-0.001154,0.6298,3.1812,1.3527,-0.087437,0.090505,0.000000,0.599786,-0.570641,0.624330,-0.647340,0.598253,-0.561437
1.9841,0.016756,0.000000,0.000000,0.001739,0.0000,2.0272,0.0000,-0.090766,0.090766,-0.000561,0.001987,-0.001159,0.6949,3.2471,1.3635,-0.087437,0.090505,0.000000,0.599786,-0.570641,0.624330,-0.648874,0.598253,-0.559903
2.0008,0.016746,0.000000,0.000000,0.001765,0.0000,2.0550,0.0000,-0.091580,0.091580,-0.000577,0.002034,-0.001147,0.6994,3.2905,1.3076,-0.087437,0.090505,0.000000,0.599786,-0.570641,0.624330,-0.650408,0.598253,-0.559903
2.0176,0.016754,0.000000,0.000000,0.001790,0.0000,2.0824,0.0000,-0.092476,0.092476,-0.000694,0.002087,-0.001164,0.7096,3.4055,1.2583,-0.088971,0.090505,0.000000,0.599786,-0.569107,0.624330,-0.651942,0.596719,-0.559903
2.0343,0.016769,0.000000,0.000000,0.001815,0.0000,2.1096,0.0000,-0.093456,0.093456,-0.000576,0.002081,-0.001136,0.7091,3.3241,1.2637,-0.092039,0.090505,0.000000,0.599786,-0.570641,0.624330,-0.651942,0.598253,-0.559903
2.0511,0.016749,0.000000,0.000000,0.001840,0.0000,2.1363,0.0000,-0.094515,0.094515,-0.000576,0.002081,-0.001136,0.7091,3.3241,1.2637,-0.092039,0.090505,0.000000,0.599786,-0.570641,0.624330,-0.651942,0.598253,-0.559903
2.0678,0.016748,0.000000,0.000000,0.001865,0.0000,2.1628,0.0000,-0.095654,0.095654,-0.000641,0.002099,-0.001115,0.6707,3.3642,1.1535,-0.090505,0.090505,0.000000,0.599786,-0.570641,0.624330,-0.653476,0.598253,-0.561437
2.0846,0.016747,0.000000,0.000000,0.001890,0.0000,2.1889,0.0000,-0.096872,0.096872,-0.000659,0.002179,-0.001132,0.7753,3.4620,1.1122,-0.093573,0.090505,0.000000,0.599786,-0.570641,0.624330,-0.655010,0.596719,-0.559903
2.1013,0.016752,0.000000,0.000000,0.001914,0.0000,2.2146,0.0000,-0.098167,0.098167,-0.000645,0.002146,-0.001104,0.6752,3.3999,1.1144,-0.095107,0.093573,0.000000,0.599786,-0.570641,0.624330,-0.655010,0.598253,-0.561437
2.1181,0.016750,0.000000,0.000000,0.001938,0.0000,2.2400,0.0000,-0.099539,0.099539,-0.000724,0.002248,-0.001062,0.7464,3.5423,1.1147,-0.093573,0.093573,0.000000,0.601320,-0.570641,0.625864,-0.658078,0.598253,-0.561437
2.1348,0.016718,0.000000,0.000000,0.001962,0.0000,2.2649,0.0000,-0.100982,0.100982,-0.000724,0.002248,-0.001062,0.7464,3.5423,1.1147,-0.093573,0.093573,0.000000,0.601320,-0.570641,0.625864,-0.658078,0.598253,-0.561437
2.1518,0.016984,0.000000,0.000000,0.001986,0.0000,2.2900,0.0000,-0.102523,0.102523,-0.000889,0.002139,-0.000981,0.8449,3.6781,1.1758,-0.096641,0.096641,0.000000,0.604388,-0.572175,0.630466,-0.659612,0.596719,-0.562971
2.1686,0.016812,0.000000,0.000000,0.002010,0.0000,2.3143,0.0000,-0.104121,0.104121,-0.000889,0.002139,-0.000981,0.8449,3.6781,1.1758,-0.096641,0.096641,0.000000,0.604388,-0.572175,0.630466,-0.659612,0.596719,-0.562971
2.1854,0.016803,0.000000,0.000000,0.002034,0.0000,2.3383,0.0000,-0.105789,0.105789,-0.000889,0.002139,-0.000981,0.8449,3.6781,1.1758,-0.096641,0.096641,0.000000,0.604388,-0.572175,0.630466,-0.659612,0.596719,-0.562971
2.2023,0.016864,0.000000,0.000000,0.002057,0.0000,2.3620,0.0000,-0.107532,0.107532,-0.000889,0.002139,-0.000981,0.8449,3.6781,1.1758,-0.096641,0.096641,0.000000,0.604388,-0.572175,0.630466,-0.659612,0.596719,-0.562971
2.2191,0.016824,0.000000,0.000000,0.002080,0.0000,2.3853,0.0000,-0.109339,0.109339,-0.000889,0.002139,-0.000981,0.8449,3.6781,1.1758,-0.096641,0.096641,0.000000,0.604388,-0.572175,0.630466,-0.659612,0.596719,-0.562971
2.2359,0.016772,0.000000,0.000000,0.002102,0.0000,2.4081,0.0000,-0.111205,0.111205,-0.000889,0.002139,-0.000981,0.8449,3.6781,1.1758,-0.096641,0.096641,0.000000,0.604388,-0.572175,0.630466,-0.659612,0.596719,-0.562971
2.2526,0.016743,0.000000,0.000000,0.002125,0.0000,2.4305,0.0000,-0.113131,0.113131,-0.000676,0.001451,-0.000445,1.1243,3.9255,0.7074,-0.101243,0.096641,0.000000,0.608990,-0.593651,0.650408,-0.668816,0.598253,-0.572175
2.2694,0.016741,0.000000,0.000000,0.002147,0.0000,2.4525,0.0000,-0.115118,0.115118,-0.000669,0.001399,-0.000427,1.1130,3.9602,0.6509,-0.101243,0.098175,0.000000,0.608990,-0.596719,0.653476,-0.670350,0.598253,-0.573709
2.2861,0.016757,0.000000,0.000000,0.002169,0.0000,2.4742,0.0000,-0.117166,0.117166,-0.000684,0.001402,-0.000380,1.2827,4.0041,0.5545,-0.108913,0.101243,0.000000,0.610524,-0.599786,0.655010,-0.671884,0.596719,-0.573709
2.3029,0.016749,0.000000,0.000000,0.002191,0.0000,2.4954,0.0000,-0.119270,0.119270,-0.000682,0.001290,-0.000347,1.2436,3.9963,0.5115,-0.115049,0.110447,0.000000,0.610524,-0.601320,0.656544,-0.671884,0.596719,-0.575243
2.3196,0.016777,0.000000,0.000000,0.002212,0.0000,2.5162,0.0000,-0.121434,0.121434,-0.000653,0.001288,-0.000314,1.2875,4.0610,0.4634,-0.116583,0.118117,0.000000,0.610524,-0.602854,0.658078,-0.673418,0.596719,-0.575243
2.3364,0.016769,0.000000,0.000000,0.002233,0.0000,2.5367,0.0000,-0.123649,0.123649,-0.000653,0.001288,-0.000314,1.2875,4.0610,0.4634,-0.116583,0.118117,0.000000,0.610524,-0.602854,0.658078,-0.673418,0.596719,-0.575243
2.3531,0.016743,0.000000,0.000000,0.002254,0.0000,2.5567,0.0000,-0.125911,0.125911,-0.000562,0.001201,-0.000278,1.3504,4.0334,0.4174,-0.118117,0.118117,0.000000,0.610524,-0.605922,0.659612,-0.673418,0.596719,-0.575243
2.3699,0.016746,0.000000,0.000000,0.002275,0.0000,2.5763,0.0000,-0.128222,0.128222,-0.000517,0.001225,-0.000269,1.3039,4.0022,0.4747,-0.122718,0.118117,0.000000,0.610524,-0.605922,0.659612,-0.673418,0.598253,-0.575243
2.3866,0.016755,0.000000,0.000000,0.002295,0.0000,2.5955,0.0000,-0.130581,0.130581,-0.000587,0.001152,-0.000271,1.3374,4.0892,0.4721,-0.124252,0.119651,0.000000,0.610524,-0.605922,0.661146,-0.673418,0.596719,-0.575243
2.4034,0.016780,0.000000,0.000000,0.002316,0.0000,2.6144,0.0000,-0.132987,0.132987,-0.000526,0.001173,-0.000258,1.2940,4.0461,0.5248,-0.124252,0.121184,0.000000,0.610524,-0.605922,0.661146,-0.673418,0.598253,-0.575243
2.4202,0.016744,0.000000,0.000000,0.002336,0.0000,2.6327,0.0000,-0.135430,0.135430,-0.000599,0.001215,-0.000261,1.3500,4.1341,0.4118,-0.127320,0.124252,0.000000,0.610524,-0.605922,0.661146,-0.674952,0.596719,-0.575243
2.4369,0.016749,0.000000,0.000000,0.002355,0.0000,2.6507,0.0000,-0.137912,0.137912,-0.000599,0.001215,-0.000261,1.3500,4.1341,0.4118,-0.134990,0.130388,0.000000,0.610524,-0.605922,0.659612,-0.676486,0.596719,-0.575243
2.4537,0.016740,0.000000,0.000000,0.002375,0.0000,2.6682,0.0000,-0.140429,0.140429,-0.000592,0.001325,-0.000262,1.3672,4.1245,0.3127,-0.134990,0.130388,0.000000,0.610524,-0.605922,0.659612,-0.676486,0.596719,-0.575243
2.4704,0.016752,0.000000,0.000000,0.002394,0.0000,2.6853,0.0000,-0.142982,0.142982,-0.000574,0.001387,-0.000215,1.3374,4.2398,0.3209,-0.136524,0.130388,0.000000,0.610524,-0.605922,0.661146,-0.679553,0.598253,-0.575243
2.4872,0.016746,0.000000,0.000000,0.002413,0.0000,2.7020,0.0000,-0.145566,0.145566,-0.000588,0.001439,-0.000209,1.3522,4.2769,0.2649,-0.134990,0.131922,0.000000,0.610524,-0.605922,0.661146,-0.681087,0.598253,-0.575243
2.5039,0.016752,0.000000,0.000000,0.002431,0.0000,2.7182,0.0000,-0.148179,0.148179,-0.000587,0.001433,-0.000210,1.3507,4.2730,0.2707,-0.139592,0.136524,0.000000,0.610524,-0.605922,0.661146,-0.681087,0.598253,-0.575243
2.5207,0.016758,0.000000,0.000000,0.002450,0.0000,2.7341,0.0000,-0.150819,0.150819,-0.000611,0.001550,-0.000189,1.3743,4.3717,0.1596,-0.148796,0.145728,0.000000,0.610524,-0.605922,0.661146,-0.684155,0.598253,-0.575243
2.5374,0.016753,0.000000,0.000000,0.002468,0.0000,2.7494,0.0000,-0.153483,0.153483,-0.000611,0.001550,-0.000189,1.3743,4.3717,0.1596,-0.148796,0.145728,0.000000,0.610524,-0.605922,0.661146,-0.684155,0.598253,-0.575243
2.5542,0.016745,0.000000,0.000000,0.002486,0.0000,2.7644,0.0000,-0.156166,0.156166,-0.000609,0.001538,-0.000191,1.3719,4.3613,0.1712,-0.148796,0.145728,0.000000,0.610524,-0.605922,0.661146,-0.684155,0.598253,-0.575243
2.5709,0.016757,0.000000,0.000000,0.002503,0.0000,2.7789,0.0000,-0.158869,0.158869,-0.000621,0.001597,-0.000180,1.3839,4.4114,0.1147,-0.147262,0.144194,0.000000,0.610524,-0.605922,0.661146,-0.685689,0.598253,-0.575243
2.5877,0.016743,0.000000,0.000000,0.002520,0.0000,2.7929,0.0000,-0.161586,0.161586,-0.000632,0.001649,-0.000171,1.3945,4.4552,0.0653,-0.151864,0.148796,0.000000,0.610524,-0.605922,0.661146,-0.687223,0.598253,-0.575243
2.6044,0.016754,0.000000,0.000000,0.002537,0.0000,2.8065,0.0000,-0.164318,0.164318,-0.000696,0.001688,-0.000174,1.4457,4.5333,-0.0371,-0.161068,0.154932,0.000000,0.610524,-0.605922,0.661146,-0.688757,0.596719,-0.575243
2.6212,0.016746,0.000000,0.000000,0.002554,0.0000,2.8197,0.0000,-0.167058,0.167058,-0.000636,0.001698,-0.000161,1.3999,4.4913,0.0258,-0.161068,0.156466,0.000000,0.610524,-0.605922,0.661146,-0.688757,0.598253,-0.575243
2.6379,0.016753,0.000000,0.000000,0.002571,0.0000,2.8324,0.0000,-0.169807,0.169807,-0.000636,0.001698,-0.000161,1.3999,4.4913,0.0258,-0.161068,0.156466,0.000000,0.610524,-0.605922,0.661146,-0.688757,0.598253,-0.575243
2.6547,0.016744,0.000000,0.000000,0.002587,0.0000,2.8447,0.0000,-0.172559,0.172559,-0.000642,0.001697,-0.000162,1.4047,4.4957,0.0192,-0.161068,0.156466,0.000000,0.610524,-0.605922,0.661146,-0.688757,0.598253,-0.575243
2.6714,0.016758,0.000000,0.000000,0.002603,0.0000,2.8565,0.0000,-0.175315,0.175315,-0.000642,0.001697,-0.000162,1.4047,4.4957,0.0192,-0.167204,0.164136,0.000000,0.610524,-0.605922,0.661146,-0.688757,0.598253,-0.575243
2.6882,0.016747,0.000000,0.000000,0.002618,0.0000,2.8678,0.0000,-0.178069,0.178069,-0.000642,0.001697,-0.000162,1.4047,4.4957,0.0192,-0.168738,0.165670,0.000000,0.610524,-0.605922,0.661146,-0.688757,0.598253,-0.575243
2.7049,0.016729,0.000000,0.000000,0.002633,0.0000,2.8787,0.0000,-0.180816,0.180816,-0.000588,0.001711,-0.000149,1.3639,4.4614,0.0722,-0.170272,0.170272,0.000000,0.610524,-0.605922,0.661146,-0.688757,0.599786,-0.575243
2.7216,0.016746,0.000000,0.000000,0.002648,0.0000,2.8891,0.0000,-0.183560,0.183560,-0.000540,0.001724,-0.000138,1.3278,4.4312,0.1191,-0.179476,0.177942,0.000000,0.610524,-0.605922,0.661146,-0.688757,0.601320,-0.575243
2.7384,0.016762,0.000000,0.000000,0.002663,0.0000,2.8991,0.0000,-0.186298,0.186298,-0.000540,0.001724,-0.000138,1.3278,4.4312,0.1191,-0.179476,0.177942,0.000000,0.610524,-0.605922,0.661146,-0.688757,0.601320,-0.575243
2.7551,0.016743,0.000000,0.000000,0.002677,0.0000,2.9086,0.0000,-0.189020,0.189020,-0.000515,0.001853,-0.000106,1.3149,4.4983,0.0557,-0.184078,0.177942,0.000000,0.610524,-0.605922,0.661146,-0.691825,0.602854,-0.575243
2.7719,0.016758,0.000000,0.000000,0.002692,0.0000,2.9177,0.0000,-0.191731,0.191731,-0.000476,0.001912,-0.000086,1.2877,4.5063,0.0593,-0.181010,0.176408,0.000000,0.610524,-0.605922,0.661146,-0.693359,0.604388,-0.575243
2.7887,0.016835,0.000000,0.000000,0.002705,0.0000,2.9263,0.0000,-0.194437,0.194437,-0.000493,0.001964,-0.000078,1.3023,4.5542,0.0034,-0.182544,0.182544,0.000000,0.610524,-0.605922,0.661146,-0.694893,0.604388,-0.575243
2.8055,0.016773,0.000000,0.000000,0.002719,0.0000,2.9344,0.0000,-0.197113,0.197113,-0.000503,0.002017,-0.000069,1.3126,4.5979,-0.0464,-0.193282,0.187146,0.000000,0.610524,-0.605922,0.661146,-0.696427,0.604388,-0.575243
2.8223,0.016807,0.000000,0.000000,0.002732,0.0000,2.9421,0.0000,-0.199771,0.199771,-0.000530,0.001945,-0.000030,1.1727,4.5242,-0.1002,-0.193282,0.190214,0.000000,0.610524,-0.605922,0.661146,-0.696427,0.605922,-0.578311
2.8391,0.016751,0.000000,0.000000,0.002745,0.0000,2.9493,0.0000,-0.202396,0.202396,-0.000530,0.001945,-0.000030,1.1727,4.5242,-0.1002,-0.193282,0.190214,0.000000,0.610524,-0.605922,0.661146,-0.696427,0.605922,-0.578311
2.8558,0.016743,0.000000,0.000000,0.002758,0.0000,2.9560,0.0000,-0.204992,0.204992,-0.000474,0.001966,-0.000022,1.1470,4.4982,-0.0420,-0.193282,0.193282,0.000000,0.610524,-0.605922,0.661146,-0.696427,0.607456,-0.578311
2.8726,0.016760,0.000000,0.000000,0.002770,0.0000,2.9622,0.0000,-0.207559,0.207559,-0.000438,0.002036,0.000000,1.1212,4.5159,-0.0512,-0.200951,0.197884,0.000000,0.610524,-0.605922,0.661146,-0.697961,0.608990,-0.578311
2.8893,0.016754,0.000000,0.000000,0.002782,0.0000,2.9680,0.0000,-0.210093,0.210093,-0.000454,0.002088,0.000008,1.1356,4.5627,-0.1059,-0.202485,0.199418,0.000000,0.610524,-0.605922,0.661146,-0.699495,0.608990,-0.578311
2.9061,0.016812,0.000000,0.000000,0.002794,0.0000,2.9733,0.0000,-0.212601,0.212601,-0.000441,0.002139,-0.000006,1.1453,4.5077,-0.1559,-0.204019,0.199418,0.000000,0.610524,-0.605922,0.659612,-0.699495,0.608990,-0.578311
2.9229,0.016752,0.000000,0.000000,0.002805,0.0000,2.9781,0.0000,-0.215061,0.215061,-0.000400,0.002091,0.000021,1.0929,4.5299,-0.0423,-0.208621,0.208621,0.000000,0.610524,-0.605922,0.661146,-0.699495,0.610524,-0.578311
2.9397,0.016759,0.000000,0.000000,0.002816,0.0000,2.9824,0.0000,-0.217482,0.217482,-0.000400,0.002091,0.000021,1.0929,4.5299,-0.0423,-0.208621,0.208621,0.000000,0.610524,-0.605922,0.661146,-0.699495,0.610524,-0.578311
2.9564,0.016750,0.000000,0.000000,0.002827,0.0000,2.9863,0.0000,-0.219858,0.219858,-0.000350,0.002110,0.000031,1.0581,4.4940,-0.0015,-0.211689,0.208621,0.000000,0.610524,-0.605922,0.661146,-0.699495,0.612058,-0.578311
2.9731,0.016748,0.000000,0.000000,0.002837,0.0000,2.9897,0.0000,-0.222189,0.222189,-0.000367,0.002166,0.000040,1.0734,4.5463,-0.0615,-0.210155,0.207087,0.000000,0.610524,-0.605922,0.661146,-0.701029,0.612058,-0.578311
2.9899,0.016748,0.000000,0.000000,0.002847,0.0000,2.9926,0.0000,-0.224473,0.224473,-0.000389,0.002161,0.000099,1.0708,4.6412,0.1095,-0.217825,0.211689,0.000000,0.612058,-0.605922,0.664214,-0.702563,0.613592,-0.578311
3.0066,0.016744,0.000000,0.000000,0.002857,0.0000,2.9950,0.0000,-0.226707,0.226707,-0.000475,0.002093,0.000116,1.1006,4.8131,0.0949,-0.220893,0.220893,0.000000,0.612058,-0.605922,0.667282,-0.704097,0.612058,-0.578311
3.0235,0.016823,0.000000,0.000000,0.002867,0.0000,2.9969,0.0000,-0.228898,0.228898,-0.000435,0.002002,0.000116,1.0366,4.8594,0.0959,-0.220893,0.222427,0.000000,0.610524,-0.605922,0.668816,-0.704097,0.612058,-0.578311
3.0402,0.016760,0.000000,0.000000,0.002876,0.0000,2.9984,0.0000,-0.231027,0.231027,-0.000435,0.002002,0.000116,1.0366,4.8594,0.0959,-0.220893,0.222427,0.000000,0.610524,-0.605922,0.668816,-0.704097,0.612058,-0.578311
3.0570,0.016744,0.000000,0.000000,0.002885,0.0000,2.9994,0.0000,-0.233098,0.233098,-0.000482,0.002052,0.000127,1.0929,4.8400,0.1522,-0.223961,0.222427,0.000000,0.612058,-0.605922,0.668816,-0.704097,0.612058,-0.578311
3.0737,0.016758,0.000000,0.000000,0.002893,0.0000,2.9999,0.0000,-0.235112,0.235112,-0.000531,0.002031,0.000150,1.1254,4.8773,0.2587,-0.228563,0.227029,0.000000,0.613592,-0.605922,0.670350,-0.704097,0.612058,-0.578311
3.0906,0.016848,0.000000,0.000000,0.002901,0.0000,3.0000,0.0000,-0.237076,0.237076,-0.000591,0.001961,0.000184,1.1488,4.9582,0.4161,-0.230097,0.228563,0.000000,0.615126,-0.605922,0.673418,-0.704097,0.612058,-0.578311
3.1073,0.016752,0.000000,0.000000,0.002909,0.0000,2.9995,0.0000,-0.238966,0.238966,-0.000619,0.001913,0.000216,1.1353,5.0973,0.4560,-0.230097,0.228563,0.000000,0.615126,-0.605922,0.676486,-0.705631,0.612058,-0.578311
3.1241,0.016752,0.000000,0.000000,0.002917,0.0000,2.9986,0.0000,-0.240792,0.240792,-0.000765,0.001846,0.000273,1.1631,5.1348,0.6214,-0.237767,0.236233,0.000000,0.618194,-0.605922,0.679553,-0.705631,0.612058,-0.579845
3.1408,0.016756,0.000000,0.000000,0.002924,0.0000,2.9972,0.0000,-0.242553,0.242553,-0.000765,0.001846,0.000273,1.1631,5.1348,0.6214,-0.237767,0.236233,0.000000,0.618194,-0.605922,0.679553,-0.705631,0.612058,-0.579845
3.1576,0.016744,0.000000,0.000000,0.002931,0.0000,2.9953,0.0000,-0.244244,0.244244,-0.000826,0.001839,0.000313,1.1982,5.2637,0.7175,-0.239301,0.236233,0.000000,0.619728,-0.605922,0.682621,-0.707165,0.612058,-0.579845
3.1743,0.016759,0.000000,0.000000,0.002937,0.0000,2.9929,0.0000,-0.245867,0.245867,-0.000831,0.001782,0.000321,1.1828,5.2994,0.7637,-0.237767,0.234699,0.000000,0.619728,-0.605922,0.684155,-0.707165,0.612058,-0.579845
3.1911,0.016757,0.000000,0.000000,0.002944,0.0000,2.9901,0.0000,-0.247419,0.247419,-0.000937,0.001674,0.000369,1.1606,5.3616,0.8722,-0.240835,0.237767,0.000000,0.621262,-0.605922,0.687223,-0.707165,0.612058,-0.581379
3.2078,0.016752,0.000000,0.000000,0.002950,0.0000,2.9868,0.0000,-0.248898,0.248898,-0.000991,0.001612,0.000399,1.1884,5.4385,1.0305,-0.245437,0.242369,0.000000,0.622796,-0.605922,0.690291,-0.707165,0.612058,-0.581379
3.2249,0.017087,0.000000,0.000000,0.002955,0.0000,2.9829,0.0000,-0.250330,0.250330,-0.001069,0.001619,0.000420,1.1849,5.3982,1.0146,-0.245437,0.245437,0.000000,0.624330,-0.605922,0.690291,-0.707165,0.612058,-0.582913
3.2420,0.017023,0.000000,0.000000,0.002961,0.0000,2.9786,0.0000,-0.251678,0.251678,-0.001069,0.001619,0.000420,1.1849,5.3982,1.0146,-0.245437,0.245437,0.000000,0.624330,-0.605922,0.690291,-0.707165,0.612058,-0.582913
3.2612,0.019226,0.000000,0.000000,0.002966,0.0000,2.9731,0.0000,-0.253106,0.253106,-0.001069,0.001619,0.000420,1.1849,5.3982,1.0146,-0.245437,0.245437,0.000000,0.624330,-0.605922,0.690291,-0.707165,0.612058,-0.582913
3.2779,0.016750,0.000000,0.000000,0.002971,0.0000,2.9678,0.0000,-0.254265,0.254265,-0.001069,0.001619,0.000420,1.1849,5.3982,1.0146,-0.245437,0.245437,0.000000,0.624330,-0.605922,0.690291,-0.707165,0.612058,-0.582913
3.2947,0.016723,0.000000,0.000000,0.002975,0.0000,2.9620,0.0000,-0.255344,0.255344,-0.001104,0.001660,0.000428,1.2342,5.3880,1.0732,-0.248505,0.251573,0.000000,0.625864,-0.605922,0.690291,-0.707165,0.612058,-0.582913
3.3114,0.016755,0.000000,0.000000,0.002979,0.0000,2.9558,0.0000,-0.256343,0.256343,-0.001100,0.001656,0.000427,1.2291,5.3891,1.0671,-0.248505,0.251573,0.000000,0.625864,-0.605922,0.690291,-0.707165,0.612058,-0.582913
3.3282,0.016739,0.000000,0.000000,0.002983,0.0000,2.9490,0.0000,-0.257261,0.257261,-0.001100,0.001656,0.000427,1.2291,5.3891,1.0671,-0.250039,0.251573,0.000000,0.625864,-0.605922,0.690291,-0.707165,0.612058,-0.582913
3.3449,0.016774,0.000000,0.000000,0.002986,0.0000,2.9418,0.0000,-0.258098,0.258098,-0.001100,0.001656,0.000427,1.2291,5.3891,1.0671,-0.250039,0.251573,0.000000,0.625864,-0.605922,0.690291,-0.707165,0.612058,-0.582913
3.3617,0.016740,0.000000,0.000000,0.002989,0.0000,2.9342,0.0000,-0.258849,0.258849,-0.001100,0.001656,0.000427,1.2291,5.3891,1.0671,-0.256175,0.256175,0.000000,0.625864,-0.605922,0.690291,-0.707165,0.612058,-0.582913
3.3784,0.016750,0.000000,0.000000,0.002991,0.0000,2.9261,0.0000,-0.259518,0.259518,-0.001100,0.001656,0.000427,1.2291,5.3891,1.0671,-0.259243,0.256175,0.000000,0.625864,-0.605922,0.690291,-0.707165,0.612058,-0.582913
3.3952,0.016741,0.000000,0.000000,0.002993,0.0000,2.9175,0.0000,-0.260101,0.260101,-0.001100,0.001656,0.000427,1.2291,5.3891,1.0671,-0.257709,0.256175,0.000000,0.625864,-0.605922,0.690291,-0.707165,0.612058,-0.582913
3.4119,0.016752,0.000000,0.000000,0.002995,0.0000,2.9084,0.0000,-0.260599,0.260599,-0.001100,0.001656,0.000427,1.2291,5.3891,1.0671,-0.257709,0.256175,0.000000,0.625864,-0.605922,0.690291,-0.707165,0.612058,-0.582913
3.4286,0.016740,0.000000,0.000000,0.002997,0.0000,2.8989,0.0000,-0.261011,0.261011,-0.001100,0.001656,0.000427,1.2291,5.3891,1.0671,-0.257709,0.256175,0.000000,0.625864,-0.605922,0.690291,-0.707165,0.612058,-0.582913
3.4454,0.016768,0.000000,0.000000,0.002998,0.0000,2.8889,0.0000,-0.261338,0.261338,-0.001100,0.001656,0.000427,1.2291,5.3891,1.0671,-0.257709,0.256175,0.000000,0.625864,-0.605922,0.690291,-0.707165,0.612058,-0.582913
3.4622,0.016743,0.000000,0.000000,0.002999,0.0000,2.8785,0.0000,-0.261577,0.261577,-0.001100,0.001656,0.000427,1.2291,5.3891,1.0671,-0.259243,0.259243,0.000000,0.625864,-0.605922,0.690291,-0.707165,0.612058,-0.582913
3.4789,0.016750,0.000000,0.000000,0.003000,0.0000,2.8676,0.0000,-0.261730,0.261730,-0.001100,0.001656,0.000427,1.2291,5.3891,1.0671,-0.260777,0.259243,0.000000,0.625864,-0.605922,0.690291,-0.707165,0.612058,-0.582913
3.4956,0.016739,0.000000,0.000000,0.003000,0.0000,2.8562,0.0000,-0.261796,0.261796,-0.001100,0.001656,0.000427,1.2291,5.3891,1.0671,-0.259243,0.259243,0.000000,0.625864,-0.605922,0.690291,-0.707165,0.612058,-0.582913
3.5124,0.016759,0.000000,0.000000,0.003000,0.0000,2.8444,0.0000,-0.261776,0.261776,-0.001100,0.001656,0.000427,1.2291,5.3891,1.0671,-0.262311,0.259243,0.000000,0.625864,-0.605922,0.690291,-0.707165,0.612058,-0.582913
3.5291,0.016743,0.000000,0.000000,0.002999,0.0000,2.8321,0.0000,-0.261668,0.261668,-0.001100,0.001656,0.000427,1.2291,5.3891,1.0671,-0.262311,0.259243,0.000000,0.625864,-0.605922,0.690291,-0.707165,0.612058,-0.582913
3.5459,0.016762,0.000000,0.000000,0.002999,0.0000,2.8194,0.0000,-0.261473,0.261473,-0.001100,0.001656,0.000427,1.2291,5.3891,1.0671,-0.262311,0.259243,0.000000,0.625864,-0.605922,0.690291,-0.707165,0.612058,-0.582913
3.5627,0.016741,0.000000,0.000000,0.002998,0.0000,2.8062,0.0000,-0.261192,0.261192,-0.001100,0.001656,0.000427,1.2291,5.3891,1.0671,-0.262311,0.260777,0.000000,0.625864,-0.605922,0.690291,-0.707165,0.612058,-0.582913
3.5794,0.016751,0.000000,0.000000,0.002996,0.0000,2.7926,0.0000,-0.260824,0.260824,-0.001100,0.001656,0.000427,1.2291,5.3891,1.0671,-0.262311,0.259243,0.000000,0.625864,-0.605922,0.690291,-0.707165,0.612058,-0.582913
3.5961,0.016745,0.000000,0.000000,0.002995,0.0000,2.7785,0.0000,-0.260370,0.260370,-0.001100,0.001656,0.000427,1.2291,5.3891,1.0671,-0.262311,0.259243,0.000000,0.625864,-0.605922,0.690291,-0.707165,0.612058,-0.582913
3.6129,0.016762,0.000000,0.000000,0.002992,0.0000,2.7640,0.0000,-0.259830,0.259830,-0.001100,0.001656,0.000427,1.2291,5.3891,1.0671,-0.262311,0.259243,0.000000,0.625864,-0.605922,0.690291,-0.707165,0.612058,-0.582913
3.6297,0.016745,0.000000,0.000000,0.002990,0.0000,2.7491,0.0000,-0.259206,0.259206,-0.001100,0.001656,0.000427,1.2291,5.3891,1.0671,-0.262311,0.259243,0.000000,0.625864,-0.605922,0.690291,-0.707165,0.612058,-0.582913
3.6464,0.016763,0.000000,0.000000,0.002987,0.0000,2.7337,0.0000,-0.258497,0.258497,-0.001100,0.001656,0.000427,1.2291,5.3891,1.0671,-0.262311,0.259243,0.000000,0.625864,-0.605922,0.690291,-0.707165,0.612058,-0.582913
3.6632,0.016748,0.000000,0.000000,0.002984,0.0000,2.7178,0.0000,-0.257704,0.257704,-0.001100,0.001656,0.000427,1.2291,5.3891,1.0671,-0.260777,0.259243,0.000000,0.625864,-0.605922,0.690291,-0.707165,0.612058,-0.582913
3.6799,0.016754,0.000000,0.000000,0.002981,0.0000,2.7016,0.0000,-0.256829,0.256829,-0.001100,0.001656,0.000427,1.2291,5.3891,1.0671,-0.260777,0.259243,0.000000,0.625864,-0.605922,0.690291,-0.707165,0.612058,-0.582913
3.6967,0.016745,0.000000,0.000000,0.002977,0.0000,2.6849,0.0000,-0.255872,0.255872,-0.001100,0.001656,0.000427,1.2291,5.3891,1.0671,-0.260777,0.257709,0.000000,0.625864,-0.605922,0.690291,-0.707165,0.612058,-0.582913
3.7134,0.016756,0.000000,0.000000,0.002973,0.0000,2.6678,0.0000,-0.254833,0.254833,-0.001100,0.001656,0.000427,1.2291,5.3891,1.0671,-0.260777,0.256175,0.000000,0.625864,-0.605922,0.690291,-0.707165,0.612058,-0.582913
3.7302,0.016748,0.000000,0.000000,0.002969,0.0000,2.6502,0.0000,-0.253714,0.253714,-0.001100,0.001656,0.000427,1.2291,5.3891,1.0671,-0.259243,0.256175,0.000000,0.625864,-0.605922,0.690291,-0.707165,0.612058,-0.582913
3.7469,0.016760,0.000000,0.000000,0.002964,0.0000,2.6323,0.0000,-0.252516,0.252516,-0.001100,0.001656,0.000427,1.2291,5.3891,1.0671,-0.259243,0.256175,0.000000,0.625864,-0.605922,0.690291,-0.707165,0.612058,-0.582913
3.7637,0.016744,0.000000,0.000000,0.002959,0.0000,2.6139,0.0000,-0.251241,0.251241,-0.001100,0.001656,0.000427,1.2291,5.3891,1.0671,-0.259243,0.256175,0.000000,0.625864,-0.605922,0.690291,-0.707165,0.612058,-0.582913
3.7804,0.016750,0.000000,0.000000,0.002954,0.0000,2.5951,0.0000,-0.249889,0.249889,-0.001100,0.001656,0.000427,1.2291,5.3891,1.0671,-0.259243,0.256175,0.000000,0.625864,-0.605922,0.690291,-0.707165,0.612058,-0.582913
3.7972,0.016742,0.000000,0.000000,0.002948,0.0000,2.5759,0.0000,-0.248463,0.248463,-0.001183,0.001574,0.000453,1.1306,5.3531,0.9551,-0.259243,0.256175,0.000000,0.625864,-0.605922,0.690291,-0.707165,0.612058,-0.585981
3.8139,0.016756,0.000000,0.000000,0.002942,0.0000,2.5562,0.0000,-0.246962,0.246962,-0.001174,0.001583,0.000450,1.1409,5.3569,0.9668,-0.257709,0.256175,0.000000,0.625864,-0.605922,0.690291,-0.707165,0.612058,-0.585981
3.8308,0.016863,0.000000,0.000000,0.002935,0.0000,2.5361,0.0000,-0.245379,0.245379,-0.001176,0.001582,0.000451,1.1395,5.3564,0.9652,-0.256175,0.256175,0.000000,0.625864,-0.605922,0.690291,-0.707165,0.612058,-0.585981
3.8475,0.016754,0.000000,0.000000,0.002929,0.0000,2.5156,0.0000,-0.243735,0.243735,-0.001176,0.001582,0.000451,1.1395,5.3564,0.9652,-0.256175,0.256175,0.000000,0.625864,-0.605922,0.690291,-0.707165,0.612058,-0.585981
3.8643,0.016740,0.000000,0.000000,0.002922,0.0000,2.4948,0.0000,-0.242023,0.242023,-0.001176,0.001582,0.000451,1.1395,5.3564,0.9652,-0.256175,0.256175,0.000000,0.625864,-0.605922,0.690291,-0.707165,0.612058,-0.585981
3.8810,0.016751,0.000000,0.000000,0.002914,0.0000,2.4736,0.0000,-0.240243,0.240243,-0.001176,0.001582,0.000451,1.1395,5.3564,0.9652,-0.256175,0.256175,0.000000,0.625864,-0.605922,0.690291,-0.707165,0.612058,-0.585981
3.8978,0.016740,0.000000,0.000000,0.002907,0.0000,2.4519,0.0000,-0.238398,0.238398,-0.001176,0.001582,0.000451,1.1395,5.3564,0.9652,-0.256175,0.254641,0.000000,0.625864,-0.605922,0.690291,-0.707165,0.612058,-0.585981
3.9145,0.016731,0.000000,0.000000,0.002899,0.0000,2.4299,0.0000,-0.236491,0.236491,-0.001176,0.001582,0.000451,1.1395,5.3564,0.9652,-0.256175,0.254641,0.000000,0.625864,-0.605922,0.690291,-0.707165,0.612058,-0.585981
3.9312,0.016742,0.000000,0.000000,0.002891,0.0000,2.4075,0.0000,-0.234521,0.234521,-0.001176,0.001582,0.000451,1.1395,5.3564,0.9652,-0.256175,0.254641,0.000000,0.625864,-0.605922,0.690291,-0.707165,0.612058,-0.585981
3.9480,0.016755,0.000000,0.000000,0.002882,0.0000,2.3847,0.0000,-0.232490,0.232490,-0.001176,0.001582,0.000451,1.1395,5.3564,0.9652,-0.256175,0.254641,0.000000,0.625864,-0.605922,0.690291,-0.707165,0.612058,-0.585981
3.9647,0.016741,0.000000,0.000000,0.002873,0.0000,2.3616,0.0000,-0.230403,0.230403,-0.001176,0.001582,0.000451,1.1395,5.3564,0.9652,-0.253107,0.253107,0.000000,0.625864,-0.605922,0.690291,-0.707165,0.612058,-0.585981
3.9815,0.016753,0.000000,0.000000,0.002864,0.0000,2.3380,0.0000,-0.228258,0.228258,-0.001176,0.001582,0.000451,1.1395,5.3564,0.9652,-0.248505,0.250039,0.000000,0.625864,-0.605922,0.690291,-0.707165,0.612058,-0.585981
3.9985,0.016998,0.000000,0.000000,0.002854,0.0000,2.3137,0.0000,-0.226028,0.226028,-0.001176,0.001582,0.000451,1.1395,5.3564,0.9652,-0.239301,0.245437,0.000000,0.625864,-0.605922,0.690291,-0.707165,0.612058,-0.585981
4.0152,0.016754,0.000000,0.000000,0.002844,0.0000,2.2894,0.0000,-0.223778,0.223778,-0.001176,0.001582,0.000451,1.1395,5.3564,0.9652,-0.231631,0.239301,0.000000,0.625864,-0.605922,0.690291,-0.707165,0.612058,-0.585981
4.0323,0.017072,0.000000,0.000000,0.002834,0.0000,2.2643,0.0000,-0.221434,0.221434,-0.001176,0.001582,0.000451,1.1395,5.3564,0.9652,-0.228563,0.234699,0.000000,0.625864,-0.605922,0.690291,-0.707165,0.612058,-0.585981
4.0491,0.016753,0.000000,0.000000,0.002823,0.0000,2.2392,0.0000,-0.219087,0.219087,-0.001176,0.001582,0.000451,1.1395,5.3564,0.9652,-0.228563,0.234699,0.000000,0.625864,-0.605922,0.690291,-0.707165,0.612058,-0.585981
4.0658,0.016747,0.000000,0.000000,0.002812,0.0000,2.2138,0.0000,-0.216697,0.216697,-0.001176,0.001582,0.000451,1.1395,5.3564,0.9652,-0.228563,0.231631,0.000000,0.625864,-0.605922,0.690291,-0.707165,0.612058,-0.585981
4.0826,0.016745,0.000000,0.000000,0.002801,0.0000,2.1881,0.0000,-0.214265,0.214265,-0.001176,0.001582,0.000451,1.1395,5.3564,0.9652,-0.228563,0.230097,0.000000,0.625864,-0.605922,0.690291,-0.707165,0.612058,-0.585981
4.0993,0.016757,0.000000,0.000000,0.002790,0.0000,2.1620,0.0000,-0.211791,0.211791,-0.001176,0.001582,0.000451,1.1395,5.3564,0.9652,-0.227029,0.228563,0.000000,0.625864,-0.605922,0.690291,-0.707165,0.612058,-0.585981
4.1161,0.016752,0.000000,0.000000,0.002778,0.0000,2.1356,0.0000,-0.209281,0.209281,-0.001176,0.001582,0.000451,1.1395,5.3564,0.9652,-0.225495,0.227029,0.000000,0.625864,-0.605922,0.690291,-0.707165,0.612058,-0.585981
4.1328,0.016763,0.000000,0.000000,0.002766,0.0000,2.1088,0.0000,-0.206735,0.206735,-0.001176,0.001582,0.000451,1.1395,5.3564,0.9652,-0.219359,0.227029,0.000000,0.625864,-0.605922,0.690291,-0.707165,0.612058,-0.585981
4.1496,0.016748,0.000000,0.000000,0.002754,0.0000,2.0816,0.0000,-0.204159,0.204159,-0.001176,0.001582,0.000451,1.1395,5.3564,0.9652,-0.219359,0.227029,0.000000,0.625864,-0.605922,0.690291,-0.707165,0.612058,-0.585981
4.1663,0.016751,0.000000,0.000000,0.002741,0.0000,2.0542,0.0000,-0.201553,0.201553,-0.001176,0.001582,0.000451,1.1395,5.3564,0.9652,-0.213223,0.227029,0.000000,0.625864,-0.605922,0.690291,-0.707165,0.612058,-0.585981
4.1831,0.016758,0.000000,0.000000,0.002728,0.0000,2.0264,0.0000,-0.198918,0.198918,-0.001176,0.001582,0.000451,1.1395,5.3564,0.9652,-0.207087,0.227029,0.000000,0.625864,-0.605922,0.690291,-0.707165,0.612058,-0.585981
4.1998,0.016748,0.000000,0.000000,0.002715,0.0000,1.9983,0.0000,-0.196261,0.196261,-0.001176,0.001582,0.000451,1.1395,5.3564,0.9652,-0.205553,0.225495,0.000000,0.625864,-0.605922,0.690291,-0.707165,0.612058,-0.585981
4.2166,0.016748,0.000000,0.000000,0.002701,0.0000,1.9699,0.0000,-0.193583,0.193583,-0.001176,0.001582,0.000451,1.1395,5.3564,0.9652,-0.204019,0.219359,0.000000,0.625864,-0.605922,0.690291,-0.707165,0.612058,-0.585981
4.2333,0.016747,0.000000,0.000000,0.002687,0.0000,1.9412,0.0000,-0.190885,0.190885,-0.001176,0.001582,0.000451,1.1395,5.3564,0.9652,-0.202485,0.211689,0.000000,0.625864,-0.605922,0.690291,-0.707165,0.612058,-0.585981
4.2501,0.016741,0.000000,0.000000,0.002673,0.0000,1.9121,0.0000,-0.188173,0.188173,-0.001176,0.001582,0.000451,1.1395,5.3564,0.9652,-0.202485,0.211689,0.000000,0.625864,-0.605922,0.690291,-0.707165,0.612058,-0.585981
4.2668,0.016749,0.000000,0.000000,0.002658,0.0000,1.8828,0.0000,-0.185445,0.185445,-0.001176,0.001582,0.000451,1.1395,5.3564,0.9652,-0.200951,0.204019,0.000000,0.625864,-0.605922,0.690291,-0.707165,0.612058,-0.585981
4.2837,0.016860,0.000000,0.000000,0.002644,0.0000,1.8530,0.0000,-0.182689,0.182689,-0.001176,0.001582,0.000451,1.1395,5.3564,0.9652,-0.200951,0.199418,0.000000,0.625864,-0.605922,0.690291,-0.707165,0.612058,-0.585981
4.3005,0.016811,0.000000,0.000000,0.002628,0.0000,1.8229,0.0000,-0.179932,0.179932,-0.001176,0.001582,0.000451,1.1395,5.3564,0.9652,-0.200951,0.199418,0.000000,0.625864,-0.605922,0.690291,-0.707165,0.612058,-0.585981
4.3173,0.016813,0.000000,0.000000,0.002613,0.0000,1.7926,0.0000,-0.177169,0.177169,-0.001176,0.001582,0.000451,1.1395,5.3564,0.9652,-0.200951,0.199418,0.000000,0.625864,-0.605922,0.690291,-0.707165,0.612058,-0.585981
4.3342,0.016851,0.000000,0.000000,0.002597,0.0000,1.7619,0.0000,-0.174398,0.174398,-0.001176,0.001582,0.000451,1.1395,5.3564,0.9652,-0.200951,0.199418,0.000000,0.625864,-0.605922,0.690291,-0.707165,0.612058,-0.585981
4.3509,0.016757,0.000000,0.000000,0.002581,0.0000,1.7310,0.0000,-0.171642,0.171642,-0.001176,0.001582,0.000451,1.1395,5.3564,0.9652,-0.200951,0.199418,0.000000,0.625864,-0.605922,0.690291,-0.707165,0.612058,-0.585981
4.3677,0.016742,0.000000,0.000000,0.002565,0.0000,1.7000,0.0000,-0.168891,0.168891,-0.001176,0.001582,0.000451,1.1395,5.3564,0.9652,-0.190214,0.191748,0.000000,0.625864,-0.605922,0.690291,-0.707165,0.612058,-0.585981
4.3844,0.016754,0.000000,0.000000,0.002549,0.0000,1.6686,0.0000,-0.166144,0.166144,-0.001176,0.001582,0.000451,1.1395,5.3564,0.9652,-0.185612,0.190214,0.000000,0.625864,-0.605922,0.690291,-0.707165,0.612058,-0.585981
4.4011,0.016741,0.000000,0.000000,0.002532,0.0000,1.6370,0.0000,-0.163408,0.163408,-0.001176,0.001582,0.000451,1.1395,5.3564,0.9652,-0.187146,0.187146,0.000000,0.625864,-0.605922,0.690291,-0.707165,0.612058,-0.585981
4.4179,0.016767,0.000000,0.000000,0.002515,0.0000,1.6051,0.0000,-0.160678,0.160678,-0.001176,0.001582,0.000451,1.1395,5.3564,0.9652,-0.184078,0.182544,0.000000,0.625864,-0.605922,0.690291,-0.707165,0.612058,-0.585981
4.4347,0.016748,0.000000,0.000000,0.002497,0.0000,1.5730,0.0000,-0.157966,0.157966,-0.001176,0.001582,0.000451,1.1395,5.3564,0.9652,-0.184078,0.182544,0.000000,0.625864,-0.605922,0.690291,-0.707165,0.612058,-0.585981
4.4514,0.016743,0.000000,0.000000,0.002480,0.0000,1.5406,0.0000,-0.155270,0.155270,-0.001176,0.001582,0.000451,1.1395,5.3564,0.9652,-0.176408,0.174874,0.000000,0.625864,-0.605922,0.690291,-0.707165,0.612058,-0.585981
4.4681,0.016740,0.000000,0.000000,0.002462,0.0000,1.5080,0.0000,-0.152595,0.152595,-0.001176,0.001582,0.000451,1.1395,5.3564,0.9652,-0.168738,0.168738,0.000000,0.625864,-0.605922,0.690291,-0.707165,0.612058,-0.585981
4.4849,0.016744,0.000000,0.000000,0.002444,0.0000,1.4751,0.0000,-0.149940,0.149940,-0.001176,0.001582,0.000451,1.1395,5.3564,0.9652,-0.161068,0.165670,0.000000,0.625864,-0.605922,0.690291,-0.707165,0.612058,-0.585981
4.5016,0.016741,0.000000,0.000000,0.002425,0.0000,1.4420,0.0000,-0.147311,0.147311,-0.001176,0.001582,0.000451,1.1395,5.3564,0.9652,-0.156466,0.161068,0.000000,0.625864,-0.605922,0.690291,-0.707165,0.612058,-0.585981
4.5184,0.016748,0.000000,0.000000,0.002407,0.0000,1.4087,0.0000,-0.144707,0.144707,-0.001176,0.001582,0.000451,1.1395,5.3564,0.9652,-0.154932,0.156466,0.000000,0.625864,-0.605922,0.690291,-0.704097,0.612058,-0.585981
4.5351,0.016744,0.000000,0.000000,0.002388,0.0000,1.3751,0.0000,-0.142134,0.142134,-0.001152,0.001465,0.000430,1.1156,5.2587,1.0773,-0.154932,0.156466,0.000000,0.625864,-0.605922,0.690291,-0.704097,0.612058,-0.585981
4.5519,0.016740,0.000000,0.000000,0.002368,0.0000,1.3414,0.0000,-0.139594,0.139594,-0.001154,0.001477,0.000432,1.1181,5.2688,1.0656,-0.153398,0.151864,0.000000,0.625864,-0.605922,0.690291,-0.704097,0.612058,-0.585981
4.5686,0.016740,0.000000,0.000000,0.002349,0.0000,1.3074,0.0000,-0.137089,0.137089,-0.001142,0.001417,0.000421,1.1057,5.2187,1.1225,-0.150330,0.148796,0.000000,0.625864,-0.605922,0.690291,-0.702563,0.612058,-0.585981
