t,loop_dt,cmd_x,cmd_y,cmd_z,cmd_roll,cmd_pitch,cmd_yaw,cmd_ant_l,cmd_ant_r,pres_x,pres_y,pres_z,pres_roll,pres_pitch,pres_yaw,pres_ant_l,pres_ant_r,pres_j0,pres_j1,pres_j2,pres_j3,pres_j4,pres_j5,pres_j6
0.0000,0.000001,0.000000,0.001462,-0.000652,-0.4269,0.4626,0.3400,-0.176408,0.173340,0.000000,0.001462,-0.000652,-0.4269,0.4626,0.3400,-0.176408,0.173340,0.000000,0.610524,-0.592117,0.601320,-0.632000,0.627398,-0.604388
0.0167,0.016747,0.000000,0.001437,-0.000641,-0.4197,0.4548,0.3343,-0.176376,0.173360,0.000000,0.001462,-0.000652,-0.4269,0.4626,0.3400,-0.176408,0.173340,0.000000,0.610524,-0.592117,0.601320,-0.632000,0.627398,-0.604388
0.0335,0.016757,0.000000,0.001413,-0.000630,-0.4126,0.4470,0.3287,-0.176345,0.173380,0.000000,0.001462,-0.000652,-0.4269,0.4626,0.3400,-0.176408,0.173340,0.000000,0.610524,-0.592117,0.601320,-0.632000,0.627398,-0.604388
0.0503,0.016756,0.000000,0.001388,-0.000619,-0.4055,0.4393,0.3230,-0.176314,0.173400,0.000000,0.001462,-0.000652,-0.4269,0.4626,0.3400,-0.176408,0.173340,0.000000,0.610524,-0.592117,0.601320,-0.632000,0.627398,-0.604388
0.0670,0.016750,0.000000,0.001364,-0.000608,-0.3983,0.4315,0.3173,-0.176282,0.173420,0.000000,0.001462,-0.000652,-0.4269,0.4626,0.3400,-0.176408,0.173340,0.000000,0.610524,-0.592117,0.601320,-0.632000,0.627398,-0.604388
0.0838,0.016749,0.000000,0.001339,-0.000597,-0.3912,0.4237,0.3117,-0.176251,0.173440,0.000207,0.001532,-0.000752,-0.4562,0.5447,0.3384,-0.176408,0.173340,0.000000,0.605922,-0.590583,0.599786,-0.632000,0.627398,-0.599786
0.1005,0.016765,0.000000,0.001315,-0.000587,-0.3841,0.4160,0.3060,-0.176219,0.173460,0.000364,0.001658,-0.000806,-0.3448,0.5522,0.3928,-0.176408,0.173340,0.000000,0.604388,-0.590583,0.598253,-0.632000,0.627398,-0.595185
0.1173,0.016772,0.000000,0.001290,-0.000576,-0.3769,0.4082,0.3003,-0.176188,0.173480,0.000389,0.001684,-0.000813,-0.3071,0.5688,0.4414,-0.176408,0.173340,0.000000,0.604388,-0.590583,0.598253,-0.632000,0.627398,-0.593651
0.1341,0.016761,0.000000,0.001266,-0.000565,-0.3698,0.4004,0.2946,-0.176156,0.173500,0.000427,0.001720,-0.000826,-0.2617,0.5845,0.4905,-0.176408,0.173340,0.000000,0.604388,-0.590583,0.598253,-0.632000,0.627398,-0.592117
0.1508,0.016756,0.000000,0.001241,-0.000554,-0.3627,0.3927,0.2890,-0.176125,0.173520,0.000465,0.001677,-0.000836,-0.3161,0.5978,0.4309,-0.176408,0.174874,0.000000,0.602854,-0.590583,0.598253,-0.632000,0.627398,-0.592117
0.1676,0.016761,0.000000,0.001217,-0.000543,-0.3555,0.3849,0.2833,-0.176094,0.173540,0.000465,0.001677,-0.000836,-0.3161,0.5978,0.4309,-0.176408,0.174874,0.000000,0.602854,-0.590583,0.598253,-0.632000,0.627398,-0.592117
0.1843,0.016753,0.000000,0.001192,-0.000532,-0.3484,0.3771,0.2776,-0.176062,0.173560,0.000419,0.001721,-0.000824,-0.2607,0.5815,0.4916,-0.176408,0.173340,0.000000,0.604388,-0.590583,0.598253,-0.632000,0.627398,-0.592117
0.2011,0.016756,0.000000,0.001168,-0.000521,-0.3413,0.3694,0.2719,-0.176031,0.173580,0.000424,0.001716,-0.000825,-0.2665,0.5832,0.4853,-0.176408,0.173340,0.000000,0.604388,-0.590583,0.598253,-0.632000,0.627398,-0.592117
0.2179,0.016810,0.000000,0.001143,-0.000510,-0.3341,0.3616,0.2662,-0.175999,0.173600,0.000382,0.001678,-0.000811,-0.3152,0.5656,0.4317,-0.176408,0.173340,0.000000,0.604388,-0.590583,0.598253,-0.632000,0.627398,-0.593651
0.2346,0.016755,0.000000,0.001119,-0.000499,-0.3270,0.3538,0.2605,-0.175968,0.173620,0.000428,0.001721,-0.000826,-0.2608,0.5848,0.4915,-0.176408,0.173340,0.000000,0.604388,-0.590583,0.598253,-0.632000,0.627398,-0.592117
0.2514,0.016761,0.000000,0.001094,-0.000488,-0.3198,0.3461,0.2549,-0.175936,0.173640,0.000423,0.001716,-0.000825,-0.2665,0.5828,0.4853,-0.176408,0.173340,0.000000,0.604388,-0.590583,0.598253,-0.632000,0.627398,-0.592117
0.2682,0.016744,0.000000,0.001070,-0.000477,-0.3127,0.3383,0.2492,-0.175905,0.173660,0.000423,0.001716,-0.000825,-0.2665,0.5828,0.4853,-0.176408,0.173340,0.000000,0.604388,-0.590583,0.598253,-0.632000,0.627398,-0.592117
0.2849,0.016745,0.000000,0.001045,-0.000466,-0.3055,0.3306,0.2435,-0.175874,0.173680,0.000423,0.001716,-0.000825,-0.2665,0.5828,0.4853,-0.176408,0.173340,0.000000,0.604388,-0.590583,0.598253,-0.632000,0.627398,-0.592117
0.3016,0.016750,0.000000,0.001021,-0.000455,-0.2984,0.3228,0.2378,-0.175842,0.173700,0.000369,0.001701,-0.000836,-0.2274,0.6166,0.4313,-0.176408,0.173340,0.000000,0.604388,-0.590583,0.598253,-0.632000,0.625864,-0.592117
0.3184,0.016759,0.000000,0.000996,-0.000444,-0.2913,0.3150,0.2321,-0.175811,0.173720,0.000375,0.001702,-0.000835,-0.2315,0.6131,0.4369,-0.176408,0.173340,0.000000,0.604388,-0.590583,0.598253,-0.632000,0.625864,-0.592117
0.3352,0.016748,0.000000,0.000972,-0.000434,-0.2841,0.3073,0.2265,-0.175779,0.173740,0.000375,0.001702,-0.000835,-0.2315,0.6131,0.4369,-0.176408,0.173340,0.000000,0.604388,-0.590583,0.598253,-0.632000,0.625864,-0.592117
0.3519,0.016769,0.000000,0.000947,-0.000423,-0.2770,0.2995,0.2208,-0.175748,0.173760,0.000375,0.001702,-0.000835,-0.2315,0.6131,0.4369,-0.176408,0.173340,0.000000,0.604388,-0.590583,0.598253,-0.632000,0.625864,-0.592117
0.3687,0.016751,0.000000,0.000923,-0.000412,-0.2698,0.2918,0.2151,-0.175717,0.173780,0.000375,0.001702,-0.000835,-0.2315,0.6131,0.4369,-0.176408,0.173340,0.000000,0.604388,-0.590583,0.598253,-0.632000,0.625864,-0.592117
0.3854,0.016743,0.000000,0.000898,-0.000401,-0.2627,0.2840,0.2094,-0.175685,0.173800,0.000375,0.001702,-0.000835,-0.2315,0.6131,0.4369,-0.176408,0.173340,0.000000,0.604388,-0.590583,0.598253,-0.632000,0.625864,-0.592117
0.4022,0.016743,0.000000,0.000874,-0.000390,-0.2555,0.2763,0.2037,-0.175654,0.173820,0.000387,0.001646,-0.000847,-0.2414,0.5631,0.4913,-0.176408,0.173340,0.000000,0.604388,-0.590583,0.598253,-0.630466,0.625864,-0.592117
0.4189,0.016752,0.000000,0.000849,-0.000379,-0.2484,0.2685,0.1980,-0.175622,0.173840,0.000386,0.001652,-0.000845,-0.2404,0.5683,0.4856,-0.176408,0.173340,0.000000,0.604388,-0.590583,0.598253,-0.630466,0.625864,-0.592117
0.4360,0.017131,0.000000,0.000824,-0.000368,-0.2411,0.2606,0.1922,-0.175590,0.173860,0.000386,0.001652,-0.000845,-0.2404,0.5683,0.4856,-0.176408,0.173340,0.000000,0.604388,-0.590583,0.598253,-0.630466,0.625864,-0.592117
0.4528,0.016762,0.000000,0.000800,-0.000357,-0.2339,0.2528,0.1865,-0.175559,0.173880,0.000386,0.001652,-0.000845,-0.2404,0.5683,0.4856,-0.176408,0.173340,0.000000,0.604388,-0.590583,0.598253,-0.630466,0.625864,-0.592117
0.4695,0.016744,0.000000,0.000775,-0.000346,-0.2268,0.2451,0.1808,-0.175527,0.173900,0.000386,0.001652,-0.000845,-0.2404,0.5683,0.4856,-0.176408,0.173340,0.000000,0.604388,-0.590583,0.598253,-0.630466,0.625864,-0.592117
0.4863,0.016745,0.000000,0.000751,-0.000335,-0.2196,0.2373,0.1751,-0.175496,0.173920,0.000386,0.001652,-0.000845,-0.2404,0.5683,0.4856,-0.176408,0.173340,0.000000,0.604388,-0.590583,0.598253,-0.630466,0.625864,-0.592117
0.5030,0.016746,0.000000,0.000726,-0.000324,-0.2125,0.2296,0.1694,-0.175465,0.173940,0.000386,0.001652,-0.000845,-0.2404,0.5683,0.4856,-0.176408,0.173340,0.000000,0.604388,-0.590583,0.598253,-0.630466,0.625864,-0.592117
0.5198,0.016746,0.000000,0.000702,-0.000313,-0.2053,0.2219,0.1637,-0.175433,0.173960,0.000386,0.001652,-0.000845,-0.2404,0.5683,0.4856,-0.176408,0.173340,0.000000,0.604388,-0.590583,0.598253,-0.630466,0.625864,-0.592117
0.5370,0.017166,0.000000,0.000677,-0.000302,-0.1980,0.2139,0.1579,-0.175401,0.173980,0.000386,0.001652,-0.000845,-0.2404,0.5683,0.4856,-0.176408,0.173340,0.000000,0.604388,-0.590583,0.598253,-0.630466,0.625864,-0.592117
0.5537,0.016751,0.000000,0.000652,-0.000291,-0.1909,0.2062,0.1522,-0.175370,0.174000,0.000386,0.001652,-0.000845,-0.2404,0.5683,0.4856,-0.176408,0.173340,0.000000,0.604388,-0.590583,0.598253,-0.630466,0.625864,-0.592117
0.5704,0.016742,0.000000,0.000628,-0.000280,-0.1837,0.1984,0.1465,-0.175338,0.174020,0.000386,0.001652,-0.000845,-0.2404,0.5683,0.4856,-0.176408,0.173340,0.000000,0.604388,-0.590583,0.598253,-0.630466,0.625864,-0.592117
0.5872,0.016747,0.000000,0.000603,-0.000269,-0.1766,0.1907,0.1408,-0.175307,0.174040,0.000386,0.001652,-0.000845,-0.2404,0.5683,0.4856,-0.176408,0.173340,0.000000,0.604388,-0.590583,0.598253,-0.630466,0.625864,-0.592117
0.6039,0.016751,0.000000,0.000579,-0.000258,-0.1694,0.1829,0.1351,-0.175275,0.174060,0.000386,0.001652,-0.000845,-0.2404,0.5683,0.4856,-0.176408,0.173340,0.000000,0.604388,-0.590583,0.598253,-0.630466,0.625864,-0.592117
0.6207,0.016750,0.000000,0.000554,-0.000247,-0.1622,0.1752,0.1294,-0.175244,0.174080,0.000386,0.001652,-0.000845,-0.2404,0.5683,0.4856,-0.176408,0.173340,0.000000,0.604388,-0.590583,0.598253,-0.630466,0.625864,-0.592117
0.6374,0.016746,0.000000,0.000530,-0.000236,-0.1551,0.1674,0.1237,-0.175213,0.174100,0.000386,0.001652,-0.000845,-0.2404,0.5683,0.4856,-0.176408,0.173340,0.000000,0.604388,-0.590583,0.598253,-0.630466,0.625864,-0.592117
0.6542,0.016745,0.000000,0.000506,-0.000226,-0.1479,0.1597,0.1180,-0.175181,0.174120,0.000386,0.001652,-0.000845,-0.2404,0.5683,0.4856,-0.176408,0.173340,0.000000,0.604388,-0.590583,0.598253,-0.630466,0.625864,-0.592117
0.6709,0.016750,0.000000,0.000481,-0.000215,-0.1408,0.1520,0.1123,-0.175150,0.174140,0.000399,0.001596,-0.000857,-0.2509,0.5174,0.5412,-0.176408,0.173340,0.000000,0.604388,-0.590583,0.598253,-0.628932,0.625864,-0.592117
0.6877,0.016744,0.000000,0.000457,-0.000204,-0.1336,0.1442,0.1066,-0.175118,0.174160,0.000398,0.001602,-0.000856,-0.2498,0.5227,0.5354,-0.176408,0.173340,0.000000,0.604388,-0.590583,0.598253,-0.628932,0.625864,-0.592117
0.7045,0.016850,0.000000,0.000432,-0.000193,-0.1264,0.1364,0.1008,-0.175087,0.174180,0.000411,0.001545,-0.000867,-0.2602,0.4717,0.5909,-0.176408,0.173340,0.000000,0.604388,-0.590583,0.598253,-0.627398,0.625864,-0.592117
0.7214,0.016861,0.000000,0.000407,-0.000182,-0.1192,0.1286,0.0951,-0.175055,0.174201,0.000411,0.001545,-0.000867,-0.2602,0.4717,0.5909,-0.176408,0.173340,0.000000,0.604388,-0.590583,0.598253,-0.627398,0.625864,-0.592117
0.7382,0.016843,0.000000,0.000383,-0.000171,-0.1120,0.1209,0.0893,-0.175024,0.174221,0.000411,0.001545,-0.000867,-0.2602,0.4717,0.5909,-0.176408,0.173340,0.000000,0.604388,-0.590583,0.598253,-0.627398,0.625864,-0.592117
0.7554,0.017205,0.000000,0.000358,-0.000159,-0.1047,0.1129,0.0835,-0.174991,0.174241,0.000411,0.001545,-0.000867,-0.2602,0.4717,0.5909,-0.176408,0.173340,0.000000,0.604388,-0.590583,0.598253,-0.627398,0.625864,-0.592117
0.7722,0.016741,0.000000,0.000333,-0.000149,-0.0975,0.1052,0.0778,-0.174960,0.174261,0.000410,0.001551,-0.000866,-0.2591,0.4770,0.5851,-0.176408,0.173340,0.000000,0.604388,-0.590583,0.598253,-0.627398,0.625864,-0.592117
0.7889,0.016751,0.000000,0.000309,-0.000138,-0.0903,0.0974,0.0721,-0.174929,0.174281,0.000410,0.001551,-0.000866,-0.2591,0.4770,0.5851,-0.176408,0.173340,0.000000,0.604388,-0.590583,0.598253,-0.627398,0.625864,-0.592117
0.8061,0.017140,0.000000,0.000283,-0.000126,-0.0830,0.0895,0.0662,-0.174897,0.174302,0.000397,0.001606,-0.000855,-0.2489,0.5269,0.5308,-0.176408,0.173340,0.000000,0.604388,-0.590583,0.598253,-0.628932,0.625864,-0.592117
0.8228,0.016761,0.000000,0.000259,-0.000116,-0.0758,0.0818,0.0605,-0.174865,0.174322,0.000411,0.001545,-0.000867,-0.2603,0.4713,0.5914,-0.176408,0.173340,0.000000,0.604388,-0.590583,0.598253,-0.627398,0.625864,-0.592117
0.8396,0.016752,0.000000,0.000235,-0.000105,-0.0687,0.0741,0.0548,-0.174834,0.174342,0.000410,0.001551,-0.000866,-0.2591,0.4771,0.5851,-0.176408,0.173340,0.000000,0.604388,-0.590583,0.598253,-0.627398,0.625864,-0.592117
0.8563,0.016749,0.000000,0.000210,-0.000094,-0.0615,0.0663,0.0491,-0.174802,0.174362,0.000410,0.001551,-0.000866,-0.2591,0.4771,0.5851,-0.176408,0.173340,0.000000,0.604388,-0.590583,0.598253,-0.627398,0.625864,-0.592117
0.8731,0.016744,0.000000,0.000186,-0.000083,-0.0543,0.0586,0.0434,-0.174771,0.174381,0.000410,0.001551,-0.000866,-0.2591,0.4771,0.5851,-0.176408,0.173340,0.000000,0.604388,-0.590583,0.598253,-0.627398,0.625864,-0.592117
0.8898,0.016750,0.000000,0.000161,-0.000072,-0.0472,0.0509,0.0376,-0.174739,0.174401,0.000410,0.001551,-0.000866,-0.2591,0.4771,0.5851,-0.176408,0.173340,0.000000,0.604388,-0.590583,0.598253,-0.627398,0.625864,-0.592117
0.9066,0.016742,0.000000,0.000137,-0.000061,-0.0400,0.0431,0.0319,-0.174708,0.174421,0.000397,0.001606,-0.000855,-0.2489,0.5269,0.5308,-0.176408,0.173340,0.000000,0.604388,-0.590583,0.598253,-0.628932,0.625864,-0.592117
0.9233,0.016752,0.000000,0.000112,-0.000050,-0.0328,0.0354,0.0262,-0.174677,0.174441,0.000411,0.001545,-0.000867,-0.2603,0.4713,0.5914,-0.176408,0.173340,0.000000,0.604388,-0.590583,0.598253,-0.627398,0.625864,-0.592117
0.9401,0.016756,0.000000,0.000088,-0.000039,-0.0257,0.0277,0.0205,-0.174645,0.174461,0.000411,0.001545,-0.000867,-0.2603,0.4713,0.5914,-0.176408,0.173340,0.000000,0.604388,-0.590583,0.598253,-0.627398,0.625864,-0.592117
0.9568,0.016764,0.000000,0.000063,-0.000028,-0.0185,0.0199,0.0147,-0.174614,0.174481,0.000410,0.001551,-0.000866,-0.2591,0.4771,0.5851,-0.176408,0.173340,0.000000,0.604388,-0.590583,0.598253,-0.627398,0.625864,-0.592117
0.9736,0.016744,0.000000,0.000039,-0.000017,-0.0113,0.0122,0.0090,-0.174582,0.174501,0.000397,0.001606,-0.000855,-0.2489,0.5269,0.5308,-0.176408,0.173340,0.000000,0.604388,-0.590583,0.598253,-0.628932,0.625864,-0.592117
0.9903,0.016743,0.000000,0.000014,-0.000006,-0.0041,0.0045,0.0033,-0.174551,0.174521,0.000411,0.001545,-0.000867,-0.2603,0.4713,0.5914,-0.176408,0.173340,0.000000,0.604388,-0.590583,0.598253,-0.627398,0.625864,-0.592117
1.0071,0.016741,0.000000,0.000000,0.000018,0.0133,0.0000,0.0000,-0.173913,0.173913,0.000410,0.001551,-0.000866,-0.2591,0.4771,0.5851,-0.176408,0.173340,0.000000,0.604388,-0.590583,0.598253,-0.627398,0.625864,-0.592117
1.0238,0.016771,0.000000,0.000000,0.000060,0.0449,0.0000,0.0000,-0.172442,0.172442,0.000397,0.001606,-0.000855,-0.2489,0.5269,0.5308,-0.176408,0.173340,0.000000,0.604388,-0.590583,0.598253,-0.628932,0.625864,-0.592117
1.0406,0.016743,0.000000,0.000000,0.000102,0.0765,0.0000,0.0000,-0.170974,0.170974,0.000397,0.001606,-0.000855,-0.2489,0.5269,0.5308,-0.176408,0.173340,0.000000,0.604388,-0.590583,0.598253,-0.628932,0.625864,-0.592117
1.0573,0.016736,0.000000,0.000000,0.000144,0.1080,0.0000,0.0000,-0.169509,0.169509,0.000411,0.001545,-0.000867,-0.2603,0.4713,0.5914,-0.176408,0.173340,0.000000,0.604388,-0.590583,0.598253,-0.627398,0.625864,-0.592117
1.0741,0.016744,0.000000,0.000000,0.000186,0.1396,0.0000,0.0000,-0.168045,0.168045,0.000397,0.001607,-0.000855,-0.2488,0.5275,0.5301,-0.176408,0.173340,0.000000,0.604388,-0.590583,0.598253,-0.628932,0.625864,-0.592117
1.0909,0.016877,0.000000,0.000000,0.000228,0.1713,0.0000,0.0000,-0.166572,0.166572,0.000411,0.001545,-0.000867,-0.2603,0.4712,0.5915,-0.176408,0.173340,0.000000,0.604388,-0.590583,0.598253,-0.627398,0.625864,-0.592117
1.1077,0.016743,0.000000,0.000000,0.000270,0.2028,0.0000,0.0000,-0.165115,0.165115,0.000410,0.001551,-0.000866,-0.2591,0.4771,0.5851,-0.174874,0.173340,0.000000,0.604388,-0.590583,0.598253,-0.627398,0.625864,-0.592117
1.1244,0.016768,0.000000,0.000000,0.000313,0.2343,0.0000,0.0000,-0.163660,0.163660,0.000410,0.001551,-0.000866,-0.2591,0.4771,0.5851,-0.174874,0.173340,0.000000,0.604388,-0.590583,0.598253,-0.627398,0.625864,-0.592117
1.1412,0.016741,0.000000,0.000000,0.000355,0.2658,0.0000,0.0000,-0.162211,0.162211,0.000410,0.001551,-0.000866,-0.2591,0.4771,0.5851,-0.174874,0.173340,0.000000,0.604388,-0.590583,0.598253,-0.627398,0.625864,-0.592117
1.1579,0.016754,0.000000,0.000000,0.000397,0.2972,0.0000,0.0000,-0.160767,0.160767,0.000410,0.001551,-0.000866,-0.2591,0.4771,0.5851,-0.174874,0.173340,0.000000,0.604388,-0.590583,0.598253,-0.627398,0.625864,-0.592117
1.1747,0.016743,0.000000,0.000000,0.000438,0.3286,0.0000,0.0000,-0.159330,0.159330,0.000410,0.001551,-0.000866,-0.2591,0.4771,0.5851,-0.174874,0.173340,0.000000,0.604388,-0.590583,0.598253,-0.627398,0.625864,-0.592117
1.1915,0.016765,0.000000,0.000000,0.000480,0.3600,0.0000,0.0000,-0.157898,0.157898,0.000410,0.001551,-0.000866,-0.2591,0.4771,0.5851,-0.173340,0.171806,0.000000,0.604388,-0.590583,0.598253,-0.627398,0.625864,-0.592117
1.2082,0.016743,0.000000,0.000000,0.000522,0.3913,0.0000,0.0000,-0.156476,0.156476,0.000410,0.001551,-0.000866,-0.2591,0.4771,0.5851,-0.171806,0.171806,0.000000,0.604388,-0.590583,0.598253,-0.627398,0.625864,-0.592117
1.2250,0.016761,0.000000,0.000000,0.000564,0.4226,0.0000,0.0000,-0.155059,0.155059,0.000410,0.001551,-0.000866,-0.2591,0.4771,0.5851,-0.171806,0.171806,0.000000,0.604388,-0.590583,0.598253,-0.627398,0.625864,-0.592117
1.2417,0.016752,0.000000,0.000000,0.000606,0.4539,0.0000,0.0000,-0.153652,0.153652,0.000410,0.001551,-0.000866,-0.2591,0.4771,0.5851,-0.162602,0.171806,0.000000,0.604388,-0.590583,0.598253,-0.627398,0.625864,-0.592117
1.2585,0.016749,0.000000,0.000000,0.000648,0.4850,0.0000,0.0000,-0.152255,0.152255,0.000410,0.001551,-0.000866,-0.2591,0.4771,0.5851,-0.158000,0.170272,0.000000,0.604388,-0.590583,0.598253,-0.627398,0.625864,-0.592117
1.2752,0.016742,0.000000,0.000000,0.000689,0.5162,0.0000,0.0000,-0.150868,0.150868,0.000384,0.001551,-0.000842,-0.2593,0.5778,0.5848,-0.158000,0.167204,0.000000,0.604388,-0.590583,0.599786,-0.628932,0.625864,-0.592117
1.2920,0.016755,0.000000,0.000000,0.000731,0.5472,0.0000,0.0000,-0.149491,0.149491,0.000400,0.001495,-0.000856,-0.2696,0.5168,0.6398,-0.158000,0.165670,0.000000,0.604388,-0.590583,0.599786,-0.627398,0.625864,-0.592117
1.3087,0.016744,0.000000,0.000000,0.000773,0.5782,0.0000,0.0000,-0.148125,0.148125,0.000357,0.001541,-0.000843,-0.2189,0.5082,0.6886,-0.154932,0.158000,0.000000,0.605922,-0.590583,0.599786,-0.627398,0.625864,-0.592117
1.3255,0.016757,0.000000,0.000000,0.000814,0.6092,0.0000,0.0000,-0.146770,0.146770,0.000357,0.001541,-0.000843,-0.2189,0.5082,0.6886,-0.154932,0.158000,0.000000,0.605922,-0.590583,0.599786,-0.627398,0.625864,-0.592117
1.3422,0.016744,0.000000,0.000000,0.000856,0.6401,0.0000,0.0000,-0.145429,0.145429,0.000320,0.001497,-0.000831,-0.2736,0.4917,0.6293,-0.153398,0.154932,0.000000,0.605922,-0.590583,0.599786,-0.627398,0.625864,-0.593651
1.3589,0.016749,0.000000,0.000000,0.000897,0.6709,0.0000,0.0000,-0.144100,0.144100,0.000407,0.001501,-0.000857,-0.2681,0.5258,0.6351,-0.153398,0.148796,0.000000,0.604388,-0.590583,0.599786,-0.627398,0.625864,-0.592117
1.3757,0.016746,0.000000,0.000000,0.000939,0.7016,0.0000,0.0000,-0.142784,0.142784,0.000356,0.001540,-0.000842,-0.2191,0.5072,0.6891,-0.151864,0.147262,0.000000,0.605922,-0.590583,0.599786,-0.627398,0.625864,-0.592117
1.3924,0.016746,0.000000,0.000000,0.000980,0.7323,0.0000,0.0000,-0.141483,0.141483,0.000361,0.001536,-0.000844,-0.2242,0.5092,0.6834,-0.148796,0.147262,0.000000,0.605922,-0.590583,0.599786,-0.627398,0.625864,-0.592117
1.4095,0.017081,0.000000,0.000000,0.001022,0.7634,0.0000,0.0000,-0.140171,0.140171,0.000361,0.001536,-0.000844,-0.2242,0.5092,0.6834,-0.147262,0.145728,0.000000,0.605922,-0.590583,0.599786,-0.627398,0.625864,-0.592117
1.4263,0.016752,0.000000,0.000000,0.001063,0.7939,0.0000,0.0000,-0.138899,0.138899,0.000361,0.001536,-0.000844,-0.2242,0.5092,0.6834,-0.147262,0.145728,0.000000,0.605922,-0.590583,0.599786,-0.627398,0.625864,-0.592117
1.4430,0.016743,0.000000,0.000000,0.001104,0.8243,0.0000,0.0000,-0.137644,0.137644,0.000320,0.001497,-0.000830,-0.2731,0.4916,0.6299,-0.145728,0.145728,0.000000,0.605922,-0.590583,0.599786,-0.627398,0.625864,-0.593651
1.4598,0.016754,0.000000,0.000000,0.001145,0.8546,0.0000,0.0000,-0.136404,0.136404,0.000378,0.001485,-0.000819,-0.2292,0.4578,0.5817,-0.147262,0.145728,0.000000,0.605922,-0.592117,0.599786,-0.627398,0.625864,-0.593651
1.4765,0.016750,0.000000,0.000000,0.001186,0.8849,0.0000,0.0000,-0.135182,0.135182,0.000372,0.001487,-0.000820,-0.2338,0.4613,0.5867,-0.145728,0.145728,0.000000,0.605922,-0.592117,0.599786,-0.627398,0.625864,-0.593651
1.4933,0.016753,0.000000,0.000000,0.001227,0.9150,0.0000,0.0000,-0.133977,0.133977,0.000372,0.001487,-0.000820,-0.2338,0.4613,0.5867,-0.145728,0.145728,0.000000,0.605922,-0.592117,0.599786,-0.627398,0.625864,-0.593651
1.5100,0.016744,0.000000,0.000000,0.001268,0.9450,0.0000,0.0000,-0.132790,0.132790,0.000372,0.001487,-0.000820,-0.2338,0.4613,0.5867,-0.145728,0.144194,0.000000,0.605922,-0.592117,0.599786,-0.627398,0.625864,-0.593651
1.5268,0.016757,0.000000,0.000000,0.001309,0.9749,0.0000,0.0000,-0.131621,0.131621,0.000372,0.001487,-0.000820,-0.2338,0.4613,0.5867,-0.145728,0.144194,0.000000,0.605922,-0.592117,0.599786,-0.627398,0.625864,-0.593651
1.5435,0.016747,0.000000,0.000000,0.001349,1.0047,0.0000,0.0000,-0.130472,0.130472,0.000414,0.001526,-0.000834,-0.1839,0.4783,0.6404,-0.142660,0.144194,0.000000,0.605922,-0.592117,0.599786,-0.627398,0.625864,-0.592117
1.5603,0.016752,0.000000,0.000000,0.001390,1.0344,0.0000,0.0000,-0.129342,0.129342,0.000369,0.001483,-0.000819,-0.2385,0.4592,0.5806,-0.134990,0.144194,0.000000,0.605922,-0.592117,0.599786,-0.627398,0.625864,-0.593651
1.5770,0.016747,0.000000,0.000000,0.001430,1.0640,0.0000,0.0000,-0.128232,0.128232,0.000373,0.001487,-0.000821,-0.2328,0.4612,0.5869,-0.131922,0.144194,0.000000,0.605922,-0.592117,0.599786,-0.627398,0.625864,-0.593651
1.5939,0.016878,0.000000,0.000000,0.001471,1.0937,0.0000,0.0000,-0.127134,0.127134,0.000373,0.001487,-0.000821,-0.2328,0.4612,0.5869,-0.133456,0.142660,0.000000,0.605922,-0.592117,0.599786,-0.627398,0.625864,-0.593651
1.6107,0.016831,0.000000,0.000000,0.001511,1.1232,0.0000,0.0000,-0.126061,0.126061,0.000373,0.001487,-0.000821,-0.2328,0.4612,0.5869,-0.133456,0.142660,0.000000,0.605922,-0.592117,0.599786,-0.627398,0.625864,-0.593651
1.6275,0.016754,0.000000,0.000000,0.001551,1.1524,0.0000,0.0000,-0.125014,0.125014,0.000373,0.001487,-0.000821,-0.2328,0.4612,0.5869,-0.133456,0.142660,0.000000,0.605922,-0.592117,0.599786,-0.627398,0.625864,-0.593651
1.6442,0.016748,0.000000,0.000000,0.001591,1.1815,0.0000,0.0000,-0.123989,0.123989,0.000359,0.001542,-0.000809,-0.2231,0.5114,0.5313,-0.130388,0.138058,0.000000,0.605922,-0.592117,0.599786,-0.628932,0.625864,-0.593651
1.6610,0.016755,0.000000,0.000000,0.001631,1.2104,0.0000,0.0000,-0.122986,0.122986,0.000374,0.001481,-0.000822,-0.2344,0.4557,0.5920,-0.128854,0.133456,0.000000,0.605922,-0.592117,0.599786,-0.627398,0.625864,-0.593651
1.6777,0.016739,0.000000,0.000000,0.001671,1.2392,0.0000,0.0000,-0.122008,0.122008,0.000373,0.001487,-0.000820,-0.2332,0.4615,0.5857,-0.128854,0.127320,0.000000,0.605922,-0.592117,0.599786,-0.627398,0.625864,-0.593651
1.6945,0.016750,0.000000,0.000000,0.001710,1.2679,0.0000,0.0000,-0.121051,0.121051,0.000373,0.001487,-0.000820,-0.2332,0.4615,0.5857,-0.127320,0.122718,0.000000,0.605922,-0.592117,0.599786,-0.627398,0.625864,-0.593651
1.7114,0.016975,0.000000,0.000000,0.001750,1.2968,0.0000,0.0000,-0.120106,0.120106,0.000373,0.001487,-0.000820,-0.2332,0.4615,0.5857,-0.125786,0.122718,0.000000,0.605922,-0.592117,0.599786,-0.627398,0.625864,-0.593651
1.7282,0.016751,0.000000,0.000000,0.001790,1.3252,0.0000,0.0000,-0.119198,0.119198,0.000373,0.001487,-0.000820,-0.2332,0.4615,0.5857,-0.125786,0.122718,0.000000,0.605922,-0.592117,0.599786,-0.627398,0.625864,-0.593651
1.7449,0.016742,0.000000,0.000000,0.001829,1.3535,0.0000,0.0000,-0.118315,0.118315,0.000319,0.001471,-0.000796,-0.1942,0.4967,0.6950,-0.124252,0.122718,0.000000,0.607456,-0.592117,0.601320,-0.627398,0.625864,-0.593651
1.7618,0.016815,0.000000,0.000000,0.001868,1.3817,0.0000,0.0000,-0.117453,0.117453,0.000337,0.001575,-0.000738,-0.0113,0.4425,0.6302,-0.124252,0.122718,0.000000,0.610524,-0.595185,0.601320,-0.628932,0.625864,-0.593651
1.7787,0.016964,0.000000,0.000000,0.001908,1.4100,0.0000,0.0000,-0.116609,0.116609,0.000337,0.001575,-0.000738,-0.0113,0.4425,0.6302,-0.124252,0.122718,0.000000,0.610524,-0.595185,0.601320,-0.628932,0.625864,-0.593651
1.7955,0.016799,0.000000,0.000000,0.001947,1.4379,0.0000,0.0000,-0.115799,0.115799,0.000337,0.001575,-0.000738,-0.0113,0.4425,0.6302,-0.124252,0.122718,0.000000,0.610524,-0.595185,0.601320,-0.628932,0.625864,-0.593651
1.8123,0.016755,0.000000,0.000000,0.001985,1.4655,0.0000,0.0000,-0.115018,0.115018,0.000588,0.001600,-0.000574,0.6039,-0.0122,0.5310,-0.121184,0.119651,0.000000,0.619728,-0.608990,0.601320,-0.627398,0.625864,-0.593651
1.8290,0.016758,0.000000,0.000000,0.002024,1.4930,0.0000,0.0000,-0.114262,0.114262,0.000588,0.001600,-0.000574,0.6039,-0.0122,0.5310,-0.121184,0.119651,0.000000,0.619728,-0.608990,0.601320,-0.627398,0.625864,-0.593651
1.8458,0.016744,0.000000,0.000000,0.002062,1.5203,0.0000,0.0000,-0.113535,0.113535,0.000586,0.001722,-0.000509,0.8122,-0.0651,0.4870,-0.122718,0.118117,0.000000,0.624330,-0.613592,0.601320,-0.628932,0.625864,-0.593651
1.8625,0.016748,0.000000,0.000000,0.002100,1.5474,0.0000,0.0000,-0.112833,0.112833,0.000666,0.001738,-0.000456,1.0037,-0.1957,0.4362,-0.121184,0.118117,0.000000,0.627398,-0.618194,0.601320,-0.628932,0.625864,-0.593651
1.8793,0.016749,0.000000,0.000000,0.002139,1.5744,0.0000,0.0000,-0.112160,0.112160,0.000695,0.001805,-0.000390,1.2461,-0.3327,0.4402,-0.121184,0.118117,0.000000,0.632000,-0.622796,0.601320,-0.628932,0.625864,-0.593651
1.8960,0.016753,0.000000,0.000000,0.002177,1.6012,0.0000,0.0000,-0.111513,0.111513,0.000717,0.001843,-0.000350,1.3953,-0.4185,0.4386,-0.121184,0.118117,0.000000,0.635068,-0.625864,0.601320,-0.628932,0.625864,-0.593651
1.9129,0.016883,0.000000,0.000000,0.002215,1.6280,0.0000,0.0000,-0.110890,0.110890,0.000794,0.001866,-0.000295,1.5919,-0.5453,0.3817,-0.121184,0.118117,0.000000,0.638136,-0.630466,0.601320,-0.628932,0.625864,-0.593651
1.9297,0.016754,0.000000,0.000000,0.002252,1.6544,0.0000,0.0000,-0.110300,0.110300,0.000794,0.001866,-0.000295,1.5919,-0.5453,0.3817,-0.121184,0.118117,0.000000,0.638136,-0.630466,0.601320,-0.628932,0.625864,-0.593651
1.9464,0.016739,0.000000,0.000000,0.002290,1.6806,0.0000,0.0000,-0.109739,0.109739,0.000770,0.001869,-0.000277,1.6976,-0.6466,0.4956,-0.121184,0.118117,0.000000,0.641204,-0.632000,0.601320,-0.627398,0.625864,-0.593651
1.9632,0.016750,0.000000,0.000000,0.002327,1.7067,0.0000,0.0000,-0.109206,0.109206,0.000769,0.001915,-0.000208,1.8608,-0.6343,0.4826,-0.121184,0.116583,0.000000,0.644272,-0.635068,0.602854,-0.628932,0.625864,-0.593651
1.9799,0.016750,0.000000,0.000000,0.002364,1.7326,0.0000,0.0000,-0.108703,0.108703,0.000768,0.001878,-0.000178,1.9207,-0.6342,0.5381,-0.121184,0.116583,0.000000,0.645806,-0.636602,0.604388,-0.628932,0.625864,-0.593651
1.9967,0.016760,0.000000,0.000000,0.002401,1.7583,0.0000,0.0000,-0.108228,0.108228,0.000698,0.001781,-0.000106,2.0206,-0.5446,0.7520,-0.119651,0.116583,0.000000,0.648874,-0.638136,0.608990,-0.628932,0.625864,-0.593651
2.0136,0.016961,0.000000,0.000000,0.002439,1.7841,0.0000,0.0000,-0.107777,0.107777,0.000788,0.001648,-0.000063,2.0654,-0.5233,0.7286,-0.116583,0.116583,0.000000,0.648874,-0.641204,0.612058,-0.628932,0.625864,-0.593651
2.0304,0.016747,0.000000,0.000000,0.002475,1.8093,0.0000,0.0000,-0.107362,0.107362,0.000788,0.001648,-0.000063,2.0654,-0.5233,0.7286,-0.116583,0.116583,0.000000,0.648874,-0.641204,0.612058,-0.628932,0.625864,-0.593651
2.0471,0.016743,0.000000,0.000000,0.002512,1.8344,0.0000,0.0000,-0.106976,0.106976,0.000806,0.001503,0.000008,2.1551,-0.4581,0.8405,-0.110447,0.115049,0.000000,0.650408,-0.644272,0.616660,-0.628932,0.625864,-0.593651
2.0639,0.016750,0.000000,0.000000,0.002548,1.8593,0.0000,0.0000,-0.106621,0.106621,0.000775,0.001488,0.000062,2.2225,-0.3626,0.8851,-0.107379,0.113515,0.000000,0.651942,-0.645806,0.619728,-0.630466,0.625864,-0.593651
2.0806,0.016745,0.000000,0.000000,0.002584,1.8840,0.0000,0.0000,-0.106295,0.106295,0.000749,0.001427,0.000154,2.3687,-0.2691,0.9917,-0.110447,0.110447,0.000000,0.655010,-0.648874,0.624330,-0.632000,0.625864,-0.593651
2.0974,0.016753,0.000000,0.000000,0.002620,1.9084,0.0000,0.0000,-0.106000,0.106000,0.000723,0.001404,0.000205,2.4299,-0.1768,1.0374,-0.110447,0.107379,0.000000,0.656544,-0.650408,0.627398,-0.633534,0.625864,-0.593651
2.1142,0.016827,0.000000,0.000000,0.002656,1.9328,0.0000,0.0000,-0.105734,0.105734,0.000740,0.001336,0.000249,2.4511,-0.0705,1.0345,-0.107379,0.104311,0.000000,0.656544,-0.651942,0.630466,-0.635068,0.625864,-0.593651
2.1309,0.016754,0.000000,0.000000,0.002692,1.9568,0.0000,0.0000,-0.105500,0.105500,0.000740,0.001336,0.000249,2.4511,-0.0705,1.0345,-0.107379,0.104311,0.000000,0.656544,-0.651942,0.630466,-0.635068,0.625864,-0.593651
2.1477,0.016742,0.000000,0.000000,0.002727,1.9807,0.0000,0.0000,-0.105296,0.105296,0.000738,0.001343,0.000245,2.4489,-0.0816,1.0348,-0.108913,0.104311,0.000000,0.656544,-0.651942,0.630466,-0.635068,0.625864,-0.593651
2.1644,0.016750,0.000000,0.000000,0.002762,2.0043,0.0000,0.0000,-0.105123,0.105123,0.000780,0.001271,0.000270,2.4767,-0.0654,1.0346,-0.108913,0.105845,0.000000,0.656544,-0.653476,0.632000,-0.635068,0.625864,-0.593651
2.1812,0.016744,0.000000,0.000000,0.002797,2.0276,0.0000,0.0000,-0.104981,0.104981,0.000817,0.001318,0.000291,2.5217,-0.0520,0.9243,-0.107379,0.104311,0.000000,0.656544,-0.655010,0.632000,-0.636602,0.625864,-0.593651
2.1979,0.016751,0.000000,0.000000,0.002832,2.0508,0.0000,0.0000,-0.104869,0.104869,0.000744,0.001243,0.000326,2.5456,0.0333,1.1034,-0.107379,0.104311,0.000000,0.658078,-0.655010,0.635068,-0.636602,0.625864,-0.593651
2.2148,0.016846,0.000000,0.000000,0.002867,2.0739,0.0000,0.0000,-0.104788,0.104788,0.000708,0.001291,0.000334,2.5918,0.0105,1.1401,-0.107379,0.104311,0.000000,0.659612,-0.655010,0.635068,-0.636602,0.625864,-0.593651
2.2315,0.016755,0.000000,0.000000,0.002901,2.0966,0.0000,0.0000,-0.104739,0.104739,0.000708,0.001291,0.000334,2.5918,0.0105,1.1401,-0.107379,0.104311,0.000000,0.659612,-0.655010,0.635068,-0.636602,0.625864,-0.593651
2.2483,0.016744,0.000000,0.000000,0.002935,2.1190,0.0000,0.0000,-0.104720,0.104720,0.000712,0.001286,0.000333,2.5869,0.0128,1.1362,-0.107379,0.104311,0.000000,0.659612,-0.655010,0.635068,-0.636602,0.625864,-0.593651
2.2650,0.016750,0.000000,0.000000,0.002969,2.1413,0.0000,0.0000,-0.104732,0.104732,0.000626,0.001366,0.000393,2.6829,-0.0177,1.0826,-0.107379,0.104311,0.000000,0.662680,-0.656544,0.635068,-0.638136,0.625864,-0.595185
2.2818,0.016739,0.000000,0.000000,0.003003,2.1632,0.0000,0.0000,-0.104775,0.104775,0.000619,0.001383,0.000435,2.7593,0.0369,1.0896,-0.107379,0.104311,0.000000,0.664214,-0.658078,0.636602,-0.639670,0.625864,-0.595185
2.2985,0.016753,0.000000,0.000000,0.003037,2.1850,0.0000,0.0000,-0.104849,0.104849,0.000564,0.001367,0.000492,2.7878,0.0650,1.0357,-0.107379,0.104311,0.000000,0.665748,-0.659612,0.638136,-0.641204,0.625864,-0.596719
2.3153,0.016747,0.000000,0.000000,0.003070,2.2065,0.0000,0.0000,-0.104954,0.104954,0.000567,0.001448,0.000520,2.8815,0.0632,0.9864,-0.107379,0.104311,0.000000,0.667282,-0.661146,0.638136,-0.642738,0.625864,-0.596719
2.3320,0.016755,0.000000,0.000000,0.003103,2.2278,0.0000,0.0000,-0.105090,0.105090,0.000567,0.001448,0.000520,2.8815,0.0632,0.9864,-0.107379,0.104311,0.000000,0.667282,-0.661146,0.638136,-0.642738,0.625864,-0.596719
2.3488,0.016740,0.000000,0.000000,0.003136,2.2488,0.0000,0.0000,-0.105257,0.105257,0.000576,0.001542,0.000575,3.0546,0.0156,0.9355,-0.107379,0.104311,0.000000,0.670350,-0.664214,0.638136,-0.644272,0.625864,-0.596719
2.3655,0.016750,0.000000,0.000000,0.003169,2.2696,0.0000,0.0000,-0.105454,0.105454,0.000543,0.001595,0.000641,3.1693,-0.0451,0.8300,-0.108913,0.104311,0.000000,0.673418,-0.667282,0.638136,-0.645806,0.625864,-0.598253
2.3822,0.016740,0.000000,0.000000,0.003201,2.2901,0.0000,0.0000,-0.105682,0.105682,0.000515,0.001652,0.000705,3.2899,-0.1043,0.7300,-0.107379,0.104311,0.000000,0.676486,-0.670350,0.638136,-0.647340,0.625864,-0.599786
2.3990,0.016755,0.000000,0.000000,0.003233,2.3103,0.0000,0.0000,-0.105940,0.105940,0.000476,0.001687,0.000746,3.3239,-0.1149,0.6305,-0.108913,0.104311,0.000000,0.678020,-0.671884,0.638136,-0.648874,0.625864,-0.601320
2.4157,0.016744,0.000000,0.000000,0.003265,2.3303,0.0000,0.0000,-0.106229,0.106229,0.000518,0.001803,0.000799,3.4645,-0.0983,0.4745,-0.108913,0.104311,0.000000,0.679553,-0.674952,0.638136,-0.651942,0.625864,-0.601320
2.4325,0.016748,0.000000,0.000000,0.003297,2.3501,0.0000,0.0000,-0.106548,0.106548,0.000518,0.001803,0.000799,3.4645,-0.0983,0.4745,-0.108913,0.104311,0.000000,0.679553,-0.674952,0.638136,-0.651942,0.625864,-0.601320
2.4492,0.016740,0.000000,0.000000,0.003329,2.3696,0.0000,0.0000,-0.106896,0.106896,0.000536,0.001836,0.000839,3.6212,-0.1978,0.4880,-0.107379,0.104311,0.000000,0.682621,-0.678020,0.638136,-0.651942,0.625864,-0.601320
2.4660,0.016749,0.000000,0.000000,0.003360,2.3888,0.0000,0.0000,-0.107275,0.107275,0.000586,0.001894,0.000881,3.7379,-0.2218,0.3739,-0.107379,0.104311,0.000000,0.684155,-0.681087,0.638136,-0.653476,0.625864,-0.601320
2.4828,0.016792,0.000000,0.000000,0.003391,2.4078,0.0000,0.0000,-0.107685,0.107685,0.000562,0.002026,0.000884,3.8348,-0.1652,0.4424,-0.108913,0.104311,0.000000,0.685689,-0.681087,0.638136,-0.655010,0.625864,-0.599786
2.4995,0.016754,0.000000,0.000000,0.003422,2.4265,0.0000,0.0000,-0.108124,0.108124,0.000564,0.002012,0.000884,3.8247,-0.1710,0.4352,-0.107379,0.104311,0.000000,0.685689,-0.681087,0.638136,-0.655010,0.625864,-0.599786
2.5163,0.016752,0.000000,0.000000,0.003452,2.4450,0.0000,0.0000,-0.108592,0.108592,0.000564,0.002014,0.000884,3.8261,-0.1702,0.4362,-0.107379,0.104311,0.000000,0.685689,-0.681087,0.638136,-0.655010,0.625864,-0.599786
2.5330,0.016749,0.000000,0.000000,0.003483,2.4631,0.0000,0.0000,-0.109089,0.109089,0.000564,0.002014,0.000884,3.8261,-0.1702,0.4362,-0.107379,0.104311,0.000000,0.685689,-0.681087,0.638136,-0.655010,0.625864,-0.599786
2.5498,0.016741,0.000000,0.000000,0.003513,2.4810,0.0000,0.0000,-0.109615,0.109615,0.000619,0.001995,0.000896,3.8624,-0.2059,0.3785,-0.108913,0.105845,0.000000,0.685689,-0.682621,0.638136,-0.655010,0.625864,-0.599786
2.5665,0.016750,0.000000,0.000000,0.003543,2.4986,0.0000,0.0000,-0.110170,0.110170,0.000654,0.002037,0.000917,3.9060,-0.1880,0.2732,-0.108913,0.105845,0.000000,0.685689,-0.684155,0.638136,-0.656544,0.625864,-0.599786
2.5833,0.016756,0.000000,0.000000,0.003572,2.5160,0.0000,0.0000,-0.110754,0.110754,0.000663,0.002055,0.000974,3.9844,-0.2424,0.1162,-0.108913,0.105845,0.000000,0.687223,-0.687223,0.638136,-0.658078,0.625864,-0.601320
2.6001,0.016771,0.000000,0.000000,0.003602,2.5330,0.0000,0.0000,-0.111366,0.111366,0.000673,0.002075,0.000991,4.0614,-0.2855,0.1308,-0.110447,0.107379,0.000000,0.688757,-0.688757,0.638136,-0.658078,0.625864,-0.601320
2.6168,0.016757,0.000000,0.000000,0.003631,2.5498,0.0000,0.0000,-0.112006,0.112006,0.000673,0.002075,0.000991,4.0614,-0.2855,0.1308,-0.110447,0.107379,0.000000,0.690291,-0.691825,0.638136,-0.659612,0.625864,-0.599786
2.6336,0.016758,0.000000,0.000000,0.003660,2.5663,0.0000,0.0000,-0.112674,0.112674,0.000763,0.002175,0.001020,4.2354,-0.2977,0.0706,-0.110447,0.107379,0.000000,0.690291,-0.691825,0.638136,-0.659612,0.625864,-0.599786
2.6503,0.016755,0.000000,0.000000,0.003688,2.5825,0.0000,0.0000,-0.113369,0.113369,0.000765,0.002186,0.001040,4.3024,-0.3450,0.0749,-0.111981,0.107379,0.000000,0.691825,-0.693359,0.638136,-0.659612,0.625864,-0.599786
2.6671,0.016773,0.000000,0.000000,0.003716,2.5985,0.0000,0.0000,-0.114092,0.114092,0.000817,0.002280,0.001082,4.3524,-0.3729,0.0723,-0.111981,0.110447,0.000000,0.693359,-0.694893,0.638136,-0.661146,0.627398,-0.599786
2.6838,0.016744,0.000000,0.000000,0.003744,2.6141,0.0000,0.0000,-0.114840,0.114840,0.000612,0.002354,0.001113,4.4445,-0.3313,0.0219,-0.113515,0.110447,0.000000,0.696427,-0.694893,0.638136,-0.662680,0.625864,-0.601320
2.7006,0.016756,0.000000,0.000000,0.003772,2.6295,0.0000,0.0000,-0.115616,0.115616,0.000515,0.002544,0.001152,4.5542,-0.2632,0.0313,-0.113515,0.110447,0.000000,0.699495,-0.694893,0.638136,-0.665748,0.625864,-0.601320
2.7174,0.016760,0.000000,0.000000,0.003800,2.6445,0.0000,0.0000,-0.116417,0.116417,0.000515,0.002544,0.001152,4.5542,-0.2632,0.0313,-0.115049,0.111981,0.000000,0.701029,-0.694893,0.638136,-0.665748,0.625864,-0.601320
2.7341,0.016760,0.000000,0.000000,0.003827,2.6593,0.0000,0.0000,-0.117245,0.117245,0.000480,0.002564,0.001158,4.5915,-0.2831,0.0864,-0.115049,0.111981,0.000000,0.701029,-0.694893,0.638136,-0.665748,0.625864,-0.601320
2.7509,0.016749,0.000000,0.000000,0.003854,2.6738,0.0000,0.0000,-0.118097,0.118097,0.000541,0.002577,0.001169,4.5487,-0.3143,0.1342,-0.115049,0.113515,0.000000,0.701029,-0.694893,0.638136,-0.665748,0.627398,-0.601320
2.7676,0.016748,0.000000,0.000000,0.003881,2.6879,0.0000,0.0000,-0.118975,0.118975,0.000467,0.002653,0.001202,4.5253,-0.2312,-0.0336,-0.116583,0.113515,0.000000,0.701029,-0.694893,0.638136,-0.668816,0.627398,-0.602854
2.7844,0.016758,0.000000,0.000000,0.003907,2.7018,0.0000,0.0000,-0.119877,0.119877,0.000319,0.002578,0.001262,4.5552,-0.1815,0.1556,-0.118117,0.115049,0.000000,0.704097,-0.694893,0.641204,-0.668816,0.627398,-0.604388
2.8011,0.016748,0.000000,0.000000,0.003933,2.7154,0.0000,0.0000,-0.120803,0.120803,0.000304,0.002559,0.001316,4.6274,-0.0840,0.1949,-0.118117,0.118117,0.000000,0.705631,-0.696427,0.644272,-0.670350,0.627398,-0.604388
2.8180,0.016875,0.000000,0.000000,0.003959,2.7287,0.0000,0.0000,-0.121761,0.121761,0.000304,0.002559,0.001316,4.6274,-0.0840,0.1949,-0.118117,0.118117,0.000000,0.705631,-0.696427,0.644272,-0.670350,0.627398,-0.604388
2.8348,0.016793,0.000000,0.000000,0.003985,2.7417,0.0000,0.0000,-0.122737,0.122737,0.000304,0.002559,0.001316,4.6274,-0.0840,0.1949,-0.118117,0.118117,0.000000,0.705631,-0.696427,0.644272,-0.670350,0.627398,-0.604388
2.8515,0.016739,0.000000,0.000000,0.004010,2.7544,0.0000,0.0000,-0.123733,0.123733,0.000304,0.002559,0.001316,4.6274,-0.0840,0.1949,-0.118117,0.118117,0.000000,0.705631,-0.696427,0.644272,-0.670350,0.627398,-0.604388
2.8683,0.016767,0.000000,0.000000,0.004035,2.7668,0.0000,0.0000,-0.124753,0.124753,0.000243,0.002352,0.001529,4.8614,0.2795,0.4269,-0.122718,0.119651,0.000000,0.710233,-0.702563,0.656544,-0.674952,0.627398,-0.604388
2.8851,0.016782,0.000000,0.000000,0.004060,2.7788,0.0000,0.0000,-0.125796,0.125796,0.000243,0.002352,0.001529,4.8614,0.2795,0.4269,-0.124252,0.119651,0.000000,0.711767,-0.704097,0.659612,-0.676486,0.627398,-0.604388
2.9018,0.016749,0.000000,0.000000,0.004084,2.7906,0.0000,0.0000,-0.126859,0.126859,0.000219,0.002347,0.001567,4.9117,0.3433,0.4626,-0.124252,0.119651,0.000000,0.711767,-0.704097,0.659612,-0.676486,0.627398,-0.604388
2.9186,0.016750,0.000000,0.000000,0.004108,2.8020,0.0000,0.0000,-0.127943,0.127943,0.000192,0.002207,0.001625,4.9598,0.4399,0.6311,-0.124252,0.122718,0.000000,0.713301,-0.705631,0.664214,-0.676486,0.627398,-0.604388
2.9353,0.016745,0.000000,0.000000,0.004132,2.8131,0.0000,0.0000,-0.129047,0.129047,0.000220,0.002176,0.001691,5.0660,0.4963,0.6161,-0.127320,0.124252,0.000000,0.714835,-0.708699,0.667282,-0.678020,0.627398,-0.604388
2.9521,0.016745,0.000000,0.000000,0.004156,2.8240,0.0000,0.0000,-0.130172,0.130172,0.000199,0.002206,0.001730,5.1401,0.5419,0.6204,-0.128854,0.124252,0.000000,0.716369,-0.710233,0.668816,-0.679553,0.627398,-0.604388
2.9688,0.016745,0.000000,0.000000,0.004179,2.8345,0.0000,0.0000,-0.131316,0.131316,0.000211,0.002225,0.001748,5.2169,0.4895,0.6185,-0.128854,0.125786,0.000000,0.717903,-0.711767,0.668816,-0.679553,0.627398,-0.604388
2.9856,0.016754,0.000000,0.000000,0.004202,2.8446,0.0000,0.0000,-0.132480,0.132480,0.000211,0.002225,0.001748,5.2169,0.4895,0.6185,-0.128854,0.125786,0.000000,0.717903,-0.711767,0.668816,-0.679553,0.627398,-0.604388
3.0023,0.016747,0.000000,0.000000,0.004225,2.8545,0.0000,0.0000,-0.133662,0.133662,0.000219,0.002246,0.001769,5.2933,0.4474,0.6173,-0.130388,0.128854,0.000000,0.719437,-0.713301,0.668816,-0.679553,0.627398,-0.604388
3.0191,0.016744,0.000000,0.000000,0.004247,2.8641,0.0000,0.0000,-0.134862,0.134862,0.000182,0.002307,0.001799,5.4177,0.3919,0.6727,-0.130388,0.128854,0.000000,0.722505,-0.714835,0.668816,-0.679553,0.627398,-0.604388
3.0358,0.016743,0.000000,0.000000,0.004269,2.8733,0.0000,0.0000,-0.136079,0.136079,0.000185,0.002414,0.001793,5.4266,0.3965,0.5548,-0.133456,0.127320,0.000000,0.722505,-0.714835,0.667282,-0.681087,0.627398,-0.604388
3.0525,0.016748,0.000000,0.000000,0.004291,2.8822,0.0000,0.0000,-0.137314,0.137314,0.000241,0.002270,0.001808,5.4400,0.3622,0.6208,-0.136524,0.133456,0.000000,0.722505,-0.716369,0.668816,-0.679553,0.627398,-0.604388
3.0693,0.016761,0.000000,0.000000,0.004312,2.8908,0.0000,0.0000,-0.138566,0.138566,0.000120,0.002404,0.001815,5.4619,0.4375,0.6753,-0.136524,0.133456,0.000000,0.724039,-0.714835,0.668816,-0.681087,0.627398,-0.604388
3.0861,0.016750,0.000000,0.000000,0.004334,2.8991,0.0000,0.0000,-0.139833,0.139833,0.000120,0.002404,0.001815,5.4619,0.4375,0.6753,-0.136524,0.133456,0.000000,0.724039,-0.714835,0.668816,-0.681087,0.627398,-0.604388
3.1028,0.016744,0.000000,0.000000,0.004354,2.9071,0.0000,0.0000,-0.141115,0.141115,0.000187,0.002372,0.001827,5.4958,0.3945,0.6112,-0.136524,0.131922,0.000000,0.724039,-0.716369,0.668816,-0.681087,0.627398,-0.604388
3.1195,0.016744,0.000000,0.000000,0.004375,2.9147,0.0000,0.0000,-0.142413,0.142413,0.000138,0.002448,0.001800,5.4666,0.3839,0.6181,-0.138058,0.133456,0.000000,0.724039,-0.714835,0.667282,-0.681087,0.627398,-0.604388
3.1363,0.016744,0.000000,0.000000,0.004395,2.9220,0.0000,0.0000,-0.143724,0.143724,0.000143,0.002440,0.001803,5.4696,0.3850,0.6174,-0.139592,0.136524,0.000000,0.724039,-0.714835,0.667282,-0.681087,0.627398,-0.604388
3.1531,0.016782,0.000000,0.000000,0.004415,2.9290,0.0000,0.0000,-0.145052,0.145052,0.000143,0.002440,0.001803,5.4696,0.3850,0.6174,-0.141126,0.139592,0.000000,0.724039,-0.714835,0.667282,-0.681087,0.627398,-0.604388
3.1699,0.016792,0.000000,0.000000,0.004435,2.9357,0.0000,0.0000,-0.146394,0.146394,0.000171,0.002427,0.001838,5.5063,0.4489,0.5634,-0.142660,0.139592,0.000000,0.724039,-0.716369,0.668816,-0.682621,0.627398,-0.604388
3.1866,0.016753,0.000000,0.000000,0.004454,2.9420,0.0000,0.0000,-0.147745,0.147745,0.000171,0.002427,0.001838,5.5063,0.4489,0.5634,-0.142660,0.139592,0.000000,0.724039,-0.716369,0.668816,-0.682621,0.627398,-0.604388
3.2034,0.016745,0.000000,0.000000,0.004473,2.9480,0.0000,0.0000,-0.149107,0.149107,0.000126,0.002501,0.001809,5.4769,0.4272,0.5692,-0.144194,0.142660,0.000000,0.724039,-0.714835,0.667282,-0.682621,0.627398,-0.604388
3.2201,0.016743,0.000000,0.000000,0.004492,2.9537,0.0000,0.0000,-0.150481,0.150481,0.000117,0.002440,0.001825,5.4694,0.4797,0.6268,-0.147262,0.145728,0.000000,0.724039,-0.714835,0.668816,-0.682621,0.627398,-0.604388
3.2368,0.016745,0.000000,0.000000,0.004510,2.9591,0.0000,0.0000,-0.151865,0.151865,0.000177,0.002459,0.001800,5.4326,0.4362,0.5057,-0.147262,0.145728,0.000000,0.722505,-0.714835,0.667282,-0.682621,0.627398,-0.604388
3.2536,0.016747,0.000000,0.000000,0.004528,2.9641,0.0000,0.0000,-0.153259,0.153259,0.000098,0.002503,0.001837,5.4854,0.5276,0.5795,-0.150330,0.145728,0.000000,0.724039,-0.714835,0.668816,-0.684155,0.627398,-0.604388
3.2703,0.016741,0.000000,0.000000,0.004546,2.9688,0.0000,0.0000,-0.154663,0.154663,0.000120,0.002439,0.001823,5.4685,0.4692,0.6257,-0.154932,0.151864,0.000000,0.724039,-0.714835,0.668816,-0.682621,0.627398,-0.604388
3.2871,0.016747,0.000000,0.000000,0.004563,2.9732,0.0000,0.0000,-0.156076,0.156076,0.000120,0.002439,0.001823,5.4685,0.4692,0.6257,-0.154932,0.151864,0.000000,0.724039,-0.714835,0.668816,-0.682621,0.627398,-0.604388
3.3038,0.016705,0.000000,0.000000,0.004580,2.9772,0.0000,0.0000,-0.157493,0.157493,-0.000027,0.002547,0.001868,5.5279,0.4812,0.6254,-0.154932,0.151864,0.000000,0.727107,-0.714835,0.668816,-0.684155,0.627398,-0.605922
3.3205,0.016743,0.000000,0.000000,0.004597,2.9809,0.0000,0.0000,-0.158921,0.158921,-0.000106,0.002369,0.001940,5.4848,0.4959,0.6294,-0.153398,0.150330,0.000000,0.728641,-0.716369,0.671884,-0.684155,0.627398,-0.608990
3.3373,0.016744,0.000000,0.000000,0.004613,2.9843,0.0000,0.0000,-0.160356,0.160356,-0.000255,0.002320,0.001993,5.5137,0.5515,0.8043,-0.156466,0.153398,0.000000,0.731709,-0.716369,0.674952,-0.684155,0.627398,-0.610524
3.3540,0.016755,0.000000,0.000000,0.004629,2.9874,0.0000,0.0000,-0.161798,0.161798,-0.000364,0.002276,0.002048,5.4985,0.6638,0.8505,-0.158000,0.154932,0.000000,0.733243,-0.716369,0.678020,-0.685689,0.627398,-0.612058
3.3708,0.016763,0.000000,0.000000,0.004645,2.9901,0.0000,0.0000,-0.163247,0.163247,-0.000529,0.002354,0.002073,5.6354,0.7595,0.9119,-0.161068,0.154932,0.000000,0.736311,-0.716369,0.679553,-0.687223,0.625864,-0.612058
3.3875,0.016750,0.000000,0.000000,0.004660,2.9925,0.0000,0.0000,-0.164700,0.164700,-0.000529,0.002354,0.002073,5.6354,0.7595,0.9119,-0.161068,0.154932,0.000000,0.736311,-0.716369,0.679553,-0.687223,0.625864,-0.612058
3.4043,0.016743,0.000000,0.000000,0.004675,2.9946,0.0000,0.0000,-0.166156,0.166156,-0.000584,0.002278,0.002106,5.6466,0.8370,1.0800,-0.161068,0.159534,0.000000,0.737845,-0.716369,0.682621,-0.687223,0.625864,-0.612058
3.4210,0.016749,0.000000,0.000000,0.004690,2.9963,0.0000,0.0000,-0.167616,0.167616,-0.000542,0.002442,0.002121,5.7156,0.8514,1.1748,-0.162602,0.159534,0.000000,0.739379,-0.716369,0.682621,-0.688757,0.627398,-0.610524
3.4378,0.016748,0.000000,0.000000,0.004705,2.9977,0.0000,0.0000,-0.169080,0.169080,-0.000593,0.002466,0.002129,5.7560,0.8381,1.2224,-0.164136,0.158000,0.000000,0.740913,-0.716369,0.682621,-0.688757,0.627398,-0.610524
3.4545,0.016759,0.000000,0.000000,0.004719,2.9988,0.0000,0.0000,-0.170547,0.170547,-0.000602,0.002524,0.002138,5.7637,0.8884,1.1635,-0.168738,0.162602,0.000000,0.740913,-0.716369,0.682621,-0.690291,0.627398,-0.610524
3.4713,0.016738,0.000000,0.000000,0.004732,2.9995,0.0000,0.0000,-0.172014,0.172014,-0.000602,0.002524,0.002138,5.7637,0.8884,1.1635,-0.168738,0.162602,0.000000,0.740913,-0.716369,0.682621,-0.690291,0.627398,-0.610524
3.4880,0.016743,0.000000,0.000000,0.004746,2.9999,0.0000,0.0000,-0.173482,0.173482,-0.000718,0.002605,0.002144,5.8617,0.9532,1.1205,-0.168738,0.168738,0.000000,0.742447,-0.716369,0.682621,-0.691825,0.625864,-0.610524
3.5048,0.016747,0.000000,0.000000,0.004759,3.0000,0.0000,0.0000,-0.174951,0.174951,-0.000759,0.002616,0.002167,5.8138,0.9762,1.0150,-0.168738,0.168738,0.000000,0.742447,-0.716369,0.682621,-0.693359,0.625864,-0.612058
3.5215,0.016746,0.000000,0.000000,0.004772,2.9997,0.0000,0.0000,-0.176420,0.176420,-0.000758,0.002730,0.002196,5.8392,0.9779,1.0823,-0.173340,0.168738,0.000000,0.743981,-0.716369,0.682621,-0.694893,0.627398,-0.612058
3.5383,0.016759,0.000000,0.000000,0.004784,2.9991,0.0000,0.0000,-0.177889,0.177889,-0.000883,0.002678,0.002230,5.7844,0.9280,1.0208,-0.176408,0.174874,0.000000,0.745515,-0.716369,0.682621,-0.694893,0.627398,-0.615126
3.5550,0.016752,0.000000,0.000000,0.004796,2.9982,0.0000,0.0000,-0.179356,0.179356,-0.000870,0.002683,0.002227,5.7902,0.9332,1.0272,-0.176408,0.174874,0.000000,0.745515,-0.716369,0.682621,-0.694893,0.627398,-0.615126
3.5718,0.016745,0.000000,0.000000,0.004808,2.9970,0.0000,0.0000,-0.180821,0.180821,-0.000870,0.002683,0.002227,5.7902,0.9332,1.0272,-0.176408,0.174874,0.000000,0.745515,-0.716369,0.682621,-0.694893,0.627398,-0.615126
3.5885,0.016761,0.000000,0.000000,0.004819,2.9954,0.0000,0.0000,-0.182283,0.182283,-0.000926,0.002701,0.002214,5.7531,0.9678,1.0849,-0.177942,0.173340,0.000000,0.745515,-0.714835,0.682621,-0.694893,0.627398,-0.615126
3.6053,0.016746,0.000000,0.000000,0.004830,2.9934,0.0000,0.0000,-0.183742,0.183742,-0.000865,0.002681,0.002228,5.7935,0.9291,1.0205,-0.179476,0.174874,0.000000,0.745515,-0.716369,0.682621,-0.694893,0.627398,-0.615126
3.6220,0.016753,0.000000,0.000000,0.004841,2.9912,0.0000,0.0000,-0.185196,0.185196,-0.000871,0.002683,0.002227,5.7892,0.9331,1.0272,-0.179476,0.176408,0.000000,0.745515,-0.716369,0.682621,-0.694893,0.627398,-0.615126
3.6388,0.016746,0.000000,0.000000,0.004851,2.9886,0.0000,0.0000,-0.186646,0.186646,-0.000910,0.002642,0.002241,5.7400,0.9138,0.9704,-0.182544,0.177942,0.000000,0.745515,-0.716369,0.682621,-0.694893,0.627398,-0.616660
3.6556,0.016803,0.000000,0.000000,0.004861,2.9857,0.0000,0.0000,-0.188095,0.188095,-0.000910,0.002642,0.002241,5.7400,0.9138,0.9704,-0.187146,0.182544,0.000000,0.745515,-0.716369,0.682621,-0.696427,0.627398,-0.618194
3.6723,0.016721,0.000000,0.000000,0.004871,2.9824,0.0000,0.0000,-0.189531,0.189531,-0.000959,0.002666,0.002263,5.7078,0.9456,0.8661,-0.187146,0.182544,0.000000,0.745515,-0.716369,0.682621,-0.696427,0.627398,-0.618194
3.6891,0.016783,0.000000,0.000000,0.004880,2.9789,0.0000,0.0000,-0.190965,0.190965,-0.000956,0.002630,0.002261,5.7871,0.9401,0.7658,-0.187146,0.182544,0.000000,0.745515,-0.717903,0.682621,-0.696427,0.625864,-0.618194
3.7058,0.016745,0.000000,0.000000,0.004889,2.9749,0.0000,0.0000,-0.192389,0.192389,-0.000790,0.002611,0.002299,5.8120,0.8378,0.7122,-0.188680,0.182544,0.000000,0.745515,-0.720971,0.682621,-0.696427,0.627398,-0.618194
3.7227,0.016850,0.000000,0.000000,0.004898,2.9707,0.0000,0.0000,-0.193814,0.193814,-0.000766,0.002655,0.002317,5.8579,0.8621,0.6052,-0.188680,0.187146,0.000000,0.745515,-0.722505,0.682621,-0.697961,0.627398,-0.618194
3.7394,0.016748,0.000000,0.000000,0.004906,2.9661,0.0000,0.0000,-0.195222,0.195222,-0.000728,0.002691,0.002338,5.9015,0.8730,0.5037,-0.190214,0.188680,0.000000,0.745515,-0.724039,0.682621,-0.699495,0.627398,-0.618194
3.7562,0.016812,0.000000,0.000000,0.004914,2.9612,0.0000,0.0000,-0.196626,0.196626,-0.000677,0.002669,0.002348,5.9330,0.8369,0.4556,-0.194816,0.188680,0.000000,0.745515,-0.725573,0.682621,-0.699495,0.627398,-0.618194
3.7730,0.016743,0.000000,0.000000,0.004922,2.9560,0.0000,0.0000,-0.198014,0.198014,-0.000677,0.002669,0.002348,5.9330,0.8369,0.4556,-0.194816,0.188680,0.000000,0.745515,-0.725573,0.682621,-0.699495,0.627398,-0.618194
3.7899,0.016943,0.000000,0.000000,0.004929,2.9504,0.0000,0.0000,-0.199409,0.199409,-0.000586,0.002694,0.002382,6.0138,0.8190,0.2891,-0.196350,0.194816,0.000000,0.745515,-0.728641,0.682621,-0.701029,0.627398,-0.618194
3.8067,0.016751,0.000000,0.000000,0.004936,2.9445,0.0000,0.0000,-0.200776,0.200776,-0.000555,0.002733,0.002400,6.0534,0.8341,0.1935,-0.194816,0.194816,0.000000,0.745515,-0.730175,0.682621,-0.702563,0.627398,-0.618194
3.8235,0.016782,0.000000,0.000000,0.004943,2.9383,0.0000,0.0000,-0.202135,0.202135,-0.000503,0.002710,0.002410,6.0850,0.7976,0.1447,-0.200951,0.194816,0.000000,0.745515,-0.731709,0.682621,-0.702563,0.627398,-0.618194
3.8402,0.016743,0.000000,0.000000,0.004949,2.9317,0.0000,0.0000,-0.203478,0.203478,-0.000509,0.002712,0.002409,6.0817,0.8014,0.1498,-0.200951,0.197884,0.000000,0.745515,-0.731709,0.682621,-0.702563,0.627398,-0.618194
3.8570,0.016765,0.000000,0.000000,0.004955,2.9249,0.0000,0.0000,-0.204809,0.204809,-0.000577,0.002791,0.002407,6.0586,0.8841,0.1539,-0.199418,0.197884,0.000000,0.745515,-0.730175,0.682621,-0.704097,0.627398,-0.618194
3.8737,0.016773,0.000000,0.000000,0.004960,2.9177,0.0000,0.0000,-0.206129,0.206129,-0.000577,0.002791,0.002407,6.0586,0.8841,0.1539,-0.199418,0.197884,0.000000,0.745515,-0.730175,0.682621,-0.704097,0.627398,-0.618194
3.8905,0.016786,0.000000,0.000000,0.004965,2.9101,0.0000,0.0000,-0.207435,0.207435,-0.000577,0.002791,0.002407,6.0586,0.8841,0.1539,-0.199418,0.197884,0.000000,0.745515,-0.730175,0.682621,-0.704097,0.627398,-0.618194
3.9073,0.016783,0.000000,0.000000,0.004970,2.9023,0.0000,0.0000,-0.208726,0.208726,-0.000577,0.002791,0.002407,6.0586,0.8841,0.1539,-0.199418,0.197884,0.000000,0.745515,-0.730175,0.682621,-0.704097,0.627398,-0.618194
3.9242,0.016856,0.000000,0.000000,0.004975,2.8941,0.0000,0.0000,-0.210007,0.210007,-0.000577,0.002791,0.002407,6.0586,0.8841,0.1539,-0.199418,0.197884,0.000000,0.745515,-0.730175,0.682621,-0.704097,0.627398,-0.618194
3.9409,0.016773,0.000000,0.000000,0.004979,2.8856,0.0000,0.0000,-0.211267,0.211267,-0.000577,0.002791,0.002407,6.0586,0.8841,0.1539,-0.199418,0.197884,0.000000,0.745515,-0.730175,0.682621,-0.704097,0.627398,-0.618194
3.9577,0.016762,0.000000,0.000000,0.004982,2.8768,0.0000,0.0000,-0.212509,0.212509,-0.000566,0.002547,0.002473,6.0529,1.0408,0.3303,-0.202485,0.202485,0.000000,0.745515,-0.731709,0.688757,-0.704097,0.627398,-0.618194
3.9744,0.016750,0.000000,0.000000,0.004986,2.8677,0.0000,0.0000,-0.213733,0.213733,-0.000610,0.002498,0.002444,6.0808,1.0092,0.3133,-0.204019,0.202485,0.000000,0.745515,-0.731709,0.688757,-0.702563,0.625864,-0.618194
3.9912,0.016761,0.000000,0.000000,0.004989,2.8582,0.0000,0.0000,-0.214941,0.214941,-0.000563,0.002578,0.002469,6.0505,1.0276,0.3136,-0.210155,0.207087,0.000000,0.745515,-0.731709,0.688757,-0.704097,0.627398,-0.618194
4.0080,0.016752,0.000000,0.000000,0.004991,2.8485,0.0000,0.0000,-0.216131,0.216131,-0.000680,0.002574,0.002442,6.0576,1.0936,0.3196,-0.216291,0.213223,0.000000,0.745515,-0.730175,0.688757,-0.704097,0.625864,-0.618194
4.0247,0.016760,0.000000,0.000000,0.004994,2.8384,0.0000,0.0000,-0.217302,0.217302,-0.000680,0.002574,0.002442,6.0576,1.0936,0.3196,-0.216291,0.213223,0.000000,0.745515,-0.730175,0.688757,-0.704097,0.625864,-0.618194
4.0415,0.016747,0.000000,0.000000,0.004996,2.8281,0.0000,0.0000,-0.218454,0.218454,-0.000610,0.002589,0.002457,6.0171,1.0537,0.3717,-0.216291,0.213223,0.000000,0.745515,-0.730175,0.688757,-0.704097,0.627398,-0.618194
4.0582,0.016757,0.000000,0.000000,0.004997,2.8174,0.0000,0.0000,-0.219587,0.219587,-0.000563,0.002568,0.002468,6.0572,1.0230,0.3075,-0.214757,0.211689,0.000000,0.745515,-0.731709,0.688757,-0.704097,0.627398,-0.618194
4.0750,0.016751,0.000000,0.000000,0.004998,2.8063,0.0000,0.0000,-0.220699,0.220699,-0.000568,0.002570,0.002467,6.0530,1.0262,0.3142,-0.216291,0.214757,0.000000,0.745515,-0.731709,0.688757,-0.704097,0.627398,-0.618194
4.0917,0.016755,0.000000,0.000000,0.004999,2.7950,0.0000,0.0000,-0.221792,0.221792,-0.000568,0.002570,0.002467,6.0530,1.0262,0.3142,-0.217825,0.216291,0.000000,0.745515,-0.731709,0.688757,-0.704097,0.627398,-0.618194
4.1085,0.016748,0.000000,0.000000,0.005000,2.7834,0.0000,0.0000,-0.222863,0.222863,-0.000568,0.002570,0.002467,6.0530,1.0262,0.3142,-0.219359,0.217825,0.000000,0.745515,-0.731709,0.688757,-0.704097,0.627398,-0.618194
4.1252,0.016751,0.000000,0.000000,0.005000,2.7715,0.0000,0.0000,-0.223912,0.223912,-0.000568,0.002570,0.002467,6.0530,1.0262,0.3142,-0.219359,0.217825,0.000000,0.745515,-0.731709,0.688757,-0.704097,0.627398,-0.618194
4.1420,0.016745,0.000000,0.000000,0.005000,2.7592,0.0000,0.0000,-0.224940,0.224940,-0.000568,0.002570,0.002467,6.0530,1.0262,0.3142,-0.220893,0.217825,0.000000,0.745515,-0.731709,0.688757,-0.704097,0.627398,-0.618194
4.1587,0.016758,0.000000,0.000000,0.004999,2.7467,0.0000,0.0000,-0.225946,0.225946,-0.000568,0.002570,0.002467,6.0530,1.0262,0.3142,-0.220893,0.219359,0.000000,0.745515,-0.731709,0.688757,-0.704097,0.627398,-0.618194
4.1755,0.016745,0.000000,0.000000,0.004998,2.7338,0.0000,0.0000,-0.226928,0.226928,-0.000581,0.002631,0.002477,6.0657,1.0740,0.2593,-0.223961,0.222427,0.000000,0.745515,-0.731709,0.688757,-0.705631,0.627398,-0.618194
4.1922,0.016761,0.000000,0.000000,0.004997,2.7207,0.0000,0.0000,-0.227888,0.227888,-0.000580,0.002624,0.002476,6.0644,1.0690,0.2650,-0.223961,0.222427,0.000000,0.745515,-0.731709,0.688757,-0.705631,0.627398,-0.618194
4.2090,0.016749,0.000000,0.000000,0.004996,2.7072,0.0000,0.0000,-0.228824,0.228824,-0.000594,0.002685,0.002485,6.0769,1.1176,0.2102,-0.225495,0.225495,0.000000,0.745515,-0.731709,0.688757,-0.707165,0.627398,-0.618194
4.2257,0.016757,0.000000,0.000000,0.004994,2.6935,0.0000,0.0000,-0.229736,0.229736,-0.000594,0.002685,0.002485,6.0769,1.1176,0.2102,-0.225495,0.225495,0.000000,0.745515,-0.731709,0.688757,-0.707165,0.627398,-0.618194
4.2425,0.016748,0.000000,0.000000,0.004991,2.6794,0.0000,0.0000,-0.230623,0.230623,-0.000593,0.002679,0.002484,6.0756,1.1125,0.2159,-0.225495,0.228563,0.000000,0.745515,-0.731709,0.688757,-0.707165,0.627398,-0.618194
4.2592,0.016760,0.000000,0.000000,0.004989,2.6651,0.0000,0.0000,-0.231486,0.231486,-0.000593,0.002679,0.002484,6.0756,1.1125,0.2159,-0.227029,0.227029,0.000000,0.745515,-0.731709,0.688757,-0.707165,0.627398,-0.618194
4.2760,0.016755,0.000000,0.000000,0.004986,2.6504,0.0000,0.0000,-0.232324,0.232324,-0.000479,0.002708,0.002509,5.9962,1.0470,0.3209,-0.230097,0.225495,0.000000,0.745515,-0.731709,0.688757,-0.707165,0.630466,-0.618194
4.2928,0.016754,0.000000,0.000000,0.004982,2.6355,0.0000,0.0000,-0.233135,0.233135,-0.000434,0.002719,0.002519,5.9649,1.0209,0.3627,-0.231631,0.233165,0.000000,0.745515,-0.731709,0.688757,-0.707165,0.632000,-0.618194
4.3095,0.016747,0.000000,0.000000,0.004979,2.6202,0.0000,0.0000,-0.233921,0.233921,-0.000381,0.002732,0.002530,5.9287,0.9906,0.4113,-0.231631,0.231631,0.000000,0.745515,-0.731709,0.688757,-0.707165,0.633534,-0.618194
4.3263,0.016762,0.000000,0.000000,0.004974,2.6047,0.0000,0.0000,-0.234681,0.234681,-0.000381,0.002732,0.002530,5.9287,0.9906,0.4113,-0.231631,0.231631,0.000000,0.745515,-0.731709,0.688757,-0.707165,0.633534,-0.618194
4.3430,0.016747,0.000000,0.000000,0.004970,2.5889,0.0000,0.0000,-0.235413,0.235413,-0.000387,0.002731,0.002529,5.9325,0.9938,0.4062,-0.231631,0.230097,0.000000,0.745515,-0.731709,0.688757,-0.707165,0.633534,-0.618194
4.3598,0.016758,0.000000,0.000000,0.004965,2.5728,0.0000,0.0000,-0.236119,0.236119,-0.000387,0.002731,0.002529,5.9325,0.9938,0.4062,-0.231631,0.233165,0.000000,0.745515,-0.731709,0.688757,-0.707165,0.633534,-0.618194
4.3765,0.016744,0.000000,0.000000,0.004960,2.5564,0.0000,0.0000,-0.236797,0.236797,-0.000387,0.002731,0.002529,5.9325,0.9938,0.4062,-0.234699,0.233165,0.000000,0.745515,-0.731709,0.688757,-0.707165,0.633534,-0.618194
4.3933,0.016750,0.000000,0.000000,0.004955,2.5398,0.0000,0.0000,-0.237448,0.237448,-0.000387,0.002731,0.002529,5.9325,0.9938,0.4062,-0.236233,0.234699,0.000000,0.745515,-0.731709,0.688757,-0.707165,0.633534,-0.618194
4.4100,0.016748,0.000000,0.000000,0.004949,2.5228,0.0000,0.0000,-0.238071,0.238071,-0.000387,0.002731,0.002529,5.9325,0.9938,0.4062,-0.236233,0.234699,0.000000,0.745515,-0.731709,0.688757,-0.707165,0.633534,-0.618194
4.4268,0.016759,0.000000,0.000000,0.004943,2.5056,0.0000,0.0000,-0.238666,0.238666,-0.000387,0.002731,0.002529,5.9325,0.9938,0.4062,-0.236233,0.234699,0.000000,0.745515,-0.731709,0.688757,-0.707165,0.633534,-0.618194
4.4435,0.016723,0.000000,0.000000,0.004936,2.4881,0.0000,0.0000,-0.239231,0.239231,-0.000387,0.002731,0.002529,5.9325,0.9938,0.4062,-0.236233,0.234699,0.000000,0.745515,-0.731709,0.688757,-0.707165,0.633534,-0.618194
4.4603,0.016754,0.000000,0.000000,0.004929,2.4703,0.0000,0.0000,-0.239769,0.239769,-0.000387,0.002731,0.002529,5.9325,0.9938,0.4062,-0.236233,0.234699,0.000000,0.745515,-0.731709,0.688757,-0.707165,0.633534,-0.618194
4.4770,0.016746,0.000000,0.000000,0.004922,2.4523,0.0000,0.0000,-0.240278,0.240278,-0.000387,0.002731,0.002529,5.9325,0.9938,0.4062,-0.237767,0.236233,0.000000,0.745515,-0.731709,0.688757,-0.707165,0.633534,-0.618194
4.4938,0.016760,0.000000,0.000000,0.004914,2.4340,0.0000,0.0000,-0.240758,0.240758,-0.000387,0.002731,0.002529,5.9325,0.9938,0.4062,-0.239301,0.236233,0.000000,0.745515,-0.731709,0.688757,-0.707165,0.633534,-0.618194
4.5105,0.016750,0.000000,0.000000,0.004906,2.4154,0.0000,0.0000,-0.241208,0.241208,-0.000387,0.002731,0.002529,5.9325,0.9938,0.4062,-0.239301,0.237767,0.000000,0.745515,-0.731709,0.688757,-0.707165,0.633534,-0.618194
4.5273,0.016748,0.000000,0.000000,0.004898,2.3965,0.0000,0.0000,-0.241629,0.241629,-0.000387,0.002731,0.002529,5.9325,0.9938,0.4062,-0.239301,0.237767,0.000000,0.745515,-0.731709,0.688757,-0.707165,0.633534,-0.618194
4.5440,0.016742,0.000000,0.000000,0.004890,2.3774,0.0000,0.0000,-0.242020,0.242020,-0.000387,0.002731,0.002529,5.9325,0.9938,0.4062,-0.239301,0.237767,0.000000,0.745515,-0.731709,0.688757,-0.707165,0.633534,-0.618194
4.5607,0.016745,0.000000,0.000000,0.004881,2.3580,0.0000,0.0000,-0.242381,0.242381,-0.000387,0.002731,0.002529,5.9325,0.9938,0.4062,-0.239301,0.237767,0.000000,0.745515,-0.731709,0.688757,-0.707165,0.633534,-0.618194
