t,loop_dt,cmd_x,cmd_y,cmd_z,cmd_roll,cmd_pitch,cmd_yaw,cmd_ant_l,cmd_ant_r,pres_x,pres_y,pres_z,pres_roll,pres_pitch,pres_yaw,pres_ant_l,pres_ant_r,pres_j0,pres_j1,pres_j2,pres_j3,pres_j4,pres_j5,pres_j6
0.0000,0.000001,-0.000130,0.001117,-0.002402,0.3379,0.3110,0.2845,-0.179476,0.176408,-0.000130,0.001117,-0.002402,0.3379,0.3110,0.2845,-0.179476,0.176408,0.000000,0.578311,-0.562971,0.564505,-0.584447,0.575243,-0.561437
0.0168,0.016757,-0.000128,0.001098,-0.002362,0.3323,0.3058,0.2797,-0.179393,0.176376,-0.000130,0.001117,-0.002402,0.3379,0.3110,0.2845,-0.179476,0.176408,0.000000,0.578311,-0.562971,0.564505,-0.584447,0.575243,-0.561437
0.0335,0.016747,-0.000125,0.001080,-0.002321,0.3266,0.3006,0.2749,-0.179310,0.176345,-0.000126,0.001121,-0.002403,0.3431,0.3128,0.2900,-0.179476,0.177942,0.000000,0.578311,-0.562971,0.564505,-0.584447,0.575243,-0.561437
0.0503,0.016745,-0.000123,0.001061,-0.002281,0.3209,0.2954,0.2701,-0.179227,0.176314,-0.000126,0.001121,-0.002403,0.3431,0.3128,0.2900,-0.179476,0.176408,0.000000,0.578311,-0.562971,0.564505,-0.584447,0.575243,-0.561437
0.0671,0.016858,-0.000121,0.001042,-0.002241,0.3152,0.2901,0.2653,-0.179144,0.176282,-0.000126,0.001121,-0.002403,0.3431,0.3128,0.2900,-0.179476,0.176408,0.000000,0.578311,-0.562971,0.564505,-0.584447,0.575243,-0.561437
0.0839,0.016770,-0.000119,0.001023,-0.002200,0.3095,0.2849,0.2606,-0.179061,0.176251,-0.000126,0.001121,-0.002403,0.3431,0.3128,0.2900,-0.179476,0.176408,0.000000,0.578311,-0.562971,0.564505,-0.584447,0.575243,-0.561437
0.1007,0.016778,-0.000117,0.001005,-0.002160,0.3039,0.2797,0.2558,-0.178978,0.176219,-0.000126,0.001121,-0.002403,0.3431,0.3128,0.2900,-0.179476,0.176408,0.000000,0.578311,-0.562971,0.564505,-0.584447,0.575243,-0.561437
0.1174,0.016785,-0.000115,0.000986,-0.002120,0.2982,0.2745,0.2510,-0.178895,0.176188,-0.000126,0.001121,-0.002403,0.3431,0.3128,0.2900,-0.179476,0.176408,0.000000,0.578311,-0.562971,0.564505,-0.584447,0.575243,-0.561437
0.1342,0.016744,-0.000112,0.000967,-0.002080,0.2925,0.2693,0.2462,-0.178812,0.176156,-0.000126,0.001121,-0.002403,0.3431,0.3128,0.2900,-0.179476,0.176408,0.000000,0.578311,-0.562971,0.564505,-0.584447,0.575243,-0.561437
0.1509,0.016764,-0.000110,0.000948,-0.002039,0.2868,0.2641,0.2414,-0.178730,0.176125,-0.000126,0.001121,-0.002403,0.3431,0.3128,0.2900,-0.179476,0.176408,0.000000,0.578311,-0.562971,0.564505,-0.584447,0.575243,-0.561437
0.1677,0.016747,-0.000108,0.000930,-0.001999,0.2812,0.2589,0.2367,-0.178647,0.176093,0.000253,0.001227,-0.002579,0.3633,0.5846,0.5005,-0.179476,0.176408,0.000000,0.570641,-0.559903,0.564505,-0.584447,0.575243,-0.550699
0.1845,0.016759,-0.000106,0.000911,-0.001959,0.2755,0.2537,0.2319,-0.178564,0.176062,0.000227,0.001161,-0.002573,0.3509,0.5054,0.5323,-0.181010,0.176408,0.000000,0.570641,-0.559903,0.564505,-0.582913,0.575243,-0.550699
0.2012,0.016744,-0.000104,0.000892,-0.001919,0.2698,0.2485,0.2271,-0.178481,0.176031,0.000230,0.001168,-0.002574,0.3522,0.5137,0.5290,-0.181010,0.176408,0.000000,0.570641,-0.559903,0.564505,-0.582913,0.575243,-0.550699
0.2179,0.016749,-0.000102,0.000874,-0.001878,0.2642,0.2433,0.2223,-0.178398,0.175999,0.000176,0.001183,-0.002586,0.3128,0.5484,0.5824,-0.181010,0.176408,0.000000,0.570641,-0.558369,0.564505,-0.582913,0.575243,-0.550699
0.2347,0.016742,-0.000099,0.000855,-0.001838,0.2585,0.2381,0.2176,-0.178316,0.175968,0.000195,0.001127,-0.002559,0.3063,0.4915,0.4705,-0.181010,0.176408,0.000000,0.570641,-0.559903,0.564505,-0.582913,0.575243,-0.552233
0.2514,0.016754,-0.000097,0.000836,-0.001798,0.2528,0.2329,0.2128,-0.178233,0.175936,0.000195,0.001127,-0.002559,0.3063,0.4915,0.4705,-0.181010,0.176408,0.000000,0.570641,-0.559903,0.564505,-0.582913,0.575243,-0.552233
0.2682,0.016745,-0.000095,0.000817,-0.001758,0.2472,0.2277,0.2080,-0.178150,0.175905,0.000180,0.001187,-0.002588,0.3175,0.5506,0.5885,-0.181010,0.176408,0.000000,0.570641,-0.558369,0.564505,-0.582913,0.575243,-0.550699
0.2849,0.016755,-0.000093,0.000799,-0.001717,0.2415,0.2225,0.2032,-0.178067,0.175874,0.000235,0.001165,-0.002572,0.3557,0.5090,0.5231,-0.181010,0.176408,0.000000,0.570641,-0.559903,0.564505,-0.582913,0.575243,-0.550699
0.3017,0.016744,-0.000091,0.000780,-0.001677,0.2358,0.2173,0.1985,-0.177985,0.175842,0.000229,0.001168,-0.002574,0.3517,0.5133,0.5299,-0.181010,0.176408,0.000000,0.570641,-0.559903,0.564505,-0.582913,0.575243,-0.550699
0.3184,0.016748,-0.000088,0.000761,-0.001637,0.2302,0.2121,0.1937,-0.177902,0.175811,0.000229,0.001168,-0.002574,0.3517,0.5133,0.5299,-0.181010,0.176408,0.000000,0.570641,-0.559903,0.564505,-0.582913,0.575243,-0.550699
0.3352,0.016745,-0.000086,0.000743,-0.001597,0.2245,0.2069,0.1889,-0.177819,0.175779,0.000177,0.001183,-0.002586,0.3128,0.5484,0.5823,-0.181010,0.176408,0.000000,0.570641,-0.558369,0.564505,-0.582913,0.575243,-0.550699
0.3519,0.016767,-0.000084,0.000724,-0.001557,0.2188,0.2017,0.1842,-0.177736,0.175748,0.000177,0.001183,-0.002586,0.3128,0.5484,0.5823,-0.181010,0.176408,0.000000,0.570641,-0.558369,0.564505,-0.582913,0.575243,-0.550699
0.3687,0.016741,-0.000082,0.000705,-0.001516,0.2132,0.1965,0.1794,-0.177653,0.175717,0.000235,0.001166,-0.002572,0.3562,0.5092,0.5238,-0.181010,0.176408,0.000000,0.570641,-0.559903,0.564505,-0.582913,0.575243,-0.550699
0.3854,0.016747,-0.000080,0.000686,-0.001476,0.2075,0.1913,0.1746,-0.177571,0.175685,0.000176,0.001183,-0.002586,0.3124,0.5488,0.5829,-0.181010,0.176408,0.000000,0.570641,-0.558369,0.564505,-0.582913,0.575243,-0.550699
0.4022,0.016745,-0.000078,0.000668,-0.001436,0.2019,0.1861,0.1699,-0.177488,0.175654,0.000235,0.001166,-0.002572,0.3563,0.5091,0.5237,-0.179476,0.176408,0.000000,0.570641,-0.559903,0.564505,-0.582913,0.575243,-0.550699
0.4189,0.016744,-0.000075,0.000649,-0.001396,0.1962,0.1809,0.1651,-0.177405,0.175622,0.000176,0.001183,-0.002586,0.3123,0.5488,0.5830,-0.179476,0.176408,0.000000,0.570641,-0.558369,0.564505,-0.582913,0.575243,-0.550699
0.4357,0.016744,-0.000073,0.000630,-0.001355,0.1905,0.1757,0.1603,-0.177322,0.175591,0.000182,0.001182,-0.002585,0.3169,0.5447,0.5768,-0.181010,0.176408,0.000000,0.570641,-0.558369,0.564505,-0.582913,0.575243,-0.550699
0.4524,0.016755,-0.000071,0.000612,-0.001315,0.1849,0.1705,0.1556,-0.177239,0.175560,0.000182,0.001182,-0.002585,0.3169,0.5447,0.5768,-0.181010,0.176408,0.000000,0.570641,-0.558369,0.564505,-0.582913,0.575243,-0.550699
0.4692,0.016743,-0.000069,0.000593,-0.001275,0.1792,0.1653,0.1508,-0.177157,0.175528,0.000235,0.001166,-0.002572,0.3558,0.5096,0.5243,-0.179476,0.176408,0.000000,0.570641,-0.559903,0.564505,-0.582913,0.575243,-0.550699
0.4859,0.016752,-0.000067,0.000574,-0.001235,0.1735,0.1601,0.1460,-0.177074,0.175497,0.000229,0.001168,-0.002574,0.3517,0.5132,0.5298,-0.179476,0.176408,0.000000,0.570641,-0.559903,0.564505,-0.582913,0.575243,-0.550699
0.5027,0.016743,-0.000065,0.000556,-0.001195,0.1679,0.1549,0.1413,-0.176991,0.175465,0.000229,0.001168,-0.002574,0.3517,0.5132,0.5298,-0.179476,0.176408,0.000000,0.570641,-0.559903,0.564505,-0.582913,0.575243,-0.550699
0.5194,0.016752,-0.000062,0.000537,-0.001154,0.1622,0.1497,0.1365,-0.176908,0.175434,0.000177,0.001183,-0.002586,0.3128,0.5484,0.5823,-0.181010,0.176408,0.000000,0.570641,-0.558369,0.564505,-0.582913,0.575243,-0.550699
0.5363,0.016840,-0.000060,0.000518,-0.001114,0.1565,0.1444,0.1317,-0.176825,0.175402,0.000182,0.001182,-0.002585,0.3169,0.5447,0.5768,-0.179476,0.176408,0.000000,0.570641,-0.558369,0.564505,-0.582913,0.575243,-0.550699
0.5530,0.016756,-0.000058,0.000499,-0.001074,0.1509,0.1392,0.1269,-0.176742,0.175371,0.000182,0.001182,-0.002585,0.3169,0.5447,0.5768,-0.179476,0.176408,0.000000,0.570641,-0.558369,0.564505,-0.582913,0.575243,-0.550699
0.5698,0.016741,-0.000056,0.000481,-0.001033,0.1452,0.1340,0.1222,-0.176660,0.175340,0.000235,0.001166,-0.002572,0.3558,0.5096,0.5243,-0.181010,0.176408,0.000000,0.570641,-0.559903,0.564505,-0.582913,0.575243,-0.550699
0.5865,0.016760,-0.000054,0.000462,-0.000993,0.1396,0.1288,0.1174,-0.176577,0.175308,0.000229,0.001168,-0.002574,0.3517,0.5132,0.5298,-0.181010,0.176408,0.000000,0.570641,-0.559903,0.564505,-0.582913,0.575243,-0.550699
0.6033,0.016745,-0.000051,0.000443,-0.000953,0.1339,0.1236,0.1127,-0.176494,0.175277,0.000229,0.001168,-0.002574,0.3517,0.5132,0.5298,-0.179476,0.176408,0.000000,0.570641,-0.559903,0.564505,-0.582913,0.575243,-0.550699
0.6200,0.016762,-0.000049,0.000424,-0.000913,0.1282,0.1184,0.1079,-0.176411,0.175245,0.000229,0.001168,-0.002574,0.3517,0.5132,0.5298,-0.179476,0.176408,0.000000,0.570641,-0.559903,0.564505,-0.582913,0.575243,-0.550699
0.6368,0.016751,-0.000047,0.000406,-0.000872,0.1226,0.1132,0.1031,-0.176328,0.175214,0.000190,0.001129,-0.002560,0.3022,0.4952,0.4760,-0.179476,0.176408,0.000000,0.570641,-0.559903,0.564505,-0.582913,0.575243,-0.552233
0.6535,0.016759,-0.000045,0.000387,-0.000832,0.1169,0.1079,0.0984,-0.176245,0.175183,0.000190,0.001129,-0.002560,0.3022,0.4952,0.4760,-0.179476,0.176408,0.000000,0.570641,-0.559903,0.564505,-0.582913,0.575243,-0.552233
0.6703,0.016743,-0.000043,0.000368,-0.000792,0.1113,0.1027,0.0936,-0.176163,0.175151,0.000234,0.001171,-0.002575,0.3573,0.5147,0.5348,-0.179476,0.176408,0.000000,0.570641,-0.559903,0.564505,-0.582913,0.575243,-0.550699
0.6870,0.016749,-0.000041,0.000350,-0.000752,0.1056,0.0975,0.0889,-0.176080,0.175120,0.000229,0.001167,-0.002573,0.3516,0.5127,0.5287,-0.181010,0.176408,0.000000,0.570641,-0.559903,0.564505,-0.582913,0.575243,-0.550699
0.7038,0.016742,-0.000038,0.000331,-0.000712,0.1000,0.0923,0.0841,-0.175997,0.175088,0.000229,0.001167,-0.002573,0.3516,0.5127,0.5287,-0.179476,0.176408,0.000000,0.570641,-0.559903,0.564505,-0.582913,0.575243,-0.550699
0.7205,0.016752,-0.000036,0.000312,-0.000671,0.0943,0.0871,0.0793,-0.175914,0.175057,0.000229,0.001167,-0.002573,0.3516,0.5127,0.5287,-0.179476,0.176408,0.000000,0.570641,-0.559903,0.564505,-0.582913,0.575243,-0.550699
0.7373,0.016775,-0.000034,0.000293,-0.000631,0.0886,0.0819,0.0746,-0.175831,0.175025,0.000190,0.001129,-0.002560,0.3022,0.4953,0.4761,-0.179476,0.176408,0.000000,0.570641,-0.559903,0.564505,-0.582913,0.575243,-0.552233
0.7540,0.016758,-0.000032,0.000275,-0.000591,0.0830,0.0767,0.0698,-0.175749,0.174994,0.000190,0.001129,-0.002560,0.3022,0.4953,0.4761,-0.179476,0.176408,0.000000,0.570641,-0.559903,0.564505,-0.582913,0.575243,-0.552233
0.7708,0.016747,-0.000030,0.000256,-0.000551,0.0773,0.0714,0.0651,-0.175666,0.174963,0.000194,0.001133,-0.002562,0.3074,0.4971,0.4816,-0.179476,0.176408,0.000000,0.570641,-0.559903,0.564505,-0.582913,0.575243,-0.552233
0.7875,0.016755,-0.000028,0.000237,-0.000510,0.0717,0.0662,0.0603,-0.175583,0.174931,0.000194,0.001133,-0.002562,0.3074,0.4971,0.4816,-0.179476,0.176408,0.000000,0.570641,-0.559903,0.564505,-0.582913,0.575243,-0.552233
0.8043,0.016747,-0.000025,0.000219,-0.000470,0.0660,0.0610,0.0555,-0.175500,0.174900,0.000194,0.001133,-0.002562,0.3074,0.4971,0.4816,-0.179476,0.176408,0.000000,0.570641,-0.559903,0.564505,-0.582913,0.575243,-0.552233
0.8211,0.016755,-0.000023,0.000200,-0.000430,0.0604,0.0558,0.0508,-0.175417,0.174868,0.000194,0.001133,-0.002562,0.3074,0.4971,0.4816,-0.179476,0.176408,0.000000,0.570641,-0.559903,0.564505,-0.582913,0.575243,-0.552233
0.8385,0.017417,-0.000021,0.000180,-0.000388,0.0545,0.0504,0.0458,-0.175331,0.174836,0.000194,0.001133,-0.002562,0.3074,0.4971,0.4816,-0.179476,0.176408,0.000000,0.570641,-0.559903,0.564505,-0.582913,0.575243,-0.552233
0.8552,0.016754,-0.000019,0.000162,-0.000348,0.0488,0.0451,0.0411,-0.175249,0.174804,0.000194,0.001133,-0.002562,0.3074,0.4971,0.4816,-0.179476,0.176408,0.000000,0.570641,-0.559903,0.564505,-0.582913,0.575243,-0.552233
0.8720,0.016742,-0.000017,0.000143,-0.000308,0.0432,0.0399,0.0363,-0.175166,0.174773,0.000194,0.001133,-0.002562,0.3074,0.4971,0.4816,-0.179476,0.176408,0.000000,0.570641,-0.559903,0.564505,-0.582913,0.575243,-0.552233
0.8887,0.016751,-0.000014,0.000124,-0.000267,0.0375,0.0347,0.0316,-0.175083,0.174742,0.000194,0.001133,-0.002562,0.3074,0.4971,0.4816,-0.179476,0.176408,0.000000,0.570641,-0.559903,0.564505,-0.582913,0.575243,-0.552233
0.9055,0.016744,-0.000012,0.000106,-0.000227,0.0319,0.0295,0.0268,-0.175000,0.174710,0.000194,0.001133,-0.002562,0.3074,0.4971,0.4816,-0.179476,0.176408,0.000000,0.570641,-0.559903,0.564505,-0.582913,0.575243,-0.552233
0.9222,0.016754,-0.000010,0.000087,-0.000187,0.0262,0.0243,0.0221,-0.174917,0.174679,0.000194,0.001133,-0.002562,0.3074,0.4971,0.4816,-0.179476,0.176408,0.000000,0.570641,-0.559903,0.564505,-0.582913,0.575243,-0.552233
0.9390,0.016759,-0.000008,0.000068,-0.000147,0.0206,0.0190,0.0173,-0.174835,0.174647,0.000194,0.001133,-0.002562,0.3074,0.4971,0.4816,-0.179476,0.176408,0.000000,0.570641,-0.559903,0.564505,-0.582913,0.575243,-0.552233
0.9557,0.016751,-0.000006,0.000049,-0.000106,0.0149,0.0138,0.0126,-0.174752,0.174616,0.000194,0.001133,-0.002562,0.3074,0.4971,0.4816,-0.179476,0.176408,0.000000,0.570641,-0.559903,0.564505,-0.582913,0.575243,-0.552233
0.9725,0.016745,-0.000004,0.000031,-0.000066,0.0093,0.0086,0.0078,-0.174669,0.174585,0.000194,0.001133,-0.002562,0.3074,0.4971,0.4816,-0.179476,0.176408,0.000000,0.570641,-0.559903,0.564505,-0.582913,0.575243,-0.552233
0.9892,0.016755,-0.000001,0.000012,-0.000026,0.0036,0.0034,0.0031,-0.174586,0.174553,0.000194,0.001133,-0.002562,0.3074,0.4971,0.4816,-0.179476,0.176408,0.000000,0.570641,-0.559903,0.564505,-0.582913,0.575243,-0.552233
1.0060,0.016744,0.000000,0.000000,0.000019,0.0000,0.0000,0.0000,-0.171915,0.171915,0.000194,0.001133,-0.002562,0.3074,0.4971,0.4816,-0.179476,0.176408,0.000000,0.570641,-0.559903,0.564505,-0.582913,0.575243,-0.552233
1.0227,0.016752,0.000000,0.000000,0.000071,0.0000,0.0000,0.0000,-0.164575,0.164575,0.000194,0.001133,-0.002562,0.3074,0.4971,0.4816,-0.179476,0.176408,0.000000,0.570641,-0.559903,0.564505,-0.582913,0.575243,-0.552233
1.0395,0.016757,0.000000,0.000000,0.000124,0.0000,0.0000,0.0000,-0.157260,0.157260,0.000194,0.001133,-0.002562,0.3074,0.4971,0.4816,-0.179476,0.176408,0.000000,0.570641,-0.559903,0.564505,-0.582913,0.575243,-0.552233
1.0562,0.016750,0.000000,0.000000,0.000177,0.0000,0.0000,0.0000,-0.149996,0.149996,0.000152,0.001171,-0.002550,0.3567,0.4813,0.5347,-0.179476,0.176408,0.000000,0.572175,-0.559903,0.564505,-0.582913,0.575243,-0.552233
1.0730,0.016749,0.000000,0.000000,0.000229,0.0000,0.0000,0.0000,-0.142801,0.142801,0.000198,0.001129,-0.002563,0.3017,0.4985,0.4755,-0.179476,0.176408,0.000000,0.570641,-0.559903,0.564505,-0.582913,0.575243,-0.552233
1.0897,0.016739,0.000000,0.000000,0.000282,0.0000,0.0000,0.0000,-0.135698,0.135698,0.000193,0.001133,-0.002561,0.3075,0.4967,0.4817,-0.177942,0.174874,0.000000,0.570641,-0.559903,0.564505,-0.582913,0.575243,-0.552233
1.1065,0.016741,0.000000,0.000000,0.000334,0.0000,0.0000,0.0000,-0.128701,0.128701,0.000193,0.001133,-0.002561,0.3075,0.4967,0.4817,-0.173340,0.171806,0.000000,0.570641,-0.559903,0.564505,-0.582913,0.575243,-0.552233
1.1232,0.016764,0.000000,0.000000,0.000387,0.0000,0.0000,0.0000,-0.121822,0.121822,0.000247,0.001117,-0.002549,0.3462,0.4614,0.4279,-0.164136,0.165670,0.000000,0.570641,-0.561437,0.564505,-0.582913,0.575243,-0.552233
1.1400,0.016751,0.000000,0.000000,0.000439,0.0000,0.0000,0.0000,-0.115094,0.115094,0.000247,0.001117,-0.002549,0.3462,0.4614,0.4279,-0.164136,0.165670,0.000000,0.570641,-0.561437,0.564505,-0.582913,0.575243,-0.552233
1.1569,0.016927,0.000000,0.000000,0.000492,0.0000,0.0000,0.0000,-0.108462,0.108462,0.000213,0.001103,-0.002512,0.3813,0.3964,0.3806,-0.151864,0.156466,0.000000,0.572175,-0.562971,0.564505,-0.582913,0.575243,-0.553767
1.1739,0.016962,0.000000,0.000000,0.000545,0.0000,0.0000,0.0000,-0.102005,0.102005,0.000213,0.001103,-0.002512,0.3813,0.3964,0.3806,-0.151864,0.156466,0.000000,0.572175,-0.562971,0.564505,-0.582913,0.575243,-0.553767
1.1906,0.016742,0.000000,0.000000,0.000597,0.0000,0.0000,0.0000,-0.095832,0.095832,0.000213,0.001103,-0.002512,0.3813,0.3964,0.3806,-0.151864,0.156466,0.000000,0.572175,-0.562971,0.564505,-0.582913,0.575243,-0.553767
1.2074,0.016748,0.000000,0.000000,0.000650,0.0000,0.0000,0.0000,-0.089876,0.089876,0.000245,0.001121,-0.002516,0.3382,0.4699,0.2784,-0.121184,0.119651,0.000000,0.570641,-0.562971,0.564505,-0.584447,0.575243,-0.553767
1.2241,0.016753,0.000000,0.000000,0.000702,0.0000,0.0000,0.0000,-0.084152,0.084152,0.000200,0.001158,-0.002504,0.3926,0.4466,0.3426,-0.124252,0.119651,0.000000,0.572175,-0.562971,0.564505,-0.584447,0.575243,-0.553767
1.2409,0.016750,0.000000,0.000000,0.000754,0.0000,0.0000,0.0000,-0.078679,0.078679,0.000205,0.001154,-0.002505,0.3869,0.4490,0.3359,-0.124252,0.119651,0.000000,0.572175,-0.562971,0.564505,-0.584447,0.575243,-0.553767
1.2576,0.016773,0.000000,0.000000,0.000806,0.0000,0.0000,0.0000,-0.073464,0.073464,0.000205,0.001154,-0.002505,0.3869,0.4490,0.3359,-0.124252,0.119651,0.000000,0.572175,-0.562971,0.564505,-0.584447,0.575243,-0.553767
1.2744,0.016745,0.000000,0.000000,0.000858,0.0000,0.0000,0.0000,-0.068539,0.068539,0.000124,0.001077,-0.002479,0.2878,0.4137,0.2300,-0.118117,0.116583,0.000000,0.572175,-0.562971,0.564505,-0.584447,0.575243,-0.556835
1.2911,0.016747,0.000000,0.000000,0.000909,0.0000,0.0000,0.0000,-0.063906,0.063906,0.000146,0.001031,-0.002456,0.2876,0.3646,0.1345,-0.104311,0.102777,0.000000,0.572175,-0.564505,0.564505,-0.584447,0.575243,-0.558369
1.3079,0.016740,0.000000,0.000000,0.000961,0.0000,0.0000,0.0000,-0.059581,0.059581,-0.000071,0.001007,-0.002284,0.3668,0.5070,0.0380,-0.084369,0.087437,0.000000,0.576777,-0.567573,0.569107,-0.589049,0.575243,-0.562971
1.3246,0.016753,0.000000,0.000000,0.001013,0.0000,0.0000,0.0000,-0.055570,0.055570,-0.000049,0.001089,-0.002117,0.4583,0.4913,-0.0052,-0.069029,0.075165,0.000000,0.581379,-0.572175,0.572175,-0.593651,0.578311,-0.566039
1.3414,0.016742,0.000000,0.000000,0.001064,0.0000,0.0000,0.0000,-0.051892,0.051892,-0.000146,0.001028,-0.001948,0.4383,0.5109,0.0533,-0.061359,0.064427,0.000000,0.585981,-0.575243,0.576777,-0.596719,0.581379,-0.570641
1.3581,0.016751,0.000000,0.000000,0.001116,0.0000,0.0000,0.0000,-0.048551,0.048551,-0.000146,0.001028,-0.001948,0.4383,0.5109,0.0533,-0.061359,0.064427,0.000000,0.585981,-0.575243,0.576777,-0.596719,0.581379,-0.570641
1.3749,0.016747,0.000000,0.000000,0.001167,0.0000,0.0000,0.0000,-0.045560,0.045560,-0.000206,0.001028,-0.001730,0.6073,0.4248,0.1023,-0.059825,0.058291,0.000000,0.593651,-0.581379,0.581379,-0.599786,0.584447,-0.575243
1.3916,0.016749,0.000000,0.000000,0.001218,0.0000,0.0000,0.0000,-0.042925,0.042925,-0.000187,0.000975,-0.001579,0.5788,0.3810,-0.0105,-0.058291,0.056757,0.000000,0.596719,-0.585981,0.584447,-0.602854,0.587515,-0.579845
1.4083,0.016746,0.000000,0.000000,0.001269,0.0000,0.0000,0.0000,-0.040655,0.040655,-0.000190,0.001060,-0.001448,0.6805,0.3869,0.1096,-0.053689,0.053689,0.000000,0.601320,-0.589049,0.587515,-0.605922,0.590583,-0.581379
1.4251,0.016750,0.000000,0.000000,0.001320,0.0000,0.0000,0.0000,-0.038754,0.038754,-0.000149,0.000981,-0.001325,0.6975,0.4038,0.2595,-0.044485,0.049087,0.000000,0.604388,-0.592117,0.592117,-0.607456,0.593651,-0.582913
1.4418,0.016741,0.000000,0.000000,0.001370,0.0000,0.0000,0.0000,-0.037231,0.037231,-0.000071,0.000990,-0.001288,0.6956,0.4346,0.2437,-0.042951,0.044485,0.000000,0.604388,-0.593651,0.593651,-0.608990,0.595185,-0.582913
1.4586,0.016766,0.000000,0.000000,0.001421,0.0000,0.0000,0.0000,-0.036086,0.036086,-0.000071,0.000990,-0.001288,0.6956,0.4346,0.2437,-0.042951,0.044485,0.000000,0.604388,-0.593651,0.593651,-0.608990,0.595185,-0.582913
1.4753,0.016743,0.000000,0.000000,0.001471,0.0000,0.0000,0.0000,-0.035325,0.035325,-0.000149,0.000935,-0.001205,0.6848,0.3478,0.3000,-0.046019,0.039884,0.000000,0.607456,-0.595185,0.595185,-0.608990,0.596719,-0.585981
1.4921,0.016745,0.000000,0.000000,0.001521,0.0000,0.0000,0.0000,-0.034950,0.034950,-0.000045,0.000885,-0.001176,0.6752,0.3387,0.3481,-0.042951,0.038350,0.000000,0.607456,-0.596719,0.596719,-0.608990,0.598253,-0.585981
1.5088,0.016745,0.000000,0.000000,0.001571,0.0000,0.0000,0.0000,-0.034960,0.034960,-0.000041,0.000820,-0.001129,0.7045,0.4571,0.3436,-0.038350,0.038350,0.000000,0.607456,-0.598253,0.599786,-0.610524,0.598253,-0.585981
1.5256,0.016755,0.000000,0.000000,0.001621,0.0000,0.0000,0.0000,-0.035358,0.035358,-0.000013,0.000812,-0.001097,0.7403,0.5113,0.2903,-0.036816,0.036816,0.000000,0.607456,-0.599786,0.601320,-0.612058,0.598253,-0.585981
1.5423,0.016751,0.000000,0.000000,0.001671,0.0000,0.0000,0.0000,-0.036140,0.036140,-0.000071,0.000908,-0.001077,0.7966,0.5408,0.2962,-0.038350,0.036816,0.000000,0.608990,-0.599786,0.601320,-0.613592,0.598253,-0.585981
1.5593,0.016956,0.000000,0.000000,0.001721,0.0000,0.0000,0.0000,-0.037323,0.037323,-0.000071,0.000908,-0.001077,0.7966,0.5408,0.2962,-0.038350,0.036816,0.000000,0.608990,-0.599786,0.601320,-0.613592,0.598253,-0.585981
1.5760,0.016745,0.000000,0.000000,0.001770,0.0000,0.0000,0.0000,-0.038872,0.038872,-0.000107,0.000937,-0.001067,0.8401,0.5223,0.3501,-0.036816,0.035282,0.000000,0.610524,-0.599786,0.601320,-0.613592,0.598253,-0.585981
1.5928,0.016743,0.000000,0.000000,0.001820,0.0000,0.0000,0.0000,-0.040797,0.040797,-0.000103,0.000934,-0.001068,0.8355,0.5242,0.3445,-0.032214,0.036816,0.000000,0.610524,-0.599786,0.601320,-0.613592,0.598253,-0.585981
1.6095,0.016742,0.000000,0.000000,0.001868,0.0000,0.0000,0.0000,-0.043091,0.043091,-0.000103,0.000934,-0.001068,0.8355,0.5242,0.3445,-0.033748,0.035282,0.000000,0.610524,-0.599786,0.601320,-0.613592,0.598253,-0.585981
1.6263,0.016745,0.000000,0.000000,0.001917,0.0000,0.0000,0.0000,-0.045750,0.045750,-0.000103,0.000934,-0.001068,0.8355,0.5242,0.3445,-0.039884,0.036816,0.000000,0.610524,-0.599786,0.601320,-0.613592,0.598253,-0.585981
1.6430,0.016751,0.000000,0.000000,0.001966,0.0000,0.0000,0.0000,-0.048766,0.048766,-0.000103,0.000934,-0.001068,0.8355,0.5242,0.3445,-0.039884,0.036816,0.000000,0.610524,-0.599786,0.601320,-0.613592,0.598253,-0.585981
1.6598,0.016740,0.000000,0.000000,0.002014,0.0000,0.0000,0.0000,-0.052128,0.052128,-0.000103,0.000934,-0.001068,0.8355,0.5242,0.3445,-0.042951,0.036816,0.000000,0.610524,-0.599786,0.601320,-0.613592,0.598253,-0.585981
1.6765,0.016739,0.000000,0.000000,0.002062,0.0000,0.0000,0.0000,-0.055828,0.055828,-0.000144,0.000895,-0.001055,0.7865,0.5068,0.2909,-0.041417,0.039884,0.000000,0.610524,-0.599786,0.601320,-0.613592,0.598253,-0.587515
1.6932,0.016707,0.000000,0.000000,0.002110,0.0000,0.0000,0.0000,-0.059849,0.059849,-0.000031,0.000931,-0.001032,0.7136,0.4405,0.4040,-0.042951,0.044485,0.000000,0.610524,-0.599786,0.601320,-0.613592,0.601320,-0.587515
1.7100,0.016750,0.000000,0.000000,0.002157,0.0000,0.0000,0.0000,-0.064196,0.064196,0.000026,0.000952,-0.000961,0.5164,0.3615,0.3915,-0.053689,0.046019,0.000000,0.610524,-0.599786,0.601320,-0.615126,0.605922,-0.590583
1.7267,0.016744,0.000000,0.000000,0.002205,0.0000,0.0000,0.0000,-0.068848,0.068848,0.000034,0.001038,-0.000871,0.4699,0.3181,0.2842,-0.053689,0.050621,0.000000,0.612058,-0.601320,0.601320,-0.618194,0.608990,-0.593651
1.7435,0.016757,0.000000,0.000000,0.002252,0.0000,0.0000,0.0000,-0.073796,0.073796,0.000114,0.001157,-0.000746,0.4570,0.1864,0.2412,-0.061359,0.059825,0.000000,0.615126,-0.604388,0.601320,-0.621262,0.613592,-0.596719
1.7602,0.016740,0.000000,0.000000,0.002298,0.0000,0.0000,0.0000,-0.079017,0.079017,0.000114,0.001157,-0.000746,0.4570,0.1864,0.2412,-0.061359,0.059825,0.000000,0.615126,-0.604388,0.601320,-0.621262,0.613592,-0.596719
1.7769,0.016741,0.000000,0.000000,0.002345,0.0000,0.0000,0.0000,-0.084503,0.084503,0.000078,0.001162,-0.000612,0.4195,0.1318,0.1373,-0.069029,0.070563,0.000000,0.618194,-0.607456,0.602854,-0.624330,0.616660,-0.601320
1.7937,0.016749,0.000000,0.000000,0.002391,0.0000,0.0000,0.0000,-0.090241,0.090241,0.000027,0.001180,-0.000455,0.3850,0.1706,0.0393,-0.072097,0.070563,0.000000,0.621262,-0.610524,0.605922,-0.628932,0.619728,-0.605922
1.8104,0.016755,0.000000,0.000000,0.002437,0.0000,0.0000,0.0000,-0.096214,0.096214,-0.000023,0.001276,-0.000301,0.4488,0.2014,0.0496,-0.073631,0.072097,0.000000,0.625864,-0.613592,0.608990,-0.633534,0.622796,-0.608990
1.8272,0.016744,0.000000,0.000000,0.002483,0.0000,0.0000,0.0000,-0.102401,0.102401,0.000024,0.001228,-0.000182,0.3928,0.2131,-0.0063,-0.081301,0.082835,0.000000,0.627398,-0.616660,0.612058,-0.636602,0.625864,-0.612058
1.8439,0.016755,0.000000,0.000000,0.002529,0.0000,0.0000,0.0000,-0.108791,0.108791,-0.000119,0.001219,-0.000072,0.4376,0.2154,0.1095,-0.092039,0.093573,0.000000,0.632000,-0.618194,0.615126,-0.638136,0.627398,-0.615126
1.8607,0.016751,0.000000,0.000000,0.002574,0.0000,0.0000,0.0000,-0.115361,0.115361,-0.000119,0.001219,-0.000072,0.4376,0.2154,0.1095,-0.092039,0.093573,0.000000,0.632000,-0.618194,0.615126,-0.638136,0.627398,-0.615126
1.8774,0.016744,0.000000,0.000000,0.002619,0.0000,0.0000,0.0000,-0.122093,0.122093,-0.000077,0.001172,-0.000010,0.5481,0.2814,0.0976,-0.102777,0.101243,0.000000,0.633534,-0.621262,0.618194,-0.639670,0.627398,-0.615126
1.8942,0.016740,0.000000,0.000000,0.002664,0.0000,0.0000,0.0000,-0.128967,0.128967,-0.000026,0.001161,0.000032,0.5746,0.2412,0.2086,-0.108913,0.099709,0.000000,0.635068,-0.622796,0.619728,-0.639670,0.628932,-0.615126
1.9109,0.016743,0.000000,0.000000,0.002708,0.0000,0.0000,0.0000,-0.135969,0.135969,-0.000100,0.001091,0.000102,0.5996,0.3297,0.1975,-0.113515,0.104311,0.000000,0.636602,-0.624330,0.622796,-0.641204,0.628932,-0.616660
1.9278,0.016902,0.000000,0.000000,0.002753,0.0000,0.0000,0.0000,-0.143146,0.143146,-0.000038,0.001194,0.000142,0.6565,0.2866,0.1986,-0.122718,0.119651,0.000000,0.638136,-0.625864,0.622796,-0.642738,0.630466,-0.616660
1.9446,0.016744,0.000000,0.000000,0.002796,0.0000,0.0000,0.0000,-0.150343,0.150343,-0.000038,0.001194,0.000142,0.6565,0.2866,0.1986,-0.122718,0.119651,0.000000,0.638136,-0.625864,0.622796,-0.642738,0.630466,-0.616660
1.9613,0.016744,0.000000,0.000000,0.002840,0.0000,0.0000,0.0000,-0.157607,0.157607,-0.000074,0.001247,0.000173,0.7869,0.2261,0.2538,-0.136524,0.133456,0.000000,0.641204,-0.627398,0.622796,-0.642738,0.630466,-0.616660
1.9781,0.016746,0.000000,0.000000,0.002883,0.0000,0.0000,0.0000,-0.164918,0.164918,-0.000015,0.001258,0.000219,0.7347,0.1965,0.1380,-0.142660,0.139592,0.000000,0.641204,-0.628932,0.622796,-0.644272,0.632000,-0.618194
1.9948,0.016750,0.000000,0.000000,0.002926,0.0000,0.0000,0.0000,-0.172258,0.172258,0.000034,0.001273,0.000226,0.7015,0.1659,0.2048,-0.144194,0.144194,0.000000,0.641204,-0.628932,0.622796,-0.644272,0.633534,-0.618194
2.0116,0.016748,0.000000,0.000000,0.002968,0.0000,0.0000,0.0000,-0.179603,0.179603,-0.000012,0.001232,0.000238,0.6560,0.1521,0.1430,-0.151864,0.156466,0.000000,0.641204,-0.628932,0.622796,-0.644272,0.633534,-0.619728
2.0285,0.016968,0.000000,0.000000,0.003011,0.0000,0.0000,0.0000,-0.187030,0.187030,-0.000021,0.001293,0.000248,0.6716,0.2035,0.0945,-0.168738,0.168738,0.000000,0.641204,-0.628932,0.622796,-0.645806,0.633534,-0.619728
2.0453,0.016749,0.000000,0.000000,0.003053,0.0000,0.0000,0.0000,-0.194327,0.194327,-0.000021,0.001293,0.000248,0.6716,0.2035,0.0945,-0.168738,0.168738,0.000000,0.641204,-0.628932,0.622796,-0.645806,0.633534,-0.619728
2.0620,0.016742,0.000000,0.000000,0.003094,0.0000,0.0000,0.0000,-0.201566,0.201566,-0.000034,0.001343,0.000258,0.6808,0.2480,0.0446,-0.181010,0.179476,0.000000,0.641204,-0.628932,0.622796,-0.647340,0.633534,-0.619728
2.0788,0.016759,0.000000,0.000000,0.003135,0.0000,0.0000,0.0000,-0.208738,0.208738,0.000023,0.001354,0.000269,0.6412,0.2097,0.1045,-0.187146,0.181010,0.000000,0.641204,-0.628932,0.622796,-0.647340,0.635068,-0.619728
2.0955,0.016744,0.000000,0.000000,0.003176,0.0000,0.0000,0.0000,-0.215808,0.215808,-0.000095,0.001546,0.000313,0.7653,0.2837,0.0986,-0.187146,0.184078,0.000000,0.644272,-0.628932,0.622796,-0.650408,0.635068,-0.619728
2.1123,0.016756,0.000000,0.000000,0.003217,0.0000,0.0000,0.0000,-0.222769,0.222769,-0.000096,0.001582,0.000320,0.7633,0.3258,0.0441,-0.191748,0.196350,0.000000,0.644272,-0.628932,0.622796,-0.651942,0.635068,-0.619728
2.1290,0.016743,0.000000,0.000000,0.003257,0.0000,0.0000,0.0000,-0.229591,0.229591,-0.000167,0.001619,0.000318,0.8132,0.4046,0.0280,-0.208621,0.213223,0.001534,0.644272,-0.628932,0.622796,-0.653476,0.633534,-0.619728
2.1458,0.016754,0.000000,0.000000,0.003297,0.0000,0.0000,0.0000,-0.236265,0.236265,-0.000167,0.001619,0.000318,0.8132,0.4046,0.0280,-0.208621,0.213223,0.001534,0.644272,-0.628932,0.622796,-0.653476,0.633534,-0.619728
2.1625,0.016746,0.000000,0.000000,0.003336,0.0000,0.0000,0.0000,-0.242765,0.242765,-0.000145,0.001671,0.000341,0.8183,0.3481,0.0609,-0.222427,0.220893,0.000000,0.645806,-0.628932,0.622796,-0.653476,0.635068,-0.619728
2.1793,0.016754,0.000000,0.000000,0.003375,0.0000,0.0000,0.0000,-0.249080,0.249080,-0.000203,0.001763,0.000361,0.8779,0.3891,0.0485,-0.230097,0.223961,0.000000,0.647340,-0.628932,0.622796,-0.655010,0.635068,-0.619728
2.1961,0.016857,0.000000,0.000000,0.003414,0.0000,0.0000,0.0000,-0.255225,0.255225,-0.000294,0.001811,0.000394,0.8831,0.4025,-0.0049,-0.230097,0.233165,0.000000,0.648874,-0.628932,0.622796,-0.656544,0.635068,-0.621262
2.2129,0.016760,0.000000,0.000000,0.003452,0.0000,0.0000,0.0000,-0.261110,0.261110,-0.000294,0.001811,0.000394,0.8831,0.4025,-0.0049,-0.230097,0.233165,0.000000,0.648874,-0.628932,0.622796,-0.656544,0.635068,-0.621262
2.2297,0.016803,0.000000,0.000000,0.003490,0.0000,0.0000,0.0000,-0.266770,0.266770,-0.000294,0.001811,0.000394,0.8831,0.4025,-0.0049,-0.230097,0.233165,0.000000,0.648874,-0.628932,0.622796,-0.656544,0.635068,-0.621262
2.2465,0.016773,0.000000,0.000000,0.003528,0.0000,0.0000,0.0000,-0.272163,0.272163,-0.000294,0.001811,0.000394,0.8831,0.4025,-0.0049,-0.230097,0.233165,0.000000,0.648874,-0.628932,0.622796,-0.656544,0.635068,-0.621262
2.2632,0.016754,0.000000,0.000000,0.003565,0.0000,0.0000,0.0000,-0.277279,0.277279,-0.000294,0.001811,0.000394,0.8831,0.4025,-0.0049,-0.230097,0.233165,0.000000,0.648874,-0.628932,0.622796,-0.656544,0.635068,-0.621262
2.2800,0.016764,0.000000,0.000000,0.003602,0.0000,0.0000,0.0000,-0.282113,0.282113,-0.000522,0.001772,0.000645,1.1241,0.5873,-0.0517,-0.246971,0.248505,0.000000,0.656544,-0.635068,0.630466,-0.662680,0.635068,-0.625864
2.2967,0.016753,0.000000,0.000000,0.003638,0.0000,0.0000,0.0000,-0.286647,0.286647,-0.000522,0.001772,0.000645,1.1241,0.5873,-0.0517,-0.250039,0.250039,0.000000,0.658078,-0.636602,0.635068,-0.664214,0.635068,-0.625864
2.3135,0.016756,0.000000,0.000000,0.003674,0.0000,0.0000,0.0000,-0.290870,0.290870,-0.000538,0.001690,0.000692,1.1641,0.7194,0.0647,-0.250039,0.250039,0.000000,0.658078,-0.636602,0.635068,-0.664214,0.635068,-0.625864
2.3302,0.016750,0.000000,0.000000,0.003709,0.0000,0.0000,0.0000,-0.294770,0.294770,-0.000578,0.001581,0.000761,1.3020,0.8551,0.0550,-0.257709,0.256175,0.000000,0.659612,-0.639670,0.639670,-0.665748,0.633534,-0.625864
2.3470,0.016761,0.000000,0.000000,0.003744,0.0000,0.0000,0.0000,-0.298339,0.298339,-0.000492,0.001529,0.000876,1.4383,0.8737,0.1681,-0.273049,0.276117,0.000000,0.662680,-0.644272,0.644272,-0.667282,0.635068,-0.625864
2.3638,0.016786,0.000000,0.000000,0.003779,0.0000,0.0000,0.0000,-0.301570,0.301570,-0.000417,0.001390,0.000915,1.4780,0.9023,0.1571,-0.291456,0.292990,0.000000,0.662680,-0.647340,0.647340,-0.667282,0.635068,-0.625864
2.3806,0.016760,0.000000,0.000000,0.003813,0.0000,0.0000,0.0000,-0.304443,0.304443,-0.000355,0.001317,0.000973,1.5390,0.9792,0.1040,-0.300660,0.292990,0.000000,0.662680,-0.650408,0.650408,-0.668816,0.635068,-0.625864
2.3974,0.016825,0.000000,0.000000,0.003847,0.0000,0.0000,0.0000,-0.306966,0.306966,-0.000355,0.001317,0.000973,1.5390,0.9792,0.1040,-0.299126,0.291456,0.000000,0.662680,-0.651942,0.653476,-0.670350,0.638136,-0.625864
2.4141,0.016761,0.000000,0.000000,0.003881,0.0000,0.0000,0.0000,-0.309110,0.309110,-0.000234,0.001285,0.001040,1.4823,1.0186,0.2195,-0.299126,0.291456,0.000000,0.662680,-0.651942,0.653476,-0.670350,0.638136,-0.625864
2.4309,0.016743,0.000000,0.000000,0.003914,0.0000,0.0000,0.0000,-0.310880,0.310880,-0.000121,0.001216,0.001107,1.5147,1.0604,0.2076,-0.302194,0.300660,0.000000,0.662680,-0.655010,0.656544,-0.671884,0.639670,-0.625864
2.4478,0.016913,0.000000,0.000000,0.003947,0.0000,0.0000,0.0000,-0.312286,0.312286,0.000006,0.001207,0.001196,1.5478,1.0535,0.3193,-0.306796,0.305262,0.000000,0.664214,-0.658078,0.659612,-0.673418,0.642738,-0.625864
2.4646,0.016755,0.000000,0.000000,0.003979,0.0000,0.0000,0.0000,-0.313294,0.313294,0.000132,0.001338,0.001245,1.5271,1.0505,0.2504,-0.308330,0.305262,0.000000,0.664214,-0.659612,0.659612,-0.676486,0.645806,-0.625864
2.4813,0.016753,0.000000,0.000000,0.004010,0.0000,0.0000,0.0000,-0.313918,0.313918,0.000105,0.001496,0.001321,1.5610,1.1034,0.4242,-0.311398,0.309864,0.000000,0.667282,-0.659612,0.661146,-0.679553,0.648874,-0.625864
2.4983,0.016977,0.000000,0.000000,0.004042,0.0000,0.0000,0.0000,-0.314157,0.314157,0.000162,0.001577,0.001359,1.6162,1.0645,0.4056,-0.314466,0.311398,0.000000,0.668816,-0.661146,0.661146,-0.681087,0.650408,-0.625864
2.5150,0.016750,0.000000,0.000000,0.004073,0.0000,0.0000,0.0000,-0.314004,0.314004,0.000162,0.001577,0.001359,1.6162,1.0645,0.4056,-0.314466,0.311398,0.000000,0.668816,-0.661146,0.661146,-0.681087,0.650408,-0.625864
2.5318,0.016748,0.000000,0.000000,0.004103,0.0000,0.0000,0.0000,-0.313464,0.313464,0.000141,0.001627,0.001438,1.6208,1.1224,0.6863,-0.314466,0.311398,0.000000,0.671884,-0.661146,0.664214,-0.682621,0.653476,-0.625864
2.5485,0.016758,0.000000,0.000000,0.004133,0.0000,0.0000,0.0000,-0.312539,0.312539,0.000155,0.001792,0.001486,1.6519,1.0713,0.8233,-0.314466,0.311398,0.000000,0.674952,-0.661146,0.664214,-0.684155,0.656544,-0.625864
2.5653,0.016744,0.000000,0.000000,0.004162,0.0000,0.0000,0.0000,-0.311233,0.311233,0.000125,0.001791,0.001517,1.6100,1.0123,0.8645,-0.314466,0.311398,0.000000,0.676486,-0.661146,0.664214,-0.684155,0.658078,-0.627398
2.5820,0.016751,0.000000,0.000000,0.004191,0.0000,0.0000,0.0000,-0.309548,0.309548,-0.000012,0.001924,0.001595,1.5970,1.0215,0.8055,-0.314466,0.311398,0.000000,0.679553,-0.661146,0.664214,-0.687223,0.659612,-0.630466
2.5988,0.016748,0.000000,0.000000,0.004220,0.0000,0.0000,0.0000,-0.307490,0.307490,0.000015,0.001966,0.001609,1.6087,0.9738,0.9228,-0.316000,0.311398,0.000000,0.681087,-0.661146,0.664214,-0.687223,0.661146,-0.630466
2.6155,0.016756,0.000000,0.000000,0.004248,0.0000,0.0000,0.0000,-0.305062,0.305062,0.000015,0.001966,0.001609,1.6087,0.9738,0.9228,-0.316000,0.311398,0.000000,0.681087,-0.661146,0.664214,-0.687223,0.661146,-0.630466
2.6323,0.016744,0.000000,0.000000,0.004275,0.0000,0.0000,0.0000,-0.302275,0.302275,-0.000017,0.001978,0.001643,1.5689,0.9146,0.9662,-0.312932,0.309864,0.000000,0.682621,-0.661146,0.664214,-0.687223,0.662680,-0.632000
2.6490,0.016755,0.000000,0.000000,0.004302,0.0000,0.0000,0.0000,-0.299133,0.299133,-0.000056,0.002051,0.001686,1.5454,0.9059,0.9618,-0.312932,0.309864,0.000000,0.684155,-0.661146,0.664214,-0.688757,0.664214,-0.633534
2.6658,0.016748,0.000000,0.000000,0.004329,0.0000,0.0000,0.0000,-0.295646,0.295646,-0.000121,0.002020,0.001731,1.4605,0.8251,0.9624,-0.312932,0.309864,0.000000,0.685689,-0.661146,0.664214,-0.688757,0.665748,-0.636602
2.6825,0.016714,0.000000,0.000000,0.004355,0.0000,0.0000,0.0000,-0.291833,0.291833,-0.000156,0.001983,0.001739,1.4205,0.8160,0.9067,-0.312932,0.309864,0.000000,0.685689,-0.661146,0.664214,-0.688757,0.665748,-0.638136
2.6995,0.016983,0.000000,0.000000,0.004381,0.0000,0.0000,0.0000,-0.287627,0.287627,-0.000152,0.001987,0.001738,1.4247,0.8169,0.9125,-0.312932,0.309864,0.000000,0.685689,-0.661146,0.664214,-0.688757,0.665748,-0.638136
2.7162,0.016751,0.000000,0.000000,0.004406,0.0000,0.0000,0.0000,-0.283164,0.283164,-0.000152,0.001987,0.001738,1.4247,0.8169,0.9125,-0.312932,0.309864,0.000000,0.685689,-0.661146,0.664214,-0.688757,0.665748,-0.638136
2.7330,0.016743,0.000000,0.000000,0.004430,0.0000,0.0000,0.0000,-0.278401,0.278401,-0.000180,0.001889,0.001777,1.3645,0.7465,0.7448,-0.311398,0.308330,0.000000,0.685689,-0.662680,0.664214,-0.688757,0.665748,-0.641204
2.7497,0.016755,0.000000,0.000000,0.004455,0.0000,0.0000,0.0000,-0.273348,0.273348,-0.000232,0.001917,0.001797,1.3332,0.7857,0.6509,-0.311398,0.306796,0.000000,0.685689,-0.662680,0.664214,-0.690291,0.665748,-0.642738
2.7665,0.016745,0.000000,0.000000,0.004478,0.0000,0.0000,0.0000,-0.268024,0.268024,-0.000339,0.001916,0.001843,1.3364,0.8493,0.6619,-0.311398,0.303728,0.000000,0.687223,-0.662680,0.665748,-0.691825,0.665748,-0.644272
2.7832,0.016752,0.000000,0.000000,0.004501,0.0000,0.0000,0.0000,-0.262440,0.262440,-0.000397,0.001960,0.001908,1.3849,0.9241,0.5503,-0.303728,0.299126,0.000000,0.688757,-0.664214,0.667282,-0.694893,0.665748,-0.645806
2.8000,0.016803,0.000000,0.000000,0.004524,0.0000,0.0000,0.0000,-0.256593,0.256593,-0.000295,0.001979,0.001901,1.4659,0.8984,0.5619,-0.288388,0.291456,0.000000,0.688757,-0.665748,0.667282,-0.694893,0.665748,-0.644272
2.8168,0.016752,0.000000,0.000000,0.004546,0.0000,0.0000,0.0000,-0.250537,0.250537,-0.000295,0.001979,0.001901,1.4659,0.8984,0.5619,-0.288388,0.291456,0.000000,0.688757,-0.665748,0.667282,-0.694893,0.665748,-0.644272
2.8335,0.016746,0.000000,0.000000,0.004568,0.0000,0.0000,0.0000,-0.244273,0.244273,-0.000238,0.001984,0.001938,1.5807,0.8171,0.5053,-0.277651,0.282252,0.000000,0.690291,-0.668816,0.667282,-0.694893,0.665748,-0.644272
2.8505,0.016948,0.000000,0.000000,0.004589,0.0000,0.0000,0.0000,-0.237737,0.237737,-0.000177,0.001991,0.001969,1.6916,0.7416,0.4555,-0.269981,0.274583,0.000000,0.691825,-0.671884,0.667282,-0.694893,0.665748,-0.644272
2.8672,0.016756,0.000000,0.000000,0.004610,0.0000,0.0000,0.0000,-0.231098,0.231098,-0.000128,0.001973,0.001978,1.7173,0.7143,0.4045,-0.263845,0.266913,0.000000,0.691825,-0.673418,0.667282,-0.694893,0.665748,-0.644272
2.8840,0.016751,0.000000,0.000000,0.004630,0.0000,0.0000,0.0000,-0.224305,0.224305,-0.000175,0.001935,0.001991,1.6660,0.6998,0.3540,-0.259243,0.257709,0.000000,0.691825,-0.673418,0.667282,-0.694893,0.665748,-0.645806
2.9009,0.016893,0.000000,0.000000,0.004650,0.0000,0.0000,0.0000,-0.217315,0.217315,-0.000061,0.001986,0.002012,1.8425,0.6347,0.3590,-0.253107,0.250039,0.000000,0.693359,-0.676486,0.667282,-0.694893,0.665748,-0.644272
2.9176,0.016752,0.000000,0.000000,0.004669,0.0000,0.0000,0.0000,-0.210264,0.210264,-0.000061,0.001986,0.002012,1.8425,0.6347,0.3590,-0.253107,0.250039,0.000000,0.693359,-0.676486,0.667282,-0.694893,0.665748,-0.644272
2.9344,0.016741,0.000000,0.000000,0.004688,0.0000,0.0000,0.0000,-0.203119,0.203119,-0.000114,0.001940,0.002023,1.7755,0.6242,0.3027,-0.245437,0.242369,0.000000,0.693359,-0.676486,0.667282,-0.694893,0.665748,-0.645806
2.9511,0.016754,0.000000,0.000000,0.004706,0.0000,0.0000,0.0000,-0.195890,0.195890,0.000046,0.001870,0.002035,1.8083,0.5687,0.1394,-0.234699,0.234699,0.000000,0.691825,-0.679553,0.667282,-0.694893,0.665748,-0.645806
2.9679,0.016748,0.000000,0.000000,0.004723,0.0000,0.0000,0.0000,-0.188603,0.188603,0.000028,0.001992,0.002067,1.8260,0.5764,0.2122,-0.227029,0.228563,0.000000,0.693359,-0.679553,0.667282,-0.696427,0.667282,-0.645806
2.9846,0.016755,0.000000,0.000000,0.004740,0.0000,0.0000,0.0000,-0.181275,0.181275,0.000183,0.002018,0.002074,1.8714,0.5245,0.2590,-0.216291,0.222427,0.000000,0.693359,-0.681087,0.667282,-0.696427,0.668816,-0.644272
3.0014,0.016747,0.000000,0.000000,0.004757,0.0000,0.0000,0.0000,-0.173932,0.173932,0.000155,0.001992,0.002051,1.7815,0.5787,0.2542,-0.204019,0.211689,0.000000,0.691825,-0.679553,0.667282,-0.696427,0.668816,-0.644272
3.0181,0.016753,0.000000,0.000000,0.004773,0.0000,0.0000,0.0000,-0.166587,0.166587,0.000155,0.001992,0.002051,1.7815,0.5787,0.2542,-0.204019,0.211689,0.000000,0.691825,-0.679553,0.667282,-0.696427,0.668816,-0.644272
3.0349,0.016743,0.000000,0.000000,0.004788,0.0000,0.0000,0.0000,-0.159270,0.159270,0.000201,0.002069,0.002075,1.7637,0.5886,0.2541,-0.194816,0.200951,0.000000,0.691825,-0.679553,0.667282,-0.697961,0.670350,-0.644272
3.0516,0.016749,0.000000,0.000000,0.004803,0.0000,0.0000,0.0000,-0.151991,0.151991,0.000198,0.002094,0.002108,1.6899,0.5860,0.1978,-0.187146,0.191748,0.000000,0.691825,-0.679553,0.667282,-0.699495,0.671884,-0.645806
3.0684,0.016751,0.000000,0.000000,0.004817,0.0000,0.0000,0.0000,-0.144775,0.144775,0.000241,0.002166,0.002127,1.6704,0.6018,0.2031,-0.179476,0.182544,0.000000,0.691825,-0.679553,0.667282,-0.701029,0.673418,-0.645806
3.0851,0.016755,0.000000,0.000000,0.004831,0.0000,0.0000,0.0000,-0.137638,0.137638,0.000264,0.002257,0.002122,1.7319,0.6660,0.2024,-0.173340,0.171806,0.000000,0.691825,-0.679553,0.667282,-0.702563,0.673418,-0.644272
3.1027,0.017579,0.000000,0.000000,0.004845,0.0000,0.0000,0.0000,-0.130262,0.130262,0.000330,0.002287,0.002157,1.7727,0.5776,0.2578,-0.164136,0.162602,0.000000,0.693359,-0.681087,0.667282,-0.702563,0.674952,-0.644272
3.1198,0.017143,0.000000,0.000000,0.004858,0.0000,0.0000,0.0000,-0.123198,0.123198,0.000330,0.002287,0.002157,1.7727,0.5776,0.2578,-0.164136,0.162602,0.000000,0.693359,-0.681087,0.667282,-0.702563,0.674952,-0.644272
3.1366,0.016788,0.000000,0.000000,0.004870,0.0000,0.0000,0.0000,-0.116424,0.116424,0.000270,0.002220,0.002144,1.6347,0.6182,0.1962,-0.153398,0.151864,0.000000,0.691825,-0.679553,0.667282,-0.702563,0.674952,-0.645806
3.1534,0.016751,0.000000,0.000000,0.004882,0.0000,0.0000,0.0000,-0.109826,0.109826,0.000330,0.002324,0.002154,1.7081,0.5850,0.3701,-0.145728,0.144194,0.000000,0.693359,-0.679553,0.667282,-0.702563,0.676486,-0.644272
3.1701,0.016745,0.000000,0.000000,0.004893,0.0000,0.0000,0.0000,-0.103410,0.103410,0.000324,0.002313,0.002153,1.7005,0.5886,0.3520,-0.136524,0.136524,0.000000,0.693359,-0.679553,0.667282,-0.702563,0.676486,-0.644272
3.1869,0.016754,0.000000,0.000000,0.004904,0.0000,0.0000,0.0000,-0.097187,0.097187,0.000381,0.002330,0.002164,1.6633,0.5553,0.4092,-0.128854,0.127320,0.000000,0.693359,-0.679553,0.667282,-0.702563,0.678020,-0.644272
3.2039,0.017013,0.000000,0.000000,0.004914,0.0000,0.0000,0.0000,-0.091087,0.091087,0.000475,0.002303,0.002164,1.5808,0.5390,0.4022,-0.118117,0.118117,0.000000,0.691825,-0.679553,0.667282,-0.702563,0.679553,-0.644272
3.2207,0.016763,0.000000,0.000000,0.004923,0.0000,0.0000,0.0000,-0.085310,0.085310,0.000475,0.002303,0.002164,1.5808,0.5390,0.4022,-0.118117,0.118117,0.000000,0.691825,-0.679553,0.667282,-0.702563,0.679553,-0.644272
3.2374,0.016745,0.000000,0.000000,0.004932,0.0000,0.0000,0.0000,-0.079786,0.079786,0.000422,0.002347,0.002174,1.6380,0.5275,0.4594,-0.107379,0.110447,0.000000,0.693359,-0.679553,0.667282,-0.702563,0.679553,-0.644272
3.2542,0.016754,0.000000,0.000000,0.004940,0.0000,0.0000,0.0000,-0.074522,0.074522,0.000427,0.002342,0.002173,1.6320,0.5287,0.4534,-0.102777,0.101243,0.000000,0.693359,-0.679553,0.667282,-0.702563,0.679553,-0.644272
3.2710,0.016890,0.000000,0.000000,0.004948,0.0000,0.0000,0.0000,-0.069495,0.069495,0.000385,0.002302,0.002187,1.5840,0.5112,0.3983,-0.095107,0.093573,0.000000,0.693359,-0.679553,0.667282,-0.702563,0.679553,-0.645806
3.2911,0.020064,0.000000,0.000000,0.004957,0.0000,0.0000,0.0000,-0.063909,0.063909,0.000385,0.002302,0.002187,1.5840,0.5112,0.3983,-0.095107,0.093573,0.000000,0.693359,-0.679553,0.667282,-0.702563,0.679553,-0.645806
3.3084,0.017323,0.000000,0.000000,0.004964,0.0000,0.0000,0.0000,-0.059439,0.059439,0.000385,0.002302,0.002187,1.5840,0.5112,0.3983,-0.095107,0.093573,0.000000,0.693359,-0.679553,0.667282,-0.702563,0.679553,-0.645806
3.3252,0.016752,0.000000,0.000000,0.004970,0.0000,0.0000,0.0000,-0.055440,0.055440,0.000275,0.002291,0.002246,1.6257,0.4164,0.3490,-0.075165,0.073631,0.000000,0.696427,-0.681087,0.667282,-0.702563,0.679553,-0.648874
3.3419,0.016758,0.000000,0.000000,0.004975,0.0000,0.0000,0.0000,-0.051769,0.051769,0.000275,0.002291,0.002246,1.6257,0.4164,0.3490,-0.075165,0.073631,0.000000,0.696427,-0.681087,0.667282,-0.702563,0.679553,-0.648874
3.3587,0.016745,0.000000,0.000000,0.004980,0.0000,0.0000,0.0000,-0.048442,0.048442,0.000143,0.002391,0.002249,1.6813,0.4353,0.5236,-0.070563,0.070563,0.000000,0.699495,-0.679553,0.667282,-0.702563,0.679553,-0.648874
3.3754,0.016745,0.000000,0.000000,0.004985,0.0000,0.0000,0.0000,-0.045463,0.045463,0.000157,0.002380,0.002249,1.6754,0.4334,0.5054,-0.076699,0.072097,0.000000,0.699495,-0.679553,0.667282,-0.702563,0.679553,-0.648874
3.3922,0.016750,0.000000,0.000000,0.004989,0.0000,0.0000,0.0000,-0.042840,0.042840,-0.000056,0.002342,0.002310,1.6273,0.3549,0.4529,-0.067495,0.061359,0.000000,0.702563,-0.679553,0.667282,-0.702563,0.679553,-0.653476
3.4089,0.016749,0.000000,0.000000,0.004992,0.0000,0.0000,0.0000,-0.040582,0.040582,-0.000163,0.002388,0.002338,1.6804,0.3194,0.5157,-0.055223,0.052155,0.000000,0.705631,-0.679553,0.667282,-0.702563,0.679553,-0.655010
3.4257,0.016751,0.000000,0.000000,0.004995,0.0000,0.0000,0.0000,-0.038695,0.038695,-0.000138,0.002326,0.002360,1.6635,0.2703,0.3968,-0.041417,0.044485,0.000000,0.705631,-0.681087,0.667282,-0.702563,0.679553,-0.656544
3.4424,0.016756,0.000000,0.000000,0.004997,0.0000,0.0000,0.0000,-0.037183,0.037183,-0.000138,0.002326,0.002360,1.6635,0.2703,0.3968,-0.041417,0.044485,0.000000,0.705631,-0.681087,0.667282,-0.702563,0.679553,-0.656544
3.4592,0.016742,0.000000,0.000000,0.004998,0.0000,0.0000,0.0000,-0.036053,0.036053,-0.000240,0.002390,0.002356,1.6765,0.2976,0.5223,-0.036816,0.038350,0.000000,0.707165,-0.679553,0.667282,-0.702563,0.679553,-0.656544
3.4759,0.016742,0.000000,0.000000,0.004999,0.0000,0.0000,0.0000,-0.035306,0.035306,-0.000174,0.002366,0.002369,1.7120,0.2595,0.4527,-0.041417,0.038350,0.000000,0.707165,-0.681087,0.667282,-0.702563,0.679553,-0.656544
3.4927,0.016742,0.000000,0.000000,0.005000,0.0000,0.0000,0.0000,-0.034944,0.034944,-0.000181,0.002369,0.002367,1.7083,0.2634,0.4600,-0.044485,0.038350,0.000000,0.707165,-0.681087,0.667282,-0.702563,0.679553,-0.656544
3.5094,0.016743,0.000000,0.000000,0.005000,0.0000,0.0000,0.0000,-0.034968,0.034968,-0.000124,0.002351,0.002380,1.7456,0.2277,0.4026,-0.039884,0.036816,0.000000,0.707165,-0.682621,0.667282,-0.702563,0.679553,-0.656544
3.5263,0.016865,0.000000,0.000000,0.004999,0.0000,0.0000,0.0000,-0.035382,0.035382,-0.000018,0.002318,0.002403,1.8152,0.1608,0.2953,-0.035282,0.035282,0.000000,0.707165,-0.685689,0.667282,-0.702563,0.679553,-0.656544
3.5430,0.016744,0.000000,0.000000,0.004998,0.0000,0.0000,0.0000,-0.036180,0.036180,-0.000018,0.002318,0.002403,1.8152,0.1608,0.2953,-0.035282,0.035282,0.000000,0.707165,-0.685689,0.667282,-0.702563,0.679553,-0.656544
3.5598,0.016740,0.000000,0.000000,0.004996,0.0000,0.0000,0.0000,-0.037360,0.037360,0.000068,0.002345,0.002436,1.8923,0.1458,0.1372,-0.033748,0.035282,0.000000,0.707165,-0.688757,0.667282,-0.704097,0.679553,-0.656544
3.5765,0.016745,0.000000,0.000000,0.004994,0.0000,0.0000,0.0000,-0.038920,0.038920,0.000130,0.002268,0.002470,1.9089,0.0595,-0.0159,-0.033748,0.035282,0.000000,0.707165,-0.691825,0.667282,-0.704097,0.679553,-0.658078
3.5932,0.016742,0.000000,0.000000,0.004991,0.0000,0.0000,0.0000,-0.040854,0.040854,0.000136,0.002300,0.002525,1.9910,0.0161,-0.1691,-0.036816,0.035282,0.000000,0.708699,-0.694893,0.667282,-0.705631,0.679553,-0.659612
3.6100,0.016749,0.000000,0.000000,0.004988,0.0000,0.0000,0.0000,-0.043160,0.043160,0.000097,0.002175,0.002534,1.8378,-0.0002,-0.3215,-0.038350,0.036816,0.000000,0.707165,-0.694893,0.667282,-0.705631,0.679553,-0.662680
3.6267,0.016746,0.000000,0.000000,0.004984,0.0000,0.0000,0.0000,-0.045829,0.045829,0.000087,0.002246,0.002544,1.8649,0.0499,-0.3616,-0.036816,0.038350,0.000000,0.707165,-0.694893,0.667282,-0.707165,0.679553,-0.662680
3.6435,0.016787,0.000000,0.000000,0.004980,0.0000,0.0000,0.0000,-0.048861,0.048861,0.000087,0.002246,0.002544,1.8649,0.0499,-0.3616,-0.036816,0.038350,0.000000,0.707165,-0.694893,0.667282,-0.707165,0.679553,-0.662680
3.6603,0.016763,0.000000,0.000000,0.004975,0.0000,0.0000,0.0000,-0.052238,0.052238,0.000088,0.002239,0.002543,1.8621,0.0446,-0.3574,-0.041417,0.041417,0.000000,0.707165,-0.694893,0.667282,-0.707165,0.679553,-0.662680
3.6770,0.016751,0.000000,0.000000,0.004969,0.0000,0.0000,0.0000,-0.055951,0.055951,0.000088,0.002239,0.002543,1.8621,0.0446,-0.3574,-0.047553,0.042951,0.000000,0.707165,-0.694893,0.667282,-0.707165,0.679553,-0.662680
3.6938,0.016751,0.000000,0.000000,0.004963,0.0000,0.0000,0.0000,-0.059993,0.059993,0.000088,0.002239,0.002543,1.8621,0.0446,-0.3574,-0.050621,0.046019,0.000000,0.707165,-0.694893,0.667282,-0.707165,0.679553,-0.662680
3.7105,0.016748,0.000000,0.000000,0.004956,0.0000,0.0000,0.0000,-0.064351,0.064351,0.000060,0.002141,0.002546,1.8032,-0.0200,-0.3578,-0.050621,0.049087,0.000000,0.707165,-0.694893,0.667282,-0.705631,0.679553,-0.664214
3.7273,0.016753,0.000000,0.000000,0.004949,0.0000,0.0000,0.0000,-0.069015,0.069015,0.000049,0.002210,0.002556,1.8205,0.0350,-0.4137,-0.056757,0.055223,0.000000,0.707165,-0.694893,0.667282,-0.707165,0.679553,-0.664214
3.7440,0.016758,0.000000,0.000000,0.004941,0.0000,0.0000,0.0000,-0.073973,0.073973,0.000049,0.002210,0.002556,1.8205,0.0350,-0.4137,-0.056757,0.055223,0.000000,0.707165,-0.694893,0.667282,-0.707165,0.679553,-0.664214
3.7608,0.016743,0.000000,0.000000,0.004933,0.0000,0.0000,0.0000,-0.079205,0.079205,0.000023,0.002104,0.002557,1.7596,-0.0358,-0.4079,-0.064427,0.064427,0.000000,0.707165,-0.694893,0.667282,-0.705631,0.679553,-0.665748
3.7775,0.016747,0.000000,0.000000,0.004924,0.0000,0.0000,0.0000,-0.084702,0.084702,0.000011,0.002173,0.002567,1.7771,0.0198,-0.4645,-0.067495,0.065961,0.000000,0.707165,-0.694893,0.667282,-0.707165,0.679553,-0.665748
3.7943,0.016758,0.000000,0.000000,0.004915,0.0000,0.0000,0.0000,-0.090451,0.090451,0.000027,0.002108,0.002556,1.7641,-0.0342,-0.4026,-0.064427,0.064427,0.000000,0.707165,-0.694893,0.667282,-0.705631,0.679553,-0.665748
3.8110,0.016748,0.000000,0.000000,0.004905,0.0000,0.0000,0.0000,-0.096430,0.096430,0.000011,0.002173,0.002567,1.7767,0.0196,-0.4651,-0.070563,0.070563,0.000000,0.707165,-0.694893,0.667282,-0.707165,0.679553,-0.665748
3.8278,0.016746,0.000000,0.000000,0.004894,0.0000,0.0000,0.0000,-0.102624,0.102624,0.000027,0.002108,0.002556,1.7641,-0.0342,-0.4026,-0.084369,0.082835,0.000000,0.707165,-0.694893,0.667282,-0.705631,0.679553,-0.665748
3.8445,0.016758,0.000000,0.000000,0.004883,0.0000,0.0000,0.0000,-0.109022,0.109022,0.000027,0.002108,0.002556,1.7641,-0.0342,-0.4026,-0.084369,0.082835,0.000000,0.707165,-0.694893,0.667282,-0.705631,0.679553,-0.665748
3.8613,0.016746,0.000000,0.000000,0.004872,0.0000,0.0000,0.0000,-0.115597,0.115597,0.000011,0.002173,0.002567,1.7767,0.0196,-0.4651,-0.095107,0.095107,0.000000,0.707165,-0.694893,0.667282,-0.707165,0.679553,-0.665748
3.8780,0.016748,0.000000,0.000000,0.004860,0.0000,0.0000,0.0000,-0.122335,0.122335,0.000013,0.002166,0.002566,1.7754,0.0140,-0.4586,-0.101243,0.098175,0.000000,0.707165,-0.694893,0.667282,-0.707165,0.679553,-0.665748
3.8948,0.016758,0.000000,0.000000,0.004847,0.0000,0.0000,0.0000,-0.129222,0.129222,0.000027,0.002108,0.002556,1.7643,-0.0336,-0.4033,-0.104311,0.099709,0.000000,0.707165,-0.694893,0.667282,-0.705631,0.679553,-0.665748
3.9116,0.016760,0.000000,0.000000,0.004834,0.0000,0.0000,0.0000,-0.136236,0.136236,0.000025,0.002114,0.002557,1.7654,-0.0287,-0.4090,-0.111981,0.105845,0.000000,0.707165,-0.694893,0.667282,-0.705631,0.679553,-0.665748
3.9283,0.016755,0.000000,0.000000,0.004820,0.0000,0.0000,0.0000,-0.143353,0.143353,0.000011,0.002172,0.002567,1.7765,0.0190,-0.4644,-0.124252,0.118117,0.000000,0.707165,-0.694893,0.667282,-0.707165,0.679553,-0.665748
3.9451,0.016753,0.000000,0.000000,0.004806,0.0000,0.0000,0.0000,-0.150556,0.150556,0.000011,0.002172,0.002567,1.7765,0.0190,-0.4644,-0.124252,0.118117,0.000000,0.707165,-0.694893,0.667282,-0.707165,0.679553,-0.665748
3.9618,0.016740,0.000000,0.000000,0.004791,0.0000,0.0000,0.0000,-0.157820,0.157820,0.000027,0.002108,0.002556,1.7641,-0.0341,-0.4027,-0.136524,0.134990,0.000000,0.707165,-0.694893,0.667282,-0.705631,0.679553,-0.665748
3.9787,0.016903,0.000000,0.000000,0.004776,0.0000,0.0000,0.0000,-0.165202,0.165202,0.000011,0.002173,0.002567,1.7767,0.0196,-0.4651,-0.141126,0.139592,0.000000,0.707165,-0.694893,0.667282,-0.707165,0.679553,-0.665748
3.9955,0.016747,0.000000,0.000000,0.004760,0.0000,0.0000,0.0000,-0.172541,0.172541,0.000013,0.002166,0.002566,1.7754,0.0140,-0.4586,-0.145728,0.145728,0.000000,0.707165,-0.694893,0.667282,-0.707165,0.679553,-0.665748
4.0122,0.016769,0.000000,0.000000,0.004743,0.0000,0.0000,0.0000,-0.179895,0.179895,0.000027,0.002108,0.002556,1.7643,-0.0336,-0.4033,-0.156466,0.158000,0.000000,0.707165,-0.694893,0.667282,-0.705631,0.679553,-0.665748
4.0290,0.016743,0.000000,0.000000,0.004726,0.0000,0.0000,0.0000,-0.187223,0.187223,0.000027,0.002108,0.002556,1.7643,-0.0336,-0.4033,-0.156466,0.158000,0.000000,0.707165,-0.694893,0.667282,-0.705631,0.679553,-0.665748
4.0457,0.016739,0.000000,0.000000,0.004709,0.0000,0.0000,0.0000,-0.194514,0.194514,0.000011,0.002173,0.002567,1.7766,0.0196,-0.4650,-0.171806,0.168738,0.000000,0.707165,-0.694893,0.667282,-0.707165,0.679553,-0.665748
4.0625,0.016747,0.000000,0.000000,0.004691,0.0000,0.0000,0.0000,-0.201754,0.201754,0.000027,0.002108,0.002556,1.7641,-0.0342,-0.4026,-0.177942,0.174874,0.000000,0.707165,-0.694893,0.667282,-0.705631,0.679553,-0.665748
4.0792,0.016749,0.000000,0.000000,0.004673,0.0000,0.0000,0.0000,-0.208919,0.208919,0.000011,0.002173,0.002567,1.7767,0.0196,-0.4651,-0.184078,0.179476,0.000000,0.707165,-0.694893,0.667282,-0.707165,0.679553,-0.665748
4.0960,0.016749,0.000000,0.000000,0.004654,0.0000,0.0000,0.0000,-0.215989,0.215989,0.000013,0.002166,0.002566,1.7754,0.0140,-0.4586,-0.193282,0.190214,0.000000,0.707165,-0.694893,0.667282,-0.707165,0.679553,-0.665748
4.1131,0.017181,0.000000,0.000000,0.004634,0.0000,0.0000,0.0000,-0.223121,0.223121,0.000027,0.002108,0.002556,1.7643,-0.0336,-0.4033,-0.202485,0.202485,0.000000,0.707165,-0.694893,0.667282,-0.705631,0.679553,-0.665748
4.1299,0.016769,0.000000,0.000000,0.004613,0.0000,0.0000,0.0000,-0.229946,0.229946,0.000027,0.002108,0.002556,1.7643,-0.0336,-0.4033,-0.202485,0.202485,0.000000,0.707165,-0.694893,0.667282,-0.705631,0.679553,-0.665748
4.1468,0.016880,0.000000,0.000000,0.004593,0.0000,0.0000,0.0000,-0.236662,0.236662,0.000011,0.002173,0.002567,1.7766,0.0196,-0.4650,-0.214757,0.213223,0.000000,0.707165,-0.694893,0.667282,-0.707165,0.679553,-0.665748
4.1635,0.016766,0.000000,0.000000,0.004572,0.0000,0.0000,0.0000,-0.243159,0.243159,0.000013,0.002166,0.002566,1.7754,0.0140,-0.4586,-0.216291,0.213223,0.000000,0.707165,-0.694893,0.667282,-0.707165,0.679553,-0.665748
4.1803,0.016769,0.000000,0.000000,0.004550,0.0000,0.0000,0.0000,-0.249466,0.249466,0.000027,0.002108,0.002556,1.7643,-0.0336,-0.4033,-0.217825,0.214757,0.000000,0.707165,-0.694893,0.667282,-0.705631,0.679553,-0.665748
4.1971,0.016810,0.000000,0.000000,0.004528,0.0000,0.0000,0.0000,-0.255581,0.255581,0.000011,0.002173,0.002567,1.7766,0.0196,-0.4650,-0.230097,0.228563,0.000000,0.707165,-0.694893,0.667282,-0.707165,0.679553,-0.665748
4.2139,0.016767,0.000000,0.000000,0.004505,0.0000,0.0000,0.0000,-0.261455,0.261455,0.000011,0.002173,0.002567,1.7766,0.0196,-0.4650,-0.230097,0.228563,0.000000,0.707165,-0.694893,0.667282,-0.707165,0.679553,-0.665748
4.2307,0.016756,0.000000,0.000000,0.004482,0.0000,0.0000,0.0000,-0.267084,0.267084,0.000013,0.002166,0.002566,1.7754,0.0140,-0.4586,-0.245437,0.245437,0.000000,0.707165,-0.694893,0.667282,-0.707165,0.679553,-0.665748
4.2474,0.016767,0.000000,0.000000,0.004459,0.0000,0.0000,0.0000,-0.272460,0.272460,-0.000032,0.002207,0.002577,1.8238,0.0011,-0.4027,-0.253107,0.251573,0.000000,0.708699,-0.694893,0.667282,-0.707165,0.679553,-0.665748
4.2642,0.016749,0.000000,0.000000,0.004435,0.0000,0.0000,0.0000,-0.277559,0.277559,0.000031,0.002104,0.002555,1.7592,-0.0323,-0.4091,-0.254641,0.253107,0.000000,0.707165,-0.694893,0.667282,-0.705631,0.679553,-0.665748
4.2809,0.016764,0.000000,0.000000,0.004410,0.0000,0.0000,0.0000,-0.282377,0.282377,0.000025,0.002115,0.002557,1.7660,-0.0288,-0.4084,-0.257709,0.259243,0.000000,0.707165,-0.694893,0.667282,-0.705631,0.679553,-0.665748
4.2977,0.016755,0.000000,0.000000,0.004385,0.0000,0.0000,0.0000,-0.286893,0.286893,0.000011,0.002172,0.002567,1.7765,0.0191,-0.4645,-0.269981,0.271515,0.000000,0.707165,-0.694893,0.667282,-0.707165,0.679553,-0.665748
4.3147,0.016987,0.000000,0.000000,0.004359,0.0000,0.0000,0.0000,-0.291155,0.291155,0.000011,0.002172,0.002567,1.7765,0.0191,-0.4645,-0.269981,0.271515,0.000000,0.707165,-0.694893,0.667282,-0.707165,0.679553,-0.665748
4.3315,0.016871,0.000000,0.000000,0.004333,0.0000,0.0000,0.0000,-0.295058,0.295058,0.000027,0.002108,0.002556,1.7642,-0.0341,-0.4027,-0.280718,0.280718,0.000000,0.707165,-0.694893,0.667282,-0.705631,0.679553,-0.665748
4.3491,0.017515,0.000000,0.000000,0.004305,0.0000,0.0000,0.0000,-0.298753,0.298753,0.000027,0.002108,0.002556,1.7642,-0.0341,-0.4027,-0.280718,0.280718,0.000000,0.707165,-0.694893,0.667282,-0.705631,0.679553,-0.665748
4.3659,0.016873,0.000000,0.000000,0.004278,0.0000,0.0000,0.0000,-0.301956,0.301956,0.000027,0.002108,0.002556,1.7642,-0.0341,-0.4027,-0.280718,0.280718,0.000000,0.707165,-0.694893,0.667282,-0.705631,0.679553,-0.665748
4.3827,0.016754,0.000000,0.000000,0.004251,0.0000,0.0000,0.0000,-0.304783,0.304783,0.000027,0.002108,0.002556,1.7642,-0.0341,-0.4027,-0.280718,0.280718,0.000000,0.707165,-0.694893,0.667282,-0.705631,0.679553,-0.665748
4.3994,0.016751,0.000000,0.000000,0.004223,0.0000,0.0000,0.0000,-0.307249,0.307249,0.000025,0.002114,0.002557,1.7654,-0.0286,-0.4091,-0.286854,0.285320,0.000000,0.707165,-0.694893,0.667282,-0.705631,0.679553,-0.665748
4.4162,0.016762,0.000000,0.000000,0.004194,0.0000,0.0000,0.0000,-0.309348,0.309348,0.000025,0.002114,0.002557,1.7654,-0.0286,-0.4091,-0.288388,0.288388,0.000000,0.707165,-0.694893,0.667282,-0.705631,0.679553,-0.665748
4.4329,0.016745,0.000000,0.000000,0.004165,0.0000,0.0000,0.0000,-0.311073,0.311073,-0.000019,0.002154,0.002568,1.8136,-0.0427,-0.3519,-0.300660,0.297592,0.000000,0.708699,-0.694893,0.667282,-0.705631,0.679553,-0.665748
4.4497,0.016762,0.000000,0.000000,0.004136,0.0000,0.0000,0.0000,-0.312420,0.312420,0.000030,0.002109,0.002556,1.7603,-0.0277,-0.4144,-0.312932,0.309864,0.000000,0.707165,-0.694893,0.667282,-0.705631,0.679553,-0.665748
4.4665,0.016757,0.000000,0.000000,0.004106,0.0000,0.0000,0.0000,-0.313385,0.313385,0.000011,0.002173,0.002567,1.7771,0.0190,-0.4638,-0.316000,0.312932,0.000000,0.707165,-0.694893,0.667282,-0.707165,0.679553,-0.665748
4.4832,0.016750,0.000000,0.000000,0.004076,0.0000,0.0000,0.0000,-0.313965,0.313965,0.000011,0.002173,0.002567,1.7771,0.0190,-0.4638,-0.316000,0.312932,0.000000,0.707165,-0.694893,0.667282,-0.707165,0.679553,-0.665748
4.5000,0.016744,0.000000,0.000000,0.004045,0.0000,0.0000,0.0000,-0.314159,0.314159,0.000013,0.002166,0.002566,1.7753,0.0141,-0.4587,-0.312932,0.309864,0.000000,0.707165,-0.694893,0.667282,-0.707165,0.679553,-0.665748
4.5167,0.016743,0.000000,0.000000,0.004014,0.0000,0.0000,0.0000,-0.313967,0.313967,0.000013,0.002166,0.002566,1.7753,0.0141,-0.4587,-0.314466,0.311398,0.000000,0.707165,-0.694893,0.667282,-0.707165,0.679553,-0.665748
4.5334,0.016744,0.000000,0.000000,0.003982,0.0000,0.0000,0.0000,-0.313389,0.313389,0.000027,0.002108,0.002556,1.7643,-0.0336,-0.4033,-0.314466,0.311398,0.000000,0.707165,-0.694893,0.667282,-0.705631,0.679553,-0.665748
4.5503,0.016824,0.000000,0.000000,0.003950,0.0000,0.0000,0.0000,-0.312422,0.312422,0.000025,0.002114,0.002557,1.7654,-0.0287,-0.4090,-0.314466,0.311398,0.000000,0.707165,-0.694893,0.667282,-0.705631,0.679553,-0.665748
4.5670,0.016745,0.000000,0.000000,0.003918,0.0000,0.0000,0.0000,-0.311076,0.311076,0.000025,0.002114,0.002557,1.7654,-0.0287,-0.4090,-0.314466,0.311398,0.000000,0.707165,-0.694893,0.667282,-0.705631,0.679553,-0.665748
