t,loop_dt,cmd_x,cmd_y,cmd_z,cmd_roll,cmd_pitch,cmd_yaw,cmd_ant_l,cmd_ant_r,pres_x,pres_y,pres_z,pres_roll,pres_pitch,pres_yaw,pres_ant_l,pres_ant_r,pres_j0,pres_j1,pres_j2,pres_j3,pres_j4,pres_j5,pres_j6
0.0000,0.000001,0.000247,0.000700,-0.002344,0.3420,0.4599,0.1498,-0.179476,0.176408,0.000247,0.000700,-0.002344,0.3420,0.4599,0.1498,-0.179476,0.176408,0.000000,0.572175,-0.570641,0.572175,-0.584447,0.575243,-0.559903
0.0168,0.016760,0.000242,0.000689,-0.002304,0.3362,0.4522,0.1473,-0.179393,0.176376,0.000215,0.000604,-0.002341,0.2768,0.3906,0.1438,-0.179476,0.176408,0.000000,0.572175,-0.570641,0.572175,-0.582913,0.575243,-0.561437
0.0335,0.016751,0.000238,0.000677,-0.002265,0.3305,0.4445,0.1448,-0.179310,0.176345,0.000259,0.000652,-0.002354,0.3334,0.4149,0.1979,-0.179476,0.176408,0.000000,0.572175,-0.570641,0.572175,-0.582913,0.575243,-0.559903
0.0503,0.016756,0.000234,0.000665,-0.002226,0.3247,0.4368,0.1422,-0.179227,0.176314,0.000259,0.000652,-0.002354,0.3334,0.4149,0.1979,-0.179476,0.176408,0.000000,0.572175,-0.570641,0.572175,-0.582913,0.575243,-0.559903
0.0670,0.016743,0.000230,0.000654,-0.002187,0.3190,0.4291,0.1397,-0.179145,0.176282,0.000241,0.000702,-0.002341,0.3378,0.4634,0.1387,-0.179476,0.176408,0.000000,0.572175,-0.570641,0.572175,-0.584447,0.575243,-0.559903
0.0838,0.016754,0.000226,0.000642,-0.002147,0.3133,0.4214,0.1372,-0.179062,0.176251,0.000352,0.000635,-0.002442,0.1990,0.5600,0.2511,-0.179476,0.176408,0.000000,0.567573,-0.567573,0.572175,-0.582913,0.575243,-0.556835
0.1005,0.016744,0.000222,0.000630,-0.002108,0.3075,0.4137,0.1347,-0.178979,0.176219,0.000571,0.000695,-0.002533,0.2242,0.7017,0.3452,-0.179476,0.176408,0.000000,0.562971,-0.566039,0.572175,-0.582913,0.575243,-0.550699
0.1173,0.016752,0.000218,0.000618,-0.002069,0.3018,0.4060,0.1321,-0.178896,0.176188,0.000641,0.000820,-0.002563,0.3319,0.6702,0.3884,-0.179476,0.176408,0.000000,0.562971,-0.566039,0.570641,-0.582913,0.575243,-0.547631
0.1340,0.016753,0.000214,0.000607,-0.002030,0.2961,0.3983,0.1296,-0.178813,0.176157,0.000608,0.000808,-0.002535,0.3207,0.7760,0.3839,-0.181010,0.176408,0.000000,0.562971,-0.566039,0.572175,-0.584447,0.575243,-0.547631
0.1508,0.016753,0.000209,0.000595,-0.001990,0.2903,0.3906,0.1271,-0.178731,0.176125,0.000608,0.000808,-0.002535,0.3207,0.7760,0.3839,-0.181010,0.176408,0.000000,0.562971,-0.566039,0.572175,-0.584447,0.575243,-0.547631
0.1675,0.016745,0.000205,0.000583,-0.001951,0.2846,0.3829,0.1246,-0.178648,0.176094,0.000624,0.000754,-0.002550,0.3118,0.7138,0.4380,-0.181010,0.176408,0.000000,0.562971,-0.566039,0.572175,-0.582913,0.575243,-0.547631
0.1843,0.016740,0.000201,0.000571,-0.001912,0.2789,0.3752,0.1220,-0.178565,0.176062,0.000623,0.000760,-0.002548,0.3127,0.7203,0.4323,-0.179476,0.176408,0.000000,0.562971,-0.566039,0.572175,-0.582913,0.575243,-0.547631
0.2010,0.016754,0.000197,0.000560,-0.001873,0.2731,0.3675,0.1195,-0.178482,0.176031,0.000583,0.000721,-0.002535,0.2625,0.7023,0.3797,-0.179476,0.176408,0.000000,0.562971,-0.566039,0.572175,-0.582913,0.575243,-0.549165
0.2180,0.016955,0.000193,0.000548,-0.001833,0.2673,0.3597,0.1170,-0.178398,0.175999,0.000600,0.000779,-0.002549,0.2779,0.6529,0.3316,-0.179476,0.176408,0.000000,0.562971,-0.566039,0.570641,-0.582913,0.575243,-0.549165
0.2347,0.016762,0.000189,0.000536,-0.001794,0.2616,0.3520,0.1144,-0.178316,0.175968,0.000598,0.000773,-0.002548,0.2762,0.6581,0.3366,-0.181010,0.174874,0.000000,0.562971,-0.566039,0.570641,-0.582913,0.575243,-0.549165
0.2515,0.016751,0.000185,0.000524,-0.001754,0.2559,0.3443,0.1119,-0.178233,0.175936,0.000598,0.000773,-0.002548,0.2762,0.6581,0.3366,-0.181010,0.174874,0.000000,0.562971,-0.566039,0.570641,-0.582913,0.575243,-0.549165
0.2682,0.016743,0.000180,0.000513,-0.001715,0.2501,0.3366,0.1094,-0.178150,0.175905,0.000626,0.000758,-0.002548,0.3164,0.7261,0.4429,-0.181010,0.174874,0.000000,0.562971,-0.566039,0.572175,-0.582913,0.575243,-0.547631
0.2850,0.016748,0.000176,0.000501,-0.001676,0.2444,0.3289,0.1069,-0.178067,0.175874,0.000623,0.000759,-0.002548,0.3122,0.7190,0.4318,-0.181010,0.174874,0.000000,0.562971,-0.566039,0.572175,-0.582913,0.575243,-0.547631
0.3017,0.016748,0.000172,0.000489,-0.001637,0.2387,0.3212,0.1043,-0.177984,0.175842,0.000623,0.000759,-0.002548,0.3122,0.7190,0.4318,-0.181010,0.174874,0.000000,0.562971,-0.566039,0.572175,-0.582913,0.575243,-0.547631
0.3185,0.016745,0.000168,0.000477,-0.001597,0.2329,0.3136,0.1018,-0.177902,0.175811,0.000623,0.000759,-0.002548,0.3122,0.7190,0.4318,-0.181010,0.174874,0.000000,0.562971,-0.566039,0.572175,-0.582913,0.575243,-0.547631
0.3352,0.016752,0.000164,0.000466,-0.001558,0.2272,0.3059,0.0993,-0.177819,0.175779,0.000636,0.000813,-0.002561,0.3228,0.6685,0.3794,-0.181010,0.176408,0.000000,0.562971,-0.566039,0.570641,-0.582913,0.575243,-0.547631
0.3520,0.016750,0.000160,0.000454,-0.001519,0.2215,0.2982,0.0968,-0.177736,0.175748,0.000636,0.000813,-0.002561,0.3228,0.6685,0.3794,-0.181010,0.176408,0.000000,0.562971,-0.566039,0.570641,-0.582913,0.575243,-0.547631
0.3687,0.016744,0.000156,0.000442,-0.001480,0.2157,0.2905,0.0943,-0.177653,0.175717,0.000581,0.000715,-0.002534,0.2615,0.7077,0.3852,-0.181010,0.174874,0.000000,0.562971,-0.566039,0.572175,-0.582913,0.575243,-0.549165
0.3855,0.016748,0.000152,0.000430,-0.001440,0.2100,0.2828,0.0918,-0.177571,0.175685,0.000587,0.000725,-0.002536,0.2678,0.7036,0.3846,-0.181010,0.174874,0.000000,0.562971,-0.566039,0.572175,-0.582913,0.575243,-0.549165
0.4022,0.016744,0.000147,0.000419,-0.001401,0.2043,0.2751,0.0893,-0.177488,0.175654,0.000627,0.000763,-0.002549,0.3173,0.7213,0.4379,-0.181010,0.174874,0.000000,0.562971,-0.566039,0.572175,-0.582913,0.575243,-0.547631
0.4189,0.016748,0.000143,0.000407,-0.001362,0.1986,0.2674,0.0867,-0.177405,0.175622,0.000623,0.000759,-0.002548,0.3121,0.7195,0.4323,-0.179476,0.176408,0.000000,0.562971,-0.566039,0.572175,-0.582913,0.575243,-0.547631
0.4360,0.017038,0.000139,0.000395,-0.001322,0.1927,0.2595,0.0842,-0.177321,0.175590,0.000623,0.000759,-0.002548,0.3121,0.7195,0.4323,-0.179476,0.174874,0.000000,0.562971,-0.566039,0.572175,-0.582913,0.575243,-0.547631
0.4527,0.016744,0.000135,0.000383,-0.001283,0.1870,0.2518,0.0817,-0.177238,0.175559,0.000623,0.000759,-0.002548,0.3121,0.7195,0.4323,-0.179476,0.174874,0.000000,0.562971,-0.566039,0.572175,-0.582913,0.575243,-0.547631
0.4695,0.016739,0.000131,0.000372,-0.001243,0.1813,0.2441,0.0792,-0.177155,0.175528,0.000623,0.000759,-0.002548,0.3121,0.7195,0.4323,-0.179476,0.176408,0.000000,0.562971,-0.566039,0.572175,-0.582913,0.575243,-0.547631
0.4862,0.016747,0.000127,0.000360,-0.001204,0.1756,0.2364,0.0767,-0.177073,0.175496,0.000623,0.000759,-0.002548,0.3121,0.7195,0.4323,-0.181010,0.176408,0.000000,0.562971,-0.566039,0.572175,-0.582913,0.575243,-0.547631
0.5030,0.016742,0.000123,0.000348,-0.001165,0.1698,0.2287,0.0741,-0.176990,0.175465,0.000623,0.000759,-0.002548,0.3121,0.7195,0.4323,-0.179476,0.174874,0.000000,0.562971,-0.566039,0.572175,-0.582913,0.575243,-0.547631
0.5197,0.016761,0.000118,0.000336,-0.001126,0.1641,0.2210,0.0716,-0.176907,0.175433,0.000583,0.000721,-0.002535,0.2626,0.7024,0.3797,-0.179476,0.174874,0.000000,0.562971,-0.566039,0.572175,-0.582913,0.575243,-0.549165
0.5370,0.017248,0.000114,0.000324,-0.001085,0.1582,0.2131,0.0690,-0.176822,0.175401,0.000627,0.000763,-0.002549,0.3178,0.7215,0.4384,-0.179476,0.176408,0.000000,0.562971,-0.566039,0.572175,-0.582913,0.575243,-0.547631
0.5537,0.016756,0.000110,0.000313,-0.001046,0.1525,0.2054,0.0665,-0.176739,0.175370,0.000627,0.000763,-0.002549,0.3178,0.7215,0.4384,-0.179476,0.176408,0.000000,0.562971,-0.566039,0.572175,-0.582913,0.575243,-0.547631
0.5706,0.016880,0.000106,0.000301,-0.001006,0.1467,0.1976,0.0640,-0.176655,0.175338,0.000622,0.000759,-0.002548,0.3121,0.7195,0.4323,-0.179476,0.174874,0.000000,0.562971,-0.566039,0.572175,-0.582913,0.575243,-0.547631
0.5874,0.016776,0.000102,0.000289,-0.000967,0.1410,0.1899,0.0615,-0.176572,0.175307,0.000622,0.000759,-0.002548,0.3121,0.7195,0.4323,-0.179476,0.174874,0.000000,0.562971,-0.566039,0.572175,-0.582913,0.575243,-0.547631
0.6041,0.016749,0.000098,0.000277,-0.000928,0.1352,0.1822,0.0590,-0.176490,0.175275,0.000583,0.000721,-0.002535,0.2626,0.7024,0.3797,-0.179476,0.174874,0.000000,0.562971,-0.566039,0.572175,-0.582913,0.575243,-0.549165
0.6209,0.016754,0.000094,0.000266,-0.000889,0.1295,0.1745,0.0565,-0.176407,0.175244,0.000627,0.000763,-0.002549,0.3178,0.7215,0.4384,-0.179476,0.174874,0.000000,0.562971,-0.566039,0.572175,-0.582913,0.575243,-0.547631
0.6378,0.016962,0.000089,0.000254,-0.000849,0.1237,0.1667,0.0540,-0.176323,0.175212,0.000582,0.000720,-0.002535,0.2620,0.7022,0.3790,-0.181010,0.174874,0.000000,0.562971,-0.566039,0.572175,-0.582913,0.575243,-0.549165
0.6546,0.016761,0.000085,0.000242,-0.000810,0.1180,0.1590,0.0515,-0.176240,0.175181,0.000582,0.000720,-0.002535,0.2620,0.7022,0.3790,-0.181010,0.174874,0.000000,0.562971,-0.566039,0.572175,-0.582913,0.575243,-0.549165
0.6714,0.016759,0.000081,0.000230,-0.000770,0.1123,0.1513,0.0489,-0.176157,0.175149,0.000587,0.000725,-0.002536,0.2678,0.7042,0.3852,-0.179476,0.174874,0.000000,0.562971,-0.566039,0.572175,-0.582913,0.575243,-0.549165
0.6881,0.016750,0.000077,0.000218,-0.000731,0.1065,0.1436,0.0464,-0.176075,0.175118,0.000587,0.000725,-0.002536,0.2678,0.7042,0.3852,-0.179476,0.174874,0.000000,0.562971,-0.566039,0.572175,-0.582913,0.575243,-0.549165
0.7048,0.016740,0.000073,0.000207,-0.000692,0.1008,0.1359,0.0439,-0.175992,0.175086,0.000587,0.000725,-0.002536,0.2678,0.7042,0.3852,-0.179476,0.174874,0.000000,0.562971,-0.566039,0.572175,-0.582913,0.575243,-0.549165
0.7216,0.016758,0.000069,0.000195,-0.000652,0.0951,0.1281,0.0414,-0.175909,0.175055,0.000587,0.000725,-0.002536,0.2678,0.7042,0.3852,-0.179476,0.174874,0.000000,0.562971,-0.566039,0.572175,-0.582913,0.575243,-0.549165
0.7384,0.016756,0.000065,0.000183,-0.000613,0.0894,0.1204,0.0389,-0.175826,0.175023,0.000587,0.000725,-0.002536,0.2678,0.7042,0.3852,-0.179476,0.174874,0.000000,0.562971,-0.566039,0.572175,-0.582913,0.575243,-0.549165
0.7551,0.016751,0.000060,0.000172,-0.000574,0.0836,0.1127,0.0364,-0.175743,0.174992,0.000587,0.000725,-0.002536,0.2678,0.7042,0.3852,-0.179476,0.174874,0.000000,0.562971,-0.566039,0.572175,-0.582913,0.575243,-0.549165
0.7719,0.016741,0.000056,0.000160,-0.000535,0.0779,0.1050,0.0340,-0.175661,0.174961,0.000546,0.000763,-0.002524,0.3172,0.6881,0.4381,-0.179476,0.174874,0.000000,0.564505,-0.566039,0.572175,-0.582913,0.575243,-0.549165
0.7886,0.016749,0.000052,0.000148,-0.000495,0.0722,0.0973,0.0315,-0.175578,0.174929,0.000563,0.000813,-0.002538,0.3221,0.6386,0.3790,-0.177942,0.174874,0.000000,0.564505,-0.566039,0.570641,-0.582913,0.575243,-0.549165
0.8053,0.016742,0.000048,0.000136,-0.000456,0.0665,0.0896,0.0290,-0.175495,0.174898,0.000548,0.000754,-0.002524,0.3115,0.6950,0.4388,-0.179476,0.174874,0.000000,0.564505,-0.566039,0.572175,-0.582913,0.575243,-0.549165
0.8221,0.016756,0.000044,0.000125,-0.000417,0.0608,0.0819,0.0265,-0.175412,0.174866,0.000550,0.000760,-0.002525,0.3126,0.6891,0.4325,-0.179476,0.174874,0.000000,0.564505,-0.566039,0.572175,-0.582913,0.575243,-0.549165
0.8389,0.016806,0.000040,0.000113,-0.000378,0.0550,0.0742,0.0240,-0.175329,0.174835,0.000550,0.000760,-0.002525,0.3126,0.6891,0.4325,-0.179476,0.174874,0.000000,0.564505,-0.566039,0.572175,-0.582913,0.575243,-0.549165
0.8557,0.016827,0.000036,0.000101,-0.000338,0.0493,0.0664,0.0215,-0.175246,0.174803,0.000550,0.000760,-0.002525,0.3126,0.6891,0.4325,-0.179476,0.174874,0.000000,0.564505,-0.566039,0.572175,-0.582913,0.575243,-0.549165
0.8725,0.016749,0.000031,0.000089,-0.000299,0.0435,0.0587,0.0190,-0.175163,0.174772,0.000550,0.000760,-0.002525,0.3126,0.6891,0.4325,-0.179476,0.174874,0.000000,0.564505,-0.566039,0.572175,-0.582913,0.575243,-0.549165
0.8892,0.016750,0.000027,0.000078,-0.000260,0.0378,0.0510,0.0165,-0.175080,0.174741,0.000550,0.000760,-0.002525,0.3126,0.6891,0.4325,-0.179476,0.176408,0.000000,0.564505,-0.566039,0.572175,-0.582913,0.575243,-0.549165
0.9060,0.016746,0.000023,0.000066,-0.000220,0.0321,0.0433,0.0140,-0.174998,0.174709,0.000550,0.000760,-0.002525,0.3126,0.6891,0.4325,-0.179476,0.174874,0.000000,0.564505,-0.566039,0.572175,-0.582913,0.575243,-0.549165
0.9227,0.016756,0.000019,0.000054,-0.000181,0.0264,0.0356,0.0115,-0.174915,0.174678,0.000550,0.000760,-0.002525,0.3126,0.6891,0.4325,-0.179476,0.174874,0.000000,0.564505,-0.566039,0.572175,-0.582913,0.575243,-0.549165
0.9395,0.016742,0.000015,0.000042,-0.000142,0.0207,0.0279,0.0090,-0.174832,0.174646,0.000550,0.000760,-0.002525,0.3126,0.6891,0.4325,-0.179476,0.174874,0.000000,0.564505,-0.566039,0.572175,-0.582913,0.575243,-0.549165
0.9563,0.016776,0.000011,0.000031,-0.000103,0.0149,0.0201,0.0065,-0.174749,0.174615,0.000562,0.000814,-0.002538,0.3226,0.6385,0.3796,-0.177942,0.174874,0.000000,0.564505,-0.566039,0.570641,-0.582913,0.575243,-0.549165
0.9730,0.016750,0.000007,0.000019,-0.000063,0.0092,0.0124,0.0040,-0.174666,0.174584,0.000562,0.000814,-0.002538,0.3226,0.6385,0.3796,-0.177942,0.174874,0.000000,0.564505,-0.566039,0.570641,-0.582913,0.575243,-0.549165
0.9898,0.016757,0.000003,0.000007,-0.000024,0.0035,0.0047,0.0015,-0.174584,0.174552,0.000548,0.000754,-0.002524,0.3114,0.6950,0.4387,-0.179476,0.174874,0.000000,0.564505,-0.566039,0.572175,-0.582913,0.575243,-0.549165
1.0065,0.016752,0.000000,0.000000,0.000020,0.0000,0.0000,0.0000,-0.169180,0.169180,0.000550,0.000760,-0.002525,0.3126,0.6891,0.4325,-0.177942,0.174874,0.000000,0.564505,-0.566039,0.572175,-0.582913,0.575243,-0.549165
1.0233,0.016772,0.000000,0.000000,0.000073,0.0000,0.0000,0.0000,-0.155402,0.155402,0.000550,0.000760,-0.002525,0.3126,0.6891,0.4325,-0.177942,0.174874,0.000000,0.564505,-0.566039,0.572175,-0.582913,0.575243,-0.549165
1.0400,0.016745,0.000000,0.000000,0.000126,0.0000,0.0000,0.0000,-0.141700,0.141700,0.000550,0.000760,-0.002525,0.3126,0.6891,0.4325,-0.177942,0.174874,0.000000,0.564505,-0.566039,0.572175,-0.582913,0.575243,-0.549165
1.0568,0.016767,0.000000,0.000000,0.000178,0.0000,0.0000,0.0000,-0.128070,0.128070,0.000550,0.000760,-0.002525,0.3126,0.6891,0.4325,-0.177942,0.174874,0.000000,0.564505,-0.566039,0.572175,-0.582913,0.575243,-0.549165
1.0735,0.016743,0.000000,0.000000,0.000231,0.0000,0.0000,0.0000,-0.114588,0.114588,0.000550,0.000760,-0.002525,0.3126,0.6891,0.4325,-0.177942,0.174874,0.000000,0.564505,-0.566039,0.572175,-0.582913,0.575243,-0.549165
1.0903,0.016750,0.000000,0.000000,0.000283,0.0000,0.0000,0.0000,-0.101267,0.101267,0.000550,0.000760,-0.002525,0.3126,0.6891,0.4325,-0.173340,0.171806,0.000000,0.564505,-0.566039,0.572175,-0.582913,0.575243,-0.549165
1.1070,0.016748,0.000000,0.000000,0.000336,0.0000,0.0000,0.0000,-0.088151,0.088151,0.000550,0.000760,-0.002525,0.3126,0.6891,0.4325,-0.162602,0.165670,0.000000,0.564505,-0.566039,0.572175,-0.582913,0.575243,-0.549165
1.1238,0.016734,0.000000,0.000000,0.000388,0.0000,0.0000,0.0000,-0.075283,0.075283,0.000550,0.000760,-0.002525,0.3126,0.6891,0.4325,-0.147262,0.151864,0.000000,0.564505,-0.566039,0.572175,-0.582913,0.575243,-0.549165
1.1405,0.016745,0.000000,0.000000,0.000441,0.0000,0.0000,0.0000,-0.062682,0.062682,0.000537,0.000814,-0.002513,0.3226,0.7409,0.3796,-0.125786,0.133456,0.000000,0.564505,-0.566039,0.572175,-0.584447,0.575243,-0.549165
1.1573,0.016771,0.000000,0.000000,0.000493,0.0000,0.0000,0.0000,-0.050372,0.050372,0.000537,0.000814,-0.002513,0.3226,0.7409,0.3796,-0.125786,0.133456,0.000000,0.564505,-0.566039,0.572175,-0.584447,0.575243,-0.549165
1.1740,0.016750,0.000000,0.000000,0.000546,0.0000,0.0000,0.0000,-0.038421,0.038421,0.000470,0.000754,-0.002501,0.3113,0.6512,0.4390,-0.102777,0.110447,0.000000,0.566039,-0.566039,0.572175,-0.582913,0.575243,-0.550699
1.1908,0.016743,0.000000,0.000000,0.000598,0.0000,0.0000,0.0000,-0.026852,0.026852,0.000423,0.000854,-0.002478,0.3726,0.6959,0.4328,-0.078233,0.087437,0.000000,0.567573,-0.566039,0.572175,-0.584447,0.575243,-0.550699
1.2075,0.016749,0.000000,0.000000,0.000650,0.0000,0.0000,0.0000,-0.015687,0.015687,0.000265,0.000921,-0.002431,0.4657,0.6265,0.5411,-0.062893,0.067495,0.000000,0.572175,-0.566039,0.572175,-0.584447,0.575243,-0.552233
1.2243,0.016728,0.000000,0.000000,0.000702,0.0000,0.0000,0.0000,-0.004975,0.004975,0.000254,0.000899,-0.002398,0.4950,0.5653,0.4769,-0.049087,0.052155,0.000000,0.573709,-0.567573,0.572175,-0.584447,0.575243,-0.553767
1.2410,0.016743,0.000000,0.000000,0.000754,0.0000,0.0000,0.0000,0.005278,-0.005278,0.000077,0.000909,-0.002289,0.6197,0.3858,0.4315,-0.036816,0.036816,0.000000,0.579845,-0.570641,0.572175,-0.584447,0.575243,-0.558369
1.2578,0.016755,0.000000,0.000000,0.000806,0.0000,0.0000,0.0000,0.015040,-0.015040,0.000077,0.000909,-0.002289,0.6197,0.3858,0.4315,-0.036816,0.036816,0.000000,0.579845,-0.570641,0.572175,-0.584447,0.575243,-0.558369
1.2745,0.016746,0.000000,0.000000,0.000858,0.0000,0.0000,0.0000,0.024272,-0.024272,-0.000108,0.000870,-0.002238,0.5565,0.3209,0.3835,-0.021476,0.023010,0.000000,0.582913,-0.570641,0.572175,-0.584447,0.575243,-0.562971
1.2912,0.016747,0.000000,0.000000,0.000910,0.0000,0.0000,0.0000,0.032955,-0.032955,-0.000265,0.001039,-0.002146,0.5945,0.3137,0.3892,-0.006136,0.007670,0.000000,0.587515,-0.570641,0.572175,-0.587515,0.576777,-0.566039
1.3080,0.016742,0.000000,0.000000,0.000962,0.0000,0.0000,0.0000,0.041061,-0.041061,-0.000360,0.001226,-0.002023,0.6716,0.2158,0.4433,0.007670,-0.004602,0.000000,0.593651,-0.572175,0.572175,-0.590583,0.579845,-0.569107
1.3247,0.016755,0.000000,0.000000,0.001013,0.0000,0.0000,0.0000,0.048577,-0.048577,-0.000459,0.001223,-0.001937,0.6246,0.1239,0.3309,0.016874,-0.016874,0.000000,0.596719,-0.573709,0.572175,-0.592117,0.581379,-0.573709
1.3415,0.016741,0.000000,0.000000,0.001065,0.0000,0.0000,0.0000,0.055469,-0.055469,-0.000369,0.001240,-0.001846,0.5906,-0.0047,0.2352,0.026078,-0.029146,0.000000,0.598253,-0.576777,0.572175,-0.593651,0.584447,-0.576777
1.3582,0.016747,0.000000,0.000000,0.001116,0.0000,0.0000,0.0000,0.061727,-0.061727,-0.000369,0.001240,-0.001846,0.5906,-0.0047,0.2352,0.026078,-0.029146,0.000000,0.598253,-0.576777,0.572175,-0.593651,0.584447,-0.576777
1.3750,0.016744,0.000000,0.000000,0.001167,0.0000,0.0000,0.0000,0.067330,-0.067330,-0.000352,0.001380,-0.001734,0.5371,-0.0925,0.2456,0.039884,-0.041417,0.000000,0.601320,-0.578311,0.572175,-0.596719,0.589049,-0.579845
1.3917,0.016744,0.000000,0.000000,0.001218,0.0000,0.0000,0.0000,0.072264,-0.072264,-0.000396,0.001406,-0.001623,0.5927,-0.1008,0.1372,0.050621,-0.050621,0.000000,0.604388,-0.581379,0.573709,-0.599786,0.590583,-0.582913
1.4085,0.016743,0.000000,0.000000,0.001269,0.0000,0.0000,0.0000,0.076515,-0.076515,-0.000201,0.001404,-0.001560,0.5862,-0.1361,0.1482,0.052155,-0.052155,0.000000,0.604388,-0.584447,0.575243,-0.601320,0.593651,-0.582913
1.4252,0.016747,0.000000,0.000000,0.001320,0.0000,0.0000,0.0000,0.080073,-0.080073,-0.000193,0.001312,-0.001490,0.5268,-0.0654,0.1469,0.058291,-0.056757,0.000000,0.604388,-0.585981,0.578311,-0.602854,0.595185,-0.584447
1.4420,0.016743,0.000000,0.000000,0.001371,0.0000,0.0000,0.0000,0.082925,-0.082925,-0.000058,0.001338,-0.001399,0.4938,-0.0760,0.0387,0.072097,-0.065961,0.000000,0.604388,-0.589049,0.579845,-0.605922,0.598253,-0.585981
1.4587,0.016744,0.000000,0.000000,0.001421,0.0000,0.0000,0.0000,0.085065,-0.085065,-0.000058,0.001338,-0.001399,0.4938,-0.0760,0.0387,0.072097,-0.065961,0.000000,0.604388,-0.589049,0.579845,-0.605922,0.598253,-0.585981
1.4754,0.016743,0.000000,0.000000,0.001472,0.0000,0.0000,0.0000,0.086487,-0.086487,0.000010,0.001304,-0.001359,0.5747,-0.0436,-0.0584,0.078233,-0.076699,0.000000,0.604388,-0.592117,0.581379,-0.607456,0.598253,-0.585981
1.4922,0.016751,0.000000,0.000000,0.001522,0.0000,0.0000,0.0000,0.087188,-0.087188,0.000017,0.001238,-0.001312,0.5946,0.0711,-0.0485,0.076699,-0.078233,0.000000,0.604388,-0.593651,0.584447,-0.608990,0.598253,-0.585981
1.5089,0.016745,0.000000,0.000000,0.001572,0.0000,0.0000,0.0000,0.087163,-0.087163,0.000086,0.001192,-0.001218,0.5815,0.1411,-0.1581,0.078233,-0.078233,0.000000,0.604388,-0.596719,0.587515,-0.612058,0.599786,-0.587515
1.5257,0.016747,0.000000,0.000000,0.001622,0.0000,0.0000,0.0000,0.086415,-0.086415,0.000148,0.001111,-0.001128,0.6498,0.2183,-0.0386,0.085903,-0.079767,0.000000,0.605922,-0.599786,0.592117,-0.613592,0.601320,-0.587515
1.5425,0.016799,0.000000,0.000000,0.001671,0.0000,0.0000,0.0000,0.084939,-0.084939,0.000169,0.001072,-0.001100,0.7593,0.2791,0.1116,0.092039,-0.082835,0.000000,0.607456,-0.601320,0.595185,-0.613592,0.601320,-0.585981
1.5592,0.016753,0.000000,0.000000,0.001721,0.0000,0.0000,0.0000,0.082747,-0.082747,0.000169,0.001072,-0.001100,0.7593,0.2791,0.1116,0.092039,-0.082835,0.000000,0.607456,-0.601320,0.595185,-0.613592,0.601320,-0.585981
1.5760,0.016746,0.000000,0.000000,0.001770,0.0000,0.0000,0.0000,0.079844,-0.079844,0.000208,0.001005,-0.001004,0.7758,0.2885,0.0961,0.084369,-0.085903,0.000000,0.608990,-0.604388,0.598253,-0.615126,0.602854,-0.587515
1.5927,0.016747,0.000000,0.000000,0.001819,0.0000,0.0000,0.0000,0.076237,-0.076237,0.000286,0.000981,-0.000928,0.8514,0.3203,0.1519,0.082835,-0.085903,0.000000,0.610524,-0.607456,0.601320,-0.616660,0.604388,-0.587515
1.6095,0.016749,0.000000,0.000000,0.001868,0.0000,0.0000,0.0000,0.071935,-0.071935,0.000252,0.000874,-0.000910,0.8228,0.4190,0.2553,0.087437,-0.085903,0.000000,0.610524,-0.607456,0.604388,-0.616660,0.604388,-0.587515
1.6262,0.016764,0.000000,0.000000,0.001917,0.0000,0.0000,0.0000,0.066946,-0.066946,0.000200,0.000869,-0.000887,0.8647,0.4442,0.3537,0.085903,-0.085903,0.000000,0.612058,-0.607456,0.605922,-0.616660,0.604388,-0.587515
1.6431,0.016899,0.000000,0.000000,0.001966,0.0000,0.0000,0.0000,0.061240,-0.061240,0.000200,0.000869,-0.000887,0.8647,0.4442,0.3537,0.081301,-0.079767,0.000000,0.612058,-0.608990,0.607456,-0.616660,0.605922,-0.587515
1.6599,0.016742,0.000000,0.000000,0.002014,0.0000,0.0000,0.0000,0.054931,-0.054931,0.000302,0.000814,-0.000853,0.8498,0.4231,0.3975,0.081301,-0.079767,0.000000,0.612058,-0.608990,0.607456,-0.616660,0.605922,-0.587515
1.6767,0.016791,0.000000,0.000000,0.002062,0.0000,0.0000,0.0000,0.047967,-0.047967,0.000182,0.000821,-0.000807,0.8511,0.4943,0.3938,0.073631,-0.070563,0.000000,0.613592,-0.608990,0.608990,-0.618194,0.605922,-0.589049
1.6934,0.016741,0.000000,0.000000,0.002110,0.0000,0.0000,0.0000,0.040407,-0.040407,0.000166,0.000804,-0.000775,0.8893,0.4194,0.3400,0.064427,-0.065961,0.000000,0.615126,-0.610524,0.608990,-0.618194,0.605922,-0.590583
1.7102,0.016749,0.000000,0.000000,0.002158,0.0000,0.0000,0.0000,0.032248,-0.032248,0.000032,0.000823,-0.000729,0.8462,0.4283,0.2374,0.056757,-0.065961,0.000000,0.616660,-0.610524,0.608990,-0.619728,0.605922,-0.593651
1.7269,0.016750,0.000000,0.000000,0.002205,0.0000,0.0000,0.0000,0.023517,-0.023517,-0.000092,0.000917,-0.000685,0.9106,0.4300,0.2489,0.052155,-0.062893,0.000000,0.619728,-0.610524,0.608990,-0.621262,0.605922,-0.595185
1.7437,0.016757,0.000000,0.000000,0.002252,0.0000,0.0000,0.0000,0.014233,-0.014233,-0.000203,0.000868,-0.000653,0.8544,0.3804,0.1936,0.049087,-0.052155,0.000000,0.621262,-0.610524,0.608990,-0.621262,0.605922,-0.598253
1.7604,0.016742,0.000000,0.000000,0.002299,0.0000,0.0000,0.0000,0.004436,-0.004436,-0.000203,0.000868,-0.000653,0.8544,0.3804,0.1936,0.049087,-0.052155,0.000000,0.621262,-0.610524,0.608990,-0.621262,0.605922,-0.598253
1.7772,0.016839,0.000000,0.000000,0.002346,0.0000,0.0000,0.0000,-0.005918,0.005918,-0.000248,0.000873,-0.000583,0.8597,0.2517,0.1994,0.038350,-0.036816,0.000000,0.624330,-0.612058,0.608990,-0.621262,0.607456,-0.601320
1.7940,0.016739,0.000000,0.000000,0.002392,0.0000,0.0000,0.0000,-0.016677,0.016677,-0.000175,0.000977,-0.000480,0.7534,0.1796,0.1436,0.023010,-0.021476,0.000000,0.625864,-0.613592,0.608990,-0.624330,0.612058,-0.604388
1.8107,0.016750,0.000000,0.000000,0.002438,0.0000,0.0000,0.0000,-0.027881,0.027881,-0.000197,0.000927,-0.000429,0.7149,0.0689,0.0947,0.013806,-0.013806,0.000000,0.627398,-0.615126,0.608990,-0.624330,0.613592,-0.607456
1.8275,0.016745,0.000000,0.000000,0.002484,0.0000,0.0000,0.0000,-0.039487,0.039487,-0.000375,0.001100,-0.000339,0.7511,0.0673,0.1006,0.006136,-0.009204,0.000000,0.632000,-0.615126,0.608990,-0.627398,0.615126,-0.610524
1.8442,0.016755,0.000000,0.000000,0.002530,0.0000,0.0000,0.0000,-0.051474,0.051474,-0.000343,0.001170,-0.000288,0.6806,0.0178,0.1544,-0.003068,-0.003068,0.000000,0.633534,-0.615126,0.608990,-0.628932,0.618194,-0.612058
1.8610,0.016740,0.000000,0.000000,0.002575,0.0000,0.0000,0.0000,-0.063791,0.063791,-0.000343,0.001170,-0.000288,0.6806,0.0178,0.1544,-0.003068,-0.003068,0.000000,0.633534,-0.615126,0.608990,-0.628932,0.618194,-0.612058
1.8779,0.016881,0.000000,0.000000,0.002620,0.0000,0.0000,0.0000,-0.076522,0.076522,-0.000306,0.001347,-0.000235,0.6813,0.0409,0.2033,-0.015340,0.013806,0.000000,0.635068,-0.615126,0.608990,-0.632000,0.621262,-0.612058
1.8947,0.016840,0.000000,0.000000,0.002665,0.0000,0.0000,0.0000,-0.089496,0.089496,-0.000306,0.001347,-0.000235,0.6813,0.0409,0.2033,-0.015340,0.013806,0.000000,0.635068,-0.615126,0.608990,-0.632000,0.621262,-0.612058
1.9115,0.016756,0.000000,0.000000,0.002709,0.0000,0.0000,0.0000,-0.102642,0.102642,-0.000306,0.001347,-0.000235,0.6813,0.0409,0.2033,-0.015340,0.013806,0.000000,0.635068,-0.615126,0.608990,-0.632000,0.621262,-0.612058
1.9283,0.016818,0.000000,0.000000,0.002754,0.0000,0.0000,0.0000,-0.116036,0.116036,-0.000306,0.001347,-0.000235,0.6813,0.0409,0.2033,-0.015340,0.013806,0.000000,0.635068,-0.615126,0.608990,-0.632000,0.621262,-0.612058
1.9450,0.016759,0.000000,0.000000,0.002797,0.0000,0.0000,0.0000,-0.129546,0.129546,-0.000306,0.001347,-0.000235,0.6813,0.0409,0.2033,-0.015340,0.013806,0.000000,0.635068,-0.615126,0.608990,-0.632000,0.621262,-0.612058
1.9618,0.016747,0.000000,0.000000,0.002841,0.0000,0.0000,0.0000,-0.143171,0.143171,-0.000088,0.001702,0.000070,0.6673,0.2455,0.6363,-0.046019,0.047553,0.000000,0.641204,-0.618194,0.616660,-0.642738,0.633534,-0.612058
1.9785,0.016765,0.000000,0.000000,0.002884,0.0000,0.0000,0.0000,-0.156898,0.156898,-0.000137,0.001554,0.000064,0.6474,0.3255,0.7008,-0.049087,0.050621,0.000000,0.641204,-0.618194,0.619728,-0.642738,0.633534,-0.612058
1.9953,0.016761,0.000000,0.000000,0.002927,0.0000,0.0000,0.0000,-0.170670,0.170670,-0.000137,0.001554,0.000064,0.6474,0.3255,0.7008,-0.073631,0.069029,0.000000,0.641204,-0.618194,0.622796,-0.642738,0.635068,-0.612058
2.0120,0.016734,0.000000,0.000000,0.002969,0.0000,0.0000,0.0000,-0.184430,0.184430,-0.000103,0.001474,0.000103,0.5895,0.3846,0.8586,-0.073631,0.069029,0.000000,0.641204,-0.618194,0.622796,-0.642738,0.635068,-0.612058
2.0288,0.016742,0.000000,0.000000,0.003012,0.0000,0.0000,0.0000,-0.198170,0.198170,-0.000078,0.001499,0.000099,0.5574,0.4432,0.7320,-0.115049,0.107379,0.000000,0.639670,-0.618194,0.622796,-0.644272,0.635068,-0.612058
2.0456,0.016786,0.000000,0.000000,0.003054,0.0000,0.0000,0.0000,-0.211880,0.211880,-0.000164,0.001497,0.000123,0.5605,0.4051,0.7457,-0.153398,0.148796,0.000000,0.641204,-0.618194,0.622796,-0.644272,0.635068,-0.613592
2.0623,0.016753,0.000000,0.000000,0.003095,0.0000,0.0000,0.0000,-0.225460,0.225460,-0.000196,0.001458,0.000134,0.5111,0.3917,0.6895,-0.185612,0.181010,0.000000,0.641204,-0.618194,0.622796,-0.644272,0.635068,-0.615126
2.0791,0.016806,0.000000,0.000000,0.003136,0.0000,0.0000,0.0000,-0.238941,0.238941,-0.000151,0.001502,0.000157,0.5656,0.4079,0.5857,-0.200951,0.197884,0.000000,0.641204,-0.619728,0.622796,-0.645806,0.635068,-0.615126
2.0959,0.016761,0.000000,0.000000,0.003177,0.0000,0.0000,0.0000,-0.252207,0.252207,-0.000151,0.001502,0.000157,0.5656,0.4079,0.5857,-0.200951,0.197884,0.000000,0.641204,-0.619728,0.622796,-0.645806,0.635068,-0.615126
2.1126,0.016752,0.000000,0.000000,0.003218,0.0000,0.0000,0.0000,-0.265251,0.265251,-0.000101,0.001482,0.000204,0.5986,0.3683,0.3772,-0.214757,0.214757,0.000000,0.641204,-0.622796,0.622796,-0.647340,0.635068,-0.616660
2.1294,0.016750,0.000000,0.000000,0.003258,0.0000,0.0000,0.0000,-0.278042,0.278042,-0.000120,0.001541,0.000247,0.6061,0.4197,0.1792,-0.228563,0.228563,0.000000,0.641204,-0.624330,0.622796,-0.650408,0.635068,-0.618194
2.1461,0.016760,0.000000,0.000000,0.003297,0.0000,0.0000,0.0000,-0.290554,0.290554,-0.000105,0.001480,0.000304,0.5949,0.3593,-0.0748,-0.242369,0.240835,0.000000,0.641204,-0.627398,0.622796,-0.651942,0.635068,-0.621262
2.1631,0.016963,0.000000,0.000000,0.003337,0.0000,0.0000,0.0000,-0.302890,0.302890,-0.000107,0.001567,0.000370,0.6943,0.3626,-0.2682,-0.254641,0.251573,0.000000,0.642738,-0.630466,0.622796,-0.655010,0.635068,-0.622796
2.1799,0.016765,0.000000,0.000000,0.003376,0.0000,0.0000,0.0000,-0.314724,0.314724,-0.000094,0.001582,0.000423,0.7711,0.3094,-0.4130,-0.271515,0.269981,0.000000,0.644272,-0.633534,0.622796,-0.656544,0.635068,-0.624330
2.1966,0.016747,0.000000,0.000000,0.003415,0.0000,0.0000,0.0000,-0.326157,0.326157,-0.000094,0.001582,0.000423,0.7711,0.3094,-0.4130,-0.271515,0.269981,0.000000,0.644272,-0.633534,0.622796,-0.656544,0.635068,-0.624330
2.2134,0.016757,0.000000,0.000000,0.003453,0.0000,0.0000,0.0000,-0.337177,0.337177,-0.000127,0.001725,0.000523,0.9972,0.2465,-0.5630,-0.296058,0.294524,0.000000,0.648874,-0.638136,0.622796,-0.659612,0.635068,-0.625864
2.2301,0.016750,0.000000,0.000000,0.003491,0.0000,0.0000,0.0000,-0.347742,0.347742,-0.000166,0.001751,0.000560,1.0229,0.2352,-0.6576,-0.311398,0.308330,0.000000,0.650408,-0.639670,0.622796,-0.661146,0.635068,-0.627398
2.2469,0.016750,0.000000,0.000000,0.003529,0.0000,0.0000,0.0000,-0.357828,0.357828,-0.000164,0.001909,0.000624,1.2159,0.2347,-0.7582,-0.320602,0.317534,0.000000,0.653476,-0.642738,0.622796,-0.664214,0.635068,-0.627398
2.2636,0.016750,0.000000,0.000000,0.003566,0.0000,0.0000,0.0000,-0.367406,0.367406,-0.000249,0.001861,0.000714,1.2727,0.2010,-0.8582,-0.329806,0.325204,0.000000,0.656544,-0.645806,0.624330,-0.665748,0.635068,-0.630466
2.2804,0.016768,0.000000,0.000000,0.003602,0.0000,0.0000,0.0000,-0.376460,0.376460,-0.000249,0.001861,0.000714,1.2727,0.2010,-0.8582,-0.345146,0.340544,0.000000,0.659612,-0.648874,0.627398,-0.665748,0.635068,-0.630466
2.2971,0.016745,0.000000,0.000000,0.003639,0.0000,0.0000,0.0000,-0.384942,0.384942,-0.000242,0.001802,0.000779,1.4183,0.2071,-0.7373,-0.345146,0.340544,0.000000,0.659612,-0.648874,0.627398,-0.665748,0.635068,-0.630466
2.3139,0.016754,0.000000,0.000000,0.003675,0.0000,0.0000,0.0000,-0.392846,0.392846,-0.000215,0.001761,0.000845,1.5166,0.2728,-0.7500,-0.363553,0.360485,0.000000,0.661146,-0.651942,0.630466,-0.667282,0.635068,-0.630466
2.3306,0.016747,0.000000,0.000000,0.003710,0.0000,0.0000,0.0000,-0.400142,0.400142,-0.000355,0.001657,0.000913,1.4864,0.4364,-0.6367,-0.374291,0.372757,0.000000,0.662680,-0.651942,0.635068,-0.668816,0.635068,-0.632000
2.3474,0.016744,0.000000,0.000000,0.003745,0.0000,0.0000,0.0000,-0.406814,0.406814,-0.000423,0.001542,0.000957,1.5061,0.5572,-0.4257,-0.378893,0.374291,0.000000,0.664214,-0.651942,0.639670,-0.668816,0.635068,-0.632000
2.3641,0.016753,0.000000,0.000000,0.003780,0.0000,0.0000,0.0000,-0.412845,0.412845,-0.000344,0.001419,0.001016,1.3934,0.6294,-0.1715,-0.386563,0.378893,0.000000,0.664214,-0.651942,0.644272,-0.668816,0.638136,-0.632000
2.3809,0.016773,0.000000,0.000000,0.003814,0.0000,0.0000,0.0000,-0.418223,0.418223,-0.000223,0.001199,0.001087,1.2354,0.6686,-0.0883,-0.398835,0.394233,0.000000,0.662680,-0.653476,0.648874,-0.668816,0.641204,-0.633534
2.3976,0.016715,0.000000,0.000000,0.003848,0.0000,0.0000,0.0000,-0.422909,0.422909,-0.000223,0.001199,0.001087,1.2354,0.6686,-0.0883,-0.398835,0.394233,0.000000,0.662680,-0.653476,0.648874,-0.668816,0.641204,-0.633534
2.4144,0.016753,0.000000,0.000000,0.003881,0.0000,0.0000,0.0000,-0.426918,0.426918,-0.000053,0.001085,0.001166,1.1414,0.6792,0.1790,-0.411107,0.414175,0.000000,0.662680,-0.655010,0.653476,-0.668816,0.645806,-0.633534
2.4311,0.016745,0.000000,0.000000,0.003914,0.0000,0.0000,0.0000,-0.430227,0.430227,-0.000098,0.001098,0.001218,1.1511,0.7790,0.3182,-0.412641,0.415709,0.000000,0.664214,-0.655010,0.656544,-0.670350,0.647340,-0.633534
2.4481,0.016944,0.000000,0.000000,0.003947,0.0000,0.0000,0.0000,-0.432856,0.432856,-0.000008,0.001129,0.001260,1.0737,0.8006,0.4139,-0.414175,0.417243,0.000000,0.664214,-0.655010,0.658078,-0.671884,0.650408,-0.633534
2.4650,0.016903,0.000000,0.000000,0.003979,0.0000,0.0000,0.0000,-0.434749,0.434749,-0.000018,0.001240,0.001326,1.1027,0.8015,0.6261,-0.423379,0.421845,0.000000,0.667282,-0.655010,0.659612,-0.673418,0.653476,-0.633534
2.4819,0.016951,0.000000,0.000000,0.004011,0.0000,0.0000,0.0000,-0.435910,0.435910,-0.000031,0.001400,0.001364,1.1319,0.8527,0.6040,-0.435651,0.432583,0.000000,0.668816,-0.655010,0.659612,-0.676486,0.655010,-0.633534
2.4987,0.016744,0.000000,0.000000,0.004043,0.0000,0.0000,0.0000,-0.436330,0.436330,-0.000031,0.001400,0.001364,1.1319,0.8527,0.6040,-0.435651,0.432583,0.000000,0.668816,-0.655010,0.659612,-0.676486,0.655010,-0.633534
2.5154,0.016748,0.000000,0.000000,0.004073,0.0000,0.0000,0.0000,-0.436025,0.436025,0.000024,0.001480,0.001407,1.1880,0.8140,0.6062,-0.435651,0.434117,0.000000,0.670350,-0.656544,0.659612,-0.678020,0.656544,-0.633534
2.5322,0.016741,0.000000,0.000000,0.004104,0.0000,0.0000,0.0000,-0.434998,0.434998,0.000073,0.001569,0.001449,1.2412,0.7848,0.6058,-0.434117,0.434117,0.000000,0.671884,-0.658078,0.659612,-0.679553,0.658078,-0.633534
2.5490,0.016836,0.000000,0.000000,0.004134,0.0000,0.0000,0.0000,-0.433238,0.433238,0.000024,0.001715,0.001489,1.3055,0.7759,0.7175,-0.435651,0.438719,0.000000,0.674952,-0.658078,0.659612,-0.681087,0.659612,-0.633534
2.5657,0.016719,0.000000,0.000000,0.004163,0.0000,0.0000,0.0000,-0.430774,0.430774,0.000042,0.001756,0.001507,1.3092,0.7298,0.8170,-0.435651,0.438719,0.000000,0.676486,-0.658078,0.659612,-0.681087,0.661146,-0.633534
2.5825,0.016751,0.000000,0.000000,0.004192,0.0000,0.0000,0.0000,-0.427597,0.427597,0.000042,0.001756,0.001507,1.3092,0.7298,0.8170,-0.435651,0.437185,0.000000,0.676486,-0.658078,0.659612,-0.682621,0.661146,-0.633534
2.5992,0.016743,0.000000,0.000000,0.004220,0.0000,0.0000,0.0000,-0.423721,0.423721,0.000026,0.001809,0.001516,1.3197,0.7839,0.7511,-0.435651,0.437185,0.000000,0.676486,-0.658078,0.659612,-0.682621,0.661146,-0.633534
2.6159,0.016741,0.000000,0.000000,0.004248,0.0000,0.0000,0.0000,-0.419156,0.419156,-0.000028,0.001788,0.001539,1.3563,0.8143,0.8703,-0.435651,0.437185,0.000000,0.678020,-0.658078,0.661146,-0.682621,0.661146,-0.633534
2.6327,0.016751,0.000000,0.000000,0.004276,0.0000,0.0000,0.0000,-0.413912,0.413912,-0.000010,0.001847,0.001524,1.3633,0.7614,0.8017,-0.434117,0.435651,0.000000,0.678020,-0.658078,0.659612,-0.682621,0.661146,-0.633534
2.6495,0.016799,0.000000,0.000000,0.004303,0.0000,0.0000,0.0000,-0.407987,0.407987,-0.000025,0.001898,0.001536,1.3735,0.8162,0.7534,-0.432583,0.434117,0.000000,0.678020,-0.658078,0.659612,-0.684155,0.661146,-0.633534
2.6662,0.016745,0.000000,0.000000,0.004329,0.0000,0.0000,0.0000,-0.401434,0.401434,0.000032,0.001909,0.001547,1.3344,0.7773,0.8134,-0.432583,0.431049,0.000000,0.678020,-0.658078,0.659612,-0.684155,0.662680,-0.633534
2.6830,0.016795,0.000000,0.000000,0.004356,0.0000,0.0000,0.0000,-0.394231,0.394231,0.000082,0.001923,0.001557,1.3005,0.7483,0.8622,-0.432583,0.427981,0.000000,0.678020,-0.658078,0.659612,-0.684155,0.664214,-0.633534
2.6998,0.016737,0.000000,0.000000,0.004381,0.0000,0.0000,0.0000,-0.386445,0.386445,0.000082,0.001923,0.001557,1.3005,0.7483,0.8622,-0.432583,0.427981,0.000000,0.678020,-0.658078,0.659612,-0.684155,0.664214,-0.633534
2.7165,0.016757,0.000000,0.000000,0.004406,0.0000,0.0000,0.0000,-0.378062,0.378062,-0.000034,0.001924,0.001604,1.3038,0.8192,0.8583,-0.429515,0.421845,0.000000,0.679553,-0.658078,0.661146,-0.685689,0.664214,-0.635068
2.7333,0.016739,0.000000,0.000000,0.004431,0.0000,0.0000,0.0000,-0.369125,0.369125,-0.000081,0.002104,0.001618,1.4600,0.8515,0.9713,-0.423379,0.417243,0.000000,0.682621,-0.658078,0.661146,-0.687223,0.664214,-0.633534
2.7500,0.016780,0.000000,0.000000,0.004455,0.0000,0.0000,0.0000,-0.359627,0.359627,-0.000103,0.002087,0.001675,1.4434,0.9504,1.1278,-0.414175,0.412641,0.000000,0.684155,-0.658078,0.664214,-0.688757,0.665748,-0.633534
2.7668,0.016752,0.000000,0.000000,0.004479,0.0000,0.0000,0.0000,-0.349631,0.349631,-0.000198,0.002033,0.001706,1.4335,0.9585,1.1686,-0.401903,0.406505,0.000000,0.685689,-0.658078,0.665748,-0.688757,0.665748,-0.635068
2.7841,0.017293,0.000000,0.000000,0.004503,0.0000,0.0000,0.0000,-0.338804,0.338804,-0.000343,0.002082,0.001761,1.4821,1.0119,1.2224,-0.388097,0.394233,0.000000,0.688757,-0.658078,0.667282,-0.690291,0.665748,-0.636602
2.8008,0.016752,0.000000,0.000000,0.004525,0.0000,0.0000,0.0000,-0.327853,0.327853,-0.000343,0.002082,0.001761,1.4821,1.0119,1.2224,-0.388097,0.394233,0.000000,0.688757,-0.658078,0.667282,-0.690291,0.665748,-0.636602
2.8176,0.016778,0.000000,0.000000,0.004547,0.0000,0.0000,0.0000,-0.316460,0.316460,-0.000413,0.002078,0.001779,1.4763,0.9753,1.2176,-0.375825,0.383495,0.000000,0.690291,-0.658078,0.667282,-0.690291,0.665748,-0.638136
2.8344,0.016765,0.000000,0.000000,0.004569,0.0000,0.0000,0.0000,-0.304683,0.304683,-0.000450,0.002119,0.001787,1.5249,0.9658,1.2747,-0.363553,0.366621,0.000000,0.691825,-0.658078,0.667282,-0.690291,0.665748,-0.638136
2.8512,0.016772,0.000000,0.000000,0.004590,0.0000,0.0000,0.0000,-0.292538,0.292538,-0.000517,0.002059,0.001836,1.5083,0.8826,1.1580,-0.354350,0.355884,0.000000,0.693359,-0.659612,0.667282,-0.690291,0.665748,-0.641204
2.8679,0.016755,0.000000,0.000000,0.004611,0.0000,0.0000,0.0000,-0.280079,0.280079,-0.000496,0.002010,0.001930,1.5002,0.8308,0.7239,-0.329806,0.329806,0.000000,0.693359,-0.664214,0.667282,-0.693359,0.665748,-0.645806
2.8847,0.016769,0.000000,0.000000,0.004631,0.0000,0.0000,0.0000,-0.267317,0.267317,-0.000498,0.002015,0.001920,1.5010,0.8363,0.7692,-0.329806,0.329806,0.000000,0.693359,-0.664214,0.667282,-0.693359,0.665748,-0.645806
2.9014,0.016755,0.000000,0.000000,0.004651,0.0000,0.0000,0.0000,-0.254308,0.254308,-0.000498,0.002015,0.001920,1.5010,0.8363,0.7692,-0.329806,0.329806,0.000000,0.693359,-0.664214,0.667282,-0.693359,0.665748,-0.645806
2.9182,0.016754,0.000000,0.000000,0.004670,0.0000,0.0000,0.0000,-0.241079,0.241079,-0.000528,0.001999,0.001994,1.5387,0.7659,0.5417,-0.312932,0.312932,0.000000,0.694893,-0.667282,0.667282,-0.694893,0.665748,-0.648874
2.9350,0.016760,0.000000,0.000000,0.004688,0.0000,0.0000,0.0000,-0.227662,0.227662,-0.000360,0.001966,0.002144,1.6079,0.5013,0.2845,-0.282252,0.283786,0.000000,0.697961,-0.674952,0.667282,-0.696427,0.668816,-0.653476
2.9517,0.016765,0.000000,0.000000,0.004706,0.0000,0.0000,0.0000,-0.214093,0.214093,-0.000311,0.001976,0.002163,1.7227,0.4452,0.2553,-0.268447,0.271515,0.000000,0.699495,-0.678020,0.667282,-0.696427,0.668816,-0.653476
2.9719,0.020184,0.000000,0.000000,0.004727,0.0000,0.0000,0.0000,-0.197614,0.197614,-0.000311,0.001976,0.002163,1.7227,0.4452,0.2553,-0.268447,0.271515,0.000000,0.699495,-0.678020,0.667282,-0.696427,0.668816,-0.653476
2.9894,0.017499,0.000000,0.000000,0.004745,0.0000,0.0000,0.0000,-0.183251,0.183251,-0.000311,0.001976,0.002163,1.7227,0.4452,0.2553,-0.268447,0.271515,0.000000,0.699495,-0.678020,0.667282,-0.696427,0.668816,-0.653476
3.0062,0.016773,0.000000,0.000000,0.004761,0.0000,0.0000,0.0000,-0.169457,0.169457,-0.000311,0.001976,0.002163,1.7227,0.4452,0.2553,-0.268447,0.271515,0.000000,0.699495,-0.678020,0.667282,-0.696427,0.668816,-0.653476
3.0230,0.016871,0.000000,0.000000,0.004777,0.0000,0.0000,0.0000,-0.155597,0.155597,-0.000105,0.002031,0.002220,1.7196,0.3636,0.2001,-0.225495,0.225495,0.000000,0.699495,-0.681087,0.667282,-0.697961,0.671884,-0.653476
3.0398,0.016774,0.000000,0.000000,0.004792,0.0000,0.0000,0.0000,-0.141870,0.141870,-0.000212,0.002026,0.002238,1.7198,0.3414,0.2065,-0.228563,0.225495,0.000000,0.701029,-0.681087,0.667282,-0.697961,0.671884,-0.655010
3.0566,0.016755,0.000000,0.000000,0.004807,0.0000,0.0000,0.0000,-0.128248,0.128248,-0.000101,0.001968,0.002238,1.7084,0.3221,0.0928,-0.231631,0.228563,0.000000,0.699495,-0.682621,0.667282,-0.697961,0.671884,-0.655010
3.0733,0.016749,0.000000,0.000000,0.004821,0.0000,0.0000,0.0000,-0.114760,0.114760,-0.000127,0.002033,0.002248,1.7208,0.3728,0.0489,-0.213223,0.213223,0.000000,0.699495,-0.682621,0.667282,-0.699495,0.671884,-0.655010
3.0901,0.016753,0.000000,0.000000,0.004835,0.0000,0.0000,0.0000,-0.101434,0.101434,-0.000127,0.002033,0.002248,1.7208,0.3728,0.0489,-0.213223,0.213223,0.000000,0.699495,-0.682621,0.667282,-0.699495,0.671884,-0.655010
3.1068,0.016748,0.000000,0.000000,0.004848,0.0000,0.0000,0.0000,-0.088315,0.088315,-0.000124,0.002026,0.002247,1.7195,0.3675,0.0535,-0.177942,0.182544,0.000000,0.699495,-0.682621,0.667282,-0.699495,0.671884,-0.655010
3.1236,0.016747,0.000000,0.000000,0.004861,0.0000,0.0000,0.0000,-0.075435,0.075435,-0.000069,0.002009,0.002260,1.7564,0.3329,-0.0036,-0.141126,0.145728,0.000000,0.699495,-0.684155,0.667282,-0.699495,0.671884,-0.655010
3.1403,0.016743,0.000000,0.000000,0.004873,0.0000,0.0000,0.0000,-0.062832,0.062832,-0.000074,0.002011,0.002258,1.7525,0.3365,0.0024,-0.111981,0.115049,0.000000,0.699495,-0.684155,0.667282,-0.699495,0.671884,-0.655010
3.1571,0.016750,0.000000,0.000000,0.004884,0.0000,0.0000,0.0000,-0.050533,0.050533,-0.000018,0.001994,0.002271,1.7896,0.3011,-0.0549,-0.087437,0.090505,0.000000,0.699495,-0.685689,0.667282,-0.699495,0.671884,-0.655010
3.1738,0.016751,0.000000,0.000000,0.004895,0.0000,0.0000,0.0000,-0.038576,0.038576,0.000032,0.001978,0.002281,1.8224,0.2697,-0.1056,-0.069029,0.069029,0.000000,0.699495,-0.687223,0.667282,-0.699495,0.671884,-0.655010
3.1906,0.016740,0.000000,0.000000,0.004906,0.0000,0.0000,0.0000,-0.027004,0.027004,0.000032,0.001978,0.002281,1.8224,0.2697,-0.1056,-0.069029,0.069029,0.000000,0.699495,-0.687223,0.667282,-0.699495,0.671884,-0.655010
3.2073,0.016746,0.000000,0.000000,0.004916,0.0000,0.0000,0.0000,-0.015835,0.015835,0.000013,0.002038,0.002291,1.8301,0.3215,-0.1561,-0.056757,0.055223,0.000000,0.699495,-0.687223,0.667282,-0.701029,0.671884,-0.655010
3.2240,0.016746,0.000000,0.000000,0.004925,0.0000,0.0000,0.0000,-0.005106,0.005106,-0.000027,0.001992,0.002303,1.7811,0.2991,-0.2067,-0.050621,0.047553,0.000000,0.699495,-0.687223,0.667282,-0.701029,0.671884,-0.656544
3.2408,0.016748,0.000000,0.000000,0.004934,0.0000,0.0000,0.0000,0.005156,-0.005156,0.000005,0.002095,0.002299,1.8456,0.3668,-0.2013,-0.041417,0.036816,0.000000,0.699495,-0.687223,0.667282,-0.702563,0.671884,-0.655010
3.2575,0.016746,0.000000,0.000000,0.004942,0.0000,0.0000,0.0000,0.014919,-0.014919,0.000002,0.002084,0.002299,1.8389,0.3597,-0.2019,-0.027612,0.026078,0.000000,0.699495,-0.687223,0.667282,-0.702563,0.671884,-0.655010
3.2744,0.016889,0.000000,0.000000,0.004950,0.0000,0.0000,0.0000,0.024235,-0.024235,0.000002,0.002084,0.002299,1.8389,0.3597,-0.2019,-0.009204,0.012272,0.000000,0.699495,-0.687223,0.667282,-0.702563,0.671884,-0.655010
3.2912,0.016747,0.000000,0.000000,0.004957,0.0000,0.0000,0.0000,0.032920,-0.032920,0.000002,0.002084,0.002299,1.8389,0.3597,-0.2019,-0.009204,0.012272,0.000000,0.699495,-0.687223,0.667282,-0.702563,0.671884,-0.655010
3.3079,0.016744,0.000000,0.000000,0.004964,0.0000,0.0000,0.0000,0.041030,-0.041030,0.000002,0.002084,0.002299,1.8389,0.3597,-0.2019,0.007670,-0.001534,0.000000,0.699495,-0.687223,0.667282,-0.702563,0.671884,-0.655010
3.3247,0.016743,0.000000,0.000000,0.004970,0.0000,0.0000,0.0000,0.048542,-0.048542,0.000002,0.002084,0.002299,1.8389,0.3597,-0.2019,0.018408,-0.013806,0.000000,0.699495,-0.687223,0.667282,-0.702563,0.671884,-0.655010
3.3414,0.016749,0.000000,0.000000,0.004975,0.0000,0.0000,0.0000,0.055440,-0.055440,0.000002,0.002084,0.002299,1.8389,0.3597,-0.2019,0.018408,-0.026078,0.000000,0.699495,-0.687223,0.667282,-0.702563,0.671884,-0.655010
3.3582,0.016745,0.000000,0.000000,0.004980,0.0000,0.0000,0.0000,0.061700,-0.061700,0.000002,0.002084,0.002299,1.8389,0.3597,-0.2019,0.026078,-0.038350,0.000000,0.699495,-0.687223,0.667282,-0.702563,0.671884,-0.655010
3.3749,0.016760,0.000000,0.000000,0.004985,0.0000,0.0000,0.0000,0.067311,-0.067311,0.000074,0.002077,0.002336,1.7148,0.2774,-0.1471,0.042951,-0.049087,0.000000,0.699495,-0.687223,0.667282,-0.702563,0.674952,-0.656544
3.3917,0.016738,0.000000,0.000000,0.004988,0.0000,0.0000,0.0000,0.072246,-0.072246,0.000074,0.002077,0.002336,1.7148,0.2774,-0.1471,0.042951,-0.049087,0.000000,0.699495,-0.687223,0.667282,-0.702563,0.674952,-0.656544
3.4084,0.016750,0.000000,0.000000,0.004992,0.0000,0.0000,0.0000,0.076502,-0.076502,0.000123,0.002094,0.002344,1.6896,0.2530,-0.0975,0.058291,-0.056757,0.000000,0.699495,-0.687223,0.667282,-0.702563,0.676486,-0.656544
3.4251,0.016746,0.000000,0.000000,0.004994,0.0000,0.0000,0.0000,0.080061,-0.080061,0.000329,0.002147,0.002365,1.7008,0.1713,0.0075,0.064427,-0.062893,0.000000,0.699495,-0.688757,0.667282,-0.702563,0.679553,-0.655010
3.4419,0.016744,0.000000,0.000000,0.004997,0.0000,0.0000,0.0000,0.082916,-0.082916,0.000363,0.002124,0.002375,1.7362,0.1446,-0.0602,0.064427,-0.067495,0.000000,0.699495,-0.690291,0.667282,-0.702563,0.679553,-0.655010
3.4586,0.016746,0.000000,0.000000,0.004998,0.0000,0.0000,0.0000,0.085059,-0.085059,0.000417,0.002142,0.002385,1.6945,0.1143,0.0024,0.065961,-0.073631,0.000000,0.699495,-0.690291,0.667282,-0.702563,0.681087,-0.655010
3.4754,0.016753,0.000000,0.000000,0.004999,0.0000,0.0000,0.0000,0.086484,-0.086484,0.000417,0.002142,0.002385,1.6945,0.1143,0.0024,0.065961,-0.073631,0.000000,0.699495,-0.690291,0.667282,-0.702563,0.681087,-0.655010
3.4921,0.016746,0.000000,0.000000,0.005000,0.0000,0.0000,0.0000,0.087187,-0.087187,0.000468,0.002157,0.002395,1.6610,0.0845,0.0514,0.075165,-0.078233,0.000000,0.699495,-0.690291,0.667282,-0.702563,0.682621,-0.655010
3.5089,0.016745,0.000000,0.000000,0.005000,0.0000,0.0000,0.0000,0.087165,-0.087165,0.000519,0.002138,0.002406,1.7009,0.0523,-0.0105,0.085903,-0.081301,0.000000,0.699495,-0.691825,0.667282,-0.702563,0.682621,-0.655010
3.5256,0.016742,0.000000,0.000000,0.004999,0.0000,0.0000,0.0000,0.086419,-0.086419,0.000472,0.002100,0.002418,1.6484,0.0387,-0.0598,0.088971,-0.082835,0.000000,0.699495,-0.691825,0.667282,-0.702563,0.682621,-0.656544
3.5424,0.016756,0.000000,0.000000,0.004998,0.0000,0.0000,0.0000,0.084949,-0.084949,0.000574,0.002126,0.002415,1.7385,0.0218,-0.0558,0.081301,-0.085903,0.000000,0.699495,-0.693359,0.667282,-0.702563,0.682621,-0.655010
3.5591,0.016749,0.000000,0.000000,0.004997,0.0000,0.0000,0.0000,0.082762,-0.082762,0.000522,0.002083,0.002429,1.6807,0.0066,-0.1120,0.084369,-0.085903,0.000000,0.699495,-0.693359,0.667282,-0.702563,0.682621,-0.656544
3.5760,0.016919,0.000000,0.000000,0.004994,0.0000,0.0000,0.0000,0.079830,-0.079830,0.000514,0.002146,0.002438,1.6975,0.0567,-0.1620,0.090505,-0.087437,0.000000,0.699495,-0.693359,0.667282,-0.704097,0.682621,-0.656544
3.5928,0.016742,0.000000,0.000000,0.004992,0.0000,0.0000,0.0000,0.076221,-0.076221,0.000514,0.002146,0.002438,1.6975,0.0567,-0.1620,0.090505,-0.087437,0.000000,0.699495,-0.693359,0.667282,-0.704097,0.682621,-0.656544
3.6095,0.016742,0.000000,0.000000,0.004988,0.0000,0.0000,0.0000,0.071919,-0.071919,0.000612,0.002162,0.002436,1.7803,0.0331,-0.1579,0.087437,-0.085903,0.000000,0.699495,-0.694893,0.667282,-0.704097,0.682621,-0.655010
3.6263,0.016749,0.000000,0.000000,0.004984,0.0000,0.0000,0.0000,0.066933,-0.066933,0.000546,0.002178,0.002424,1.7355,0.0708,-0.1015,0.079767,-0.084369,0.000000,0.699495,-0.693359,0.667282,-0.704097,0.682621,-0.655010
3.6430,0.016744,0.000000,0.000000,0.004980,0.0000,0.0000,0.0000,0.061280,-0.061280,0.000538,0.002235,0.002436,1.7509,0.1153,-0.1633,0.076699,-0.078233,0.000000,0.699495,-0.693359,0.667282,-0.705631,0.682621,-0.655010
3.6599,0.016913,0.000000,0.000000,0.004975,0.0000,0.0000,0.0000,0.054908,-0.054908,0.000539,0.002229,0.002435,1.7493,0.1107,-0.1568,0.073631,-0.069029,0.000000,0.699495,-0.693359,0.667282,-0.705631,0.682621,-0.655010
3.6767,0.016755,0.000000,0.000000,0.004969,0.0000,0.0000,0.0000,0.047957,-0.047957,0.000539,0.002229,0.002435,1.7493,0.1107,-0.1568,0.073631,-0.069029,0.000000,0.699495,-0.693359,0.667282,-0.705631,0.682621,-0.655010
3.6934,0.016740,0.000000,0.000000,0.004963,0.0000,0.0000,0.0000,0.040396,-0.040396,0.000539,0.002229,0.002435,1.7493,0.1107,-0.1568,0.065961,-0.067495,0.000000,0.699495,-0.693359,0.667282,-0.705631,0.682621,-0.655010
3.7102,0.016747,0.000000,0.000000,0.004956,0.0000,0.0000,0.0000,0.032238,-0.032238,0.000539,0.002229,0.002435,1.7493,0.1107,-0.1568,0.055223,-0.065961,0.000000,0.699495,-0.693359,0.667282,-0.705631,0.682621,-0.655010
3.7269,0.016743,0.000000,0.000000,0.004949,0.0000,0.0000,0.0000,0.023510,-0.023510,0.000539,0.002229,0.002435,1.7493,0.1107,-0.1568,0.052155,-0.061359,0.000000,0.699495,-0.693359,0.667282,-0.705631,0.682621,-0.655010
3.7437,0.016747,0.000000,0.000000,0.004942,0.0000,0.0000,0.0000,0.014231,-0.014231,0.000539,0.002229,0.002435,1.7493,0.1107,-0.1568,0.052155,-0.052155,0.000000,0.699495,-0.693359,0.667282,-0.705631,0.682621,-0.655010
3.7604,0.016744,0.000000,0.000000,0.004933,0.0000,0.0000,0.0000,0.004432,-0.004432,0.000498,0.002189,0.002448,1.7012,0.0942,-0.2133,0.041417,-0.036816,0.000000,0.699495,-0.693359,0.667282,-0.705631,0.682621,-0.656544
3.7772,0.016745,0.000000,0.000000,0.004924,0.0000,0.0000,0.0000,-0.005862,0.005862,0.000498,0.002189,0.002448,1.7012,0.0942,-0.2133,0.041417,-0.036816,0.000000,0.699495,-0.693359,0.667282,-0.705631,0.682621,-0.656544
3.7939,0.016742,0.000000,0.000000,0.004915,0.0000,0.0000,0.0000,-0.016622,0.016622,0.000502,0.002194,0.002447,1.7062,0.0959,-0.2074,0.026078,-0.021476,0.000000,0.699495,-0.693359,0.667282,-0.705631,0.682621,-0.656544
3.8107,0.016751,0.000000,0.000000,0.004905,0.0000,0.0000,0.0000,-0.027824,0.027824,0.000502,0.002194,0.002447,1.7062,0.0959,-0.2074,0.012272,-0.010738,0.000000,0.699495,-0.693359,0.667282,-0.705631,0.682621,-0.656544
3.8274,0.016742,0.000000,0.000000,0.004895,0.0000,0.0000,0.0000,-0.039426,0.039426,0.000543,0.002233,0.002433,1.7539,0.1127,-0.1522,0.000000,-0.007670,0.000000,0.699495,-0.693359,0.667282,-0.705631,0.682621,-0.655010
3.8441,0.016747,0.000000,0.000000,0.004884,0.0000,0.0000,0.0000,-0.051406,0.051406,0.000595,0.002212,0.002447,1.7852,0.0756,-0.2149,-0.007670,-0.003068,0.000000,0.699495,-0.694893,0.667282,-0.705631,0.682621,-0.655010
3.8609,0.016745,0.000000,0.000000,0.004872,0.0000,0.0000,0.0000,-0.063724,0.063724,0.000605,0.002190,0.002470,1.6957,0.0295,-0.2085,-0.015340,0.010738,0.000000,0.699495,-0.694893,0.667282,-0.705631,0.684155,-0.656544
3.8776,0.016748,0.000000,0.000000,0.004860,0.0000,0.0000,0.0000,-0.076352,0.076352,0.000605,0.002190,0.002470,1.6957,0.0295,-0.2085,-0.015340,0.010738,0.000000,0.699495,-0.694893,0.667282,-0.705631,0.684155,-0.656544
3.8944,0.016741,0.000000,0.000000,0.004847,0.0000,0.0000,0.0000,-0.089245,0.089245,0.000491,0.002193,0.002444,1.7068,0.1026,-0.2079,-0.030680,0.032214,0.000000,0.699495,-0.693359,0.667282,-0.705631,0.682621,-0.656544
3.9111,0.016745,0.000000,0.000000,0.004834,0.0000,0.0000,0.0000,-0.102379,0.102379,0.000601,0.002249,0.002445,1.7160,0.0789,-0.0965,-0.050621,0.052155,0.000000,0.699495,-0.693359,0.667282,-0.705631,0.684155,-0.655010
3.9279,0.016742,0.000000,0.000000,0.004820,0.0000,0.0000,0.0000,-0.115709,0.115709,0.000589,0.002210,0.002445,1.7891,0.0791,-0.2207,-0.065961,0.065961,0.000000,0.699495,-0.694893,0.667282,-0.705631,0.682621,-0.655010
3.9446,0.016748,0.000000,0.000000,0.004806,0.0000,0.0000,0.0000,-0.129207,0.129207,0.000590,0.002214,0.002445,1.7815,0.0791,-0.2077,-0.078233,0.073631,0.000000,0.699495,-0.694893,0.667282,-0.705631,0.682621,-0.655010
3.9614,0.016747,0.000000,0.000000,0.004791,0.0000,0.0000,0.0000,-0.142829,0.142829,0.000590,0.002214,0.002445,1.7815,0.0791,-0.2077,-0.092039,0.085903,0.000000,0.699495,-0.693359,0.667282,-0.705631,0.684155,-0.655010
3.9781,0.016757,0.000000,0.000000,0.004776,0.0000,0.0000,0.0000,-0.156547,0.156547,0.000591,0.002247,0.002445,1.7082,0.0814,-0.0966,-0.092039,0.085903,0.000000,0.699495,-0.693359,0.667282,-0.705631,0.684155,-0.655010
3.9949,0.016744,0.000000,0.000000,0.004760,0.0000,0.0000,0.0000,-0.170304,0.170304,0.000534,0.002228,0.002434,1.7537,0.1142,-0.1638,-0.115049,0.110447,0.000000,0.699495,-0.693359,0.667282,-0.705631,0.682621,-0.655010
4.0116,0.016757,0.000000,0.000000,0.004744,0.0000,0.0000,0.0000,-0.184084,0.184084,0.000540,0.002230,0.002435,1.7490,0.1108,-0.1568,-0.130388,0.127320,0.000000,0.699495,-0.693359,0.667282,-0.705631,0.682621,-0.655010
4.0284,0.016764,0.000000,0.000000,0.004727,0.0000,0.0000,0.0000,-0.197843,0.197843,0.000540,0.002230,0.002435,1.7490,0.1108,-0.1568,-0.130388,0.127320,0.000000,0.699495,-0.693359,0.667282,-0.705631,0.682621,-0.655010
4.0451,0.016764,0.000000,0.000000,0.004710,0.0000,0.0000,0.0000,-0.211537,0.211537,0.000540,0.002230,0.002435,1.7490,0.1108,-0.1568,-0.130388,0.127320,0.000000,0.699495,-0.693359,0.667282,-0.705631,0.682621,-0.655010
4.0621,0.016958,0.000000,0.000000,0.004691,0.0000,0.0000,0.0000,-0.225285,0.225285,0.000540,0.002230,0.002435,1.7490,0.1108,-0.1568,-0.130388,0.127320,0.000000,0.699495,-0.693359,0.667282,-0.705631,0.682621,-0.655010
4.0789,0.016756,0.000000,0.000000,0.004673,0.0000,0.0000,0.0000,-0.238728,0.238728,0.000540,0.002230,0.002435,1.7490,0.1108,-0.1568,-0.130388,0.127320,0.000000,0.699495,-0.693359,0.667282,-0.705631,0.682621,-0.655010
4.0956,0.016748,0.000000,0.000000,0.004654,0.0000,0.0000,0.0000,-0.251987,0.251987,0.000540,0.002230,0.002435,1.7490,0.1108,-0.1568,-0.176408,0.170272,0.000000,0.699495,-0.693359,0.667282,-0.705631,0.682621,-0.655010
4.1124,0.016765,0.000000,0.000000,0.004634,0.0000,0.0000,0.0000,-0.265045,0.265045,0.000540,0.002230,0.002435,1.7490,0.1108,-0.1568,-0.171806,0.168738,0.000000,0.699495,-0.693359,0.667282,-0.705631,0.682621,-0.655010
4.1291,0.016747,0.000000,0.000000,0.004614,0.0000,0.0000,0.0000,-0.277838,0.277838,0.000540,0.002230,0.002435,1.7490,0.1108,-0.1568,-0.171806,0.168738,0.000000,0.699495,-0.693359,0.667282,-0.705631,0.682621,-0.655010
4.1459,0.016761,0.000000,0.000000,0.004594,0.0000,0.0000,0.0000,-0.290356,0.290356,0.000498,0.002189,0.002448,1.7012,0.0942,-0.2133,-0.174874,0.174874,0.000000,0.699495,-0.693359,0.667282,-0.705631,0.682621,-0.656544
4.1626,0.016742,0.000000,0.000000,0.004573,0.0000,0.0000,0.0000,-0.302539,0.302539,0.000600,0.002216,0.002445,1.7906,0.0775,-0.2085,-0.196350,0.199418,0.000000,0.699495,-0.694893,0.667282,-0.705631,0.682621,-0.655010
4.1794,0.016767,0.000000,0.000000,0.004551,0.0000,0.0000,0.0000,-0.314386,0.314386,0.000533,0.002231,0.002434,1.7452,0.1146,-0.1521,-0.240835,0.240835,0.000000,0.699495,-0.693359,0.667282,-0.705631,0.682621,-0.655010
4.1961,0.016749,0.000000,0.000000,0.004529,0.0000,0.0000,0.0000,-0.325832,0.325832,0.000540,0.002229,0.002435,1.7499,0.1107,-0.1580,-0.286854,0.286854,0.000000,0.699495,-0.693359,0.667282,-0.705631,0.682621,-0.655010
4.2129,0.016762,0.000000,0.000000,0.004507,0.0000,0.0000,0.0000,-0.336868,0.336868,0.000540,0.002229,0.002435,1.7499,0.1107,-0.1580,-0.322136,0.319068,0.000000,0.699495,-0.693359,0.667282,-0.705631,0.682621,-0.655010
4.2296,0.016745,0.000000,0.000000,0.004484,0.0000,0.0000,0.0000,-0.347444,0.347444,0.000540,0.002229,0.002435,1.7499,0.1107,-0.1580,-0.322136,0.319068,0.000000,0.699495,-0.693359,0.667282,-0.705631,0.682621,-0.655010
4.2464,0.016759,0.000000,0.000000,0.004460,0.0000,0.0000,0.0000,-0.357549,0.357549,0.000540,0.002229,0.002435,1.7499,0.1107,-0.1580,-0.328272,0.323670,0.000000,0.699495,-0.693359,0.667282,-0.705631,0.682621,-0.655010
4.2631,0.016745,0.000000,0.000000,0.004436,0.0000,0.0000,0.0000,-0.367139,0.367139,0.000596,0.002246,0.002446,1.7115,0.0781,-0.1017,-0.323670,0.319068,0.000000,0.699495,-0.693359,0.667282,-0.705631,0.684155,-0.655010
4.2799,0.016757,0.000000,0.000000,0.004412,0.0000,0.0000,0.0000,-0.376203,0.376203,0.000492,0.002188,0.002447,1.7051,0.0975,-0.2190,-0.331340,0.328272,0.000000,0.699495,-0.693359,0.667282,-0.705631,0.682621,-0.656544
4.2967,0.016750,0.000000,0.000000,0.004387,0.0000,0.0000,0.0000,-0.384704,0.384704,0.000657,0.002233,0.002456,1.7523,0.0441,-0.1523,-0.349748,0.345146,0.000000,0.699495,-0.694893,0.667282,-0.705631,0.684155,-0.655010
4.3134,0.016759,0.000000,0.000000,0.004361,0.0000,0.0000,0.0000,-0.392627,0.392627,0.000657,0.002233,0.002456,1.7523,0.0441,-0.1523,-0.349748,0.345146,0.000000,0.699495,-0.694893,0.667282,-0.705631,0.684155,-0.655010
4.3302,0.016746,0.000000,0.000000,0.004335,0.0000,0.0000,0.0000,-0.399941,0.399941,0.000584,0.002245,0.002444,1.7113,0.0851,-0.1024,-0.372757,0.369689,0.000000,0.699495,-0.693359,0.667282,-0.705631,0.684155,-0.655010
4.3469,0.016754,0.000000,0.000000,0.004309,0.0000,0.0000,0.0000,-0.406635,0.406635,0.000534,0.002228,0.002434,1.7534,0.1138,-0.1632,-0.386563,0.381961,0.000000,0.699495,-0.693359,0.667282,-0.705631,0.682621,-0.655010
4.3637,0.016745,0.000000,0.000000,0.004282,0.0000,0.0000,0.0000,-0.412682,0.412682,0.000540,0.002230,0.002435,1.7490,0.1108,-0.1568,-0.386563,0.385029,0.000000,0.699495,-0.693359,0.667282,-0.705631,0.682621,-0.655010
4.3804,0.016751,0.000000,0.000000,0.004254,0.0000,0.0000,0.0000,-0.418072,0.418072,0.000596,0.002246,0.002446,1.7116,0.0781,-0.1019,-0.388097,0.389631,0.000000,0.699495,-0.693359,0.667282,-0.705631,0.684155,-0.655010
4.3972,0.016746,0.000000,0.000000,0.004226,0.0000,0.0000,0.0000,-0.422786,0.422786,0.000533,0.002228,0.002433,1.7534,0.1145,-0.1632,-0.406505,0.408039,0.000000,0.699495,-0.693359,0.667282,-0.705631,0.682621,-0.655010
4.4139,0.016767,0.000000,0.000000,0.004198,0.0000,0.0000,0.0000,-0.426818,0.426818,0.000533,0.002228,0.002433,1.7534,0.1145,-0.1632,-0.406505,0.408039,0.000000,0.699495,-0.693359,0.667282,-0.705631,0.682621,-0.655010
4.4307,0.016746,0.000000,0.000000,0.004169,0.0000,0.0000,0.0000,-0.430147,0.430147,0.000597,0.002246,0.002446,1.7111,0.0777,-0.1012,-0.421845,0.421845,0.000000,0.699495,-0.693359,0.667282,-0.705631,0.684155,-0.655010
4.4474,0.016752,0.000000,0.000000,0.004140,0.0000,0.0000,0.0000,-0.432769,0.432769,0.000590,0.002244,0.002445,1.7156,0.0816,-0.1077,-0.420311,0.421845,0.000000,0.699495,-0.693359,0.667282,-0.705631,0.684155,-0.655010
4.4642,0.016743,0.000000,0.000000,0.004110,0.0000,0.0000,0.0000,-0.434675,0.434675,0.000534,0.002228,0.002434,1.7530,0.1142,-0.1626,-0.423379,0.423379,0.000000,0.699495,-0.693359,0.667282,-0.705631,0.682621,-0.655010
4.4809,0.016752,0.000000,0.000000,0.004080,0.0000,0.0000,0.0000,-0.435862,0.435862,0.000540,0.002230,0.002435,1.7491,0.1108,-0.1569,-0.434117,0.432583,0.000000,0.699495,-0.693359,0.667282,-0.705631,0.682621,-0.655010
4.4977,0.016746,0.000000,0.000000,0.004049,0.0000,0.0000,0.0000,-0.436325,0.436325,0.000540,0.002230,0.002435,1.7491,0.1108,-0.1569,-0.435651,0.437185,0.000000,0.699495,-0.693359,0.667282,-0.705631,0.682621,-0.655010
4.5144,0.016761,0.000000,0.000000,0.004018,0.0000,0.0000,0.0000,-0.436064,0.436064,0.000540,0.002230,0.002435,1.7491,0.1108,-0.1569,-0.435651,0.437185,0.000000,0.699495,-0.693359,0.667282,-0.705631,0.682621,-0.655010
4.5312,0.016745,0.000000,0.000000,0.003987,0.0000,0.0000,0.0000,-0.435078,0.435078,0.000540,0.002230,0.002435,1.7491,0.1108,-0.1569,-0.435651,0.435651,0.000000,0.699495,-0.693359,0.667282,-0.705631,0.682621,-0.655010
4.5479,0.016754,0.000000,0.000000,0.003955,0.0000,0.0000,0.0000,-0.433371,0.433371,0.000540,0.002230,0.002435,1.7491,0.1108,-0.1569,-0.435651,0.435651,0.000000,0.699495,-0.693359,0.667282,-0.705631,0.682621,-0.655010
4.5647,0.016747,0.000000,0.000000,0.003922,0.0000,0.0000,0.0000,-0.430948,0.430948,0.000540,0.002230,0.002435,1.7491,0.1108,-0.1569,-0.435651,0.437185,0.000000,0.699495,-0.693359,0.667282,-0.705631,0.682621,-0.655010
