t,loop_dt,cmd_x,cmd_y,cmd_z,cmd_roll,cmd_pitch,cmd_yaw,cmd_ant_l,cmd_ant_r,pres_x,pres_y,pres_z,pres_roll,pres_pitch,pres_yaw,pres_ant_l,pres_ant_r,pres_j0,pres_j1,pres_j2,pres_j3,pres_j4,pres_j5,pres_j6
0.0000,0.000001,-0.000246,0.000913,-0.002436,0.6095,0.4612,0.1409,-0.182544,0.179476,-0.000246,0.000913,-0.002436,0.6095,0.4612,0.1409,-0.182544,0.179476,0.000000,0.578311,-0.566039,0.567573,-0.582913,0.567573,-0.559903
0.0168,0.016757,-0.000242,0.000898,-0.002395,0.5993,0.4535,0.1385,-0.182409,0.179393,-0.000260,0.000853,-0.002422,0.5978,0.5180,0.2000,-0.182544,0.179476,0.000000,0.578311,-0.566039,0.569107,-0.582913,0.567573,-0.559903
0.0335,0.016743,-0.000238,0.000883,-0.002354,0.5891,0.4458,0.1361,-0.182275,0.179310,-0.000246,0.000914,-0.002436,0.6096,0.4606,0.1402,-0.182544,0.179476,0.000000,0.578311,-0.566039,0.567573,-0.582913,0.567573,-0.559903
0.0503,0.016763,-0.000234,0.000867,-0.002314,0.5788,0.4381,0.1337,-0.182141,0.179227,-0.000260,0.000853,-0.002422,0.5978,0.5181,0.2001,-0.182544,0.179476,0.000000,0.578311,-0.566039,0.569107,-0.582913,0.567573,-0.559903
0.0670,0.016745,-0.000230,0.000852,-0.002273,0.5686,0.4304,0.1313,-0.182007,0.179145,-0.000259,0.000969,-0.002424,0.6204,0.5116,0.0868,-0.182544,0.179476,0.000000,0.578311,-0.566039,0.567573,-0.584447,0.567573,-0.559903
0.0838,0.016759,-0.000226,0.000837,-0.002232,0.5584,0.4227,0.1289,-0.181873,0.179062,-0.000165,0.000901,-0.002461,0.6072,0.4946,0.1518,-0.182544,0.177942,0.000000,0.576777,-0.566039,0.567573,-0.582913,0.567573,-0.558369
0.1005,0.016736,-0.000222,0.000821,-0.002191,0.5482,0.4150,0.1265,-0.181739,0.178979,-0.000165,0.000901,-0.002461,0.6072,0.4946,0.1518,-0.182544,0.177942,0.000000,0.576777,-0.566039,0.567573,-0.582913,0.567573,-0.558369
0.1172,0.016742,-0.000217,0.000806,-0.002150,0.5380,0.4073,0.1241,-0.181604,0.178896,0.000056,0.000962,-0.002557,0.6190,0.6488,0.2508,-0.182544,0.177942,0.000000,0.572175,-0.564505,0.567573,-0.582913,0.567573,-0.552233
0.1340,0.016743,-0.000213,0.000791,-0.002110,0.5278,0.3995,0.1217,-0.181470,0.178813,0.000061,0.000971,-0.002585,0.5786,0.7014,0.2934,-0.182544,0.179476,0.000000,0.570641,-0.562971,0.567573,-0.582913,0.567573,-0.550699
0.1508,0.016762,-0.000209,0.000775,-0.002069,0.5176,0.3918,0.1193,-0.181336,0.178731,0.000100,0.001009,-0.002595,0.6326,0.7134,0.3423,-0.182544,0.177942,0.000000,0.570641,-0.562971,0.567573,-0.582913,0.567573,-0.549165
0.1675,0.016740,-0.000205,0.000760,-0.002028,0.5073,0.3841,0.1169,-0.181202,0.178648,0.000096,0.001005,-0.002594,0.6270,0.7122,0.3372,-0.182544,0.177942,0.000000,0.570641,-0.562971,0.567573,-0.582913,0.567573,-0.549165
0.1842,0.016752,-0.000201,0.000745,-0.001987,0.4971,0.3764,0.1146,-0.181068,0.178565,0.000096,0.001005,-0.002594,0.6270,0.7122,0.3372,-0.182544,0.179476,0.000000,0.570641,-0.562971,0.567573,-0.582913,0.567573,-0.549165
0.2010,0.016740,-0.000197,0.000730,-0.001946,0.4869,0.3687,0.1122,-0.180934,0.178482,0.000096,0.001005,-0.002594,0.6270,0.7122,0.3372,-0.182544,0.179476,0.000000,0.570641,-0.562971,0.567573,-0.582913,0.567573,-0.549165
0.2177,0.016747,-0.000193,0.000714,-0.001906,0.4767,0.3610,0.1098,-0.180800,0.178400,0.000056,0.000967,-0.002581,0.5777,0.6948,0.2844,-0.182544,0.177942,0.000000,0.570641,-0.562971,0.567573,-0.582913,0.567573,-0.550699
0.2345,0.016740,-0.000189,0.000699,-0.001865,0.4665,0.3533,0.1074,-0.180665,0.178317,0.000061,0.000971,-0.002582,0.5829,0.6966,0.2899,-0.182544,0.177942,0.000000,0.570641,-0.562971,0.567573,-0.582913,0.567573,-0.550699
0.2512,0.016766,-0.000184,0.000684,-0.001824,0.4563,0.3455,0.1050,-0.180531,0.178234,0.000061,0.000971,-0.002582,0.5829,0.6966,0.2899,-0.182544,0.177942,0.000000,0.570641,-0.562971,0.567573,-0.582913,0.567573,-0.550699
0.2680,0.016799,-0.000180,0.000668,-0.001783,0.4460,0.3378,0.1026,-0.180397,0.178151,0.000061,0.000971,-0.002582,0.5829,0.6966,0.2899,-0.182544,0.177942,0.000000,0.570641,-0.562971,0.567573,-0.582913,0.567573,-0.550699
0.2848,0.016764,-0.000176,0.000653,-0.001742,0.4358,0.3301,0.1003,-0.180262,0.178068,0.000061,0.000971,-0.002582,0.5829,0.6966,0.2899,-0.182544,0.177942,0.000000,0.570641,-0.562971,0.567573,-0.582913,0.567573,-0.550699
0.3015,0.016739,-0.000172,0.000638,-0.001701,0.4256,0.3224,0.0979,-0.180128,0.177985,0.000100,0.001009,-0.002595,0.6322,0.7139,0.3427,-0.182544,0.179476,0.000000,0.570641,-0.562971,0.567573,-0.582913,0.567573,-0.549165
0.3183,0.016744,-0.000168,0.000622,-0.001661,0.4154,0.3146,0.0955,-0.179994,0.177903,0.000056,0.000966,-0.002581,0.5772,0.6946,0.2838,-0.182544,0.177942,0.000000,0.570641,-0.562971,0.567573,-0.582913,0.567573,-0.550699
0.3350,0.016739,-0.000164,0.000607,-0.001620,0.4052,0.3069,0.0931,-0.179860,0.177820,0.000101,0.001009,-0.002595,0.6328,0.7141,0.3433,-0.182544,0.177942,0.000000,0.570641,-0.562971,0.567573,-0.582913,0.567573,-0.549165
0.3518,0.016752,-0.000160,0.000592,-0.001579,0.3950,0.2992,0.0908,-0.179726,0.177737,0.000056,0.000966,-0.002581,0.5771,0.6946,0.2838,-0.182544,0.177942,0.000000,0.570641,-0.562971,0.567573,-0.582913,0.567573,-0.550699
0.3685,0.016743,-0.000156,0.000577,-0.001538,0.3848,0.2915,0.0884,-0.179592,0.177654,0.000061,0.000971,-0.002582,0.5829,0.6966,0.2900,-0.182544,0.177942,0.000000,0.570641,-0.562971,0.567573,-0.582913,0.567573,-0.550699
0.3853,0.016761,-0.000151,0.000561,-0.001497,0.3746,0.2837,0.0860,-0.179457,0.177571,0.000061,0.000971,-0.002582,0.5829,0.6966,0.2900,-0.182544,0.177942,0.000000,0.570641,-0.562971,0.567573,-0.582913,0.567573,-0.550699
0.4020,0.016773,-0.000147,0.000546,-0.001457,0.3643,0.2760,0.0837,-0.179323,0.177488,0.000061,0.000971,-0.002582,0.5829,0.6966,0.2900,-0.182544,0.177942,0.000000,0.570641,-0.562971,0.567573,-0.582913,0.567573,-0.550699
0.4189,0.016814,-0.000143,0.000531,-0.001416,0.3541,0.2683,0.0813,-0.179188,0.177405,0.000061,0.000971,-0.002582,0.5829,0.6966,0.2900,-0.182544,0.177942,0.000000,0.570641,-0.562971,0.567573,-0.582913,0.567573,-0.550699
0.4356,0.016784,-0.000139,0.000515,-0.001375,0.3439,0.2605,0.0789,-0.179054,0.177322,0.000061,0.000971,-0.002582,0.5829,0.6966,0.2900,-0.182544,0.177942,0.000000,0.570641,-0.562971,0.567573,-0.582913,0.567573,-0.550699
0.4525,0.016827,-0.000135,0.000500,-0.001334,0.3336,0.2528,0.0765,-0.178919,0.177239,0.000061,0.000971,-0.002582,0.5829,0.6966,0.2900,-0.182544,0.177942,0.000000,0.570641,-0.562971,0.567573,-0.582913,0.567573,-0.550699
0.4692,0.016756,-0.000131,0.000485,-0.001293,0.3234,0.2450,0.0742,-0.178785,0.177156,0.000061,0.000971,-0.002582,0.5829,0.6966,0.2900,-0.182544,0.177942,0.000000,0.570641,-0.562971,0.567573,-0.582913,0.567573,-0.550699
0.4860,0.016762,-0.000127,0.000469,-0.001252,0.3132,0.2373,0.0718,-0.178651,0.177074,0.000061,0.000971,-0.002582,0.5829,0.6966,0.2900,-0.182544,0.177942,0.000000,0.570641,-0.562971,0.567573,-0.582913,0.567573,-0.550699
0.5027,0.016743,-0.000122,0.000454,-0.001211,0.3030,0.2296,0.0695,-0.178516,0.176991,0.000061,0.000971,-0.002582,0.5829,0.6966,0.2900,-0.182544,0.177942,0.000000,0.570641,-0.562971,0.567573,-0.582913,0.567573,-0.550699
0.5195,0.016747,-0.000118,0.000439,-0.001171,0.2928,0.2219,0.0671,-0.178382,0.176908,0.000061,0.000971,-0.002582,0.5829,0.6966,0.2900,-0.181010,0.177942,0.000000,0.570641,-0.562971,0.567573,-0.582913,0.567573,-0.550699
0.5362,0.016745,-0.000114,0.000423,-0.001130,0.2825,0.2141,0.0647,-0.178248,0.176825,0.000061,0.000971,-0.002582,0.5829,0.6966,0.2900,-0.181010,0.177942,0.000000,0.570641,-0.562971,0.567573,-0.582913,0.567573,-0.550699
0.5530,0.016747,-0.000110,0.000408,-0.001089,0.2723,0.2064,0.0624,-0.178114,0.176742,0.000061,0.000971,-0.002582,0.5829,0.6966,0.2900,-0.181010,0.177942,0.000000,0.570641,-0.562971,0.567573,-0.582913,0.567573,-0.550699
0.5697,0.016749,-0.000106,0.000393,-0.001048,0.2621,0.1987,0.0600,-0.177980,0.176660,0.000061,0.000971,-0.002582,0.5829,0.6966,0.2900,-0.181010,0.177942,0.000000,0.570641,-0.562971,0.567573,-0.582913,0.567573,-0.550699
0.5865,0.016764,-0.000102,0.000378,-0.001007,0.2519,0.1909,0.0577,-0.177845,0.176577,0.000100,0.001009,-0.002595,0.6322,0.7139,0.3426,-0.181010,0.177942,0.000000,0.570641,-0.562971,0.567573,-0.582913,0.567573,-0.549165
0.6032,0.016741,-0.000098,0.000362,-0.000967,0.2417,0.1832,0.0553,-0.177711,0.176494,0.000096,0.001005,-0.002594,0.6271,0.7121,0.3372,-0.181010,0.177942,0.000000,0.570641,-0.562971,0.567573,-0.582913,0.567573,-0.549165
0.6200,0.016749,-0.000094,0.000347,-0.000926,0.2315,0.1755,0.0530,-0.177577,0.176411,0.000056,0.000967,-0.002581,0.5777,0.6948,0.2844,-0.181010,0.177942,0.000000,0.570641,-0.562971,0.567573,-0.582913,0.567573,-0.550699
0.6367,0.016744,-0.000089,0.000332,-0.000885,0.2213,0.1678,0.0506,-0.177443,0.176329,0.000101,0.001009,-0.002595,0.6327,0.7141,0.3432,-0.181010,0.177942,0.000000,0.570641,-0.562971,0.567573,-0.582913,0.567573,-0.549165
0.6538,0.017045,-0.000085,0.000316,-0.000843,0.2109,0.1599,0.0482,-0.177307,0.176244,0.000056,0.000966,-0.002581,0.5771,0.6946,0.2838,-0.181010,0.177942,0.000000,0.570641,-0.562971,0.567573,-0.582913,0.567573,-0.550699
0.6705,0.016746,-0.000081,0.000301,-0.000803,0.2007,0.1522,0.0459,-0.177172,0.176162,0.000056,0.000966,-0.002581,0.5771,0.6946,0.2838,-0.181010,0.177942,0.000000,0.570641,-0.562971,0.567573,-0.582913,0.567573,-0.550699
0.6873,0.016793,-0.000077,0.000286,-0.000762,0.1905,0.1444,0.0435,-0.177038,0.176079,0.000061,0.000971,-0.002582,0.5829,0.6966,0.2900,-0.179476,0.177942,0.000000,0.570641,-0.562971,0.567573,-0.582913,0.567573,-0.550699
0.7041,0.016755,-0.000073,0.000270,-0.000721,0.1803,0.1367,0.0412,-0.176904,0.175996,0.000061,0.000971,-0.002582,0.5829,0.6966,0.2900,-0.181010,0.177942,0.000000,0.570641,-0.562971,0.567573,-0.582913,0.567573,-0.550699
0.7208,0.016750,-0.000069,0.000255,-0.000680,0.1701,0.1290,0.0388,-0.176769,0.175913,0.000061,0.000971,-0.002582,0.5829,0.6966,0.2900,-0.181010,0.177942,0.000000,0.570641,-0.562971,0.567573,-0.582913,0.567573,-0.550699
0.7376,0.016758,-0.000065,0.000240,-0.000639,0.1599,0.1212,0.0365,-0.176635,0.175830,0.000061,0.000971,-0.002582,0.5829,0.6966,0.2900,-0.181010,0.177942,0.000000,0.570641,-0.562971,0.567573,-0.582913,0.567573,-0.550699
0.7547,0.017175,-0.000060,0.000224,-0.000597,0.1494,0.1133,0.0341,-0.176498,0.175745,0.000061,0.000971,-0.002582,0.5829,0.6966,0.2900,-0.179476,0.177942,0.000000,0.570641,-0.562971,0.567573,-0.582913,0.567573,-0.550699
0.7715,0.016781,-0.000056,0.000209,-0.000557,0.1392,0.1055,0.0318,-0.176363,0.175662,0.000061,0.000971,-0.002582,0.5829,0.6966,0.2900,-0.179476,0.177942,0.000000,0.570641,-0.562971,0.567573,-0.582913,0.567573,-0.550699
0.7883,0.016754,-0.000052,0.000193,-0.000516,0.1290,0.0978,0.0294,-0.176229,0.175579,0.000061,0.000971,-0.002582,0.5829,0.6966,0.2900,-0.179476,0.177942,0.000000,0.570641,-0.562971,0.567573,-0.582913,0.567573,-0.550699
0.8050,0.016749,-0.000048,0.000178,-0.000475,0.1188,0.0901,0.0271,-0.176095,0.175497,0.000061,0.000971,-0.002582,0.5829,0.6966,0.2900,-0.181010,0.177942,0.000000,0.570641,-0.562971,0.567573,-0.582913,0.567573,-0.550699
0.8221,0.017045,-0.000044,0.000162,-0.000433,0.1084,0.0822,0.0247,-0.175958,0.175412,0.000061,0.000971,-0.002582,0.5829,0.6966,0.2900,-0.179476,0.177942,0.000000,0.570641,-0.562971,0.567573,-0.582913,0.567573,-0.550699
0.8388,0.016756,-0.000040,0.000147,-0.000393,0.0982,0.0745,0.0224,-0.175824,0.175330,0.000100,0.001009,-0.002595,0.6322,0.7139,0.3426,-0.179476,0.177942,0.000000,0.570641,-0.562971,0.567573,-0.582913,0.567573,-0.549165
0.8559,0.017059,-0.000035,0.000132,-0.000351,0.0878,0.0666,0.0200,-0.175687,0.175245,0.000056,0.000966,-0.002581,0.5772,0.6946,0.2838,-0.179476,0.177942,0.000000,0.570641,-0.562971,0.567573,-0.582913,0.567573,-0.550699
0.8726,0.016752,-0.000031,0.000116,-0.000310,0.0776,0.0588,0.0177,-0.175553,0.175162,0.000056,0.000966,-0.002581,0.5772,0.6946,0.2838,-0.179476,0.177942,0.000000,0.570641,-0.562971,0.567573,-0.582913,0.567573,-0.550699
0.8894,0.016752,-0.000027,0.000101,-0.000269,0.0674,0.0511,0.0153,-0.175419,0.175080,0.000114,0.000955,-0.002569,0.6222,0.6613,0.2367,-0.179476,0.177942,0.000000,0.570641,-0.564505,0.567573,-0.582913,0.567573,-0.550699
0.9061,0.016748,-0.000023,0.000086,-0.000229,0.0572,0.0434,0.0130,-0.175285,0.174997,0.000055,0.000972,-0.002583,0.5782,0.7001,0.2949,-0.179476,0.177942,0.000000,0.570641,-0.562971,0.567573,-0.582913,0.567573,-0.550699
0.9230,0.016858,-0.000019,0.000070,-0.000188,0.0469,0.0356,0.0107,-0.175150,0.174914,0.000114,0.000954,-0.002569,0.6221,0.6607,0.2356,-0.179476,0.177942,0.000000,0.570641,-0.564505,0.567573,-0.582913,0.567573,-0.550699
0.9398,0.016758,-0.000015,0.000055,-0.000147,0.0367,0.0278,0.0084,-0.175016,0.174831,0.000108,0.000956,-0.002571,0.6175,0.6648,0.2418,-0.179476,0.177942,0.000000,0.570641,-0.564505,0.567573,-0.582913,0.567573,-0.550699
0.9565,0.016780,-0.000011,0.000040,-0.000106,0.0265,0.0201,0.0060,-0.174881,0.174748,0.000148,0.000995,-0.002584,0.6678,0.6818,0.2944,-0.179476,0.177942,0.000000,0.570641,-0.564505,0.567573,-0.582913,0.567573,-0.549165
0.9733,0.016751,-0.000007,0.000024,-0.000065,0.0163,0.0123,0.0037,-0.174747,0.174665,0.000148,0.000995,-0.002584,0.6678,0.6818,0.2944,-0.179476,0.177942,0.000000,0.570641,-0.564505,0.567573,-0.582913,0.567573,-0.549165
0.9900,0.016751,-0.000002,0.000009,-0.000024,0.0061,0.0046,0.0014,-0.174613,0.174582,0.000157,0.000936,-0.002557,0.6519,0.6272,0.1823,-0.179476,0.177942,0.000000,0.570641,-0.566039,0.567573,-0.582913,0.567573,-0.550699
1.0068,0.016752,0.000000,0.000000,0.000021,0.0000,0.0000,0.0000,-0.170810,0.170810,0.000156,0.000942,-0.002559,0.6536,0.6329,0.1940,-0.179476,0.177942,0.000000,0.570641,-0.566039,0.567573,-0.582913,0.567573,-0.550699
1.0235,0.016758,0.000000,0.000000,0.000074,0.0000,0.0000,0.0000,-0.161633,0.161633,0.000156,0.000942,-0.002559,0.6536,0.6329,0.1940,-0.179476,0.177942,0.000000,0.570641,-0.566039,0.567573,-0.582913,0.567573,-0.550699
1.0403,0.016749,0.000000,0.000000,0.000127,0.0000,0.0000,0.0000,-0.152497,0.152497,0.000197,0.000980,-0.002572,0.7033,0.6498,0.2461,-0.179476,0.177942,0.000000,0.570641,-0.566039,0.567573,-0.582913,0.567573,-0.549165
1.0571,0.016775,0.000000,0.000000,0.000179,0.0000,0.0000,0.0000,-0.143407,0.143407,0.000152,0.000938,-0.002558,0.6482,0.6306,0.1874,-0.179476,0.177942,0.000000,0.570641,-0.566039,0.567573,-0.582913,0.567573,-0.550699
1.0745,0.017472,0.000000,0.000000,0.000234,0.0000,0.0000,0.0000,-0.134032,0.134032,0.000152,0.000938,-0.002558,0.6482,0.6306,0.1874,-0.179476,0.177942,0.000000,0.570641,-0.566039,0.567573,-0.582913,0.567573,-0.550699
1.0913,0.016753,0.000000,0.000000,0.000287,0.0000,0.0000,0.0000,-0.125157,0.125157,0.000157,0.000942,-0.002559,0.6540,0.6326,0.1935,-0.176408,0.173340,0.000000,0.570641,-0.566039,0.567573,-0.582913,0.567573,-0.550699
1.1080,0.016749,0.000000,0.000000,0.000339,0.0000,0.0000,0.0000,-0.116421,0.116421,0.000157,0.000942,-0.002559,0.6540,0.6326,0.1935,-0.168738,0.167204,0.000000,0.570641,-0.566039,0.567573,-0.582913,0.567573,-0.550699
1.1249,0.016869,0.000000,0.000000,0.000392,0.0000,0.0000,0.0000,-0.107785,0.107785,0.000157,0.000942,-0.002559,0.6540,0.6326,0.1935,-0.156466,0.158000,0.000000,0.570641,-0.566039,0.567573,-0.582913,0.567573,-0.550699
1.1417,0.016745,0.000000,0.000000,0.000444,0.0000,0.0000,0.0000,-0.099397,0.099397,0.000157,0.000942,-0.002559,0.6540,0.6326,0.1935,-0.141126,0.145728,0.000000,0.570641,-0.566039,0.567573,-0.582913,0.567573,-0.550699
1.1584,0.016762,0.000000,0.000000,0.000497,0.0000,0.0000,0.0000,-0.091210,0.091210,0.000075,0.000942,-0.002534,0.6534,0.5991,0.1932,-0.124252,0.128854,0.000000,0.572175,-0.566039,0.567573,-0.582913,0.567573,-0.552233
1.1752,0.016752,0.000000,0.000000,0.000549,0.0000,0.0000,0.0000,-0.083258,0.083258,0.000075,0.000942,-0.002534,0.6534,0.5991,0.1932,-0.124252,0.128854,0.000000,0.572175,-0.566039,0.567573,-0.582913,0.567573,-0.552233
1.1919,0.016751,0.000000,0.000000,0.000601,0.0000,0.0000,0.0000,-0.075559,0.075559,0.000031,0.000959,-0.002512,0.6142,0.6362,0.0864,-0.108913,0.113515,0.000000,0.572175,-0.566039,0.567573,-0.584447,0.567573,-0.553767
1.2087,0.016742,0.000000,0.000000,0.000654,0.0000,0.0000,0.0000,-0.068138,0.068138,-0.000086,0.000919,-0.002476,0.5687,0.5817,0.0443,-0.096641,0.098175,0.000000,0.573709,-0.566039,0.567573,-0.584447,0.567573,-0.556835
1.2254,0.016757,0.000000,0.000000,0.000706,0.0000,0.0000,0.0000,-0.061006,0.061006,-0.000277,0.000885,-0.002418,0.5241,0.5035,-0.0043,-0.090505,0.088971,0.000000,0.576777,-0.566039,0.567573,-0.584447,0.567573,-0.561437
1.2422,0.016748,0.000000,0.000000,0.000758,0.0000,0.0000,0.0000,-0.054191,0.054191,-0.000339,0.000966,-0.002363,0.6288,0.4781,-0.0521,-0.084369,0.081301,0.000000,0.579845,-0.567573,0.567573,-0.585981,0.567573,-0.562971
1.2590,0.016785,0.000000,0.000000,0.000810,0.0000,0.0000,0.0000,-0.047696,0.047696,-0.000468,0.000943,-0.002282,0.6577,0.4815,-0.0999,-0.073631,0.073631,0.000000,0.582913,-0.569107,0.569107,-0.587515,0.567573,-0.566039
1.2757,0.016766,0.000000,0.000000,0.000862,0.0000,0.0000,0.0000,-0.041560,0.041560,-0.000468,0.000943,-0.002282,0.6577,0.4815,-0.0999,-0.073631,0.073631,0.000000,0.582913,-0.569107,0.569107,-0.587515,0.567573,-0.566039
1.2925,0.016784,0.000000,0.000000,0.000914,0.0000,0.0000,0.0000,-0.035786,0.035786,-0.000644,0.001025,-0.002181,0.7553,0.5167,-0.1474,-0.062893,0.062893,0.000000,0.587515,-0.570641,0.570641,-0.590583,0.567573,-0.569107
1.3093,0.016819,0.000000,0.000000,0.000966,0.0000,0.0000,0.0000,-0.030388,0.030388,-0.000856,0.001057,-0.002107,0.7954,0.5330,-0.0877,-0.053689,0.055223,0.000000,0.592117,-0.570641,0.572175,-0.592117,0.567573,-0.572175
1.3261,0.016767,0.000000,0.000000,0.001017,0.0000,0.0000,0.0000,-0.025407,0.025407,-0.000876,0.001126,-0.001992,0.7626,0.5147,-0.0944,-0.047553,0.047553,0.000000,0.595185,-0.572175,0.573709,-0.595185,0.570641,-0.575243
1.3429,0.016776,0.000000,0.000000,0.001069,0.0000,0.0000,0.0000,-0.020837,0.020837,-0.000834,0.001081,-0.001867,0.7163,0.5322,-0.1481,-0.042951,0.038350,0.000000,0.596719,-0.575243,0.576777,-0.598253,0.573709,-0.578311
1.3596,0.016771,0.000000,0.000000,0.001120,0.0000,0.0000,0.0000,-0.016695,0.016695,-0.000834,0.001081,-0.001867,0.7163,0.5322,-0.1481,-0.042951,0.038350,0.000000,0.596719,-0.575243,0.576777,-0.598253,0.573709,-0.578311
1.3764,0.016746,0.000000,0.000000,0.001171,0.0000,0.0000,0.0000,-0.012996,0.012996,-0.000624,0.001086,-0.001717,0.7182,0.3938,0.0180,-0.035282,0.032214,0.000000,0.599786,-0.579845,0.579845,-0.599786,0.579845,-0.579845
1.3931,0.016743,0.000000,0.000000,0.001223,0.0000,0.0000,0.0000,-0.009745,0.009745,-0.000553,0.001142,-0.001585,0.7275,0.3916,0.1081,-0.023010,0.027612,0.000000,0.602854,-0.582913,0.582913,-0.602854,0.584447,-0.581379
1.4099,0.016751,0.000000,0.000000,0.001273,0.0000,0.0000,0.0000,-0.006948,0.006948,-0.000479,0.001138,-0.001474,0.7262,0.4245,0.0985,-0.018408,0.021476,0.000000,0.604388,-0.585981,0.585981,-0.605922,0.587515,-0.582913
1.4266,0.016748,0.000000,0.000000,0.001324,0.0000,0.0000,0.0000,-0.004616,0.004616,-0.000255,0.001099,-0.001385,0.6754,0.4020,0.2066,-0.019942,0.013806,0.000000,0.604388,-0.589049,0.589049,-0.607456,0.592117,-0.582913
1.4434,0.016750,0.000000,0.000000,0.001375,0.0000,0.0000,0.0000,-0.002754,0.002754,-0.000182,0.001034,-0.001295,0.7090,0.5547,0.1956,-0.018408,0.009204,0.000000,0.604388,-0.592117,0.593651,-0.610524,0.593651,-0.582913
1.4603,0.016889,0.000000,0.000000,0.001426,0.0000,0.0000,0.0000,-0.001358,0.001358,-0.000182,0.001034,-0.001295,0.7090,0.5547,0.1956,-0.018408,0.009204,0.000000,0.604388,-0.592117,0.593651,-0.610524,0.593651,-0.582913
1.4771,0.016850,0.000000,0.000000,0.001477,0.0000,0.0000,0.0000,-0.000451,0.000451,-0.000108,0.001152,-0.001220,0.7264,0.5722,0.2505,-0.010738,0.006136,0.000000,0.605922,-0.593651,0.595185,-0.613592,0.596719,-0.582913
1.4939,0.016761,0.000000,0.000000,0.001527,0.0000,0.0000,0.0000,-0.000032,0.000032,-0.000108,0.001152,-0.001220,0.7264,0.5722,0.2505,-0.010738,0.006136,0.000000,0.605922,-0.593651,0.595185,-0.613592,0.596719,-0.582913
1.5106,0.016736,0.000000,0.000000,0.001577,0.0000,0.0000,0.0000,-0.000097,0.000097,-0.000108,0.001152,-0.001220,0.7264,0.5722,0.2505,-0.010738,0.006136,0.000000,0.605922,-0.593651,0.595185,-0.613592,0.596719,-0.582913
1.5274,0.016749,0.000000,0.000000,0.001627,0.0000,0.0000,0.0000,-0.000645,0.000645,-0.000006,0.000983,-0.001103,0.8197,0.6701,0.3543,-0.003068,0.003068,0.000000,0.607456,-0.598253,0.601320,-0.615126,0.598253,-0.582913
1.5441,0.016750,0.000000,0.000000,0.001676,0.0000,0.0000,0.0000,-0.001674,0.001674,0.000079,0.001056,-0.001079,0.8204,0.6411,0.2888,-0.004602,0.001534,0.000000,0.607456,-0.599786,0.601320,-0.616660,0.599786,-0.582913
1.5609,0.016756,0.000000,0.000000,0.001726,0.0000,0.0000,0.0000,-0.003182,0.003182,0.000079,0.001056,-0.001079,0.8204,0.6411,0.2888,-0.003068,0.000000,0.000000,0.607456,-0.599786,0.601320,-0.616660,0.601320,-0.582913
1.5776,0.016754,0.000000,0.000000,0.001775,0.0000,0.0000,0.0000,-0.005164,0.005164,0.000125,0.001064,-0.001069,0.7813,0.6100,0.3493,-0.003068,0.000000,0.000000,0.607456,-0.599786,0.601320,-0.616660,0.601320,-0.582913
1.5944,0.016743,0.000000,0.000000,0.001824,0.0000,0.0000,0.0000,-0.007614,0.007614,0.000120,0.001063,-0.001070,0.7854,0.6133,0.3430,0.000000,0.000000,0.000000,0.607456,-0.599786,0.601320,-0.616660,0.601320,-0.582913
1.6111,0.016747,0.000000,0.000000,0.001873,0.0000,0.0000,0.0000,-0.010527,0.010527,0.000080,0.001024,-0.001057,0.7354,0.5957,0.2895,-0.001534,0.000000,0.000000,0.607456,-0.599786,0.601320,-0.616660,0.601320,-0.584447
1.6279,0.016753,0.000000,0.000000,0.001922,0.0000,0.0000,0.0000,-0.013894,0.013894,0.000098,0.001005,-0.001033,0.6522,0.5463,0.2948,-0.003068,0.001534,0.000000,0.607456,-0.599786,0.601320,-0.616660,0.602854,-0.585981
1.6446,0.016762,0.000000,0.000000,0.001970,0.0000,0.0000,0.0000,-0.017709,0.017709,0.000110,0.000984,-0.001011,0.5725,0.5002,0.2940,-0.006136,0.007670,0.000000,0.607456,-0.599786,0.601320,-0.616660,0.604388,-0.587515
1.6614,0.016757,0.000000,0.000000,0.002019,0.0000,0.0000,0.0000,-0.021956,0.021956,0.000110,0.000984,-0.001011,0.5725,0.5002,0.2940,-0.006136,0.007670,0.000000,0.607456,-0.599786,0.601320,-0.616660,0.604388,-0.587515
1.6781,0.016745,0.000000,0.000000,0.002067,0.0000,0.0000,0.0000,-0.026624,0.026624,0.000068,0.000947,-0.001000,0.5313,0.4879,0.2399,-0.007670,0.007670,0.000000,0.607456,-0.599786,0.601320,-0.616660,0.604388,-0.589049
1.6949,0.016743,0.000000,0.000000,0.002114,0.0000,0.0000,0.0000,-0.031700,0.031700,-0.000052,0.000990,-0.000965,0.5850,0.4412,0.3003,-0.010738,0.009204,0.000000,0.610524,-0.599786,0.601320,-0.616660,0.604388,-0.590583
1.7119,0.016985,0.000000,0.000000,0.002163,0.0000,0.0000,0.0000,-0.037253,0.037253,-0.000205,0.000986,-0.000919,0.5793,0.3810,0.2947,-0.018408,0.016874,0.000000,0.613592,-0.599786,0.601320,-0.616660,0.604388,-0.593651
1.7291,0.017249,0.000000,0.000000,0.002211,0.0000,0.0000,0.0000,-0.043292,0.043292,-0.000313,0.001059,-0.000851,0.5517,0.3388,0.2956,-0.029146,0.023010,0.000000,0.616660,-0.599786,0.601320,-0.618194,0.605922,-0.596719
1.7460,0.016862,0.000000,0.000000,0.002259,0.0000,0.0000,0.0000,-0.049568,0.049568,-0.000372,0.001075,-0.000773,0.6431,0.2584,0.1332,-0.032214,0.027612,0.000000,0.619728,-0.602854,0.601320,-0.619728,0.605922,-0.599786
1.7627,0.016744,0.000000,0.000000,0.002305,0.0000,0.0000,0.0000,-0.056147,0.056147,-0.000372,0.001075,-0.000773,0.6431,0.2584,0.1332,-0.032214,0.027612,0.000000,0.619728,-0.602854,0.601320,-0.619728,0.605922,-0.599786
1.7796,0.016851,0.000000,0.000000,0.002352,0.0000,0.0000,0.0000,-0.063099,0.063099,-0.000478,0.001137,-0.000684,0.7713,0.1666,0.0423,-0.030680,0.036816,0.000000,0.624330,-0.605922,0.601320,-0.621262,0.605922,-0.602854
1.7963,0.016743,0.000000,0.000000,0.002399,0.0000,0.0000,0.0000,-0.070315,0.070315,-0.000441,0.001131,-0.000571,0.7573,0.0748,0.0517,-0.035282,0.044485,0.000000,0.627398,-0.608990,0.602854,-0.622796,0.608990,-0.605922
1.8131,0.016756,0.000000,0.000000,0.002445,0.0000,0.0000,0.0000,-0.077826,0.077826,-0.000432,0.001078,-0.000410,0.7478,0.0324,-0.0585,-0.044485,0.046019,0.000000,0.630466,-0.613592,0.605922,-0.625864,0.612058,-0.610524
1.8298,0.016749,0.000000,0.000000,0.002490,0.0000,0.0000,0.0000,-0.085601,0.085601,-0.000489,0.001069,-0.000293,0.7874,0.0709,-0.1013,-0.056757,0.049087,0.000000,0.633534,-0.616660,0.608990,-0.628932,0.613592,-0.613592
1.8466,0.016757,0.000000,0.000000,0.002536,0.0000,0.0000,0.0000,-0.093626,0.093626,-0.000510,0.001072,-0.000171,0.7824,0.1699,0.0674,-0.067495,0.058291,0.000000,0.636602,-0.618194,0.613592,-0.632000,0.616660,-0.615126
1.8633,0.016752,0.000000,0.000000,0.002581,0.0000,0.0000,0.0000,-0.101873,0.101873,-0.000510,0.001072,-0.000171,0.7824,0.1699,0.0674,-0.067495,0.058291,0.000000,0.636602,-0.618194,0.613592,-0.632000,0.616660,-0.615126
1.8801,0.016751,0.000000,0.000000,0.002626,0.0000,0.0000,0.0000,-0.110321,0.110321,-0.000370,0.001089,-0.000049,0.7433,0.1579,0.1039,-0.078233,0.070563,0.000000,0.638136,-0.621262,0.616660,-0.635068,0.621262,-0.616660
1.8968,0.016745,0.000000,0.000000,0.002671,0.0000,0.0000,0.0000,-0.118943,0.118943,-0.000302,0.001056,0.000025,0.8236,0.1919,0.1550,-0.085903,0.085903,0.000000,0.639670,-0.624330,0.619728,-0.636602,0.622796,-0.616660
1.9136,0.016745,0.000000,0.000000,0.002715,0.0000,0.0000,0.0000,-0.127719,0.127719,-0.000198,0.001077,0.000102,0.7763,0.2873,0.2042,-0.088971,0.096641,0.000000,0.639670,-0.625864,0.622796,-0.639670,0.625864,-0.616660
1.9303,0.016743,0.000000,0.000000,0.002759,0.0000,0.0000,0.0000,-0.136624,0.136624,-0.000180,0.001092,0.000131,0.7428,0.3442,0.2538,-0.093573,0.098175,0.000000,0.639670,-0.625864,0.624330,-0.641204,0.627398,-0.616660
1.9471,0.016773,0.000000,0.000000,0.002803,0.0000,0.0000,0.0000,-0.145650,0.145650,-0.000085,0.001146,0.000164,0.7568,0.3194,0.1934,-0.110447,0.105845,0.000000,0.639670,-0.627398,0.624330,-0.642738,0.628932,-0.616660
1.9638,0.016745,0.000000,0.000000,0.002846,0.0000,0.0000,0.0000,-0.154741,0.154741,-0.000085,0.001146,0.000164,0.7568,0.3194,0.1934,-0.110447,0.105845,0.000000,0.639670,-0.627398,0.624330,-0.642738,0.628932,-0.616660
1.9806,0.016754,0.000000,0.000000,0.002889,0.0000,0.0000,0.0000,-0.163891,0.163891,0.000001,0.001197,0.000196,0.7657,0.3031,0.1444,-0.127320,0.121184,0.000000,0.639670,-0.628932,0.624330,-0.644272,0.630466,-0.616660
1.9973,0.016729,0.000000,0.000000,0.002932,0.0000,0.0000,0.0000,-0.173057,0.173057,0.000019,0.001223,0.000205,0.6878,0.2034,0.0943,-0.139592,0.136524,0.000000,0.639670,-0.628932,0.622796,-0.644272,0.632000,-0.618194
2.0141,0.016758,0.000000,0.000000,0.002975,0.0000,0.0000,0.0000,-0.182243,0.182243,0.000018,0.001254,0.000240,0.6192,0.2131,0.0444,-0.142660,0.144194,0.000000,0.639670,-0.628932,0.622796,-0.645806,0.633534,-0.619728
2.0308,0.016748,0.000000,0.000000,0.003017,0.0000,0.0000,0.0000,-0.191402,0.191402,0.000060,0.001323,0.000260,0.5986,0.2282,0.0493,-0.147262,0.147262,0.000000,0.639670,-0.628932,0.622796,-0.647340,0.635068,-0.619728
2.0476,0.016767,0.000000,0.000000,0.003059,0.0000,0.0000,0.0000,-0.200525,0.200525,-0.000014,0.001469,0.000291,0.6715,0.3114,-0.0061,-0.161068,0.156466,0.000000,0.641204,-0.628932,0.622796,-0.650408,0.635068,-0.619728
2.0643,0.016743,0.000000,0.000000,0.003100,0.0000,0.0000,0.0000,-0.209563,0.209563,-0.000014,0.001469,0.000291,0.6715,0.3114,-0.0061,-0.161068,0.156466,0.000000,0.641204,-0.628932,0.622796,-0.650408,0.635068,-0.619728
2.0811,0.016757,0.000000,0.000000,0.003141,0.0000,0.0000,0.0000,-0.218512,0.218512,-0.000006,0.001454,0.000288,0.6639,0.3027,-0.0003,-0.181010,0.174874,0.000000,0.641204,-0.628932,0.622796,-0.650408,0.635068,-0.619728
2.0978,0.016745,0.000000,0.000000,0.003182,0.0000,0.0000,0.0000,-0.227332,0.227332,0.000035,0.001415,0.000277,0.6155,0.3184,-0.0561,-0.194816,0.190214,0.000000,0.639670,-0.628932,0.622796,-0.650408,0.635068,-0.619728
2.1146,0.016756,0.000000,0.000000,0.003222,0.0000,0.0000,0.0000,-0.236012,0.236012,-0.000066,0.001476,0.000314,0.6318,0.3347,-0.1051,-0.200951,0.202485,0.000000,0.641204,-0.628932,0.622796,-0.651942,0.635068,-0.621262
2.1313,0.016749,0.000000,0.000000,0.003262,0.0000,0.0000,0.0000,-0.244518,0.244518,-0.000110,0.001487,0.000334,0.5923,0.3656,-0.2101,-0.216291,0.213223,0.000000,0.641204,-0.628932,0.622796,-0.653476,0.635068,-0.622796
2.1481,0.016757,0.000000,0.000000,0.003302,0.0000,0.0000,0.0000,-0.252834,0.252834,-0.000106,0.001486,0.000332,0.5965,0.3624,-0.1992,-0.234699,0.231631,0.000000,0.641204,-0.628932,0.622796,-0.653476,0.635068,-0.622796
2.1648,0.016745,0.000000,0.000000,0.003341,0.0000,0.0000,0.0000,-0.260928,0.260928,-0.000106,0.001486,0.000332,0.5965,0.3624,-0.1992,-0.234699,0.231631,0.000000,0.641204,-0.628932,0.622796,-0.653476,0.635068,-0.622796
2.1816,0.016774,0.000000,0.000000,0.003380,0.0000,0.0000,0.0000,-0.268796,0.268796,-0.000120,0.001543,0.000343,0.6070,0.4123,-0.2555,-0.245437,0.245437,0.000000,0.641204,-0.628932,0.622796,-0.655010,0.635068,-0.622796
2.1984,0.016749,0.000000,0.000000,0.003419,0.0000,0.0000,0.0000,-0.276390,0.276390,-0.000118,0.001537,0.000342,0.6059,0.4071,-0.2496,-0.245437,0.245437,0.000000,0.641204,-0.628932,0.622796,-0.655010,0.635068,-0.622796
2.2153,0.016964,0.000000,0.000000,0.003458,0.0000,0.0000,0.0000,-0.283795,0.283795,-0.000243,0.001676,0.000400,0.7159,0.5278,-0.1950,-0.251573,0.256175,0.000000,0.644272,-0.628932,0.624330,-0.658078,0.635068,-0.622796
2.2325,0.017155,0.000000,0.000000,0.003496,0.0000,0.0000,0.0000,-0.290968,0.290968,-0.000273,0.001701,0.000405,0.7535,0.5005,-0.1454,-0.265379,0.268447,0.000000,0.645806,-0.628932,0.624330,-0.658078,0.635068,-0.622796
2.2496,0.017165,0.000000,0.000000,0.003535,0.0000,0.0000,0.0000,-0.297806,0.297806,-0.000339,0.001708,0.000476,0.8753,0.5897,-0.0396,-0.283786,0.285320,0.000000,0.648874,-0.630466,0.627398,-0.659612,0.635068,-0.622796
2.2664,0.016745,0.000000,0.000000,0.003572,0.0000,0.0000,0.0000,-0.304133,0.304133,-0.000339,0.001708,0.000476,0.8753,0.5897,-0.0396,-0.283786,0.285320,0.000000,0.648874,-0.630466,0.627398,-0.659612,0.635068,-0.622796
2.2831,0.016747,0.000000,0.000000,0.003608,0.0000,0.0000,0.0000,-0.310101,0.310101,-0.000512,0.001751,0.000552,0.9127,0.7343,0.0053,-0.292990,0.289922,0.000000,0.651942,-0.630466,0.630466,-0.662680,0.635068,-0.624330
2.2999,0.016745,0.000000,0.000000,0.003645,0.0000,0.0000,0.0000,-0.315693,0.315693,-0.000467,0.001814,0.000688,1.0434,0.7890,0.2222,-0.292990,0.288388,0.000000,0.656544,-0.633534,0.635068,-0.665748,0.638136,-0.624330
2.3167,0.016794,0.000000,0.000000,0.003680,0.0000,0.0000,0.0000,-0.320909,0.320909,-0.000432,0.001705,0.000845,1.1314,0.8016,0.4223,-0.300660,0.292990,0.000000,0.661146,-0.638136,0.641204,-0.667282,0.641204,-0.625864
2.3336,0.016971,0.000000,0.000000,0.003716,0.0000,0.0000,0.0000,-0.325767,0.325767,-0.000366,0.001629,0.000962,1.1858,0.8849,0.6794,-0.317534,0.305262,0.000000,0.664214,-0.641204,0.647340,-0.668816,0.644272,-0.625864
2.3505,0.016871,0.000000,0.000000,0.003752,0.0000,0.0000,0.0000,-0.330170,0.330170,-0.000236,0.001703,0.001082,1.3150,0.8746,0.7089,-0.323670,0.322136,0.000000,0.667282,-0.645806,0.650408,-0.671884,0.647340,-0.625864
2.3673,0.016741,0.000000,0.000000,0.003786,0.0000,0.0000,0.0000,-0.334107,0.334107,-0.000236,0.001703,0.001082,1.3150,0.8746,0.7089,-0.323670,0.322136,0.000000,0.667282,-0.645806,0.650408,-0.671884,0.647340,-0.625864
2.3840,0.016756,0.000000,0.000000,0.003820,0.0000,0.0000,0.0000,-0.337606,0.337606,-0.000167,0.001664,0.001154,1.3770,0.9072,0.7623,-0.325204,0.325204,0.000000,0.668816,-0.648874,0.653476,-0.673418,0.648874,-0.625864
2.4007,0.016741,0.000000,0.000000,0.003854,0.0000,0.0000,0.0000,-0.340650,0.340650,-0.000091,0.001637,0.001231,1.4460,0.9352,0.8132,-0.328272,0.322136,0.000000,0.670350,-0.651942,0.656544,-0.674952,0.650408,-0.625864
2.4175,0.016750,0.000000,0.000000,0.003887,0.0000,0.0000,0.0000,-0.343236,0.343236,-0.000138,0.001585,0.001259,1.4280,1.0813,0.8649,-0.335942,0.329806,0.000000,0.670350,-0.651942,0.659612,-0.676486,0.650408,-0.625864
2.4342,0.016742,0.000000,0.000000,0.003920,0.0000,0.0000,0.0000,-0.345355,0.345355,-0.000232,0.001616,0.001255,1.5165,1.0855,0.8610,-0.343612,0.342078,0.000000,0.671884,-0.651942,0.659612,-0.676486,0.648874,-0.625864
2.4511,0.016877,0.000000,0.000000,0.003953,0.0000,0.0000,0.0000,-0.347012,0.347012,-0.000169,0.001678,0.001303,1.6428,1.0502,0.7512,-0.345146,0.343612,0.000000,0.673418,-0.655010,0.659612,-0.678020,0.648874,-0.625864
2.4679,0.016740,0.000000,0.000000,0.003985,0.0000,0.0000,0.0000,-0.348177,0.348177,-0.000169,0.001678,0.001303,1.6428,1.0502,0.7512,-0.345146,0.343612,0.000000,0.673418,-0.655010,0.659612,-0.678020,0.648874,-0.625864
2.4846,0.016752,0.000000,0.000000,0.004016,0.0000,0.0000,0.0000,-0.348862,0.348862,-0.000233,0.001770,0.001320,1.6891,1.0894,0.7636,-0.345146,0.340544,0.000000,0.674952,-0.655010,0.659612,-0.679553,0.648874,-0.625864
2.5014,0.016741,0.000000,0.000000,0.004048,0.0000,0.0000,0.0000,-0.349064,0.349064,-0.000227,0.001874,0.001351,1.7055,1.0876,0.8177,-0.351282,0.346680,0.000000,0.676486,-0.655010,0.659612,-0.681087,0.650408,-0.625864
2.5182,0.016800,0.000000,0.000000,0.004078,0.0000,0.0000,0.0000,-0.348782,0.348782,-0.000106,0.001886,0.001396,1.7895,0.9703,0.8114,-0.351282,0.348214,0.000000,0.678020,-0.658078,0.659612,-0.681087,0.651942,-0.625864
2.5374,0.019246,0.000000,0.000000,0.004113,0.0000,0.0000,0.0000,-0.347863,0.347863,-0.000106,0.001886,0.001396,1.7895,0.9703,0.8114,-0.351282,0.348214,0.000000,0.678020,-0.658078,0.659612,-0.681087,0.651942,-0.625864
2.5544,0.017017,0.000000,0.000000,0.004143,0.0000,0.0000,0.0000,-0.346522,0.346522,-0.000106,0.001886,0.001396,1.7895,0.9703,0.8114,-0.351282,0.348214,0.000000,0.678020,-0.658078,0.659612,-0.681087,0.651942,-0.625864
2.5713,0.016854,0.000000,0.000000,0.004173,0.0000,0.0000,0.0000,-0.344709,0.344709,-0.000106,0.001886,0.001396,1.7895,0.9703,0.8114,-0.351282,0.348214,0.000000,0.678020,-0.658078,0.659612,-0.681087,0.651942,-0.625864
2.5880,0.016761,0.000000,0.000000,0.004201,0.0000,0.0000,0.0000,-0.342434,0.342434,-0.000090,0.001804,0.001442,1.6822,0.8789,0.6999,-0.351282,0.349748,0.000000,0.678020,-0.659612,0.659612,-0.681087,0.653476,-0.628932
2.6048,0.016746,0.000000,0.000000,0.004230,0.0000,0.0000,0.0000,-0.339696,0.339696,-0.000076,0.001788,0.001462,1.6062,0.8378,0.7108,-0.351282,0.348214,0.000000,0.678020,-0.659612,0.659612,-0.681087,0.655010,-0.630466
2.6215,0.016762,0.000000,0.000000,0.004258,0.0000,0.0000,0.0000,-0.336497,0.336497,-0.000049,0.001921,0.001493,1.5980,0.9074,0.6535,-0.349748,0.346680,0.000000,0.678020,-0.659612,0.659612,-0.684155,0.656544,-0.630466
2.6383,0.016745,0.000000,0.000000,0.004285,0.0000,0.0000,0.0000,-0.332853,0.332853,-0.000010,0.001948,0.001513,1.6475,0.9139,0.5483,-0.346680,0.343612,0.000000,0.678020,-0.661146,0.659612,-0.685689,0.656544,-0.630466
2.6551,0.016770,0.000000,0.000000,0.004312,0.0000,0.0000,0.0000,-0.328765,0.328765,0.000028,0.002019,0.001534,1.6150,0.9292,0.5585,-0.343612,0.340544,0.000000,0.678020,-0.661146,0.659612,-0.687223,0.658078,-0.630466
2.6718,0.016741,0.000000,0.000000,0.004338,0.0000,0.0000,0.0000,-0.324257,0.324257,0.000028,0.002019,0.001534,1.6150,0.9292,0.5585,-0.343612,0.340544,0.000000,0.678020,-0.661146,0.659612,-0.687223,0.658078,-0.630466
2.6885,0.016751,0.000000,0.000000,0.004364,0.0000,0.0000,0.0000,-0.319333,0.319333,-0.000045,0.002054,0.001530,1.6677,1.0097,0.4472,-0.343612,0.340544,0.000000,0.678020,-0.661146,0.659612,-0.688757,0.656544,-0.630466
2.7053,0.016750,0.000000,0.000000,0.004390,0.0000,0.0000,0.0000,-0.314007,0.314007,0.000017,0.002033,0.001543,1.6998,0.9660,0.4029,-0.342078,0.339010,0.000000,0.678020,-0.662680,0.659612,-0.688757,0.656544,-0.630466
2.7221,0.016766,0.000000,0.000000,0.004415,0.0000,0.0000,0.0000,-0.308290,0.308290,0.000009,0.002118,0.001576,1.7935,0.9705,0.3524,-0.340544,0.335942,0.000000,0.679553,-0.664214,0.659612,-0.690291,0.656544,-0.630466
2.7388,0.016745,0.000000,0.000000,0.004439,0.0000,0.0000,0.0000,-0.302209,0.302209,0.000008,0.002191,0.001606,1.8807,0.9699,0.3025,-0.335942,0.334408,0.000000,0.681087,-0.665748,0.659612,-0.691825,0.656544,-0.630466
2.7556,0.016771,0.000000,0.000000,0.004463,0.0000,0.0000,0.0000,-0.295765,0.295765,0.000008,0.002191,0.001606,1.8807,0.9699,0.3025,-0.328272,0.332874,0.000000,0.685689,-0.668816,0.659612,-0.694893,0.656544,-0.630466
2.7723,0.016750,0.000000,0.000000,0.004486,0.0000,0.0000,0.0000,-0.288993,0.288993,-0.000041,0.002388,0.001680,2.1142,0.9562,0.2536,-0.328272,0.332874,0.000000,0.685689,-0.668816,0.659612,-0.694893,0.656544,-0.630466
2.7891,0.016754,0.000000,0.000000,0.004509,0.0000,0.0000,0.0000,-0.281903,0.281903,-0.000024,0.002391,0.001695,2.1755,0.9087,0.2589,-0.317534,0.325204,0.000000,0.687223,-0.670350,0.659612,-0.694893,0.656544,-0.630466
2.8058,0.016765,0.000000,0.000000,0.004532,0.0000,0.0000,0.0000,-0.274510,0.274510,-0.000004,0.002438,0.001740,2.3404,0.8161,0.2585,-0.311398,0.317534,0.000000,0.690291,-0.673418,0.659612,-0.694893,0.656544,-0.630466
2.8226,0.016768,0.000000,0.000000,0.004554,0.0000,0.0000,0.0000,-0.266839,0.266839,-0.000050,0.002474,0.001746,2.3717,0.8126,0.3150,-0.303728,0.306796,0.000000,0.691825,-0.673418,0.659612,-0.694893,0.656544,-0.630466
2.8394,0.016749,0.000000,0.000000,0.004575,0.0000,0.0000,0.0000,-0.258920,0.258920,0.000021,0.002477,0.001780,2.4909,0.7288,0.2527,-0.296058,0.294524,0.000000,0.693359,-0.676486,0.659612,-0.694893,0.656544,-0.630466
2.8561,0.016772,0.000000,0.000000,0.004596,0.0000,0.0000,0.0000,-0.250757,0.250757,0.000021,0.002477,0.001780,2.4909,0.7288,0.2527,-0.285320,0.283786,0.000000,0.693359,-0.676486,0.659612,-0.694893,0.658078,-0.630466
2.8729,0.016744,0.000000,0.000000,0.004617,0.0000,0.0000,0.0000,-0.242397,0.242397,0.000070,0.002492,0.001788,2.4399,0.7046,0.3138,-0.285320,0.283786,0.000000,0.693359,-0.676486,0.659612,-0.694893,0.658078,-0.630466
2.8896,0.016740,0.000000,0.000000,0.004637,0.0000,0.0000,0.0000,-0.233850,0.233850,0.000106,0.002385,0.001814,2.5469,0.7193,0.1964,-0.276117,0.274583,0.000000,0.693359,-0.679553,0.661146,-0.694893,0.656544,-0.630466
2.9064,0.016752,0.000000,0.000000,0.004656,0.0000,0.0000,0.0000,-0.225133,0.225133,0.000001,0.002422,0.001846,2.6222,0.7416,0.3783,-0.265379,0.265379,0.000000,0.696427,-0.679553,0.662680,-0.694893,0.656544,-0.630466
2.9231,0.016761,0.000000,0.000000,0.004675,0.0000,0.0000,0.0000,-0.216272,0.216272,-0.000013,0.002307,0.001869,2.5930,0.8394,0.4729,-0.257709,0.256175,0.000000,0.696427,-0.679553,0.665748,-0.694893,0.656544,-0.630466
2.9399,0.016740,0.000000,0.000000,0.004694,0.0000,0.0000,0.0000,-0.207306,0.207306,0.000088,0.002294,0.001903,2.5085,0.8130,0.6290,-0.248505,0.246971,0.000000,0.696427,-0.679553,0.667282,-0.694893,0.659612,-0.630466
2.9566,0.016767,0.000000,0.000000,0.004711,0.0000,0.0000,0.0000,-0.198234,0.198234,0.000088,0.002294,0.001903,2.5085,0.8130,0.6290,-0.248505,0.246971,0.000000,0.696427,-0.679553,0.667282,-0.694893,0.659612,-0.630466
2.9734,0.016741,0.000000,0.000000,0.004729,0.0000,0.0000,0.0000,-0.189112,0.189112,0.000132,0.002279,0.001947,2.5538,0.7841,0.7242,-0.237767,0.236233,0.000000,0.697961,-0.681087,0.668816,-0.694893,0.661146,-0.630466
2.9901,0.016746,0.000000,0.000000,0.004746,0.0000,0.0000,0.0000,-0.179946,0.179946,0.000141,0.002369,0.001964,2.4840,0.7436,0.9368,-0.227029,0.227029,0.000000,0.699495,-0.679553,0.668816,-0.694893,0.664214,-0.630466
3.0069,0.016738,0.000000,0.000000,0.004762,0.0000,0.0000,0.0000,-0.170769,0.170769,0.000183,0.002434,0.001984,2.4642,0.7639,0.9140,-0.216291,0.217825,0.000000,0.699495,-0.679553,0.668816,-0.696427,0.665748,-0.630466
3.0236,0.016744,0.000000,0.000000,0.004778,0.0000,0.0000,0.0000,-0.161600,0.161600,0.000303,0.002629,0.002024,2.4221,0.6497,1.0253,-0.202485,0.207087,0.000000,0.701029,-0.679553,0.667282,-0.697961,0.670350,-0.630466
3.0404,0.016778,0.000000,0.000000,0.004793,0.0000,0.0000,0.0000,-0.152448,0.152448,0.000390,0.002698,0.002052,2.3617,0.6451,1.0681,-0.188680,0.194816,0.000000,0.701029,-0.679553,0.667282,-0.699495,0.673418,-0.630466
3.0571,0.016745,0.000000,0.000000,0.004808,0.0000,0.0000,0.0000,-0.143375,0.143375,0.000390,0.002698,0.002052,2.3617,0.6451,1.0681,-0.188680,0.194816,0.000000,0.701029,-0.679553,0.667282,-0.699495,0.673418,-0.630466
3.0739,0.016749,0.000000,0.000000,0.004822,0.0000,0.0000,0.0000,-0.134386,0.134386,0.000424,0.002765,0.002071,2.3409,0.6618,1.0631,-0.176408,0.181010,0.000000,0.701029,-0.679553,0.667282,-0.701029,0.674952,-0.630466
3.0906,0.016751,0.000000,0.000000,0.004836,0.0000,0.0000,0.0000,-0.125507,0.125507,0.000508,0.002792,0.002080,2.2677,0.6887,1.0065,-0.167204,0.167204,0.000000,0.699495,-0.679553,0.667282,-0.702563,0.676486,-0.630466
3.1074,0.016745,0.000000,0.000000,0.004849,0.0000,0.0000,0.0000,-0.116767,0.116767,0.000542,0.002863,0.002100,2.2483,0.7020,1.0119,-0.156466,0.156466,0.000000,0.699495,-0.679553,0.667282,-0.704097,0.678020,-0.630466
3.1241,0.016747,0.000000,0.000000,0.004861,0.0000,0.0000,0.0000,-0.108186,0.108186,0.000581,0.002930,0.002119,2.2232,0.7168,1.0108,-0.145728,0.145728,0.000000,0.699495,-0.679553,0.667282,-0.705631,0.679553,-0.630466
3.1411,0.016963,0.000000,0.000000,0.004873,0.0000,0.0000,0.0000,-0.099682,0.099682,0.000519,0.003022,0.002138,2.2850,0.7516,1.0118,-0.134990,0.133456,0.000000,0.701029,-0.679553,0.667282,-0.707165,0.679553,-0.630466
3.1578,0.016751,0.000000,0.000000,0.004885,0.0000,0.0000,0.0000,-0.091492,0.091492,0.000519,0.003022,0.002138,2.2850,0.7516,1.0118,-0.134990,0.133456,0.000000,0.701029,-0.679553,0.667282,-0.707165,0.679553,-0.630466
3.1746,0.016749,0.000000,0.000000,0.004896,0.0000,0.0000,0.0000,-0.083534,0.083534,0.000511,0.003072,0.002146,2.2892,0.7967,0.9559,-0.122718,0.121184,0.000000,0.701029,-0.679553,0.667282,-0.708699,0.679553,-0.630466
3.1913,0.016747,0.000000,0.000000,0.004906,0.0000,0.0000,0.0000,-0.075827,0.075827,0.000542,0.003084,0.002145,2.2510,0.8529,0.8493,-0.111981,0.110447,0.000000,0.699495,-0.679553,0.667282,-0.710233,0.679553,-0.630466
3.2081,0.016744,0.000000,0.000000,0.004916,0.0000,0.0000,0.0000,-0.068396,0.068396,0.000539,0.003083,0.002145,2.2550,0.8471,0.8604,-0.102777,0.101243,0.000000,0.699495,-0.679553,0.667282,-0.710233,0.679553,-0.630466
3.2248,0.016747,0.000000,0.000000,0.004925,0.0000,0.0000,0.0000,-0.061256,0.061256,0.000539,0.003083,0.002145,2.2550,0.8471,0.8604,-0.090505,0.090505,0.000000,0.699495,-0.679553,0.667282,-0.710233,0.679553,-0.630466
3.2417,0.016917,0.000000,0.000000,0.004934,0.0000,0.0000,0.0000,-0.054363,0.054363,0.000539,0.003083,0.002145,2.2550,0.8471,0.8604,-0.079767,0.079767,0.000000,0.699495,-0.679553,0.667282,-0.710233,0.679553,-0.630466
3.2585,0.016740,0.000000,0.000000,0.004943,0.0000,0.0000,0.0000,-0.047876,0.047876,0.000539,0.003083,0.002145,2.2550,0.8471,0.8604,-0.079767,0.079767,0.000000,0.699495,-0.679553,0.667282,-0.710233,0.679553,-0.630466
3.2752,0.016748,0.000000,0.000000,0.004950,0.0000,0.0000,0.0000,-0.041736,0.041736,0.000495,0.003124,0.002155,2.3031,0.8353,0.9159,-0.069029,0.069029,0.000000,0.701029,-0.679553,0.667282,-0.710233,0.679553,-0.630466
3.2920,0.016744,0.000000,0.000000,0.004957,0.0000,0.0000,0.0000,-0.035965,0.035965,0.000500,0.003120,0.002154,2.2981,0.8366,0.9101,-0.061359,0.059825,0.000000,0.701029,-0.679553,0.667282,-0.710233,0.679553,-0.630466
3.3087,0.016748,0.000000,0.000000,0.004964,0.0000,0.0000,0.0000,-0.030576,0.030576,0.000459,0.003080,0.002168,2.2497,0.8182,0.8551,-0.053689,0.053689,0.000000,0.701029,-0.679553,0.667282,-0.710233,0.679553,-0.632000
3.3255,0.016750,0.000000,0.000000,0.004970,0.0000,0.0000,0.0000,-0.025585,0.025585,0.000368,0.002948,0.002209,2.1465,0.8336,0.8062,-0.046019,0.047553,0.000000,0.701029,-0.679553,0.668816,-0.710233,0.679553,-0.635068
3.3422,0.016753,0.000000,0.000000,0.004975,0.0000,0.0000,0.0000,-0.021005,0.021005,0.000251,0.002922,0.002243,2.1082,0.7833,0.7566,-0.039884,0.038350,0.000000,0.702563,-0.679553,0.668816,-0.710233,0.679553,-0.638136
3.3590,0.016741,0.000000,0.000000,0.004980,0.0000,0.0000,0.0000,-0.016853,0.016853,0.000251,0.002922,0.002243,2.1082,0.7833,0.7566,-0.039884,0.038350,0.000000,0.702563,-0.679553,0.668816,-0.710233,0.679553,-0.638136
3.3757,0.016744,0.000000,0.000000,0.004985,0.0000,0.0000,0.0000,-0.013137,0.013137,0.000039,0.002830,0.002314,2.0522,0.7591,0.7645,-0.030680,0.033748,0.000000,0.705631,-0.679553,0.670350,-0.710233,0.679553,-0.642738
3.3925,0.016749,0.000000,0.000000,0.004989,0.0000,0.0000,0.0000,-0.009867,0.009867,-0.000149,0.002688,0.002408,1.9864,0.6787,0.6540,-0.024544,0.027612,0.000000,0.708699,-0.681087,0.671884,-0.710233,0.679553,-0.648874
3.4092,0.016746,0.000000,0.000000,0.004992,0.0000,0.0000,0.0000,-0.007052,0.007052,-0.000280,0.002469,0.002465,1.8263,0.7333,0.6111,-0.021476,0.021476,0.000000,0.708699,-0.681087,0.674952,-0.710233,0.679553,-0.653476
3.4259,0.016727,0.000000,0.000000,0.004995,0.0000,0.0000,0.0000,-0.004704,0.004704,-0.000306,0.002338,0.002511,1.7724,0.7067,0.5037,-0.019942,0.013806,0.000000,0.708699,-0.682621,0.676486,-0.710233,0.679553,-0.656544
3.4427,0.016757,0.000000,0.000000,0.004997,0.0000,0.0000,0.0000,-0.002821,0.002821,-0.000445,0.002223,0.002592,1.7925,0.7123,0.5735,-0.015340,0.007670,0.000000,0.711767,-0.684155,0.679553,-0.710233,0.679553,-0.659612
3.4594,0.016744,0.000000,0.000000,0.004998,0.0000,0.0000,0.0000,-0.001416,0.001416,-0.000445,0.002223,0.002592,1.7925,0.7123,0.5735,-0.015340,0.007670,0.000000,0.711767,-0.684155,0.679553,-0.710233,0.679553,-0.659612
3.4762,0.016746,0.000000,0.000000,0.004999,0.0000,0.0000,0.0000,-0.000489,0.000489,-0.000473,0.002048,0.002671,1.7936,0.6925,0.5114,-0.007670,0.006136,0.000000,0.713301,-0.687223,0.682621,-0.710233,0.679553,-0.662680
3.4929,0.016745,0.000000,0.000000,0.005000,0.0000,0.0000,0.0000,-0.000043,0.000043,-0.000400,0.001991,0.002701,1.8193,0.6074,0.3484,-0.004602,0.007670,0.000000,0.713301,-0.690291,0.682621,-0.710233,0.679553,-0.664214
3.5097,0.016751,0.000000,0.000000,0.005000,0.0000,0.0000,0.0000,-0.000081,0.000081,-0.000395,0.001906,0.002759,1.8788,0.5654,0.3095,-0.003068,0.004602,0.000000,0.714835,-0.693359,0.684155,-0.710233,0.679553,-0.665748
3.5264,0.016747,0.000000,0.000000,0.004999,0.0000,0.0000,0.0000,-0.000601,0.000601,-0.000353,0.001841,0.002778,1.8984,0.5844,0.3138,-0.001534,0.001534,0.000000,0.714835,-0.694893,0.685689,-0.710233,0.679553,-0.665748
3.5432,0.016752,0.000000,0.000000,0.004998,0.0000,0.0000,0.0000,-0.001603,0.001603,-0.000370,0.001792,0.002789,1.8853,0.6318,0.3704,0.000000,-0.001534,0.000000,0.714835,-0.694893,0.687223,-0.710233,0.679553,-0.665748
3.5599,0.016748,0.000000,0.000000,0.004996,0.0000,0.0000,0.0000,-0.003083,0.003083,-0.000370,0.001792,0.002789,1.8853,0.6318,0.3704,0.000000,-0.001534,0.000000,0.714835,-0.694893,0.687223,-0.710233,0.679553,-0.665748
3.5773,0.017346,0.000000,0.000000,0.004994,0.0000,0.0000,0.0000,-0.005117,0.005117,-0.000382,0.001741,0.002800,1.8756,0.6761,0.4215,-0.001534,-0.001534,0.000000,0.714835,-0.694893,0.688757,-0.710233,0.679553,-0.665748
3.5941,0.016830,0.000000,0.000000,0.004991,0.0000,0.0000,0.0000,-0.007571,0.007571,-0.000382,0.001741,0.002800,1.8756,0.6761,0.4215,-0.001534,-0.001534,0.000000,0.714835,-0.694893,0.688757,-0.710233,0.679553,-0.665748
3.6109,0.016766,0.000000,0.000000,0.004988,0.0000,0.0000,0.0000,-0.010479,0.010479,-0.000382,0.001741,0.002800,1.8756,0.6761,0.4215,-0.001534,-0.001534,0.000000,0.714835,-0.694893,0.688757,-0.710233,0.679553,-0.665748
3.6277,0.016837,0.000000,0.000000,0.004984,0.0000,0.0000,0.0000,-0.013858,0.013858,-0.000382,0.001741,0.002800,1.8756,0.6761,0.4215,-0.001534,-0.001534,0.000000,0.714835,-0.694893,0.688757,-0.710233,0.679553,-0.665748
3.6444,0.016746,0.000000,0.000000,0.004979,0.0000,0.0000,0.0000,-0.017664,0.017664,-0.000382,0.001741,0.002800,1.8756,0.6761,0.4215,-0.001534,-0.001534,0.000000,0.714835,-0.694893,0.688757,-0.710233,0.679553,-0.665748
3.6612,0.016746,0.000000,0.000000,0.004974,0.0000,0.0000,0.0000,-0.021905,0.021905,-0.000394,0.001805,0.002810,1.8881,0.7200,0.3602,-0.001534,0.001534,0.000000,0.714835,-0.694893,0.688757,-0.711767,0.679553,-0.665748
3.6779,0.016749,0.000000,0.000000,0.004969,0.0000,0.0000,0.0000,-0.026568,0.026568,-0.000379,0.001739,0.002798,1.8753,0.6670,0.4225,-0.001534,0.001534,0.000000,0.714835,-0.694893,0.688757,-0.710233,0.679553,-0.665748
3.6948,0.016848,0.000000,0.000000,0.004963,0.0000,0.0000,0.0000,-0.031673,0.031673,-0.000381,0.001746,0.002799,1.8767,0.6725,0.4161,-0.003068,0.001534,0.000000,0.714835,-0.694893,0.688757,-0.710233,0.679553,-0.665748
3.7116,0.016762,0.000000,0.000000,0.004956,0.0000,0.0000,0.0000,-0.037148,0.037148,-0.000381,0.001746,0.002799,1.8767,0.6725,0.4161,-0.003068,0.001534,0.000000,0.714835,-0.694893,0.688757,-0.710233,0.679553,-0.665748
3.7283,0.016709,0.000000,0.000000,0.004949,0.0000,0.0000,0.0000,-0.042986,0.042986,-0.000381,0.001746,0.002799,1.8767,0.6725,0.4161,-0.010738,0.009204,0.000000,0.714835,-0.694893,0.688757,-0.710233,0.679553,-0.665748
3.7450,0.016758,0.000000,0.000000,0.004941,0.0000,0.0000,0.0000,-0.049204,0.049204,-0.000381,0.001746,0.002799,1.8767,0.6725,0.4161,-0.026078,0.026078,0.000000,0.714835,-0.694893,0.688757,-0.710233,0.679553,-0.665748
3.7618,0.016744,0.000000,0.000000,0.004933,0.0000,0.0000,0.0000,-0.055764,0.055764,-0.000381,0.001746,0.002799,1.8767,0.6725,0.4161,-0.039884,0.036816,0.000000,0.714835,-0.694893,0.688757,-0.710233,0.679553,-0.665748
3.7785,0.016751,0.000000,0.000000,0.004924,0.0000,0.0000,0.0000,-0.062655,0.062655,-0.000381,0.001746,0.002799,1.8767,0.6725,0.4161,-0.047553,0.046019,0.000000,0.714835,-0.694893,0.688757,-0.710233,0.679553,-0.665748
3.7954,0.016845,0.000000,0.000000,0.004914,0.0000,0.0000,0.0000,-0.069897,0.069897,-0.000381,0.001746,0.002799,1.8767,0.6725,0.4161,-0.052155,0.049087,0.000000,0.714835,-0.694893,0.688757,-0.710233,0.679553,-0.665748
3.8121,0.016761,0.000000,0.000000,0.004904,0.0000,0.0000,0.0000,-0.077394,0.077394,-0.000381,0.001746,0.002799,1.8767,0.6725,0.4161,-0.052155,0.049087,0.000000,0.714835,-0.694893,0.688757,-0.710233,0.679553,-0.665748
3.8289,0.016749,0.000000,0.000000,0.004894,0.0000,0.0000,0.0000,-0.085155,0.085155,-0.000381,0.001746,0.002799,1.8767,0.6725,0.4161,-0.056757,0.052155,0.000000,0.714835,-0.694893,0.688757,-0.710233,0.679553,-0.665748
3.8456,0.016776,0.000000,0.000000,0.004883,0.0000,0.0000,0.0000,-0.093176,0.093176,-0.000381,0.001746,0.002799,1.8767,0.6725,0.4161,-0.061359,0.059825,0.000000,0.714835,-0.694893,0.688757,-0.710233,0.679553,-0.665748
3.8627,0.017090,0.000000,0.000000,0.004871,0.0000,0.0000,0.0000,-0.101580,0.101580,-0.000381,0.001746,0.002799,1.8767,0.6725,0.4161,-0.070563,0.072097,0.000000,0.714835,-0.694893,0.688757,-0.710233,0.679553,-0.665748
3.8795,0.016760,0.000000,0.000000,0.004859,0.0000,0.0000,0.0000,-0.110025,0.110025,-0.000381,0.001746,0.002799,1.8767,0.6725,0.4161,-0.082835,0.087437,0.000000,0.714835,-0.694893,0.688757,-0.710233,0.679553,-0.665748
3.8963,0.016835,0.000000,0.000000,0.004846,0.0000,0.0000,0.0000,-0.118689,0.118689,-0.000381,0.001746,0.002799,1.8767,0.6725,0.4161,-0.095107,0.096641,0.000000,0.714835,-0.694893,0.688757,-0.710233,0.679553,-0.665748
3.9131,0.016764,0.000000,0.000000,0.004833,0.0000,0.0000,0.0000,-0.127471,0.127471,-0.000381,0.001746,0.002799,1.8767,0.6725,0.4161,-0.095107,0.096641,0.000000,0.714835,-0.694893,0.688757,-0.710233,0.679553,-0.665748
3.9298,0.016743,0.000000,0.000000,0.004819,0.0000,0.0000,0.0000,-0.136372,0.136372,-0.000381,0.001746,0.002799,1.8767,0.6725,0.4161,-0.108913,0.101243,0.000000,0.714835,-0.694893,0.688757,-0.710233,0.679553,-0.665748
3.9466,0.016758,0.000000,0.000000,0.004804,0.0000,0.0000,0.0000,-0.145387,0.145387,-0.000381,0.001746,0.002799,1.8767,0.6725,0.4161,-0.111981,0.105845,0.000000,0.714835,-0.694893,0.688757,-0.710233,0.679553,-0.665748
3.9633,0.016753,0.000000,0.000000,0.004790,0.0000,0.0000,0.0000,-0.154480,0.154480,-0.000381,0.001746,0.002799,1.8767,0.6725,0.4161,-0.113515,0.115049,0.000000,0.714835,-0.694893,0.688757,-0.710233,0.679553,-0.665748
3.9801,0.016754,0.000000,0.000000,0.004774,0.0000,0.0000,0.0000,-0.163629,0.163629,-0.000381,0.001746,0.002799,1.8767,0.6725,0.4161,-0.125786,0.133456,0.000000,0.714835,-0.694893,0.688757,-0.710233,0.679553,-0.665748
3.9969,0.016836,0.000000,0.000000,0.004758,0.0000,0.0000,0.0000,-0.172854,0.172854,-0.000381,0.001746,0.002799,1.8767,0.6725,0.4161,-0.144194,0.148796,0.000000,0.714835,-0.694893,0.688757,-0.710233,0.679553,-0.665748
4.0137,0.016760,0.000000,0.000000,0.004742,0.0000,0.0000,0.0000,-0.182041,0.182041,-0.000381,0.001746,0.002799,1.8767,0.6725,0.4161,-0.144194,0.148796,0.000000,0.714835,-0.694893,0.688757,-0.710233,0.679553,-0.665748
4.0304,0.016746,0.000000,0.000000,0.004725,0.0000,0.0000,0.0000,-0.191200,0.191200,-0.000381,0.001746,0.002799,1.8767,0.6725,0.4161,-0.161068,0.156466,0.000000,0.714835,-0.694893,0.688757,-0.710233,0.679553,-0.665748
4.0472,0.016773,0.000000,0.000000,0.004707,0.0000,0.0000,0.0000,-0.200327,0.200327,-0.000381,0.001746,0.002799,1.8767,0.6725,0.4161,-0.168738,0.161068,0.000000,0.714835,-0.694893,0.688757,-0.710233,0.679553,-0.665748
4.0640,0.016747,0.000000,0.000000,0.004689,0.0000,0.0000,0.0000,-0.209369,0.209369,-0.000381,0.001746,0.002799,1.8767,0.6725,0.4161,-0.171806,0.168738,0.000000,0.714835,-0.694893,0.688757,-0.710233,0.679553,-0.665748
4.0807,0.016765,0.000000,0.000000,0.004671,0.0000,0.0000,0.0000,-0.218324,0.218324,-0.000381,0.001746,0.002799,1.8767,0.6725,0.4161,-0.182544,0.185612,0.000000,0.714835,-0.694893,0.688757,-0.710233,0.679553,-0.665748
4.0975,0.016740,0.000000,0.000000,0.004652,0.0000,0.0000,0.0000,-0.227145,0.227145,-0.000381,0.001746,0.002799,1.8767,0.6725,0.4161,-0.182544,0.185612,0.000000,0.714835,-0.694893,0.688757,-0.710233,0.679553,-0.665748
4.1142,0.016721,0.000000,0.000000,0.004632,0.0000,0.0000,0.0000,-0.235810,0.235810,-0.000381,0.001746,0.002799,1.8767,0.6725,0.4161,-0.202485,0.204019,0.000000,0.714835,-0.694893,0.688757,-0.710233,0.679553,-0.665748
4.1309,0.016743,0.000000,0.000000,0.004612,0.0000,0.0000,0.0000,-0.244317,0.244317,-0.000381,0.001746,0.002799,1.8767,0.6725,0.4161,-0.214757,0.210155,0.000000,0.714835,-0.694893,0.688757,-0.710233,0.679553,-0.665748
4.1477,0.016771,0.000000,0.000000,0.004592,0.0000,0.0000,0.0000,-0.252645,0.252645,-0.000381,0.001746,0.002799,1.8767,0.6725,0.4161,-0.219359,0.213223,0.000000,0.714835,-0.694893,0.688757,-0.710233,0.679553,-0.665748
4.1644,0.016747,0.000000,0.000000,0.004571,0.0000,0.0000,0.0000,-0.260745,0.260745,-0.000381,0.001746,0.002799,1.8767,0.6725,0.4161,-0.222427,0.220893,0.000000,0.714835,-0.694893,0.688757,-0.710233,0.679553,-0.665748
4.1812,0.016767,0.000000,0.000000,0.004549,0.0000,0.0000,0.0000,-0.268615,0.268615,-0.000381,0.001746,0.002799,1.8767,0.6725,0.4161,-0.237767,0.240835,0.000000,0.714835,-0.694893,0.688757,-0.710233,0.679553,-0.665748
4.1980,0.016742,0.000000,0.000000,0.004527,0.0000,0.0000,0.0000,-0.276213,0.276213,-0.000381,0.001746,0.002799,1.8767,0.6725,0.4161,-0.237767,0.240835,0.000000,0.714835,-0.694893,0.688757,-0.710233,0.679553,-0.665748
4.2147,0.016748,0.000000,0.000000,0.004504,0.0000,0.0000,0.0000,-0.283533,0.283533,-0.000381,0.001746,0.002799,1.8767,0.6725,0.4161,-0.256175,0.257709,0.000000,0.714835,-0.694893,0.688757,-0.710233,0.679553,-0.665748
4.2315,0.016747,0.000000,0.000000,0.004481,0.0000,0.0000,0.0000,-0.290550,0.290550,-0.000381,0.001746,0.002799,1.8767,0.6725,0.4161,-0.263845,0.259243,0.000000,0.714835,-0.694893,0.688757,-0.710233,0.679553,-0.665748
4.2482,0.016760,0.000000,0.000000,0.004458,0.0000,0.0000,0.0000,-0.297252,0.297252,-0.000395,0.001804,0.002810,1.8880,0.7203,0.3608,-0.265379,0.260777,0.000000,0.714835,-0.694893,0.688757,-0.711767,0.679553,-0.665748
4.2650,0.016749,0.000000,0.000000,0.004433,0.0000,0.0000,0.0000,-0.303609,0.303609,-0.000379,0.001739,0.002798,1.8754,0.6669,0.4225,-0.274583,0.271515,0.000000,0.714835,-0.694893,0.688757,-0.710233,0.679553,-0.665748
4.2817,0.016768,0.000000,0.000000,0.004409,0.0000,0.0000,0.0000,-0.309616,0.309616,-0.000379,0.001739,0.002798,1.8754,0.6669,0.4225,-0.289922,0.288388,0.000000,0.714835,-0.694893,0.688757,-0.710233,0.679553,-0.665748
4.2985,0.016744,0.000000,0.000000,0.004384,0.0000,0.0000,0.0000,-0.315240,0.315240,-0.000381,0.001746,0.002799,1.8767,0.6725,0.4161,-0.289922,0.288388,0.000000,0.714835,-0.694893,0.688757,-0.710233,0.679553,-0.665748
4.3152,0.016756,0.000000,0.000000,0.004358,0.0000,0.0000,0.0000,-0.320479,0.320479,-0.000381,0.001746,0.002799,1.8767,0.6725,0.4161,-0.303728,0.299126,0.000000,0.714835,-0.694893,0.688757,-0.710233,0.679553,-0.665748
4.3320,0.016742,0.000000,0.000000,0.004332,0.0000,0.0000,0.0000,-0.325309,0.325309,-0.000381,0.001746,0.002799,1.8767,0.6725,0.4161,-0.303728,0.300660,0.000000,0.714835,-0.694893,0.688757,-0.710233,0.679553,-0.665748
4.3487,0.016752,0.000000,0.000000,0.004306,0.0000,0.0000,0.0000,-0.329724,0.329724,-0.000381,0.001746,0.002799,1.8767,0.6725,0.4161,-0.302194,0.302194,0.000000,0.714835,-0.694893,0.688757,-0.710233,0.679553,-0.665748
4.3655,0.016744,0.000000,0.000000,0.004279,0.0000,0.0000,0.0000,-0.333709,0.333709,-0.000381,0.001746,0.002799,1.8767,0.6725,0.4161,-0.314466,0.319068,0.000000,0.714835,-0.694893,0.688757,-0.710233,0.679553,-0.665748
4.3822,0.016763,0.000000,0.000000,0.004251,0.0000,0.0000,0.0000,-0.337256,0.337256,-0.000381,0.001746,0.002799,1.8767,0.6725,0.4161,-0.314466,0.319068,0.000000,0.714835,-0.694893,0.688757,-0.710233,0.679553,-0.665748
4.3990,0.016741,0.000000,0.000000,0.004223,0.0000,0.0000,0.0000,-0.340349,0.340349,-0.000381,0.001746,0.002799,1.8767,0.6725,0.4161,-0.331340,0.328272,0.000000,0.714835,-0.694893,0.688757,-0.710233,0.679553,-0.665748
4.4157,0.016749,0.000000,0.000000,0.004195,0.0000,0.0000,0.0000,-0.342984,0.342984,-0.000381,0.001746,0.002799,1.8767,0.6725,0.4161,-0.332874,0.328272,0.000000,0.714835,-0.694893,0.688757,-0.710233,0.679553,-0.665748
4.4325,0.016742,0.000000,0.000000,0.004166,0.0000,0.0000,0.0000,-0.345152,0.345152,-0.000381,0.001746,0.002799,1.8767,0.6725,0.4161,-0.331340,0.331340,0.000000,0.714835,-0.694893,0.688757,-0.710233,0.679553,-0.665748
4.4492,0.016753,0.000000,0.000000,0.004137,0.0000,0.0000,0.0000,-0.346850,0.346850,-0.000381,0.001746,0.002799,1.8767,0.6725,0.4161,-0.339010,0.342078,0.000000,0.714835,-0.694893,0.688757,-0.710233,0.679553,-0.665748
4.4660,0.016746,0.000000,0.000000,0.004107,0.0000,0.0000,0.0000,-0.348069,0.348069,-0.000381,0.001746,0.002799,1.8767,0.6725,0.4161,-0.348214,0.342078,0.000000,0.714835,-0.694893,0.688757,-0.710233,0.679553,-0.665748
4.4827,0.016759,0.000000,0.000000,0.004077,0.0000,0.0000,0.0000,-0.348809,0.348809,-0.000381,0.001746,0.002799,1.8767,0.6725,0.4161,-0.348214,0.342078,0.000000,0.714835,-0.694893,0.688757,-0.710233,0.679553,-0.665748
4.4995,0.016746,0.000000,0.000000,0.004046,0.0000,0.0000,0.0000,-0.349066,0.349066,-0.000381,0.001746,0.002799,1.8767,0.6725,0.4161,-0.348214,0.342078,0.000000,0.714835,-0.694893,0.688757,-0.710233,0.679553,-0.665748
4.5162,0.016751,0.000000,0.000000,0.004015,0.0000,0.0000,0.0000,-0.348839,0.348839,-0.000381,0.001746,0.002799,1.8767,0.6725,0.4161,-0.348214,0.348214,0.000000,0.714835,-0.694893,0.688757,-0.710233,0.679553,-0.665748
4.5330,0.016743,0.000000,0.000000,0.003983,0.0000,0.0000,0.0000,-0.348131,0.348131,-0.000381,0.001746,0.002799,1.8767,0.6725,0.4161,-0.348214,0.346680,0.000000,0.714835,-0.694893,0.688757,-0.710233,0.679553,-0.665748
4.5497,0.016748,0.000000,0.000000,0.003951,0.0000,0.0000,0.0000,-0.346942,0.346942,-0.000381,0.001746,0.002799,1.8767,0.6725,0.4161,-0.349748,0.346680,0.000000,0.714835,-0.694893,0.688757,-0.710233,0.679553,-0.665748
4.5665,0.016745,0.000000,0.000000,0.003919,0.0000,0.0000,0.0000,-0.345276,0.345276,-0.000381,0.001746,0.002799,1.8767,0.6725,0.4161,-0.349748,0.346680,0.000000,0.714835,-0.694893,0.688757,-0.710233,0.679553,-0.665748
