t,loop_dt,cmd_x,cmd_y,cmd_z,cmd_roll,cmd_pitch,cmd_yaw,cmd_ant_l,cmd_ant_r,pres_x,pres_y,pres_z,pres_roll,pres_pitch,pres_yaw,pres_ant_l,pres_ant_r,pres_j0,pres_j1,pres_j2,pres_j3,pres_j4,pres_j5,pres_j6
0.0000,0.000002,-0.000415,0.000755,-0.002412,0.4635,0.6539,0.3401,0.001534,0.001534,-0.000415,0.000755,-0.002412,0.4635,0.6539,0.3401,0.001534,0.001534,0.000000,0.578311,-0.562971,0.572175,-0.582913,0.567573,-0.561437
0.0167,0.016741,-0.000408,0.000742,-0.002371,0.4557,0.6429,0.3344,-0.001414,0.004430,-0.000415,0.000755,-0.002412,0.4635,0.6539,0.3401,-0.004602,0.001534,0.000000,0.578311,-0.562971,0.572175,-0.582913,0.567573,-0.561437
0.0335,0.016763,-0.000401,0.000730,-0.002331,0.4479,0.6320,0.3286,-0.004365,0.007330,-0.000415,0.000755,-0.002412,0.4635,0.6539,0.3401,-0.004602,0.001534,0.000000,0.578311,-0.562971,0.572175,-0.582913,0.567573,-0.561437
0.0502,0.016740,-0.000394,0.000717,-0.002291,0.4401,0.6211,0.3229,-0.007313,0.010226,-0.000375,0.000793,-0.002424,0.5127,0.6711,0.3931,-0.003068,0.001534,0.000000,0.578311,-0.562971,0.572175,-0.582913,0.567573,-0.559903
0.0670,0.016752,-0.000387,0.000704,-0.002250,0.4324,0.6102,0.3171,-0.010262,0.013125,-0.000379,0.000789,-0.002423,0.5075,0.6693,0.3876,0.004602,0.001534,0.000000,0.578311,-0.562971,0.572175,-0.582913,0.567573,-0.559903
0.0837,0.016741,-0.000380,0.000692,-0.002210,0.4246,0.5992,0.3114,-0.013210,0.016021,-0.000241,0.000820,-0.002523,0.4295,0.8398,0.4934,0.003068,0.001534,0.000000,0.573709,-0.559903,0.572175,-0.582913,0.567573,-0.555301
0.1005,0.016759,-0.000373,0.000679,-0.002169,0.4168,0.5883,0.3057,-0.016160,0.018920,-0.000052,0.000778,-0.002574,0.3884,0.9045,0.4280,-0.003068,0.007670,0.000000,0.569107,-0.559903,0.572175,-0.582913,0.567573,-0.552233
0.1172,0.016740,-0.000366,0.000666,-0.002129,0.4090,0.5774,0.3000,-0.019108,0.021816,-0.000084,0.000836,-0.002594,0.4029,0.9505,0.5412,-0.010738,0.016874,0.000000,0.569107,-0.558369,0.572175,-0.582913,0.567573,-0.550699
0.1340,0.016763,-0.000359,0.000654,-0.002089,0.4012,0.5664,0.2942,-0.022059,0.024716,-0.000084,0.000836,-0.002594,0.4029,0.9505,0.5412,-0.010738,0.016874,0.000000,0.569107,-0.558369,0.572175,-0.582913,0.567573,-0.550699
0.1507,0.016743,-0.000352,0.000641,-0.002048,0.3934,0.5555,0.2885,-0.025007,0.027613,0.000013,0.000776,-0.002591,0.3913,0.9263,0.4227,-0.018408,0.016874,0.000000,0.567573,-0.559903,0.572175,-0.582913,0.567573,-0.550699
0.1675,0.016750,-0.000345,0.000628,-0.002008,0.3856,0.5446,0.2828,-0.027956,0.030510,-0.000050,0.000798,-0.002604,0.3529,0.9641,0.4880,-0.019942,0.016874,0.000000,0.567573,-0.558369,0.572175,-0.582913,0.567573,-0.550699
0.1842,0.016739,-0.000338,0.000616,-0.001967,0.3778,0.5336,0.2771,-0.030904,0.033406,-0.000085,0.000834,-0.002591,0.4066,0.9443,0.5349,-0.019942,0.021476,0.000000,0.569107,-0.558369,0.572175,-0.582913,0.567573,-0.550699
0.2010,0.016761,-0.000331,0.000603,-0.001927,0.3701,0.5227,0.2713,-0.033855,0.036306,-0.000121,0.000792,-0.002580,0.3511,0.9289,0.4766,-0.023010,0.027612,0.000000,0.569107,-0.558369,0.572175,-0.582913,0.567573,-0.552233
0.2178,0.016818,-0.000324,0.000590,-0.001886,0.3622,0.5117,0.2656,-0.036816,0.039215,-0.000117,0.000796,-0.002581,0.3569,0.9305,0.4827,-0.027612,0.030680,0.000000,0.569107,-0.558369,0.572175,-0.582913,0.567573,-0.552233
0.2346,0.016758,-0.000317,0.000578,-0.001846,0.3545,0.5008,0.2599,-0.039766,0.042114,-0.000117,0.000796,-0.002581,0.3569,0.9305,0.4827,-0.027612,0.030680,0.000000,0.569107,-0.558369,0.572175,-0.582913,0.567573,-0.552233
0.2513,0.016746,-0.000310,0.000565,-0.001806,0.3467,0.4898,0.2541,-0.042715,0.045011,-0.000078,0.000834,-0.002594,0.4062,0.9478,0.5355,-0.033748,0.032214,0.000000,0.569107,-0.558369,0.572175,-0.582913,0.567573,-0.550699
0.2681,0.016754,-0.000303,0.000552,-0.001765,0.3389,0.4789,0.2484,-0.045664,0.047910,-0.000082,0.000830,-0.002592,0.4011,0.9460,0.5300,-0.035282,0.035282,0.000000,0.569107,-0.558369,0.572175,-0.582913,0.567573,-0.550699
0.2848,0.016751,-0.000296,0.000540,-0.001725,0.3311,0.4680,0.2427,-0.048614,0.050808,-0.000028,0.000815,-0.002580,0.4412,0.9109,0.4776,-0.035282,0.038350,0.000000,0.569107,-0.559903,0.572175,-0.582913,0.567573,-0.550699
0.3016,0.016754,-0.000290,0.000527,-0.001684,0.3233,0.4570,0.2370,-0.051564,0.053706,-0.000087,0.000832,-0.002594,0.3974,0.9499,0.5360,-0.041417,0.041417,0.000000,0.569107,-0.558369,0.572175,-0.582913,0.567573,-0.550699
0.3185,0.016920,-0.000283,0.000514,-0.001644,0.3155,0.4460,0.2312,-0.054543,0.056633,-0.000081,0.000830,-0.002592,0.4020,0.9458,0.5299,-0.050621,0.049087,0.000000,0.569107,-0.558369,0.572175,-0.582913,0.567573,-0.550699
0.3353,0.016763,-0.000276,0.000502,-0.001603,0.3077,0.4350,0.2255,-0.057494,0.059533,-0.000081,0.000830,-0.002592,0.4020,0.9458,0.5299,-0.050621,0.049087,0.000000,0.569107,-0.558369,0.572175,-0.582913,0.567573,-0.550699
0.3520,0.016749,-0.000269,0.000489,-0.001563,0.2999,0.4241,0.2198,-0.060443,0.062431,-0.000081,0.000830,-0.002592,0.4020,0.9458,0.5299,-0.053689,0.052155,0.000000,0.569107,-0.558369,0.572175,-0.582913,0.567573,-0.550699
0.3688,0.016750,-0.000262,0.000476,-0.001522,0.2922,0.4131,0.2141,-0.063392,0.065329,-0.000028,0.000815,-0.002580,0.4411,0.9109,0.4776,-0.047553,0.050621,0.000000,0.569107,-0.559903,0.572175,-0.582913,0.567573,-0.550699
0.3855,0.016742,-0.000255,0.000464,-0.001482,0.2844,0.4022,0.2084,-0.066340,0.068225,-0.000087,0.000832,-0.002594,0.3975,0.9499,0.5360,-0.049087,0.052155,0.000000,0.569107,-0.558369,0.572175,-0.582913,0.567573,-0.550699
0.4022,0.016745,-0.000248,0.000451,-0.001442,0.2766,0.3912,0.2027,-0.069288,0.071122,-0.000081,0.000830,-0.002592,0.4020,0.9458,0.5299,-0.058291,0.059825,0.000000,0.569107,-0.558369,0.572175,-0.582913,0.567573,-0.550699
0.4190,0.016745,-0.000241,0.000439,-0.001401,0.2689,0.3803,0.1970,-0.072236,0.074019,-0.000081,0.000830,-0.002592,0.4020,0.9458,0.5299,-0.067495,0.067495,0.000000,0.569107,-0.558369,0.572175,-0.582913,0.567573,-0.550699
0.4357,0.016754,-0.000234,0.000426,-0.001361,0.2611,0.3693,0.1913,-0.075186,0.076917,-0.000081,0.000830,-0.002592,0.4020,0.9458,0.5299,-0.067495,0.067495,0.000000,0.569107,-0.558369,0.572175,-0.582913,0.567573,-0.550699
0.4525,0.016746,-0.000227,0.000413,-0.001320,0.2533,0.3584,0.1856,-0.078135,0.079814,-0.000081,0.000830,-0.002592,0.4020,0.9458,0.5299,-0.069029,0.069029,0.000000,0.569107,-0.558369,0.572175,-0.582913,0.567573,-0.550699
0.4692,0.016752,-0.000220,0.000401,-0.001280,0.2456,0.3474,0.1799,-0.081084,0.082712,-0.000081,0.000830,-0.002592,0.4020,0.9458,0.5299,-0.065961,0.067495,0.000000,0.569107,-0.558369,0.572175,-0.582913,0.567573,-0.550699
0.4860,0.016744,-0.000213,0.000388,-0.001240,0.2378,0.3365,0.1742,-0.084032,0.085609,-0.000081,0.000830,-0.002592,0.4020,0.9458,0.5299,-0.069029,0.072097,0.000000,0.569107,-0.558369,0.572175,-0.582913,0.567573,-0.550699
0.5027,0.016753,-0.000206,0.000375,-0.001199,0.2300,0.3255,0.1685,-0.086982,0.088507,-0.000028,0.000815,-0.002580,0.4411,0.9109,0.4776,-0.078233,0.081301,0.000000,0.569107,-0.559903,0.572175,-0.582913,0.567573,-0.550699
0.5195,0.016795,-0.000199,0.000363,-0.001159,0.2222,0.3146,0.1628,-0.089939,0.091413,-0.000087,0.000832,-0.002594,0.3975,0.9499,0.5360,-0.084369,0.081301,0.000000,0.569107,-0.558369,0.572175,-0.582913,0.567573,-0.550699
0.5363,0.016752,-0.000192,0.000350,-0.001118,0.2145,0.3036,0.1571,-0.092888,0.094311,-0.000087,0.000832,-0.002594,0.3975,0.9499,0.5360,-0.084369,0.081301,0.000000,0.569107,-0.558369,0.572175,-0.582913,0.567573,-0.550699
0.5530,0.016747,-0.000185,0.000337,-0.001078,0.2067,0.2926,0.1514,-0.095837,0.097208,-0.000081,0.000830,-0.002592,0.4020,0.9458,0.5299,-0.084369,0.082835,0.000000,0.569107,-0.558369,0.572175,-0.582913,0.567573,-0.550699
0.5698,0.016749,-0.000178,0.000325,-0.001038,0.1990,0.2817,0.1457,-0.098786,0.100106,-0.000081,0.000830,-0.002592,0.4020,0.9458,0.5299,-0.082835,0.090505,0.000000,0.569107,-0.558369,0.572175,-0.582913,0.567573,-0.550699
0.5865,0.016744,-0.000171,0.000312,-0.000997,0.1912,0.2707,0.1400,-0.101734,0.103002,-0.000028,0.000815,-0.002580,0.4411,0.9109,0.4776,-0.088971,0.092039,0.000000,0.569107,-0.559903,0.572175,-0.582913,0.567573,-0.550699
0.6033,0.016745,-0.000164,0.000299,-0.000957,0.1834,0.2598,0.1343,-0.104682,0.105899,-0.000087,0.000832,-0.002594,0.3975,0.9499,0.5360,-0.096641,0.095107,0.000000,0.569107,-0.558369,0.572175,-0.582913,0.567573,-0.550699
0.6203,0.017042,-0.000157,0.000287,-0.000916,0.1755,0.2486,0.1285,-0.107683,0.108848,-0.000028,0.000815,-0.002579,0.4416,0.9105,0.4769,-0.104311,0.101243,0.000000,0.569107,-0.559903,0.572175,-0.582913,0.567573,-0.550699
0.6371,0.016742,-0.000150,0.000274,-0.000875,0.1678,0.2377,0.1228,-0.110630,0.111744,-0.000028,0.000815,-0.002579,0.4416,0.9105,0.4769,-0.104311,0.101243,0.000000,0.569107,-0.559903,0.572175,-0.582913,0.567573,-0.550699
0.6538,0.016748,-0.000144,0.000261,-0.000835,0.1600,0.2267,0.1172,-0.113579,0.114641,-0.000087,0.000832,-0.002594,0.3974,0.9499,0.5361,-0.104311,0.101243,0.000000,0.569107,-0.558369,0.572175,-0.582913,0.567573,-0.550699
0.6706,0.016747,-0.000137,0.000249,-0.000795,0.1523,0.2158,0.1115,-0.116528,0.117539,-0.000121,0.000792,-0.002579,0.3521,0.9283,0.4765,-0.104311,0.101243,0.000000,0.569107,-0.558369,0.572175,-0.582913,0.567573,-0.552233
0.6873,0.016748,-0.000130,0.000236,-0.000754,0.1445,0.2048,0.1058,-0.119476,0.120436,-0.000064,0.000780,-0.002568,0.3964,0.8953,0.4297,-0.110447,0.108913,0.000000,0.569107,-0.559903,0.572175,-0.582913,0.567573,-0.552233
0.7040,0.016748,-0.000123,0.000223,-0.000714,0.1368,0.1938,0.1001,-0.122425,0.123333,-0.000083,0.000836,-0.002595,0.4021,0.9515,0.5410,-0.116583,0.116583,0.000000,0.569107,-0.558369,0.572175,-0.582913,0.567573,-0.550699
0.7210,0.016938,-0.000116,0.000211,-0.000673,0.1290,0.1828,0.0944,-0.125408,0.126264,-0.000028,0.000814,-0.002579,0.4411,0.9103,0.4764,-0.118117,0.116583,0.000000,0.569107,-0.559903,0.572175,-0.582913,0.567573,-0.550699
0.7377,0.016743,-0.000109,0.000198,-0.000633,0.1212,0.1718,0.0887,-0.128355,0.129160,-0.000028,0.000814,-0.002579,0.4411,0.9103,0.4764,-0.118117,0.116583,0.000000,0.569107,-0.559903,0.572175,-0.582913,0.567573,-0.550699
0.7545,0.016748,-0.000102,0.000185,-0.000592,0.1135,0.1608,0.0830,-0.131304,0.132057,-0.000034,0.000817,-0.002581,0.4370,0.9146,0.4832,-0.119651,0.118117,0.000000,0.569107,-0.559903,0.572175,-0.582913,0.567573,-0.550699
0.7712,0.016747,-0.000095,0.000173,-0.000552,0.1057,0.1499,0.0774,-0.134253,0.134955,-0.000073,0.000778,-0.002568,0.3875,0.8967,0.4290,-0.124252,0.121184,0.000000,0.569107,-0.559903,0.572175,-0.582913,0.567573,-0.552233
0.7880,0.016745,-0.000088,0.000160,-0.000511,0.0980,0.1389,0.0717,-0.137201,0.137852,-0.000069,0.000782,-0.002569,0.3927,0.8986,0.4347,-0.127320,0.125786,0.000000,0.569107,-0.559903,0.572175,-0.582913,0.567573,-0.552233
0.8047,0.016751,-0.000081,0.000147,-0.000471,0.0902,0.1279,0.0660,-0.140150,0.140749,-0.000111,0.000820,-0.002557,0.4418,0.8825,0.4878,-0.131922,0.128854,0.000000,0.570641,-0.559903,0.572175,-0.582913,0.567573,-0.552233
0.8215,0.016774,-0.000074,0.000135,-0.000431,0.0825,0.1169,0.0603,-0.143104,0.143651,-0.000111,0.000820,-0.002557,0.4418,0.8825,0.4878,-0.131922,0.128854,0.000000,0.570641,-0.559903,0.572175,-0.582913,0.567573,-0.552233
0.8383,0.016839,-0.000067,0.000122,-0.000390,0.0747,0.1059,0.0546,-0.146069,0.146565,-0.000111,0.000820,-0.002557,0.4418,0.8825,0.4878,-0.131922,0.128854,0.000000,0.570641,-0.559903,0.572175,-0.582913,0.567573,-0.552233
0.8551,0.016792,-0.000060,0.000109,-0.000349,0.0669,0.0949,0.0490,-0.149025,0.149470,-0.000111,0.000820,-0.002557,0.4418,0.8825,0.4878,-0.131922,0.128854,0.000000,0.570641,-0.559903,0.572175,-0.582913,0.567573,-0.552233
0.8720,0.016890,-0.000053,0.000097,-0.000309,0.0591,0.0839,0.0432,-0.151999,0.152392,-0.000111,0.000820,-0.002557,0.4418,0.8825,0.4878,-0.131922,0.128854,0.000000,0.570641,-0.559903,0.572175,-0.582913,0.567573,-0.552233
0.8888,0.016744,-0.000046,0.000084,-0.000268,0.0514,0.0729,0.0376,-0.154947,0.155288,-0.000111,0.000820,-0.002557,0.4418,0.8825,0.4878,-0.131922,0.128854,0.000000,0.570641,-0.559903,0.572175,-0.582913,0.567573,-0.552233
0.9055,0.016745,-0.000039,0.000071,-0.000228,0.0436,0.0619,0.0319,-0.157895,0.158185,-0.000106,0.000816,-0.002558,0.4367,0.8842,0.4823,-0.138058,0.134990,0.000000,0.570641,-0.559903,0.572175,-0.582913,0.567573,-0.552233
0.9222,0.016744,-0.000032,0.000059,-0.000188,0.0359,0.0510,0.0263,-0.160843,0.161082,-0.000160,0.000832,-0.002571,0.3977,0.9193,0.5359,-0.139592,0.134990,0.000000,0.570641,-0.558369,0.572175,-0.582913,0.567573,-0.552233
0.9390,0.016744,-0.000025,0.000046,-0.000147,0.0282,0.0400,0.0206,-0.163791,0.163979,-0.000101,0.000815,-0.002557,0.4413,0.8804,0.4773,-0.142660,0.141126,0.000000,0.570641,-0.559903,0.572175,-0.582913,0.567573,-0.552233
0.9560,0.016967,-0.000018,0.000033,-0.000106,0.0203,0.0289,0.0149,-0.166779,0.166914,-0.000107,0.000817,-0.002558,0.4368,0.8844,0.4834,-0.153398,0.154932,0.000000,0.570641,-0.559903,0.572175,-0.582913,0.567573,-0.552233
0.9727,0.016742,-0.000011,0.000021,-0.000066,0.0126,0.0179,0.0092,-0.169726,0.169810,-0.000107,0.000817,-0.002558,0.4368,0.8844,0.4834,-0.153398,0.154932,0.000000,0.570641,-0.559903,0.572175,-0.582913,0.567573,-0.552233
0.9894,0.016745,-0.000004,0.000008,-0.000025,0.0049,0.0069,0.0036,-0.172675,0.172707,-0.000107,0.000817,-0.002558,0.4368,0.8844,0.4834,-0.167204,0.165670,0.000000,0.570641,-0.559903,0.572175,-0.582913,0.567573,-0.552233
1.0062,0.016743,0.000000,0.000000,0.000019,0.0000,0.0000,0.0000,-0.172837,0.172837,-0.000107,0.000817,-0.002558,0.4368,0.8844,0.4834,-0.168738,0.164136,0.000000,0.570641,-0.559903,0.572175,-0.582913,0.567573,-0.552233
1.0229,0.016743,0.000000,0.000000,0.000072,0.0000,0.0000,0.0000,-0.168252,0.168252,-0.000107,0.000817,-0.002558,0.4368,0.8844,0.4834,-0.165670,0.164136,0.000000,0.570641,-0.559903,0.572175,-0.582913,0.567573,-0.552233
1.0397,0.016741,0.000000,0.000000,0.000125,0.0000,0.0000,0.0000,-0.163685,0.163685,-0.000147,0.000778,-0.002545,0.3874,0.8666,0.4293,-0.170272,0.174874,0.000000,0.570641,-0.559903,0.572175,-0.582913,0.567573,-0.553767
1.0574,0.017690,0.000000,0.000000,0.000180,0.0000,0.0000,0.0000,-0.158892,0.158892,-0.000143,0.000782,-0.002547,0.3925,0.8684,0.4349,-0.176408,0.174874,0.000000,0.570641,-0.559903,0.572175,-0.582913,0.567573,-0.553767
1.0741,0.016749,0.000000,0.000000,0.000233,0.0000,0.0000,0.0000,-0.154398,0.154398,-0.000143,0.000782,-0.002547,0.3925,0.8684,0.4349,-0.176408,0.174874,0.000000,0.570641,-0.559903,0.572175,-0.582913,0.567573,-0.553767
1.0909,0.016747,0.000000,0.000000,0.000285,0.0000,0.0000,0.0000,-0.149961,0.149961,-0.000143,0.000782,-0.002547,0.3925,0.8684,0.4349,-0.174874,0.168738,0.000000,0.570641,-0.559903,0.572175,-0.582913,0.567573,-0.553767
1.1076,0.016746,0.000000,0.000000,0.000338,0.0000,0.0000,0.0000,-0.145591,0.145591,-0.000103,0.000820,-0.002560,0.4418,0.8857,0.4878,-0.168738,0.165670,0.000000,0.570641,-0.559903,0.572175,-0.582913,0.567573,-0.552233
1.1244,0.016799,0.000000,0.000000,0.000390,0.0000,0.0000,0.0000,-0.141289,0.141289,-0.000147,0.000778,-0.002545,0.3869,0.8664,0.4288,-0.164136,0.164136,0.000000,0.570641,-0.559903,0.572175,-0.582913,0.567573,-0.553767
1.1411,0.016744,0.000000,0.000000,0.000443,0.0000,0.0000,0.0000,-0.137092,0.137092,-0.000143,0.000782,-0.002547,0.3926,0.8684,0.4350,-0.154932,0.156466,0.000000,0.570641,-0.559903,0.572175,-0.582913,0.567573,-0.553767
1.1580,0.016868,0.000000,0.000000,0.000496,0.0000,0.0000,0.0000,-0.132970,0.132970,-0.000090,0.000766,-0.002534,0.4315,0.8330,0.3813,-0.148796,0.148796,0.000000,0.570641,-0.561437,0.572175,-0.582913,0.567573,-0.553767
1.1748,0.016744,0.000000,0.000000,0.000548,0.0000,0.0000,0.0000,-0.128993,0.128993,-0.000090,0.000766,-0.002534,0.4315,0.8330,0.3813,-0.148796,0.148796,0.000000,0.570641,-0.561437,0.572175,-0.582913,0.567573,-0.553767
1.1915,0.016751,0.000000,0.000000,0.000600,0.0000,0.0000,0.0000,-0.125140,0.125140,-0.000083,0.000791,-0.002510,0.5166,0.7856,0.3876,-0.144194,0.144194,0.000000,0.572175,-0.562971,0.572175,-0.582913,0.567573,-0.553767
1.2083,0.016746,0.000000,0.000000,0.000652,0.0000,0.0000,0.0000,-0.121425,0.121425,-0.000124,0.000750,-0.002500,0.4579,0.7731,0.3334,-0.138058,0.141126,0.000000,0.572175,-0.562971,0.572175,-0.582913,0.567573,-0.555301
1.2250,0.016736,0.000000,0.000000,0.000704,0.0000,0.0000,0.0000,-0.117860,0.117860,-0.000214,0.000809,-0.002464,0.4746,0.7922,0.2859,-0.133456,0.139592,0.000000,0.573709,-0.562971,0.572175,-0.584447,0.567573,-0.556835
1.2417,0.016743,0.000000,0.000000,0.000757,0.0000,0.0000,0.0000,-0.114449,0.114449,-0.000314,0.000788,-0.002406,0.5122,0.6885,0.2382,-0.128854,0.133456,0.000000,0.576777,-0.564505,0.572175,-0.584447,0.567573,-0.559903
1.2585,0.016771,0.000000,0.000000,0.000809,0.0000,0.0000,0.0000,-0.111200,0.111200,-0.000345,0.000830,-0.002325,0.5591,0.6804,-0.0238,-0.124252,0.127320,0.000000,0.578311,-0.567573,0.572175,-0.587515,0.567573,-0.562971
1.2753,0.016745,0.000000,0.000000,0.000860,0.0000,0.0000,0.0000,-0.108130,0.108130,-0.000345,0.000830,-0.002325,0.5591,0.6804,-0.0238,-0.124252,0.127320,0.000000,0.578311,-0.567573,0.572175,-0.587515,0.567573,-0.562971
1.2920,0.016759,0.000000,0.000000,0.000912,0.0000,0.0000,0.0000,-0.105243,0.105243,-0.000465,0.000944,-0.002224,0.7046,0.6300,-0.1560,-0.119651,0.119651,0.000000,0.582913,-0.570641,0.572175,-0.590583,0.567573,-0.566039
1.3088,0.016745,0.000000,0.000000,0.000964,0.0000,0.0000,0.0000,-0.102549,0.102549,-0.000630,0.001097,-0.002138,0.7219,0.6201,-0.1420,-0.118117,0.115049,0.000000,0.587515,-0.570641,0.572175,-0.593651,0.569107,-0.569107
1.3255,0.016754,0.000000,0.000000,0.001016,0.0000,0.0000,0.0000,-0.100053,0.100053,-0.000671,0.001270,-0.002002,0.8408,0.4860,-0.1431,-0.113515,0.111981,0.000000,0.593651,-0.573709,0.572175,-0.596719,0.572175,-0.572175
1.3423,0.016745,0.000000,0.000000,0.001067,0.0000,0.0000,0.0000,-0.097765,0.097765,-0.000642,0.001362,-0.001894,0.8497,0.3965,-0.2510,-0.107379,0.107379,0.000000,0.596719,-0.576777,0.572175,-0.599786,0.575243,-0.575243
1.3590,0.016772,0.000000,0.000000,0.001118,0.0000,0.0000,0.0000,-0.095686,0.095686,-0.000642,0.001362,-0.001894,0.8497,0.3965,-0.2510,-0.104311,0.101243,0.000000,0.599786,-0.579845,0.572175,-0.601320,0.579845,-0.578311
1.3758,0.016748,0.000000,0.000000,0.001170,0.0000,0.0000,0.0000,-0.093828,0.093828,-0.000553,0.001423,-0.001781,0.8190,0.2179,-0.2407,-0.104311,0.101243,0.000000,0.599786,-0.579845,0.572175,-0.601320,0.579845,-0.578311
1.3925,0.016750,0.000000,0.000000,0.001221,0.0000,0.0000,0.0000,-0.092194,0.092194,-0.000467,0.001395,-0.001643,0.7326,0.2183,-0.2430,-0.102777,0.098175,0.000000,0.601320,-0.582913,0.575243,-0.604388,0.584447,-0.581379
1.4092,0.016701,0.000000,0.000000,0.001271,0.0000,0.0000,0.0000,-0.090791,0.090791,-0.000328,0.001471,-0.001497,0.7113,0.1680,-0.0819,-0.099709,0.096641,0.000000,0.604388,-0.585981,0.578311,-0.607456,0.590583,-0.582913
1.4260,0.016762,0.000000,0.000000,0.001322,0.0000,0.0000,0.0000,-0.089615,0.089615,-0.000384,0.001425,-0.001426,0.6644,0.1559,-0.1528,-0.096641,0.096641,0.000000,0.605922,-0.587515,0.579845,-0.608990,0.592117,-0.585981
1.4427,0.016742,0.000000,0.000000,0.001373,0.0000,0.0000,0.0000,-0.088675,0.088675,-0.000255,0.001471,-0.001322,0.7179,0.2073,-0.0919,-0.095107,0.093573,0.000000,0.607456,-0.590583,0.582913,-0.612058,0.595185,-0.585981
1.4595,0.016761,0.000000,0.000000,0.001424,0.0000,0.0000,0.0000,-0.087972,0.087972,-0.000145,0.001428,-0.001258,0.6619,0.2523,0.0093,-0.093573,0.090505,0.000000,0.607456,-0.592117,0.585981,-0.613592,0.598253,-0.585981
1.4762,0.016748,0.000000,0.000000,0.001474,0.0000,0.0000,0.0000,-0.087510,0.087510,-0.000145,0.001428,-0.001258,0.6619,0.2523,0.0093,-0.093573,0.090505,0.000000,0.607456,-0.592117,0.585981,-0.613592,0.598253,-0.585981
1.4930,0.016756,0.000000,0.000000,0.001524,0.0000,0.0000,0.0000,-0.087288,0.087288,-0.000129,0.001307,-0.001226,0.6853,0.3150,0.0529,-0.093573,0.090505,0.000000,0.607456,-0.593651,0.589049,-0.613592,0.598253,-0.585981
1.5097,0.016745,0.000000,0.000000,0.001574,0.0000,0.0000,0.0000,-0.087307,0.087307,-0.000061,0.001155,-0.001165,0.6506,0.3931,0.2108,-0.093573,0.090505,0.000000,0.607456,-0.595185,0.593651,-0.613592,0.599786,-0.585981
1.5265,0.016768,0.000000,0.000000,0.001624,0.0000,0.0000,0.0000,-0.087569,0.087569,0.000014,0.001140,-0.001085,0.7317,0.4177,0.2488,-0.093573,0.090505,0.000000,0.608990,-0.598253,0.596719,-0.615126,0.601320,-0.585981
1.5433,0.016744,0.000000,0.000000,0.001674,0.0000,0.0000,0.0000,-0.088071,0.088071,0.000034,0.001126,-0.001020,0.7620,0.4833,0.3536,-0.092039,0.088971,0.000000,0.610524,-0.599786,0.599786,-0.616660,0.602854,-0.585981
1.5600,0.016766,0.000000,0.000000,0.001723,0.0000,0.0000,0.0000,-0.088813,0.088813,0.000034,0.001126,-0.001020,0.7620,0.4833,0.3536,-0.093573,0.088971,0.000000,0.610524,-0.601320,0.602854,-0.616660,0.604388,-0.585981
1.5768,0.016744,0.000000,0.000000,0.001773,0.0000,0.0000,0.0000,-0.089792,0.089792,0.000115,0.001018,-0.000976,0.7375,0.5091,0.4513,-0.093573,0.088971,0.000000,0.610524,-0.601320,0.602854,-0.616660,0.604388,-0.585981
1.5935,0.016757,0.000000,0.000000,0.001822,0.0000,0.0000,0.0000,-0.091006,0.091006,0.000189,0.000887,-0.000930,0.7965,0.5376,0.4417,-0.092039,0.088971,0.000000,0.610524,-0.604388,0.605922,-0.616660,0.604388,-0.585981
1.6103,0.016762,0.000000,0.000000,0.001871,0.0000,0.0000,0.0000,-0.092452,0.092452,0.000235,0.000884,-0.000923,0.8291,0.4995,0.3883,-0.092039,0.088971,0.000000,0.610524,-0.605922,0.605922,-0.616660,0.604388,-0.585981
1.6270,0.016760,0.000000,0.000000,0.001919,0.0000,0.0000,0.0000,-0.094125,0.094125,0.000204,0.000774,-0.000898,0.8048,0.6050,0.5032,-0.092039,0.088971,0.000000,0.610524,-0.605922,0.608990,-0.616660,0.604388,-0.585981
1.6438,0.016744,0.000000,0.000000,0.001968,0.0000,0.0000,0.0000,-0.096019,0.096019,0.000208,0.000786,-0.000900,0.8073,0.5940,0.4912,-0.092039,0.090505,0.000000,0.610524,-0.605922,0.608990,-0.616660,0.604388,-0.585981
1.6605,0.016762,0.000000,0.000000,0.002016,0.0000,0.0000,0.0000,-0.098133,0.098133,0.000208,0.000786,-0.000900,0.8073,0.5940,0.4912,-0.092039,0.090505,0.000000,0.610524,-0.605922,0.608990,-0.616660,0.604388,-0.585981
1.6773,0.016744,0.000000,0.000000,0.002064,0.0000,0.0000,0.0000,-0.100456,0.100456,0.000207,0.000784,-0.000900,0.8069,0.5955,0.4929,-0.092039,0.090505,0.000000,0.610524,-0.605922,0.608990,-0.616660,0.604388,-0.585981
1.6941,0.016769,0.000000,0.000000,0.002112,0.0000,0.0000,0.0000,-0.102988,0.102988,0.000207,0.000784,-0.000900,0.8069,0.5955,0.4929,-0.093573,0.093573,0.000000,0.610524,-0.605922,0.608990,-0.616660,0.604388,-0.585981
1.7109,0.016810,0.000000,0.000000,0.002160,0.0000,0.0000,0.0000,-0.105725,0.105725,0.000207,0.000784,-0.000900,0.8069,0.5955,0.4929,-0.095107,0.093573,0.000000,0.610524,-0.605922,0.608990,-0.616660,0.604388,-0.585981
1.7276,0.016770,0.000000,0.000000,0.002207,0.0000,0.0000,0.0000,-0.108647,0.108647,0.000207,0.000784,-0.000900,0.8069,0.5955,0.4929,-0.099709,0.096641,0.000000,0.610524,-0.605922,0.608990,-0.616660,0.604388,-0.585981
1.7444,0.016761,0.000000,0.000000,0.002254,0.0000,0.0000,0.0000,-0.111750,0.111750,0.000154,0.000801,-0.000875,0.7679,0.6285,0.3839,-0.107379,0.104311,0.000000,0.610524,-0.605922,0.608990,-0.618194,0.604388,-0.587515
1.7612,0.016776,0.000000,0.000000,0.002301,0.0000,0.0000,0.0000,-0.115030,0.115030,0.000154,0.000801,-0.000875,0.7679,0.6285,0.3839,-0.107379,0.104311,0.000000,0.610524,-0.605922,0.608990,-0.618194,0.604388,-0.587515
1.7779,0.016756,0.000000,0.000000,0.002348,0.0000,0.0000,0.0000,-0.118471,0.118471,0.000023,0.000817,-0.000829,0.7329,0.6260,0.2870,-0.108913,0.104311,0.000000,0.612058,-0.605922,0.608990,-0.619728,0.604388,-0.590583
1.7947,0.016762,0.000000,0.000000,0.002394,0.0000,0.0000,0.0000,-0.122069,0.122069,-0.000115,0.000967,-0.000774,0.8072,0.6794,0.2435,-0.107379,0.104311,0.000000,0.615126,-0.605922,0.608990,-0.622796,0.604388,-0.592117
1.8115,0.016758,0.000000,0.000000,0.002440,0.0000,0.0000,0.0000,-0.125812,0.125812,-0.000251,0.000993,-0.000682,0.8490,0.7253,0.1404,-0.108913,0.110447,0.000000,0.618194,-0.607456,0.610524,-0.625864,0.604388,-0.595185
1.8282,0.016764,0.000000,0.000000,0.002486,0.0000,0.0000,0.0000,-0.129690,0.129690,-0.000400,0.001009,-0.000545,0.8064,0.8219,0.0428,-0.113515,0.115049,0.000000,0.621262,-0.608990,0.613592,-0.630466,0.605922,-0.599786
1.8450,0.016757,0.000000,0.000000,0.002532,0.0000,0.0000,0.0000,-0.133692,0.133692,-0.000672,0.000955,-0.000414,0.8012,0.8643,-0.0546,-0.119651,0.124252,0.000000,0.625864,-0.610524,0.616660,-0.633534,0.605922,-0.605922
1.8617,0.016761,0.000000,0.000000,0.002577,0.0000,0.0000,0.0000,-0.137807,0.137807,-0.000672,0.000955,-0.000414,0.8012,0.8643,-0.0546,-0.119651,0.124252,0.000000,0.625864,-0.610524,0.616660,-0.633534,0.605922,-0.605922
1.8785,0.016751,0.000000,0.000000,0.002622,0.0000,0.0000,0.0000,-0.142022,0.142022,-0.000727,0.000994,-0.000294,0.7249,0.8262,-0.0999,-0.130388,0.124252,0.000000,0.628932,-0.612058,0.618194,-0.636602,0.608990,-0.610524
1.8953,0.016837,0.000000,0.000000,0.002667,0.0000,0.0000,0.0000,-0.146349,0.146349,-0.000656,0.001030,-0.000123,0.7807,0.7453,-0.0406,-0.133456,0.124252,0.000000,0.633534,-0.616660,0.621262,-0.639670,0.613592,-0.613592
1.9131,0.017816,0.000000,0.000000,0.002714,0.0000,0.0000,0.0000,-0.151014,0.151014,-0.000656,0.001030,-0.000123,0.7807,0.7453,-0.0406,-0.133456,0.124252,0.000000,0.633534,-0.616660,0.621262,-0.639670,0.613592,-0.613592
1.9300,0.016814,0.000000,0.000000,0.002758,0.0000,0.0000,0.0000,-0.155484,0.155484,-0.000656,0.001030,-0.000123,0.7807,0.7453,-0.0406,-0.133456,0.124252,0.000000,0.633534,-0.616660,0.621262,-0.639670,0.613592,-0.613592
1.9467,0.016753,0.000000,0.000000,0.002802,0.0000,0.0000,0.0000,-0.159990,0.159990,-0.000656,0.001030,-0.000123,0.7807,0.7453,-0.0406,-0.133456,0.124252,0.000000,0.633534,-0.616660,0.621262,-0.639670,0.613592,-0.613592
1.9635,0.016753,0.000000,0.000000,0.002845,0.0000,0.0000,0.0000,-0.164537,0.164537,-0.000491,0.001340,0.000186,0.7483,0.4350,0.1159,-0.144194,0.144194,0.000000,0.642738,-0.622796,0.622796,-0.645806,0.625864,-0.619728
1.9802,0.016761,0.000000,0.000000,0.002888,0.0000,0.0000,0.0000,-0.169113,0.169113,-0.000467,0.001348,0.000214,0.8006,0.4847,0.1544,-0.142660,0.141126,0.000000,0.644272,-0.624330,0.624330,-0.647340,0.627398,-0.619728
1.9970,0.016748,0.000000,0.000000,0.002931,0.0000,0.0000,0.0000,-0.173702,0.173702,-0.000402,0.001418,0.000210,0.7672,0.3953,0.1498,-0.145728,0.145728,0.000000,0.644272,-0.624330,0.622796,-0.647340,0.628932,-0.619728
2.0138,0.016843,0.000000,0.000000,0.002974,0.0000,0.0000,0.0000,-0.178318,0.178318,-0.000366,0.001371,0.000236,0.7210,0.4217,0.2598,-0.158000,0.156466,0.000000,0.644272,-0.624330,0.624330,-0.647340,0.630466,-0.619728
2.0306,0.016753,0.000000,0.000000,0.003016,0.0000,0.0000,0.0000,-0.182899,0.182899,-0.000366,0.001371,0.000236,0.7210,0.4217,0.2598,-0.158000,0.156466,0.000000,0.644272,-0.624330,0.624330,-0.647340,0.630466,-0.619728
2.0473,0.016742,0.000000,0.000000,0.003058,0.0000,0.0000,0.0000,-0.187454,0.187454,-0.000218,0.001449,0.000281,0.6977,0.3665,0.2477,-0.174874,0.173340,0.000000,0.644272,-0.625864,0.624330,-0.648874,0.633534,-0.619728
2.0641,0.016751,0.000000,0.000000,0.003099,0.0000,0.0000,0.0000,-0.191976,0.191976,-0.000302,0.001514,0.000275,0.6729,0.4574,0.2487,-0.182544,0.179476,0.000000,0.644272,-0.624330,0.624330,-0.650408,0.633534,-0.619728
2.0808,0.016746,0.000000,0.000000,0.003140,0.0000,0.0000,0.0000,-0.196448,0.196448,-0.000281,0.001675,0.000297,0.7077,0.3989,0.2485,-0.182544,0.177942,0.000000,0.645806,-0.624330,0.622796,-0.651942,0.635068,-0.619728
2.0976,0.016755,0.000000,0.000000,0.003181,0.0000,0.0000,0.0000,-0.200862,0.200862,-0.000326,0.001698,0.000306,0.7530,0.3904,0.3039,-0.184078,0.182544,0.000000,0.647340,-0.624330,0.622796,-0.651942,0.635068,-0.619728
2.1143,0.016750,0.000000,0.000000,0.003222,0.0000,0.0000,0.0000,-0.205201,0.205201,-0.000334,0.001753,0.000316,0.7593,0.4411,0.2430,-0.194816,0.194816,0.000000,0.647340,-0.624330,0.622796,-0.653476,0.635068,-0.619728
2.1311,0.016758,0.000000,0.000000,0.003262,0.0000,0.0000,0.0000,-0.209458,0.209458,-0.000334,0.001753,0.000316,0.7593,0.4411,0.2430,-0.194816,0.194816,0.000000,0.647340,-0.624330,0.622796,-0.653476,0.635068,-0.619728
2.1478,0.016741,0.000000,0.000000,0.003301,0.0000,0.0000,0.0000,-0.213614,0.213614,-0.000431,0.001804,0.000350,0.7700,0.4536,0.1947,-0.202485,0.200951,0.000000,0.648874,-0.624330,0.622796,-0.655010,0.635068,-0.621262
2.1646,0.016752,0.000000,0.000000,0.003341,0.0000,0.0000,0.0000,-0.217664,0.217664,-0.000421,0.001800,0.000383,0.7696,0.4492,0.0348,-0.204019,0.200951,0.000000,0.648874,-0.625864,0.622796,-0.656544,0.635068,-0.622796
2.1813,0.016746,0.000000,0.000000,0.003380,0.0000,0.0000,0.0000,-0.221594,0.221594,-0.000465,0.001953,0.000424,0.8400,0.4369,0.1618,-0.202485,0.202485,0.000000,0.651942,-0.625864,0.622796,-0.658078,0.636602,-0.622796
2.1981,0.016750,0.000000,0.000000,0.003418,0.0000,0.0000,0.0000,-0.225394,0.225394,-0.000351,0.002050,0.000479,0.8532,0.3716,0.2033,-0.211689,0.214757,0.000000,0.653476,-0.627398,0.622796,-0.659612,0.639670,-0.622796
2.2149,0.016865,0.000000,0.000000,0.003457,0.0000,0.0000,0.0000,-0.229078,0.229078,-0.000254,0.002152,0.000531,0.8724,0.3119,0.2539,-0.220893,0.219359,0.000000,0.655010,-0.628932,0.622796,-0.661146,0.642738,-0.622796
2.2317,0.016753,0.000000,0.000000,0.003495,0.0000,0.0000,0.0000,-0.232586,0.232586,-0.000254,0.002152,0.000531,0.8724,0.3119,0.2539,-0.220893,0.219359,0.000000,0.655010,-0.628932,0.622796,-0.661146,0.642738,-0.622796
2.2484,0.016746,0.000000,0.000000,0.003532,0.0000,0.0000,0.0000,-0.235932,0.235932,-0.000278,0.002199,0.000572,0.8810,0.3712,0.3588,-0.223961,0.219359,0.000000,0.656544,-0.628932,0.624330,-0.662680,0.644272,-0.622796
2.2652,0.016749,0.000000,0.000000,0.003569,0.0000,0.0000,0.0000,-0.239109,0.239109,-0.000302,0.002197,0.000665,0.8803,0.4651,0.3480,-0.223961,0.223961,0.000000,0.658078,-0.630466,0.627398,-0.665748,0.645806,-0.624330
2.2819,0.016746,0.000000,0.000000,0.003606,0.0000,0.0000,0.0000,-0.242106,0.242106,-0.000368,0.002128,0.000765,0.9074,0.5421,0.5156,-0.231631,0.234699,0.000000,0.661146,-0.632000,0.632000,-0.667282,0.647340,-0.625864
2.2987,0.016749,0.000000,0.000000,0.003642,0.0000,0.0000,0.0000,-0.244917,0.244917,-0.000277,0.002025,0.000879,0.8821,0.5660,0.6091,-0.240835,0.236233,0.000000,0.662680,-0.635068,0.636602,-0.668816,0.650408,-0.627398
2.3159,0.017288,0.000000,0.000000,0.003679,0.0000,0.0000,0.0000,-0.247614,0.247614,-0.000229,0.002038,0.000939,0.8848,0.6945,0.5992,-0.240835,0.233165,0.000000,0.662680,-0.636602,0.639670,-0.671884,0.651942,-0.627398
2.3327,0.016756,0.000000,0.000000,0.003714,0.0000,0.0000,0.0000,-0.250022,0.250022,-0.000229,0.002038,0.000939,0.8848,0.6945,0.5992,-0.240835,0.233165,0.000000,0.662680,-0.636602,0.639670,-0.671884,0.651942,-0.627398
2.3495,0.016755,0.000000,0.000000,0.003749,0.0000,0.0000,0.0000,-0.252221,0.252221,-0.000246,0.001757,0.001060,0.8299,0.7287,0.7124,-0.240835,0.242369,0.000000,0.664214,-0.639670,0.645806,-0.671884,0.653476,-0.630466
2.3662,0.016750,0.000000,0.000000,0.003784,0.0000,0.0000,0.0000,-0.254204,0.254204,-0.000245,0.001786,0.001047,0.8356,0.7250,0.7006,-0.240835,0.242369,0.000000,0.664214,-0.639670,0.645806,-0.671884,0.653476,-0.630466
2.3830,0.016741,0.000000,0.000000,0.003818,0.0000,0.0000,0.0000,-0.255966,0.255966,-0.000078,0.001574,0.001185,1.0414,0.7843,0.6488,-0.246971,0.248505,0.000000,0.665748,-0.647340,0.651942,-0.673418,0.653476,-0.630466
2.3997,0.016755,0.000000,0.000000,0.003852,0.0000,0.0000,0.0000,-0.257503,0.257503,-0.000055,0.001492,0.001232,1.1226,0.7933,0.7111,-0.250039,0.253107,0.000000,0.667282,-0.650408,0.655010,-0.673418,0.653476,-0.630466
2.4165,0.016754,0.000000,0.000000,0.003885,0.0000,0.0000,0.0000,-0.258811,0.258811,-0.000028,0.001485,0.001264,1.1522,0.8565,0.6497,-0.256175,0.254641,0.000000,0.667282,-0.651942,0.656544,-0.674952,0.653476,-0.630466
2.4332,0.016777,0.000000,0.000000,0.003918,0.0000,0.0000,0.0000,-0.259887,0.259887,-0.000028,0.001485,0.001264,1.1522,0.8565,0.6497,-0.256175,0.254641,0.000000,0.667282,-0.651942,0.656544,-0.674952,0.653476,-0.630466
2.4500,0.016749,0.000000,0.000000,0.003951,0.0000,0.0000,0.0000,-0.260724,0.260724,-0.000059,0.001455,0.001321,1.2248,0.9497,0.7133,-0.256175,0.254641,0.000000,0.668816,-0.653476,0.659612,-0.676486,0.653476,-0.630466
2.4667,0.016748,0.000000,0.000000,0.003983,0.0000,0.0000,0.0000,-0.261323,0.261323,0.000012,0.001466,0.001351,1.3415,0.8556,0.6515,-0.256175,0.254641,0.000000,0.670350,-0.656544,0.659612,-0.676486,0.653476,-0.630466
2.4835,0.016745,0.000000,0.000000,0.004014,0.0000,0.0000,0.0000,-0.261682,0.261682,0.000016,0.001488,0.001371,1.4155,0.8163,0.6583,-0.259243,0.257709,0.000000,0.671884,-0.658078,0.659612,-0.676486,0.653476,-0.630466
2.5002,0.016754,0.000000,0.000000,0.004046,0.0000,0.0000,0.0000,-0.261799,0.261799,-0.000028,0.001527,0.001380,1.4563,0.8063,0.7137,-0.259243,0.257709,0.000000,0.673418,-0.658078,0.659612,-0.676486,0.653476,-0.630466
2.5170,0.016750,0.000000,0.000000,0.004076,0.0000,0.0000,0.0000,-0.261675,0.261675,-0.000028,0.001527,0.001380,1.4563,0.8063,0.7137,-0.262311,0.259243,0.000000,0.676486,-0.658078,0.659612,-0.678020,0.655010,-0.630466
2.5337,0.016761,0.000000,0.000000,0.004106,0.0000,0.0000,0.0000,-0.261309,0.261309,-0.000067,0.001677,0.001424,1.5217,0.7956,0.8196,-0.262311,0.259243,0.000000,0.676486,-0.658078,0.659612,-0.678020,0.655010,-0.630466
2.5505,0.016751,0.000000,0.000000,0.004136,0.0000,0.0000,0.0000,-0.260704,0.260704,-0.000064,0.001775,0.001452,1.5361,0.7991,0.8642,-0.262311,0.260777,0.000000,0.678020,-0.658078,0.659612,-0.679553,0.656544,-0.630466
2.5673,0.016778,0.000000,0.000000,0.004166,0.0000,0.0000,0.0000,-0.259858,0.259858,-0.000065,0.001765,0.001449,1.5346,0.7988,0.8596,-0.262311,0.259243,0.000000,0.678020,-0.658078,0.659612,-0.679553,0.656544,-0.630466
2.5840,0.016750,0.000000,0.000000,0.004195,0.0000,0.0000,0.0000,-0.258777,0.258777,-0.000108,0.001807,0.001461,1.5831,0.7851,0.9163,-0.262311,0.260777,0.000000,0.679553,-0.658078,0.659612,-0.679553,0.656544,-0.630466
2.6007,0.016715,0.000000,0.000000,0.004223,0.0000,0.0000,0.0000,-0.257465,0.257465,-0.000130,0.001804,0.001483,1.5782,0.8856,0.9112,-0.260777,0.259243,0.000000,0.679553,-0.658078,0.661146,-0.681087,0.656544,-0.630466
2.6176,0.016815,0.000000,0.000000,0.004251,0.0000,0.0000,0.0000,-0.255916,0.255916,-0.000158,0.001901,0.001479,1.6379,0.8118,0.9118,-0.260777,0.259243,0.000000,0.681087,-0.658078,0.659612,-0.681087,0.656544,-0.630466
2.6343,0.016760,0.000000,0.000000,0.004278,0.0000,0.0000,0.0000,-0.254145,0.254145,-0.000158,0.001901,0.001479,1.6379,0.8118,0.9118,-0.260777,0.259243,0.000000,0.681087,-0.658078,0.659612,-0.681087,0.656544,-0.630466
2.6511,0.016753,0.000000,0.000000,0.004305,0.0000,0.0000,0.0000,-0.252155,0.252155,-0.000182,0.001893,0.001503,1.6319,0.9186,0.9126,-0.260777,0.257709,0.000000,0.681087,-0.658078,0.661146,-0.682621,0.656544,-0.630466
2.6678,0.016762,0.000000,0.000000,0.004332,0.0000,0.0000,0.0000,-0.249948,0.249948,-0.000223,0.001935,0.001511,1.6808,0.8939,0.9688,-0.260777,0.256175,0.000000,0.682621,-0.658078,0.661146,-0.682621,0.656544,-0.630466
2.6846,0.016752,0.000000,0.000000,0.004358,0.0000,0.0000,0.0000,-0.247534,0.247534,-0.000276,0.002029,0.001531,1.7351,0.9323,0.9639,-0.260777,0.256175,0.000000,0.684155,-0.658078,0.661146,-0.684155,0.656544,-0.630466
2.7013,0.016762,0.000000,0.000000,0.004384,0.0000,0.0000,0.0000,-0.244916,0.244916,-0.000283,0.001963,0.001542,1.7185,0.9779,1.0208,-0.259243,0.256175,0.000000,0.684155,-0.658078,0.662680,-0.684155,0.656544,-0.630466
2.7181,0.016797,0.000000,0.000000,0.004409,0.0000,0.0000,0.0000,-0.242097,0.242097,-0.000283,0.001963,0.001542,1.7185,0.9779,1.0208,-0.259243,0.256175,0.000000,0.684155,-0.658078,0.662680,-0.684155,0.656544,-0.630466
2.7349,0.016753,0.000000,0.000000,0.004433,0.0000,0.0000,0.0000,-0.239098,0.239098,-0.000267,0.002014,0.001588,1.7694,1.0861,0.9046,-0.256175,0.254641,0.000000,0.684155,-0.659612,0.664214,-0.687223,0.656544,-0.630466
2.7516,0.016739,0.000000,0.000000,0.004457,0.0000,0.0000,0.0000,-0.235923,0.235923,-0.000271,0.001976,0.001619,1.8392,1.0756,0.9738,-0.256175,0.254641,0.000000,0.685689,-0.661146,0.665748,-0.687223,0.656544,-0.630466
2.7684,0.016752,0.000000,0.000000,0.004481,0.0000,0.0000,0.0000,-0.232575,0.232575,-0.000187,0.001949,0.001665,1.9076,1.1048,0.8559,-0.256175,0.254641,0.000000,0.685689,-0.664214,0.667282,-0.688757,0.656544,-0.630466
2.7851,0.016735,0.000000,0.000000,0.004504,0.0000,0.0000,0.0000,-0.229070,0.229070,-0.000167,0.001937,0.001697,1.9383,1.1652,0.8134,-0.256175,0.253107,0.000000,0.685689,-0.665748,0.668816,-0.690291,0.656544,-0.630466
2.8019,0.016752,0.000000,0.000000,0.004527,0.0000,0.0000,0.0000,-0.225411,0.225411,-0.000059,0.002019,0.001716,2.0323,1.0878,0.5938,-0.254641,0.251573,0.000000,0.685689,-0.668816,0.667282,-0.691825,0.656544,-0.630466
2.8186,0.016754,0.000000,0.000000,0.004549,0.0000,0.0000,0.0000,-0.221611,0.221611,-0.000000,0.002037,0.001773,2.1086,1.1728,0.4502,-0.251573,0.246971,0.000000,0.685689,-0.671884,0.668816,-0.694893,0.656544,-0.630466
2.8354,0.016749,0.000000,0.000000,0.004570,0.0000,0.0000,0.0000,-0.217681,0.217681,-0.000000,0.002037,0.001773,2.1086,1.1728,0.4502,-0.251573,0.246971,0.000000,0.685689,-0.671884,0.668816,-0.694893,0.656544,-0.630466
2.8521,0.016751,0.000000,0.000000,0.004591,0.0000,0.0000,0.0000,-0.213632,0.213632,0.000049,0.002018,0.001779,2.1379,1.1286,0.4090,-0.242369,0.239301,0.000000,0.685689,-0.673418,0.668816,-0.694893,0.656544,-0.630466
2.8689,0.016745,0.000000,0.000000,0.004612,0.0000,0.0000,0.0000,-0.209475,0.209475,0.000098,0.002118,0.001788,2.1937,1.0969,0.2449,-0.233165,0.231631,0.000000,0.685689,-0.674952,0.667282,-0.696427,0.656544,-0.630466
2.8856,0.016719,0.000000,0.000000,0.004632,0.0000,0.0000,0.0000,-0.205229,0.205229,0.000148,0.002090,0.001800,2.2249,1.0648,0.2057,-0.227029,0.228563,0.000000,0.685689,-0.676486,0.667282,-0.696427,0.656544,-0.630466
2.9025,0.016879,0.000000,0.000000,0.004652,0.0000,0.0000,0.0000,-0.200856,0.200856,0.000185,0.002020,0.001824,2.2481,1.0828,0.2102,-0.219359,0.227029,0.000000,0.685689,-0.678020,0.668816,-0.696427,0.656544,-0.630466
2.9193,0.016796,0.000000,0.000000,0.004671,0.0000,0.0000,0.0000,-0.196431,0.196431,0.000185,0.002020,0.001824,2.2481,1.0828,0.2102,-0.211689,0.225495,0.000000,0.687223,-0.679553,0.667282,-0.696427,0.656544,-0.630466
2.9360,0.016758,0.000000,0.000000,0.004689,0.0000,0.0000,0.0000,-0.191956,0.191956,0.000205,0.002107,0.001831,2.3417,0.9822,0.1530,-0.211689,0.225495,0.000000,0.687223,-0.679553,0.667282,-0.696427,0.656544,-0.630466
2.9528,0.016824,0.000000,0.000000,0.004707,0.0000,0.0000,0.0000,-0.187414,0.187414,0.000157,0.002221,0.001874,2.4770,0.9791,0.1599,-0.207087,0.220893,0.000000,0.690291,-0.681087,0.667282,-0.697961,0.656544,-0.630466
2.9696,0.016778,0.000000,0.000000,0.004725,0.0000,0.0000,0.0000,-0.182848,0.182848,0.000157,0.002221,0.001874,2.4770,0.9791,0.1599,-0.207087,0.220893,0.000000,0.690291,-0.681087,0.667282,-0.697961,0.656544,-0.630466
2.9864,0.016791,0.000000,0.000000,0.004742,0.0000,0.0000,0.0000,-0.178257,0.178257,0.000157,0.002221,0.001874,2.4770,0.9791,0.1599,-0.207087,0.220893,0.000000,0.690291,-0.681087,0.667282,-0.697961,0.656544,-0.630466
3.0033,0.016899,0.000000,0.000000,0.004758,0.0000,0.0000,0.0000,-0.173625,0.173625,0.000157,0.002221,0.001874,2.4770,0.9791,0.1599,-0.207087,0.220893,0.000000,0.690291,-0.681087,0.667282,-0.697961,0.656544,-0.630466
3.0201,0.016742,0.000000,0.000000,0.004774,0.0000,0.0000,0.0000,-0.169038,0.169038,0.000157,0.002221,0.001874,2.4770,0.9791,0.1599,-0.207087,0.220893,0.000000,0.690291,-0.681087,0.667282,-0.697961,0.656544,-0.630466
3.0368,0.016754,0.000000,0.000000,0.004790,0.0000,0.0000,0.0000,-0.164464,0.164464,0.000157,0.002221,0.001874,2.4770,0.9791,0.1599,-0.207087,0.220893,0.000000,0.690291,-0.681087,0.667282,-0.697961,0.656544,-0.630466
3.0536,0.016741,0.000000,0.000000,0.004805,0.0000,0.0000,0.0000,-0.159921,0.159921,0.000114,0.002521,0.001951,2.5628,1.0065,0.2538,-0.202485,0.197884,0.000000,0.694893,-0.681087,0.667282,-0.702563,0.659612,-0.630466
3.0703,0.016743,0.000000,0.000000,0.004819,0.0000,0.0000,0.0000,-0.155418,0.155418,0.000114,0.002521,0.001951,2.5628,1.0065,0.2538,-0.202485,0.197884,0.000000,0.694893,-0.681087,0.667282,-0.702563,0.659612,-0.630466
3.0870,0.016745,0.000000,0.000000,0.004833,0.0000,0.0000,0.0000,-0.150967,0.150967,0.000174,0.002579,0.001982,2.5273,0.9376,0.4274,-0.202485,0.197884,0.000000,0.696427,-0.681087,0.667282,-0.702563,0.662680,-0.630466
3.1038,0.016748,0.000000,0.000000,0.004846,0.0000,0.0000,0.0000,-0.146581,0.146581,0.000167,0.002720,0.002010,2.4770,0.9504,0.5762,-0.200951,0.196350,0.000000,0.697961,-0.679553,0.667282,-0.704097,0.665748,-0.630466
3.1205,0.016744,0.000000,0.000000,0.004859,0.0000,0.0000,0.0000,-0.142273,0.142273,0.000211,0.002713,0.002114,2.3177,0.8066,0.8388,-0.176408,0.173340,0.000000,0.701029,-0.679553,0.668816,-0.704097,0.671884,-0.633534
3.1373,0.016762,0.000000,0.000000,0.004871,0.0000,0.0000,0.0000,-0.138050,0.138050,0.000193,0.002821,0.002196,2.2304,0.7109,0.9227,-0.162602,0.159534,0.000000,0.704097,-0.679553,0.668816,-0.705631,0.676486,-0.636602
3.1540,0.016709,0.000000,0.000000,0.004882,0.0000,0.0000,0.0000,-0.133941,0.133941,0.000123,0.002868,0.002269,2.2485,0.6401,0.8588,-0.148796,0.145728,0.000000,0.707165,-0.681087,0.668816,-0.707165,0.678020,-0.639670
3.1708,0.016760,0.000000,0.000000,0.004893,0.0000,0.0000,0.0000,-0.129931,0.129931,0.000123,0.002868,0.002269,2.2485,0.6401,0.8588,-0.141126,0.136524,0.000000,0.708699,-0.679553,0.668816,-0.707165,0.681087,-0.644272
3.1875,0.016745,0.000000,0.000000,0.004904,0.0000,0.0000,0.0000,-0.126049,0.126049,0.000021,0.002832,0.002323,2.0360,0.5515,0.9219,-0.141126,0.136524,0.000000,0.708699,-0.679553,0.668816,-0.707165,0.681087,-0.644272
3.2043,0.016746,0.000000,0.000000,0.004914,0.0000,0.0000,0.0000,-0.122300,0.122300,-0.000007,0.002715,0.002370,1.9124,0.5419,0.9158,-0.134990,0.133456,0.000000,0.708699,-0.679553,0.670350,-0.707165,0.682621,-0.647340
3.2210,0.016767,0.000000,0.000000,0.004923,0.0000,0.0000,0.0000,-0.118692,0.118692,-0.000030,0.002663,0.002404,1.7904,0.4746,0.8602,-0.134990,0.133456,0.000000,0.708699,-0.679553,0.670350,-0.707165,0.684155,-0.650408
3.2378,0.016747,0.000000,0.000000,0.004932,0.0000,0.0000,0.0000,-0.115243,0.115243,-0.000179,0.002550,0.002464,1.6580,0.5267,0.6988,-0.133456,0.130388,0.000000,0.708699,-0.679553,0.671884,-0.708699,0.684155,-0.655010
3.2545,0.016748,0.000000,0.000000,0.004941,0.0000,0.0000,0.0000,-0.111957,0.111957,-0.000106,0.002578,0.002505,1.6339,0.4843,0.6028,-0.127320,0.125786,0.000000,0.708699,-0.681087,0.671884,-0.710233,0.685689,-0.656544
3.2713,0.016757,0.000000,0.000000,0.004948,0.0000,0.0000,0.0000,-0.108843,0.108843,-0.000106,0.002578,0.002505,1.6339,0.4843,0.6028,-0.127320,0.125786,0.000000,0.708699,-0.681087,0.671884,-0.710233,0.685689,-0.656544
3.2880,0.016743,0.000000,0.000000,0.004956,0.0000,0.0000,0.0000,-0.105914,0.105914,-0.000155,0.002535,0.002514,1.5882,0.4711,0.5568,-0.122718,0.121184,0.000000,0.708699,-0.681087,0.671884,-0.710233,0.685689,-0.658078
3.3048,0.016749,0.000000,0.000000,0.004962,0.0000,0.0000,0.0000,-0.103173,0.103173,-0.000248,0.002516,0.002514,1.5078,0.4904,0.5620,-0.118117,0.116583,0.000000,0.708699,-0.679553,0.671884,-0.710233,0.685689,-0.659612
3.3215,0.016748,0.000000,0.000000,0.004969,0.0000,0.0000,0.0000,-0.100630,0.100630,-0.000280,0.002478,0.002527,1.4680,0.4709,0.5055,-0.113515,0.113515,0.000000,0.708699,-0.679553,0.671884,-0.710233,0.685689,-0.661146
3.3383,0.016742,0.000000,0.000000,0.004974,0.0000,0.0000,0.0000,-0.098292,0.098292,-0.000318,0.002441,0.002539,1.4240,0.4555,0.4553,-0.107379,0.110447,0.000000,0.708699,-0.679553,0.671884,-0.710233,0.685689,-0.662680
3.3550,0.016754,0.000000,0.000000,0.004979,0.0000,0.0000,0.0000,-0.096164,0.096164,-0.000318,0.002441,0.002539,1.4240,0.4555,0.4553,-0.104311,0.104311,0.000000,0.708699,-0.679553,0.671884,-0.710233,0.685689,-0.662680
3.3717,0.016738,0.000000,0.000000,0.004984,0.0000,0.0000,0.0000,-0.094255,0.094255,-0.000314,0.002445,0.002538,1.4286,0.4571,0.4605,-0.104311,0.104311,0.000000,0.708699,-0.679553,0.671884,-0.710233,0.685689,-0.662680
3.3885,0.016783,0.000000,0.000000,0.004988,0.0000,0.0000,0.0000,-0.092563,0.092563,-0.000259,0.002428,0.002551,1.4651,0.4216,0.4036,-0.102777,0.098175,0.000000,0.708699,-0.681087,0.671884,-0.710233,0.685689,-0.662680
3.4053,0.016726,0.000000,0.000000,0.004991,0.0000,0.0000,0.0000,-0.091104,0.091104,-0.000347,0.002334,0.002563,1.4025,0.5600,0.5790,-0.099709,0.096641,0.000000,0.708699,-0.679553,0.674952,-0.710233,0.685689,-0.662680
3.4220,0.016753,0.000000,0.000000,0.004994,0.0000,0.0000,0.0000,-0.089873,0.089873,-0.000337,0.002344,0.002562,1.4089,0.5455,0.5607,-0.096641,0.095107,0.000000,0.708699,-0.679553,0.674952,-0.710233,0.685689,-0.662680
3.4388,0.016743,0.000000,0.000000,0.004996,0.0000,0.0000,0.0000,-0.088877,0.088877,-0.000283,0.002326,0.002575,1.4453,0.5117,0.5062,-0.096641,0.093573,0.000000,0.708699,-0.681087,0.674952,-0.710233,0.685689,-0.662680
3.4555,0.016761,0.000000,0.000000,0.004998,0.0000,0.0000,0.0000,-0.088117,0.088117,-0.000283,0.002326,0.002575,1.4453,0.5117,0.5062,-0.096641,0.093573,0.000000,0.708699,-0.681087,0.674952,-0.710233,0.685689,-0.662680
3.4723,0.016747,0.000000,0.000000,0.004999,0.0000,0.0000,0.0000,-0.087598,0.087598,-0.000302,0.002386,0.002584,1.4528,0.5637,0.4558,-0.093573,0.090505,0.000000,0.708699,-0.681087,0.674952,-0.711767,0.685689,-0.662680
3.4890,0.016760,0.000000,0.000000,0.005000,0.0000,0.0000,0.0000,-0.087318,0.087318,-0.000299,0.002265,0.002586,1.4297,0.5594,0.5738,-0.093573,0.088971,0.000000,0.708699,-0.681087,0.676486,-0.710233,0.685689,-0.662680
3.5058,0.016740,0.000000,0.000000,0.005000,0.0000,0.0000,0.0000,-0.087281,0.087281,-0.000257,0.002204,0.002611,1.4582,0.5741,0.5617,-0.093573,0.088971,0.000000,0.708699,-0.682621,0.678020,-0.710233,0.685689,-0.662680
3.5225,0.016749,0.000000,0.000000,0.005000,0.0000,0.0000,0.0000,-0.087485,0.087485,-0.000163,0.002120,0.002646,1.5182,0.5516,0.5067,-0.092039,0.088971,0.000000,0.708699,-0.685689,0.679553,-0.710233,0.685689,-0.662680
3.5393,0.016748,0.000000,0.000000,0.004998,0.0000,0.0000,0.0000,-0.087929,0.087929,-0.000143,0.001998,0.002681,1.5271,0.6177,0.5695,-0.092039,0.088971,0.000000,0.708699,-0.687223,0.682621,-0.710233,0.685689,-0.662680
3.5560,0.016755,0.000000,0.000000,0.004997,0.0000,0.0000,0.0000,-0.088614,0.088614,-0.000143,0.001998,0.002681,1.5271,0.6177,0.5695,-0.092039,0.088971,0.000000,0.708699,-0.687223,0.682621,-0.710233,0.685689,-0.662680
3.5728,0.016742,0.000000,0.000000,0.004995,0.0000,0.0000,0.0000,-0.089536,0.089536,-0.000090,0.001994,0.002690,1.5631,0.5757,0.5064,-0.092039,0.088971,0.000000,0.708699,-0.688757,0.682621,-0.710233,0.685689,-0.662680
3.5895,0.016754,0.000000,0.000000,0.004992,0.0000,0.0000,0.0000,-0.090694,0.090694,-0.000037,0.001849,0.002763,1.6116,0.7065,0.5142,-0.092039,0.088971,0.000000,0.708699,-0.691825,0.687223,-0.711767,0.685689,-0.662680
3.6063,0.016745,0.000000,0.000000,0.004989,0.0000,0.0000,0.0000,-0.092083,0.092083,0.000000,0.001791,0.002780,1.6326,0.7071,0.5137,-0.092039,0.088971,0.000000,0.708699,-0.693359,0.688757,-0.711767,0.685689,-0.662680
3.6230,0.016756,0.000000,0.000000,0.004985,0.0000,0.0000,0.0000,-0.093702,0.093702,0.000010,0.001738,0.002768,1.6193,0.6585,0.5698,-0.092039,0.088971,0.000000,0.708699,-0.693359,0.688757,-0.710233,0.685689,-0.662680
3.6398,0.016755,0.000000,0.000000,0.004981,0.0000,0.0000,0.0000,-0.095544,0.095544,0.000065,0.001727,0.002781,1.6575,0.6287,0.5073,-0.092039,0.088971,0.000000,0.708699,-0.694893,0.688757,-0.710233,0.685689,-0.662680
3.6565,0.016763,0.000000,0.000000,0.004976,0.0000,0.0000,0.0000,-0.097606,0.097606,0.000065,0.001727,0.002781,1.6575,0.6287,0.5073,-0.092039,0.088971,0.000000,0.708699,-0.694893,0.688757,-0.710233,0.685689,-0.662680
3.6732,0.016701,0.000000,0.000000,0.004970,0.0000,0.0000,0.0000,-0.099873,0.099873,0.000060,0.001728,0.002780,1.6535,0.6318,0.5138,-0.092039,0.092039,0.000000,0.708699,-0.694893,0.688757,-0.710233,0.685689,-0.662680
3.6900,0.016772,0.000000,0.000000,0.004964,0.0000,0.0000,0.0000,-0.102356,0.102356,0.000004,0.001745,0.002768,1.6172,0.6664,0.5698,-0.093573,0.092039,0.000000,0.708699,-0.693359,0.688757,-0.710233,0.685689,-0.662680
3.7068,0.016755,0.000000,0.000000,0.004958,0.0000,0.0000,0.0000,-0.105037,0.105037,0.000010,0.001743,0.002769,1.6209,0.6628,0.5640,-0.095107,0.093573,0.000000,0.708699,-0.693359,0.688757,-0.710233,0.685689,-0.662680
3.7235,0.016758,0.000000,0.000000,0.004951,0.0000,0.0000,0.0000,-0.107911,0.107911,0.000065,0.001726,0.002781,1.6574,0.6282,0.5079,-0.099709,0.098175,0.000000,0.708699,-0.694893,0.688757,-0.710233,0.685689,-0.662680
3.7403,0.016746,0.000000,0.000000,0.004943,0.0000,0.0000,0.0000,-0.110967,0.110967,0.000060,0.001728,0.002780,1.6536,0.6318,0.5137,-0.105845,0.101243,0.000000,0.708699,-0.694893,0.688757,-0.710233,0.685689,-0.662680
3.7570,0.016754,0.000000,0.000000,0.004935,0.0000,0.0000,0.0000,-0.114200,0.114200,0.000060,0.001728,0.002780,1.6536,0.6318,0.5137,-0.105845,0.101243,0.000000,0.708699,-0.694893,0.688757,-0.710233,0.685689,-0.662680
3.7738,0.016743,0.000000,0.000000,0.004926,0.0000,0.0000,0.0000,-0.117599,0.117599,0.000060,0.001728,0.002780,1.6536,0.6318,0.5137,-0.108913,0.102777,0.000000,0.708699,-0.694893,0.688757,-0.710233,0.685689,-0.662680
3.7905,0.016764,0.000000,0.000000,0.004917,0.0000,0.0000,0.0000,-0.121159,0.121159,0.000046,0.001786,0.002791,1.6650,0.6800,0.4570,-0.107379,0.104311,0.000000,0.708699,-0.694893,0.688757,-0.711767,0.685689,-0.662680
3.8073,0.016754,0.000000,0.000000,0.004907,0.0000,0.0000,0.0000,-0.124865,0.124865,0.000006,0.001739,0.002767,1.6160,0.6614,0.5757,-0.110447,0.110447,0.000000,0.708699,-0.693359,0.688757,-0.710233,0.685689,-0.662680
3.8240,0.016762,0.000000,0.000000,0.004897,0.0000,0.0000,0.0000,-0.128711,0.128711,-0.000004,0.001802,0.002780,1.6321,0.7118,0.5073,-0.115049,0.118117,0.000000,0.708699,-0.693359,0.688757,-0.711767,0.685689,-0.662680
3.8408,0.016746,0.000000,0.000000,0.004886,0.0000,0.0000,0.0000,-0.132679,0.132679,-0.000004,0.001802,0.002780,1.6321,0.7118,0.5073,-0.121184,0.121184,0.000000,0.708699,-0.694893,0.688757,-0.710233,0.685689,-0.662680
3.8575,0.016755,0.000000,0.000000,0.004874,0.0000,0.0000,0.0000,-0.136766,0.136766,0.000067,0.001720,0.002780,1.6562,0.6231,0.5138,-0.121184,0.121184,0.000000,0.708699,-0.694893,0.688757,-0.710233,0.685689,-0.662680
3.8743,0.016744,0.000000,0.000000,0.004862,0.0000,0.0000,0.0000,-0.140955,0.140955,0.000059,0.001728,0.002780,1.6537,0.6324,0.5131,-0.130388,0.122718,0.000000,0.708699,-0.694893,0.688757,-0.710233,0.685689,-0.662680
3.8911,0.016787,0.000000,0.000000,0.004850,0.0000,0.0000,0.0000,-0.145247,0.145247,0.000004,0.001745,0.002768,1.6171,0.6663,0.5699,-0.131922,0.125786,0.000000,0.708699,-0.693359,0.688757,-0.710233,0.685689,-0.662680
3.9078,0.016745,0.000000,0.000000,0.004837,0.0000,0.0000,0.0000,-0.149610,0.149610,0.000010,0.001743,0.002769,1.6209,0.6628,0.5640,-0.131922,0.133456,0.000000,0.708699,-0.693359,0.688757,-0.710233,0.685689,-0.662680
3.9246,0.016764,0.000000,0.000000,0.004823,0.0000,0.0000,0.0000,-0.154047,0.154047,0.000010,0.001743,0.002769,1.6209,0.6628,0.5640,-0.139592,0.141126,0.000000,0.708699,-0.693359,0.688757,-0.710233,0.685689,-0.662680
3.9413,0.016738,0.000000,0.000000,0.004809,0.0000,0.0000,0.0000,-0.158534,0.158534,0.000010,0.001743,0.002769,1.6209,0.6628,0.5640,-0.139592,0.141126,0.000000,0.708699,-0.693359,0.688757,-0.710233,0.685689,-0.662680
3.9581,0.016752,0.000000,0.000000,0.004794,0.0000,0.0000,0.0000,-0.163069,0.163069,0.000010,0.001743,0.002769,1.6209,0.6628,0.5640,-0.148796,0.145728,0.000000,0.708699,-0.693359,0.688757,-0.710233,0.685689,-0.662680
3.9748,0.016741,0.000000,0.000000,0.004779,0.0000,0.0000,0.0000,-0.167633,0.167633,0.000051,0.001785,0.002792,1.6684,0.6768,0.4518,-0.153398,0.147262,0.000000,0.708699,-0.694893,0.688757,-0.711767,0.685689,-0.662680
3.9916,0.016763,0.000000,0.000000,0.004763,0.0000,0.0000,0.0000,-0.172222,0.172222,0.000047,0.001780,0.002789,1.6635,0.6753,0.4635,-0.154932,0.150330,0.000000,0.708699,-0.694893,0.688757,-0.711767,0.685689,-0.662680
4.0083,0.016757,0.000000,0.000000,0.004747,0.0000,0.0000,0.0000,-0.176815,0.176815,0.000061,0.001722,0.002779,1.6529,0.6269,0.5184,-0.158000,0.158000,0.000000,0.708699,-0.694893,0.688757,-0.710233,0.685689,-0.662680
4.0252,0.016827,0.000000,0.000000,0.004730,0.0000,0.0000,0.0000,-0.181421,0.181421,0.000061,0.001722,0.002779,1.6529,0.6269,0.5184,-0.158000,0.158000,0.000000,0.708699,-0.694893,0.688757,-0.710233,0.685689,-0.662680
4.0420,0.016844,0.000000,0.000000,0.004713,0.0000,0.0000,0.0000,-0.186013,0.186013,0.000004,0.001745,0.002768,1.6172,0.6669,0.5693,-0.167204,0.168738,0.000000,0.708699,-0.693359,0.688757,-0.710233,0.685689,-0.662680
4.0591,0.017076,0.000000,0.000000,0.004695,0.0000,0.0000,0.0000,-0.190635,0.190635,0.000004,0.001745,0.002768,1.6172,0.6669,0.5693,-0.167204,0.168738,0.000000,0.708699,-0.693359,0.688757,-0.710233,0.685689,-0.662680
4.0758,0.016747,0.000000,0.000000,0.004676,0.0000,0.0000,0.0000,-0.195123,0.195123,0.000004,0.001745,0.002768,1.6172,0.6669,0.5693,-0.167204,0.168738,0.000000,0.708699,-0.693359,0.688757,-0.710233,0.685689,-0.662680
4.0926,0.016752,0.000000,0.000000,0.004657,0.0000,0.0000,0.0000,-0.199556,0.199556,0.000010,0.001743,0.002769,1.6209,0.6627,0.5640,-0.177942,0.174874,0.000000,0.708699,-0.693359,0.688757,-0.710233,0.685689,-0.662680
4.1093,0.016746,0.000000,0.000000,0.004638,0.0000,0.0000,0.0000,-0.203917,0.203917,0.000051,0.001785,0.002792,1.6684,0.6768,0.4518,-0.177942,0.174874,0.000000,0.708699,-0.694893,0.688757,-0.711767,0.685689,-0.662680
4.1261,0.016759,0.000000,0.000000,0.004618,0.0000,0.0000,0.0000,-0.208201,0.208201,0.000051,0.001785,0.002792,1.6684,0.6768,0.4518,-0.177942,0.174874,0.000000,0.708699,-0.694893,0.688757,-0.711767,0.685689,-0.662680
4.1428,0.016743,0.000000,0.000000,0.004598,0.0000,0.0000,0.0000,-0.212387,0.212387,0.000061,0.001722,0.002779,1.6524,0.6268,0.5196,-0.181010,0.176408,0.000000,0.708699,-0.694893,0.688757,-0.710233,0.685689,-0.662680
4.1596,0.016760,0.000000,0.000000,0.004577,0.0000,0.0000,0.0000,-0.216473,0.216473,0.000004,0.001745,0.002768,1.6173,0.6669,0.5692,-0.191748,0.188680,0.000000,0.708699,-0.693359,0.688757,-0.710233,0.685689,-0.662680
4.1763,0.016749,0.000000,0.000000,0.004555,0.0000,0.0000,0.0000,-0.220440,0.220440,0.000010,0.001743,0.002769,1.6209,0.6627,0.5640,-0.205553,0.205553,0.000000,0.708699,-0.693359,0.688757,-0.710233,0.685689,-0.662680
4.1931,0.016756,0.000000,0.000000,0.004533,0.0000,0.0000,0.0000,-0.224281,0.224281,0.000065,0.001726,0.002781,1.6574,0.6282,0.5079,-0.213223,0.211689,0.000000,0.708699,-0.694893,0.688757,-0.710233,0.685689,-0.662680
4.2099,0.016806,0.000000,0.000000,0.004511,0.0000,0.0000,0.0000,-0.227995,0.227995,0.000004,0.001745,0.002768,1.6168,0.6667,0.5704,-0.216291,0.211689,0.000000,0.708699,-0.693359,0.688757,-0.710233,0.685689,-0.662680
4.2266,0.016749,0.000000,0.000000,0.004488,0.0000,0.0000,0.0000,-0.231549,0.231549,0.000004,0.001745,0.002768,1.6168,0.6667,0.5704,-0.216291,0.211689,0.000000,0.708699,-0.693359,0.688757,-0.710233,0.685689,-0.662680
4.2434,0.016744,0.000000,0.000000,0.004464,0.0000,0.0000,0.0000,-0.234944,0.234944,0.000066,0.001726,0.002781,1.6578,0.6278,0.5072,-0.219359,0.217825,0.000000,0.708699,-0.694893,0.688757,-0.710233,0.685689,-0.662680
4.2601,0.016750,0.000000,0.000000,0.004440,0.0000,0.0000,0.0000,-0.238173,0.238173,0.000059,0.001728,0.002780,1.6535,0.6319,0.5138,-0.220893,0.223961,0.000000,0.708699,-0.694893,0.688757,-0.710233,0.685689,-0.662680
4.2769,0.016746,0.000000,0.000000,0.004416,0.0000,0.0000,0.0000,-0.241225,0.241225,0.000059,0.001728,0.002780,1.6535,0.6319,0.5138,-0.225495,0.225495,0.000000,0.708699,-0.694893,0.688757,-0.710233,0.685689,-0.662680
4.2936,0.016753,0.000000,0.000000,0.004391,0.0000,0.0000,0.0000,-0.244093,0.244093,0.000046,0.001786,0.002791,1.6650,0.6800,0.4570,-0.233165,0.228563,0.000000,0.708699,-0.694893,0.688757,-0.711767,0.685689,-0.662680
4.3104,0.016765,0.000000,0.000000,0.004366,0.0000,0.0000,0.0000,-0.246771,0.246771,0.000062,0.001722,0.002779,1.6527,0.6264,0.5190,-0.239301,0.234699,0.000000,0.708699,-0.694893,0.688757,-0.710233,0.685689,-0.662680
4.3272,0.016756,0.000000,0.000000,0.004340,0.0000,0.0000,0.0000,-0.249247,0.249247,0.000062,0.001722,0.002779,1.6527,0.6264,0.5190,-0.239301,0.234699,0.000000,0.708699,-0.694893,0.688757,-0.710233,0.685689,-0.662680
4.3439,0.016744,0.000000,0.000000,0.004313,0.0000,0.0000,0.0000,-0.251514,0.251514,0.000060,0.001728,0.002780,1.6540,0.6320,0.5126,-0.240835,0.242369,0.000000,0.708699,-0.694893,0.688757,-0.710233,0.685689,-0.662680
4.3606,0.016749,0.000000,0.000000,0.004287,0.0000,0.0000,0.0000,-0.253569,0.253569,0.000004,0.001745,0.002768,1.6171,0.6663,0.5699,-0.242369,0.242369,0.000000,0.708699,-0.693359,0.688757,-0.710233,0.685689,-0.662680
4.3774,0.016746,0.000000,0.000000,0.004259,0.0000,0.0000,0.0000,-0.255405,0.255405,-0.000004,0.001802,0.002780,1.6320,0.7113,0.5079,-0.245437,0.242369,0.000000,0.708699,-0.693359,0.688757,-0.711767,0.685689,-0.662680
4.3941,0.016748,0.000000,0.000000,0.004231,0.0000,0.0000,0.0000,-0.257018,0.257018,0.000011,0.001737,0.002768,1.6194,0.6581,0.5704,-0.246971,0.246971,0.000000,0.708699,-0.693359,0.688757,-0.710233,0.685689,-0.662680
4.4109,0.016748,0.000000,0.000000,0.004203,0.0000,0.0000,0.0000,-0.258402,0.258402,0.000009,0.001744,0.002769,1.6207,0.6636,0.5639,-0.250039,0.254641,0.000000,0.708699,-0.693359,0.688757,-0.710233,0.685689,-0.662680
4.4276,0.016755,0.000000,0.000000,0.004174,0.0000,0.0000,0.0000,-0.259554,0.259554,0.000009,0.001744,0.002769,1.6207,0.6636,0.5639,-0.250039,0.254641,0.000000,0.708699,-0.693359,0.688757,-0.710233,0.685689,-0.662680
4.4444,0.016738,0.000000,0.000000,0.004145,0.0000,0.0000,0.0000,-0.260471,0.260471,-0.000004,0.001802,0.002780,1.6316,0.7116,0.5085,-0.257709,0.254641,0.000000,0.708699,-0.693359,0.688757,-0.711767,0.685689,-0.662680
4.4611,0.016743,0.000000,0.000000,0.004116,0.0000,0.0000,0.0000,-0.261149,0.261149,-0.000003,0.001796,0.002778,1.6305,0.7066,0.5143,-0.257709,0.254641,0.000000,0.708699,-0.693359,0.688757,-0.711767,0.685689,-0.662680
4.4779,0.016738,0.000000,0.000000,0.004086,0.0000,0.0000,0.0000,-0.261588,0.261588,0.000067,0.001721,0.002780,1.6564,0.6237,0.5131,-0.257709,0.256175,0.000000,0.708699,-0.694893,0.688757,-0.710233,0.685689,-0.662680
4.4946,0.016742,0.000000,0.000000,0.004055,0.0000,0.0000,0.0000,-0.261787,0.261787,0.000059,0.001728,0.002780,1.6537,0.6323,0.5132,-0.262311,0.257709,0.000000,0.708699,-0.694893,0.688757,-0.710233,0.685689,-0.662680
4.5114,0.016750,0.000000,0.000000,0.004024,0.0000,0.0000,0.0000,-0.261744,0.261744,0.000059,0.001728,0.002780,1.6537,0.6323,0.5132,-0.262311,0.260777,0.000000,0.708699,-0.694893,0.688757,-0.710233,0.685689,-0.662680
4.5281,0.016751,0.000000,0.000000,0.003993,0.0000,0.0000,0.0000,-0.261459,0.261459,0.000059,0.001728,0.002780,1.6537,0.6323,0.5132,-0.262311,0.260777,0.000000,0.708699,-0.694893,0.688757,-0.710233,0.685689,-0.662680
4.5448,0.016742,0.000000,0.000000,0.003961,0.0000,0.0000,0.0000,-0.260935,0.260935,0.000046,0.001786,0.002791,1.6650,0.6799,0.4571,-0.262311,0.260777,0.000000,0.708699,-0.694893,0.688757,-0.711767,0.685689,-0.662680
4.5616,0.016746,0.000000,0.000000,0.003928,0.0000,0.0000,0.0000,-0.260171,0.260171,0.000062,0.001722,0.002779,1.6527,0.6264,0.5190,-0.262311,0.260777,0.000000,0.708699,-0.694893,0.688757,-0.710233,0.685689,-0.662680
