t,loop_dt,cmd_x,cmd_y,cmd_z,cmd_roll,cmd_pitch,cmd_yaw,cmd_ant_l,cmd_ant_r,pres_x,pres_y,pres_z,pres_roll,pres_pitch,pres_yaw,pres_ant_l,pres_ant_r,pres_j0,pres_j1,pres_j2,pres_j3,pres_j4,pres_j5,pres_j6
0.0000,0.000001,-0.000217,0.001335,-0.002497,0.7303,0.1705,-0.1931,-0.001534,0.000000,-0.000217,0.001335,-0.002497,0.7303,0.1705,-0.1931,-0.001534,0.000000,0.000000,0.579845,-0.566039,0.556835,-0.584447,0.567573,-0.559903
0.0168,0.016752,-0.000213,0.001313,-0.002455,0.7180,0.1676,-0.1899,-0.001508,0.000000,-0.000217,0.001335,-0.002497,0.7303,0.1705,-0.1931,-0.006136,0.000000,0.000000,0.579845,-0.566039,0.556835,-0.584447,0.567573,-0.559903
0.0335,0.016767,-0.000209,0.001290,-0.002413,0.7058,0.1647,-0.1867,-0.001483,0.000000,-0.000217,0.001335,-0.002497,0.7303,0.1705,-0.1931,-0.001534,0.000000,0.000000,0.579845,-0.566039,0.556835,-0.584447,0.567573,-0.559903
0.0503,0.016743,-0.000206,0.001268,-0.002372,0.6936,0.1619,-0.1835,-0.001457,0.000000,-0.000217,0.001335,-0.002497,0.7303,0.1705,-0.1931,0.004602,0.000000,0.000000,0.579845,-0.566039,0.556835,-0.584447,0.567573,-0.559903
0.0670,0.016756,-0.000202,0.001246,-0.002330,0.6814,0.1590,-0.1802,-0.001431,0.000000,-0.000217,0.001335,-0.002497,0.7303,0.1705,-0.1931,-0.001534,0.000000,0.000000,0.579845,-0.566039,0.556835,-0.584447,0.567573,-0.559903
0.0838,0.016746,-0.000198,0.001223,-0.002288,0.6691,0.1561,-0.1770,-0.001405,0.000000,-0.000133,0.001257,-0.002557,0.6303,0.2035,-0.1402,-0.006136,0.000000,0.000000,0.576777,-0.564505,0.556835,-0.582913,0.567573,-0.558369
0.1005,0.016776,-0.000195,0.001201,-0.002246,0.6569,0.1532,-0.1738,-0.001380,0.000000,-0.000006,0.001373,-0.002652,0.6611,0.3726,0.0669,-0.001534,0.000000,0.000000,0.573709,-0.561437,0.556835,-0.582913,0.567573,-0.552233
0.1173,0.016740,-0.000191,0.001179,-0.002204,0.6447,0.1504,-0.1706,-0.001354,0.000000,-0.000006,0.001373,-0.002652,0.6611,0.3726,0.0669,-0.001534,0.000000,0.000000,0.573709,-0.561437,0.556835,-0.582913,0.567573,-0.552233
0.1340,0.016758,-0.000187,0.001156,-0.002162,0.6324,0.1475,-0.1674,-0.001328,0.000000,0.000021,0.001400,-0.002656,0.7076,0.3728,0.0986,0.004602,0.000000,0.000000,0.573709,-0.561437,0.556835,-0.582913,0.567573,-0.550699
0.1508,0.016746,-0.000184,0.001134,-0.002121,0.6202,0.1446,-0.1641,-0.001303,0.000000,0.000045,0.001490,-0.002657,0.7630,0.4414,0.0951,-0.001534,0.000000,0.000000,0.573709,-0.561437,0.556835,-0.584447,0.567573,-0.549165
0.1675,0.016753,-0.000180,0.001111,-0.002079,0.6080,0.1417,-0.1609,-0.001277,0.000000,0.000042,0.001481,-0.002657,0.7573,0.4343,0.0955,-0.006136,0.000000,0.000000,0.573709,-0.561437,0.556835,-0.584447,0.567573,-0.549165
0.1843,0.016747,-0.000177,0.001089,-0.002037,0.5958,0.1389,-0.1577,-0.001251,0.000000,0.000097,0.001388,-0.002680,0.6973,0.3997,0.0953,-0.001534,0.000000,0.000000,0.572175,-0.561437,0.556835,-0.582913,0.567573,-0.549165
0.2012,0.016902,-0.000173,0.001067,-0.001995,0.5834,0.1360,-0.1544,-0.001225,0.000000,0.000050,0.001436,-0.002666,0.7535,0.3877,0.1489,0.003068,0.000000,0.000000,0.573709,-0.561437,0.556835,-0.582913,0.567573,-0.549165
0.2181,0.016877,-0.000169,0.001044,-0.001953,0.5711,0.1331,-0.1512,-0.001199,0.000000,0.000050,0.001436,-0.002666,0.7535,0.3877,0.1489,0.003068,0.000000,0.000000,0.573709,-0.561437,0.556835,-0.582913,0.567573,-0.549165
0.2351,0.017012,-0.000166,0.001021,-0.001910,0.5587,0.1302,-0.1479,-0.001173,0.000000,0.000050,0.001436,-0.002666,0.7535,0.3877,0.1489,0.003068,0.000000,0.000000,0.573709,-0.561437,0.556835,-0.582913,0.567573,-0.549165
0.2518,0.016748,-0.000162,0.000999,-0.001868,0.5464,0.1273,-0.1447,-0.001148,0.000000,0.000050,0.001436,-0.002666,0.7535,0.3877,0.1489,0.003068,0.000000,0.000000,0.573709,-0.561437,0.556835,-0.582913,0.567573,-0.549165
0.2686,0.016728,-0.000158,0.000977,-0.001826,0.5342,0.1245,-0.1415,-0.001122,0.000000,0.000055,0.001431,-0.002667,0.7477,0.3890,0.1433,-0.001534,0.000000,0.000000,0.573709,-0.561437,0.556835,-0.582913,0.567573,-0.549165
0.2853,0.016746,-0.000155,0.000954,-0.001785,0.5220,0.1216,-0.1382,-0.001096,0.000000,0.000055,0.001431,-0.002667,0.7477,0.3890,0.1433,0.003068,0.000000,0.000000,0.573709,-0.561437,0.556835,-0.582913,0.567573,-0.549165
0.3020,0.016747,-0.000151,0.000932,-0.001743,0.5098,0.1187,-0.1350,-0.001071,0.000000,0.000055,0.001431,-0.002667,0.7477,0.3890,0.1433,0.000000,0.000000,0.000000,0.573709,-0.561437,0.556835,-0.582913,0.567573,-0.549165
0.3188,0.016738,-0.000147,0.000910,-0.001701,0.4976,0.1159,-0.1318,-0.001045,0.000000,0.000055,0.001431,-0.002667,0.7477,0.3890,0.1433,-0.006136,0.000000,0.000000,0.573709,-0.561437,0.556835,-0.582913,0.567573,-0.549165
0.3355,0.016756,-0.000144,0.000887,-0.001659,0.4853,0.1130,-0.1286,-0.001019,0.000000,0.000055,0.001431,-0.002667,0.7477,0.3890,0.1433,-0.003068,0.000000,0.000000,0.573709,-0.561437,0.556835,-0.582913,0.567573,-0.549165
0.3523,0.016745,-0.000140,0.000865,-0.001617,0.4731,0.1101,-0.1253,-0.000994,0.000000,0.000055,0.001431,-0.002667,0.7477,0.3890,0.1433,-0.003068,0.000000,0.000000,0.573709,-0.561437,0.556835,-0.582913,0.567573,-0.549165
0.3691,0.016770,-0.000137,0.000842,-0.001575,0.4609,0.1073,-0.1221,-0.000968,0.000000,0.000055,0.001431,-0.002667,0.7477,0.3890,0.1433,0.004602,0.000000,0.000000,0.573709,-0.561437,0.556835,-0.582913,0.567573,-0.549165
0.3858,0.016742,-0.000133,0.000820,-0.001534,0.4486,0.1044,-0.1189,-0.000942,0.000000,0.000055,0.001431,-0.002667,0.7477,0.3890,0.1433,0.001534,0.000000,0.000000,0.573709,-0.561437,0.556835,-0.582913,0.567573,-0.549165
0.4025,0.016754,-0.000129,0.000798,-0.001492,0.4364,0.1016,-0.1156,-0.000916,0.000000,0.000055,0.001431,-0.002667,0.7477,0.3890,0.1433,-0.006136,0.000000,0.000000,0.573709,-0.561437,0.556835,-0.582913,0.567573,-0.549165
0.4193,0.016740,-0.000126,0.000775,-0.001450,0.4242,0.0987,-0.1124,-0.000891,0.000000,0.000055,0.001431,-0.002667,0.7477,0.3890,0.1433,-0.003068,0.000000,0.000000,0.573709,-0.561437,0.556835,-0.582913,0.567573,-0.549165
0.4360,0.016718,-0.000122,0.000753,-0.001408,0.4120,0.0959,-0.1092,-0.000865,0.000000,0.000055,0.001431,-0.002667,0.7477,0.3890,0.1433,0.004602,0.000000,0.000000,0.573709,-0.561437,0.556835,-0.582913,0.567573,-0.549165
0.4527,0.016738,-0.000118,0.000731,-0.001367,0.3997,0.0930,-0.1060,-0.000839,0.000000,0.000055,0.001431,-0.002667,0.7477,0.3890,0.1433,0.004602,0.000000,0.000000,0.573709,-0.561437,0.556835,-0.582913,0.567573,-0.549165
0.4695,0.016753,-0.000115,0.000708,-0.001325,0.3875,0.0901,-0.1027,-0.000814,0.000000,0.000055,0.001431,-0.002667,0.7477,0.3890,0.1433,0.001534,0.000000,0.000000,0.573709,-0.561437,0.556835,-0.582913,0.567573,-0.549165
0.4862,0.016746,-0.000111,0.000686,-0.001283,0.3753,0.0873,-0.0995,-0.000788,0.000000,0.000055,0.001431,-0.002667,0.7477,0.3890,0.1433,-0.006136,0.000000,0.000000,0.573709,-0.561437,0.556835,-0.582913,0.567573,-0.549165
0.5030,0.016765,-0.000108,0.000664,-0.001241,0.3630,0.0844,-0.0962,-0.000762,0.000000,0.000055,0.001431,-0.002667,0.7477,0.3890,0.1433,-0.003068,0.000000,0.000000,0.573709,-0.561437,0.556835,-0.582913,0.567573,-0.549165
0.5198,0.016748,-0.000104,0.000641,-0.001199,0.3508,0.0816,-0.0930,-0.000737,0.000000,0.000055,0.001431,-0.002667,0.7477,0.3890,0.1433,0.003068,0.000000,0.000000,0.573709,-0.561437,0.556835,-0.582913,0.567573,-0.549165
0.5365,0.016773,-0.000100,0.000619,-0.001157,0.3386,0.0787,-0.0898,-0.000711,0.000000,0.000055,0.001431,-0.002667,0.7477,0.3890,0.1433,0.001534,0.000000,0.000000,0.573709,-0.561437,0.556835,-0.582913,0.567573,-0.549165
0.5533,0.016745,-0.000097,0.000596,-0.001115,0.3263,0.0759,-0.0865,-0.000685,0.000000,0.000055,0.001431,-0.002667,0.7477,0.3890,0.1433,0.001534,0.000000,0.000000,0.573709,-0.561437,0.556835,-0.582913,0.567573,-0.549165
0.5700,0.016754,-0.000093,0.000574,-0.001074,0.3141,0.0730,-0.0833,-0.000660,0.000000,0.000055,0.001431,-0.002667,0.7477,0.3890,0.1433,-0.004602,0.000000,0.000000,0.573709,-0.561437,0.556835,-0.582913,0.567573,-0.549165
0.5868,0.016744,-0.000089,0.000552,-0.001032,0.3019,0.0702,-0.0801,-0.000634,0.000000,0.000055,0.001431,-0.002667,0.7477,0.3890,0.1433,-0.003068,0.000000,0.000000,0.573709,-0.561437,0.556835,-0.582913,0.567573,-0.549165
0.6035,0.016752,-0.000086,0.000529,-0.000990,0.2896,0.0673,-0.0768,-0.000608,0.000000,0.000055,0.001431,-0.002667,0.7477,0.3890,0.1433,0.003068,0.000000,0.000000,0.573709,-0.561437,0.556835,-0.582913,0.567573,-0.549165
0.6203,0.016744,-0.000082,0.000507,-0.000948,0.2774,0.0645,-0.0736,-0.000582,0.000000,0.000055,0.001431,-0.002667,0.7477,0.3890,0.1433,0.003068,0.000000,0.000000,0.573709,-0.561437,0.556835,-0.582913,0.567573,-0.549165
0.6371,0.016784,-0.000079,0.000485,-0.000906,0.2651,0.0616,-0.0703,-0.000557,0.000000,0.000055,0.001431,-0.002667,0.7477,0.3890,0.1433,-0.003068,0.000000,0.000000,0.573709,-0.561437,0.556835,-0.582913,0.567573,-0.549165
0.6538,0.016740,-0.000075,0.000462,-0.000864,0.2529,0.0587,-0.0671,-0.000531,0.000000,0.000055,0.001431,-0.002667,0.7477,0.3890,0.1433,-0.003068,0.000000,0.000000,0.573709,-0.561437,0.556835,-0.582913,0.567573,-0.549165
0.6705,0.016749,-0.000071,0.000440,-0.000823,0.2407,0.0559,-0.0639,-0.000505,0.000000,0.000055,0.001431,-0.002667,0.7477,0.3890,0.1433,-0.004602,0.000000,0.000000,0.573709,-0.561437,0.556835,-0.582913,0.567573,-0.549165
0.6873,0.016782,-0.000068,0.000417,-0.000781,0.2284,0.0530,-0.0606,-0.000480,0.000000,0.000055,0.001431,-0.002667,0.7477,0.3890,0.1433,0.001534,0.000000,0.000000,0.573709,-0.561437,0.556835,-0.582913,0.567573,-0.549165
0.7041,0.016750,-0.000064,0.000395,-0.000739,0.2162,0.0502,-0.0574,-0.000454,0.000000,0.000055,0.001431,-0.002667,0.7477,0.3890,0.1433,0.003068,0.000000,0.000000,0.573709,-0.561437,0.556835,-0.582913,0.567573,-0.549165
0.7208,0.016743,-0.000060,0.000373,-0.000697,0.2040,0.0474,-0.0541,-0.000428,0.000000,0.000055,0.001431,-0.002667,0.7477,0.3890,0.1433,-0.003068,0.000000,0.000000,0.573709,-0.561437,0.556835,-0.582913,0.567573,-0.549165
0.7376,0.016761,-0.000057,0.000350,-0.000655,0.1917,0.0445,-0.0509,-0.000403,0.000000,0.000055,0.001431,-0.002667,0.7477,0.3890,0.1433,-0.004602,0.000000,0.000000,0.573709,-0.561437,0.556835,-0.582913,0.567573,-0.549165
0.7543,0.016746,-0.000053,0.000328,-0.000613,0.1795,0.0417,-0.0476,-0.000377,0.000000,0.000055,0.001431,-0.002667,0.7477,0.3890,0.1433,-0.004602,0.000000,0.000000,0.573709,-0.561437,0.556835,-0.582913,0.567573,-0.549165
0.7711,0.016746,-0.000050,0.000306,-0.000572,0.1672,0.0388,-0.0444,-0.000351,0.000000,0.000055,0.001431,-0.002667,0.7477,0.3890,0.1433,0.000000,0.000000,0.000000,0.573709,-0.561437,0.556835,-0.582913,0.567573,-0.549165
0.7878,0.016741,-0.000046,0.000283,-0.000530,0.1550,0.0360,-0.0412,-0.000325,0.000000,0.000055,0.001431,-0.002667,0.7477,0.3890,0.1433,0.003068,0.000000,0.000000,0.573709,-0.561437,0.556835,-0.582913,0.567573,-0.549165
0.8046,0.016756,-0.000042,0.000261,-0.000488,0.1428,0.0331,-0.0379,-0.000300,0.000000,0.000055,0.001431,-0.002667,0.7477,0.3890,0.1433,-0.003068,0.000000,0.000000,0.573709,-0.561437,0.556835,-0.582913,0.567573,-0.549165
0.8213,0.016745,-0.000039,0.000239,-0.000446,0.1305,0.0303,-0.0347,-0.000274,0.000000,0.000055,0.001431,-0.002667,0.7477,0.3890,0.1433,-0.004602,0.000000,0.000000,0.573709,-0.561437,0.556835,-0.582913,0.567573,-0.549165
0.8381,0.016760,-0.000035,0.000216,-0.000404,0.1183,0.0274,-0.0314,-0.000248,0.000000,0.000055,0.001431,-0.002667,0.7477,0.3890,0.1433,-0.001534,0.000000,0.000000,0.573709,-0.561437,0.556835,-0.582913,0.567573,-0.549165
0.8548,0.016744,-0.000031,0.000194,-0.000363,0.1061,0.0246,-0.0282,-0.000223,0.000000,0.000055,0.001431,-0.002667,0.7477,0.3890,0.1433,-0.001534,0.000000,0.000000,0.573709,-0.561437,0.556835,-0.582913,0.567573,-0.549165
0.8716,0.016745,-0.000028,0.000171,-0.000321,0.0938,0.0218,-0.0249,-0.000197,0.000000,0.000055,0.001431,-0.002667,0.7477,0.3890,0.1433,0.003068,0.000000,0.000000,0.573709,-0.561437,0.556835,-0.582913,0.567573,-0.549165
0.8883,0.016745,-0.000024,0.000149,-0.000279,0.0816,0.0189,-0.0217,-0.000171,0.000000,0.000055,0.001431,-0.002667,0.7477,0.3890,0.1433,-0.003068,0.000000,0.000000,0.573709,-0.561437,0.556835,-0.582913,0.567573,-0.549165
0.9051,0.016744,-0.000021,0.000127,-0.000237,0.0694,0.0161,-0.0184,-0.000146,0.000000,0.000013,0.001471,-0.002656,0.7982,0.3734,0.1975,-0.004602,0.000000,0.000000,0.575243,-0.561437,0.556835,-0.582913,0.567573,-0.549165
0.9218,0.016744,-0.000017,0.000104,-0.000195,0.0571,0.0132,-0.0152,-0.000120,0.000000,0.000017,0.001467,-0.002657,0.7929,0.3750,0.1918,0.000000,0.000000,0.000000,0.575243,-0.561437,0.556835,-0.582913,0.567573,-0.549165
0.9386,0.016760,-0.000013,0.000082,-0.000153,0.0449,0.0104,-0.0119,-0.000094,0.000000,0.000017,0.001467,-0.002657,0.7929,0.3750,0.1918,0.000000,0.000000,0.000000,0.575243,-0.561437,0.556835,-0.582913,0.567573,-0.549165
0.9553,0.016743,-0.000010,0.000060,-0.000112,0.0327,0.0076,-0.0087,-0.000069,0.000000,0.000070,0.001451,-0.002644,0.8326,0.3392,0.1391,0.003068,0.000000,0.000000,0.575243,-0.562971,0.556835,-0.582913,0.567573,-0.549165
0.9721,0.016753,-0.000006,0.000037,-0.000070,0.0204,0.0047,-0.0054,-0.000043,0.000000,-0.000002,0.001524,-0.002647,0.8000,0.4294,0.1445,-0.003068,0.000000,0.000000,0.575243,-0.561437,0.556835,-0.584447,0.567573,-0.549165
0.9888,0.016746,-0.000002,0.000015,-0.000028,0.0082,0.0019,-0.0022,-0.000017,0.000000,-0.000021,0.001423,-0.002645,0.7430,0.3514,0.1441,-0.004602,0.000000,0.000000,0.575243,-0.561437,0.556835,-0.582913,0.567573,-0.550699
1.0056,0.016769,0.000000,0.000000,0.000007,0.0045,0.0000,0.0000,0.000458,-0.000458,0.000061,0.001511,-0.002634,0.8484,0.3926,0.0906,0.000000,0.000000,0.000000,0.575243,-0.562971,0.556835,-0.584447,0.567573,-0.549165
1.0223,0.016747,0.000000,0.000000,0.000028,0.0182,0.0000,0.0000,0.001835,-0.001835,0.000066,0.001446,-0.002646,0.8268,0.3374,0.1496,0.004602,0.000000,0.000000,0.575243,-0.562971,0.556835,-0.582913,0.567573,-0.549165
1.0391,0.016762,0.000000,0.000000,0.000049,0.0319,0.0000,0.0000,0.003212,-0.003212,0.000066,0.001446,-0.002646,0.8268,0.3374,0.1496,0.004602,0.000000,0.000000,0.575243,-0.562971,0.556835,-0.582913,0.567573,-0.549165
1.0558,0.016746,0.000000,0.000000,0.000070,0.0456,0.0000,0.0000,0.004585,-0.004585,0.000065,0.001453,-0.002645,0.8291,0.3431,0.1435,-0.001534,0.000000,0.000000,0.575243,-0.562971,0.556835,-0.582913,0.567573,-0.549165
1.0726,0.016751,0.000000,0.000000,0.000091,0.0592,0.0000,0.0000,0.005956,-0.005956,-0.000041,0.001485,-0.002633,0.7506,0.4112,0.0908,-0.004602,-0.001534,0.000000,0.575243,-0.561437,0.556835,-0.584447,0.567573,-0.550699
1.0893,0.016744,0.000000,0.000000,0.000112,0.0729,0.0000,0.0000,0.007322,-0.007322,0.000023,0.001465,-0.002659,0.7979,0.3711,0.2029,0.000000,-0.001534,0.000000,0.575243,-0.561437,0.556835,-0.582913,0.567573,-0.549165
1.1061,0.016757,0.000000,0.000000,0.000133,0.0865,0.0000,0.0000,0.008684,-0.008684,0.000056,0.001506,-0.002632,0.8427,0.3905,0.0845,0.006136,-0.001534,0.000000,0.575243,-0.562971,0.556835,-0.584447,0.567573,-0.549165
1.1229,0.016807,0.000000,0.000000,0.000154,0.1002,0.0000,0.0000,0.010044,-0.010044,0.000013,0.001464,-0.002622,0.7883,0.3707,0.0436,0.003068,-0.003068,0.000000,0.575243,-0.562971,0.556835,-0.584447,0.567573,-0.550699
1.1396,0.016759,0.000000,0.000000,0.000175,0.1138,0.0000,0.0000,0.011393,-0.011393,0.000013,0.001464,-0.002622,0.7883,0.3707,0.0436,0.003068,-0.003068,0.000000,0.575243,-0.562971,0.556835,-0.584447,0.567573,-0.550699
1.1564,0.016739,0.000000,0.000000,0.000196,0.1274,0.0000,0.0000,0.012733,-0.012733,0.000058,0.001506,-0.002636,0.8436,0.3905,0.1011,0.000000,-0.003068,0.000000,0.575243,-0.562971,0.556835,-0.584447,0.567573,-0.549165
1.1731,0.016757,0.000000,0.000000,0.000217,0.1409,0.0000,0.0000,0.014065,-0.014065,-0.000028,0.001502,-0.002610,0.8381,0.3552,0.0955,0.004602,-0.003068,0.000000,0.576777,-0.562971,0.556835,-0.584447,0.567573,-0.550699
1.1899,0.016740,0.000000,0.000000,0.000238,0.1545,0.0000,0.0000,0.015386,-0.015386,-0.000114,0.001557,-0.002614,0.8495,0.3790,0.2031,0.010738,-0.004602,0.000000,0.578311,-0.561437,0.556835,-0.584447,0.567573,-0.550699
1.2066,0.016754,0.000000,0.000000,0.000259,0.1680,0.0000,0.0000,0.016698,-0.016698,-0.000052,0.001536,-0.002600,0.8874,0.3409,0.1385,0.009204,-0.007670,0.000000,0.578311,-0.562971,0.556835,-0.584447,0.567573,-0.550699
1.2234,0.016743,0.000000,0.000000,0.000280,0.1814,0.0000,0.0000,0.017997,-0.017997,-0.000085,0.001445,-0.002600,0.8231,0.2762,0.1454,0.007670,-0.013806,0.000000,0.578311,-0.562971,0.556835,-0.582913,0.567573,-0.552233
1.2401,0.016764,0.000000,0.000000,0.000301,0.1949,0.0000,0.0000,0.019285,-0.019285,-0.000085,0.001445,-0.002600,0.8231,0.2762,0.1454,0.007670,-0.013806,0.000000,0.578311,-0.562971,0.556835,-0.582913,0.567573,-0.552233
1.2570,0.016839,0.000000,0.000000,0.000322,0.2084,0.0000,0.0000,0.020566,-0.020566,-0.000174,0.001432,-0.002562,0.7412,0.2982,-0.0153,0.016874,-0.013806,0.000000,0.578311,-0.562971,0.556835,-0.584447,0.567573,-0.555301
1.2738,0.016844,0.000000,0.000000,0.000342,0.2218,0.0000,0.0000,0.021833,-0.021833,-0.000174,0.001432,-0.002562,0.7412,0.2982,-0.0153,0.016874,-0.013806,0.000000,0.578311,-0.562971,0.556835,-0.584447,0.567573,-0.555301
1.2906,0.016754,0.000000,0.000000,0.000363,0.2351,0.0000,0.0000,0.023078,-0.023078,-0.000174,0.001432,-0.002562,0.7412,0.2982,-0.0153,0.016874,-0.013806,0.000000,0.578311,-0.562971,0.556835,-0.584447,0.567573,-0.555301
1.3073,0.016758,0.000000,0.000000,0.000384,0.2484,0.0000,0.0000,0.024307,-0.024307,-0.000311,0.001211,-0.002501,0.5800,0.3467,-0.0517,0.012272,-0.016874,0.000000,0.578311,-0.562971,0.559903,-0.584447,0.567573,-0.559903
1.3241,0.016741,0.000000,0.000000,0.000404,0.2616,0.0000,0.0000,0.025518,-0.025518,-0.000391,0.001180,-0.002469,0.5866,0.3602,0.0058,0.015340,-0.015340,0.000000,0.579845,-0.562971,0.561437,-0.584447,0.567573,-0.561437
1.3408,0.016750,0.000000,0.000000,0.000425,0.2748,0.0000,0.0000,0.026712,-0.026712,-0.000329,0.001059,-0.002421,0.6042,0.3224,-0.1069,0.019942,-0.016874,0.000000,0.579845,-0.566039,0.562971,-0.584447,0.567573,-0.562971
1.3576,0.016744,0.000000,0.000000,0.000446,0.2879,0.0000,0.0000,0.027887,-0.027887,-0.000348,0.000909,-0.002374,0.5707,0.3772,-0.0950,0.021476,-0.018408,0.000000,0.579845,-0.567573,0.566039,-0.584447,0.567573,-0.564505
1.3743,0.016758,0.000000,0.000000,0.000466,0.3010,0.0000,0.0000,0.029043,-0.029043,-0.000265,0.000784,-0.002328,0.6312,0.4044,-0.0959,0.019942,-0.019942,0.000000,0.579845,-0.570641,0.569107,-0.584447,0.567573,-0.564505
1.3911,0.016743,0.000000,0.000000,0.000487,0.3140,0.0000,0.0000,0.030179,-0.030179,-0.000265,0.000784,-0.002328,0.6312,0.4044,-0.0959,0.019942,-0.019942,0.000000,0.579845,-0.570641,0.569107,-0.584447,0.567573,-0.564505
1.4078,0.016752,0.000000,0.000000,0.000507,0.3270,0.0000,0.0000,0.031294,-0.031294,-0.000204,0.000634,-0.002306,0.5931,0.4857,-0.0957,0.026078,-0.023010,0.000000,0.578311,-0.572175,0.572175,-0.584447,0.567573,-0.564505
1.4246,0.016745,0.000000,0.000000,0.000527,0.3399,0.0000,0.0000,0.032388,-0.032388,-0.000224,0.000564,-0.002258,0.6647,0.5290,0.0120,0.032214,-0.027612,0.000000,0.579845,-0.573709,0.575243,-0.584447,0.567573,-0.564505
1.4414,0.016870,0.000000,0.000000,0.000548,0.3528,0.0000,0.0000,0.033466,-0.033466,-0.000208,0.000580,-0.002177,0.7855,0.6431,-0.0517,0.029146,-0.030680,0.000000,0.581379,-0.576777,0.578311,-0.587515,0.567573,-0.564505
1.4582,0.016744,0.000000,0.000000,0.000568,0.3656,0.0000,0.0000,0.034514,-0.034514,-0.000211,0.000625,-0.002112,0.9506,0.6313,-0.0441,0.026078,-0.029146,0.000000,0.584447,-0.579845,0.579845,-0.589049,0.567573,-0.564505
1.4750,0.016778,0.000000,0.000000,0.000588,0.3783,0.0000,0.0000,0.035539,-0.035539,-0.000212,0.000698,-0.002082,1.0328,0.6324,-0.0981,0.029146,-0.030680,0.000000,0.585981,-0.581379,0.579845,-0.590583,0.567573,-0.564505
1.4917,0.016748,0.000000,0.000000,0.000608,0.3909,0.0000,0.0000,0.036539,-0.036539,-0.000212,0.000698,-0.002082,1.0328,0.6324,-0.0981,0.029146,-0.030680,0.000000,0.585981,-0.581379,0.579845,-0.590583,0.567573,-0.564505
1.5085,0.016754,0.000000,0.000000,0.000628,0.4035,0.0000,0.0000,0.037513,-0.037513,-0.000172,0.000698,-0.002023,1.1521,0.6484,-0.1456,0.035282,-0.032214,0.000000,0.587515,-0.584447,0.581379,-0.592117,0.567573,-0.564505
1.5252,0.016740,0.000000,0.000000,0.000648,0.4160,0.0000,0.0000,0.038460,-0.038460,-0.000231,0.000761,-0.001969,1.2781,0.6820,-0.0857,0.033748,-0.033748,0.000000,0.590583,-0.585981,0.582913,-0.593651,0.567573,-0.564505
1.5420,0.016766,0.000000,0.000000,0.000668,0.4284,0.0000,0.0000,0.039382,-0.039382,-0.000213,0.000778,-0.001950,1.3534,0.6277,-0.0919,0.029146,-0.035282,0.000000,0.592117,-0.587515,0.582913,-0.593651,0.567573,-0.564505
1.5587,0.016740,0.000000,0.000000,0.000688,0.4407,0.0000,0.0000,0.040276,-0.040276,-0.000271,0.000839,-0.001891,1.4839,0.6688,-0.0361,0.033748,-0.036816,0.000000,0.595185,-0.589049,0.584447,-0.595185,0.567573,-0.564505
1.5755,0.016771,0.000000,0.000000,0.000708,0.4529,0.0000,0.0000,0.041143,-0.041143,-0.000266,0.000801,-0.001860,1.5480,0.6652,0.0125,0.039884,-0.038350,0.000000,0.596719,-0.590583,0.585981,-0.595185,0.567573,-0.564505
1.5922,0.016741,0.000000,0.000000,0.000727,0.4651,0.0000,0.0000,0.041981,-0.041981,-0.000266,0.000801,-0.001860,1.5480,0.6652,0.0125,0.039884,-0.038350,0.000000,0.596719,-0.590583,0.585981,-0.595185,0.567573,-0.564505
1.6090,0.016745,0.000000,0.000000,0.000747,0.4772,0.0000,0.0000,0.042789,-0.042789,-0.000213,0.000789,-0.001851,1.5802,0.6305,-0.0468,0.039884,-0.038350,0.000000,0.596719,-0.592117,0.585981,-0.595185,0.567573,-0.564505
1.6257,0.016743,0.000000,0.000000,0.000766,0.4891,0.0000,0.0000,0.043568,-0.043568,-0.000218,0.000790,-0.001852,1.5768,0.6341,-0.0406,0.035282,-0.039884,0.000000,0.596719,-0.592117,0.585981,-0.595185,0.567573,-0.564505
1.6425,0.016763,0.000000,0.000000,0.000786,0.5010,0.0000,0.0000,0.044317,-0.044317,-0.000176,0.000751,-0.001863,1.5277,0.6495,-0.0954,0.036816,-0.039884,0.000000,0.595185,-0.592117,0.585981,-0.595185,0.567573,-0.564505
1.6592,0.016744,0.000000,0.000000,0.000805,0.5128,0.0000,0.0000,0.045035,-0.045035,-0.000222,0.000794,-0.001850,1.5823,0.6321,-0.0356,0.042951,-0.041417,0.000000,0.596719,-0.592117,0.585981,-0.595185,0.567573,-0.564505
1.6760,0.016785,0.000000,0.000000,0.000824,0.5245,0.0000,0.0000,0.045724,-0.045724,-0.000218,0.000790,-0.001852,1.5766,0.6340,-0.0418,0.044485,-0.042951,0.000000,0.596719,-0.592117,0.585981,-0.595185,0.567573,-0.564505
1.6927,0.016741,0.000000,0.000000,0.000843,0.5361,0.0000,0.0000,0.046379,-0.046379,-0.000218,0.000790,-0.001852,1.5766,0.6340,-0.0418,0.044485,-0.042951,0.000000,0.596719,-0.592117,0.585981,-0.595185,0.567573,-0.564505
1.7095,0.016745,0.000000,0.000000,0.000862,0.5476,0.0000,0.0000,0.047002,-0.047002,-0.000202,0.000863,-0.001840,1.5495,0.7508,-0.2020,0.039884,-0.042951,0.000000,0.595185,-0.592117,0.585981,-0.598253,0.567573,-0.564505
1.7262,0.016746,0.000000,0.000000,0.000881,0.5590,0.0000,0.0000,0.047593,-0.047593,-0.000246,0.000894,-0.001829,1.6019,0.7228,-0.1311,0.038350,-0.044485,0.000000,0.596719,-0.592117,0.585981,-0.598253,0.567573,-0.564505
1.7430,0.016773,0.000000,0.000000,0.000900,0.5703,0.0000,0.0000,0.048151,-0.048151,-0.000199,0.000852,-0.001842,1.5469,0.7414,-0.1927,0.044485,-0.044485,0.000000,0.595185,-0.592117,0.585981,-0.598253,0.567573,-0.564505
1.7598,0.016761,0.000000,0.000000,0.000919,0.5815,0.0000,0.0000,0.048676,-0.048676,-0.000204,0.000856,-0.001841,1.5526,0.7395,-0.1863,0.047553,-0.044485,0.000000,0.595185,-0.592117,0.585981,-0.598253,0.567573,-0.564505
1.7766,0.016804,0.000000,0.000000,0.000938,0.5926,0.0000,0.0000,0.049168,-0.049168,-0.000204,0.000856,-0.001841,1.5526,0.7395,-0.1863,0.044485,-0.046019,0.000000,0.596719,-0.592117,0.585981,-0.598253,0.567573,-0.564505
1.7933,0.016746,0.000000,0.000000,0.000956,0.6036,0.0000,0.0000,0.049625,-0.049625,-0.000246,0.000895,-0.001829,1.6016,0.7240,-0.1328,0.044485,-0.046019,0.000000,0.596719,-0.592117,0.585981,-0.598253,0.567573,-0.564505
1.8101,0.016747,0.000000,0.000000,0.000975,0.6144,0.0000,0.0000,0.050047,-0.050047,-0.000241,0.000891,-0.001830,1.5965,0.7256,-0.1384,0.042951,-0.046019,0.000000,0.596719,-0.592117,0.585981,-0.598253,0.567573,-0.564505
1.8268,0.016745,0.000000,0.000000,0.000993,0.6252,0.0000,0.0000,0.050434,-0.050434,-0.000241,0.000891,-0.001830,1.5965,0.7256,-0.1384,0.046019,-0.047553,0.000000,0.596719,-0.592117,0.585981,-0.598253,0.567573,-0.564505
1.8436,0.016754,0.000000,0.000000,0.001011,0.6358,0.0000,0.0000,0.050787,-0.050787,-0.000241,0.000891,-0.001830,1.5965,0.7256,-0.1384,0.049087,-0.047553,0.000000,0.596719,-0.592117,0.585981,-0.598253,0.567573,-0.564505
1.8603,0.016747,0.000000,0.000000,0.001029,0.6463,0.0000,0.0000,0.051104,-0.051104,-0.000255,0.000947,-0.001819,1.6080,0.7760,-0.1912,0.052155,-0.049087,0.000000,0.596719,-0.592117,0.585981,-0.599786,0.567573,-0.564505
1.8771,0.016751,0.000000,0.000000,0.001047,0.6567,0.0000,0.0000,0.051387,-0.051387,-0.000253,0.000941,-0.001820,1.6068,0.7707,-0.1857,0.049087,-0.049087,0.000000,0.596719,-0.592117,0.585981,-0.599786,0.567573,-0.564505
1.8938,0.016742,0.000000,0.000000,0.001065,0.6669,0.0000,0.0000,0.051633,-0.051633,-0.000253,0.000941,-0.001820,1.6068,0.7707,-0.1857,0.049087,-0.049087,0.000000,0.596719,-0.592117,0.585981,-0.599786,0.567573,-0.564505
1.9106,0.016752,0.000000,0.000000,0.001083,0.6771,0.0000,0.0000,0.051844,-0.051844,-0.000337,0.001020,-0.001797,1.7061,0.7400,-0.0777,0.044485,-0.049087,0.000000,0.599786,-0.592117,0.585981,-0.599786,0.567573,-0.564505
1.9273,0.016741,0.000000,0.000000,0.001100,0.6871,0.0000,0.0000,0.052019,-0.052019,-0.000413,0.001090,-0.001776,1.7947,0.7121,0.0196,0.047553,-0.049087,0.000000,0.602854,-0.592117,0.585981,-0.599786,0.567573,-0.564505
1.9440,0.016757,0.000000,0.000000,0.001118,0.6969,0.0000,0.0000,0.052158,-0.052158,-0.000460,0.001178,-0.001755,1.8459,0.7502,0.0105,0.055223,-0.050621,0.000000,0.604388,-0.592117,0.585981,-0.601320,0.567573,-0.564505
1.9608,0.016739,0.000000,0.000000,0.001135,0.7067,0.0000,0.0000,0.052261,-0.052261,-0.000592,0.001265,-0.001710,1.9011,0.7483,0.0129,0.053689,-0.050621,0.000000,0.607456,-0.592117,0.585981,-0.602854,0.567573,-0.566039
1.9776,0.016766,0.000000,0.000000,0.001153,0.7163,0.0000,0.0000,0.052327,-0.052327,-0.000592,0.001265,-0.001710,1.9011,0.7483,0.0129,0.053689,-0.050621,0.000000,0.607456,-0.592117,0.585981,-0.602854,0.567573,-0.566039
1.9943,0.016741,0.000000,0.000000,0.001170,0.7258,0.0000,0.0000,0.052358,-0.052358,-0.000703,0.001295,-0.001680,1.9446,0.7002,0.0676,0.047553,-0.050621,0.000000,0.610524,-0.592117,0.585981,-0.602854,0.567573,-0.567573
2.0110,0.016743,0.000000,0.000000,0.001187,0.7351,0.0000,0.0000,0.052352,-0.052352,-0.000691,0.001292,-0.001683,1.9400,0.7052,0.0619,0.047553,-0.050621,0.000000,0.610524,-0.592117,0.585981,-0.602854,0.567573,-0.567573
2.0278,0.016742,0.000000,0.000000,0.001204,0.7443,0.0000,0.0000,0.052310,-0.052310,-0.000732,0.001253,-0.001670,1.8910,0.6870,0.0085,0.055223,-0.052155,0.000000,0.610524,-0.592117,0.585981,-0.602854,0.567573,-0.569107
2.0445,0.016745,0.000000,0.000000,0.001220,0.7534,0.0000,0.0000,0.052232,-0.052232,-0.000810,0.001258,-0.001647,1.8960,0.6558,0.0146,0.058291,-0.053689,0.000000,0.612058,-0.592117,0.585981,-0.602854,0.567573,-0.570641
2.0613,0.016746,0.000000,0.000000,0.001237,0.7623,0.0000,0.0000,0.052118,-0.052118,-0.000800,0.001179,-0.001648,1.7969,0.6568,-0.0946,0.050621,-0.053689,0.000000,0.610524,-0.592117,0.585981,-0.602854,0.567573,-0.572175
2.0780,0.016753,0.000000,0.000000,0.001253,0.7711,0.0000,0.0000,0.051967,-0.051967,-0.000800,0.001179,-0.001648,1.7969,0.6568,-0.0946,0.050621,-0.053689,0.000000,0.610524,-0.592117,0.585981,-0.602854,0.567573,-0.572175
2.0948,0.016741,0.000000,0.000000,0.001270,0.7797,0.0000,0.0000,0.051781,-0.051781,-0.000801,0.001187,-0.001648,1.8072,0.6567,-0.0832,0.049087,-0.052155,0.000000,0.610524,-0.592117,0.585981,-0.602854,0.567573,-0.572175
2.1115,0.016744,0.000000,0.000000,0.001286,0.7882,0.0000,0.0000,0.051559,-0.051559,-0.000814,0.001242,-0.001636,1.8176,0.7072,-0.1378,0.052155,-0.052155,0.000000,0.610524,-0.592117,0.585981,-0.604388,0.567573,-0.572175
2.1282,0.016740,0.000000,0.000000,0.001302,0.7966,0.0000,0.0000,0.051301,-0.051301,-0.000800,0.001323,-0.001577,1.7478,0.6515,-0.0798,0.056757,-0.052155,0.000000,0.612058,-0.592117,0.585981,-0.605922,0.570641,-0.573709
2.1450,0.016745,0.000000,0.000000,0.001318,0.8047,0.0000,0.0000,0.051008,-0.051008,-0.000638,0.001250,-0.001543,1.6154,0.5520,-0.1432,0.050621,-0.052155,0.000000,0.610524,-0.593651,0.585981,-0.605922,0.573709,-0.575243
2.1617,0.016744,0.000000,0.000000,0.001334,0.8128,0.0000,0.0000,0.050679,-0.050679,-0.000560,0.001345,-0.001510,1.5607,0.5450,-0.0844,0.044485,-0.050621,0.000000,0.610524,-0.593651,0.585981,-0.607456,0.576777,-0.575243
2.1785,0.016748,0.000000,0.000000,0.001349,0.8207,0.0000,0.0000,0.050315,-0.050315,-0.000560,0.001345,-0.001510,1.5607,0.5450,-0.0844,0.044485,-0.050621,0.000000,0.610524,-0.593651,0.585981,-0.607456,0.576777,-0.575243
2.1952,0.016751,0.000000,0.000000,0.001365,0.8284,0.0000,0.0000,0.049917,-0.049917,-0.000419,0.001405,-0.001464,1.5367,0.4931,-0.0925,0.049087,-0.050621,0.000000,0.610524,-0.595185,0.585981,-0.608990,0.579845,-0.575243
2.2120,0.016746,0.000000,0.000000,0.001380,0.8360,0.0000,0.0000,0.049484,-0.049484,-0.000340,0.001565,-0.001397,1.5701,0.4809,-0.0929,0.056757,-0.050621,0.000000,0.612058,-0.596719,0.585981,-0.612058,0.582913,-0.575243
2.2287,0.016755,0.000000,0.000000,0.001395,0.8434,0.0000,0.0000,0.049016,-0.049016,-0.000091,0.001617,-0.001330,1.5357,0.3602,-0.0959,0.053689,-0.050621,0.000000,0.612058,-0.599786,0.585981,-0.613592,0.587515,-0.575243
2.2455,0.016807,0.000000,0.000000,0.001410,0.8507,0.0000,0.0000,0.048513,-0.048513,-0.000091,0.001617,-0.001330,1.5357,0.3602,-0.0959,0.053689,-0.050621,0.000000,0.612058,-0.599786,0.585981,-0.613592,0.587515,-0.575243
2.2623,0.016746,0.000000,0.000000,0.001425,0.8578,0.0000,0.0000,0.047978,-0.047978,0.000112,0.001632,-0.001264,1.6250,0.1836,-0.0984,0.046019,-0.049087,0.000000,0.613592,-0.604388,0.585981,-0.613592,0.590583,-0.575243
2.2790,0.016742,0.000000,0.000000,0.001440,0.8648,0.0000,0.0000,0.047410,-0.047410,0.000131,0.001670,-0.001247,1.6646,0.2168,-0.2066,0.055223,-0.049087,0.000000,0.613592,-0.605922,0.585981,-0.615126,0.590583,-0.575243
2.2959,0.016876,0.000000,0.000000,0.001454,0.8716,0.0000,0.0000,0.046805,-0.046805,0.000141,0.001689,-0.001225,1.7484,0.1628,-0.1958,0.050621,-0.050621,0.000000,0.615126,-0.607456,0.585981,-0.615126,0.590583,-0.575243
2.3127,0.016810,0.000000,0.000000,0.001469,0.8783,0.0000,0.0000,0.046169,-0.046169,0.000141,0.001689,-0.001225,1.7484,0.1628,-0.1958,0.050621,-0.050621,0.000000,0.615126,-0.607456,0.585981,-0.615126,0.590583,-0.575243
2.3295,0.016738,0.000000,0.000000,0.001483,0.8847,0.0000,0.0000,0.045504,-0.045504,0.000141,0.001689,-0.001225,1.7484,0.1628,-0.1958,0.050621,-0.050621,0.000000,0.615126,-0.607456,0.585981,-0.615126,0.590583,-0.575243
2.3462,0.016751,0.000000,0.000000,0.001497,0.8910,0.0000,0.0000,0.044806,-0.044806,0.000096,0.001805,-0.001181,1.8879,0.1532,-0.1967,0.049087,-0.046019,0.000000,0.618194,-0.608990,0.585981,-0.616660,0.590583,-0.575243
2.3629,0.016742,0.000000,0.000000,0.001511,0.8972,0.0000,0.0000,0.044078,-0.044078,0.000096,0.001805,-0.001181,1.8879,0.1532,-0.1967,0.049087,-0.046019,0.000000,0.618194,-0.608990,0.585981,-0.616660,0.590583,-0.575243
2.3797,0.016744,0.000000,0.000000,0.001525,0.9031,0.0000,0.0000,0.043320,-0.043320,0.000101,0.001793,-0.001186,1.8733,0.1542,-0.1966,0.047553,-0.046019,0.000000,0.618194,-0.608990,0.585981,-0.616660,0.590583,-0.575243
2.3964,0.016740,0.000000,0.000000,0.001538,0.9089,0.0000,0.0000,0.042532,-0.042532,0.000154,0.001777,-0.001173,1.9129,0.1185,-0.2516,0.039884,-0.046019,0.000000,0.618194,-0.610524,0.585981,-0.616660,0.590583,-0.575243
2.4132,0.016747,0.000000,0.000000,0.001552,0.9145,0.0000,0.0000,0.041714,-0.041714,0.000149,0.001779,-0.001174,1.9088,0.1222,-0.2458,0.039884,-0.046019,0.000000,0.618194,-0.610524,0.585981,-0.616660,0.590583,-0.575243
2.4299,0.016741,0.000000,0.000000,0.001565,0.9200,0.0000,0.0000,0.040867,-0.040867,0.000149,0.001779,-0.001174,1.9088,0.1222,-0.2458,0.044485,-0.042951,0.000000,0.618194,-0.610524,0.585981,-0.616660,0.590583,-0.575243
2.4467,0.016743,0.000000,0.000000,0.001578,0.9252,0.0000,0.0000,0.039992,-0.039992,0.000149,0.001779,-0.001174,1.9088,0.1222,-0.2458,0.044485,-0.041417,0.000000,0.618194,-0.610524,0.585981,-0.616660,0.590583,-0.575243
2.4634,0.016745,0.000000,0.000000,0.001591,0.9303,0.0000,0.0000,0.039090,-0.039090,0.000149,0.001779,-0.001174,1.9088,0.1222,-0.2458,0.044485,-0.041417,0.000000,0.618194,-0.610524,0.585981,-0.616660,0.590583,-0.575243
2.4802,0.016742,0.000000,0.000000,0.001603,0.9353,0.0000,0.0000,0.038160,-0.038160,0.000149,0.001779,-0.001174,1.9088,0.1222,-0.2458,0.036816,-0.041417,0.000000,0.618194,-0.610524,0.585981,-0.616660,0.590583,-0.575243
2.4969,0.016743,0.000000,0.000000,0.001616,0.9400,0.0000,0.0000,0.037204,-0.037204,0.000069,0.001701,-0.001147,1.8104,0.0865,-0.3543,0.036816,-0.041417,0.000000,0.618194,-0.610524,0.585981,-0.616660,0.590583,-0.578311
2.5137,0.016777,0.000000,0.000000,0.001628,0.9446,0.0000,0.0000,0.036220,-0.036220,0.000132,0.001725,-0.001138,1.7811,0.0565,-0.2896,0.041417,-0.041417,0.000000,0.618194,-0.610524,0.585981,-0.616660,0.592117,-0.578311
2.5304,0.016741,0.000000,0.000000,0.001640,0.9490,0.0000,0.0000,0.035214,-0.035214,0.000126,0.001722,-0.001139,1.7842,0.0596,-0.2963,0.039884,-0.038350,0.000000,0.618194,-0.610524,0.585981,-0.616660,0.592117,-0.578311
2.5472,0.016746,0.000000,0.000000,0.001652,0.9532,0.0000,0.0000,0.034182,-0.034182,0.000181,0.001738,-0.001127,1.7444,0.0255,-0.2422,0.030680,-0.036816,0.000000,0.618194,-0.610524,0.585981,-0.616660,0.593651,-0.578311
2.5639,0.016748,0.000000,0.000000,0.001664,0.9573,0.0000,0.0000,0.033127,-0.033127,0.000181,0.001738,-0.001127,1.7444,0.0255,-0.2422,0.030680,-0.036816,0.000000,0.618194,-0.610524,0.585981,-0.616660,0.593651,-0.578311
2.5806,0.016742,0.000000,0.000000,0.001676,0.9611,0.0000,0.0000,0.032050,-0.032050,0.000229,0.001719,-0.001116,1.7865,-0.0065,-0.3028,0.029146,-0.036816,0.000000,0.618194,-0.612058,0.585981,-0.616660,0.593651,-0.578311
2.5974,0.016743,0.000000,0.000000,0.001687,0.9648,0.0000,0.0000,0.030950,-0.030950,0.000279,0.001704,-0.001105,1.8201,-0.0387,-0.3515,0.036816,-0.035282,0.000000,0.618194,-0.613592,0.585981,-0.616660,0.593651,-0.578311
2.6141,0.016744,0.000000,0.000000,0.001698,0.9683,0.0000,0.0000,0.029828,-0.029828,0.000274,0.001706,-0.001106,1.8166,-0.0353,-0.3464,0.036816,-0.035282,0.000000,0.618194,-0.613592,0.585981,-0.616660,0.593651,-0.578311
2.6309,0.016741,0.000000,0.000000,0.001709,0.9717,0.0000,0.0000,0.028686,-0.028686,0.000274,0.001706,-0.001106,1.8166,-0.0353,-0.3464,0.029146,-0.035282,0.000000,0.618194,-0.613592,0.585981,-0.616660,0.593651,-0.578311
2.6476,0.016745,0.000000,0.000000,0.001720,0.9748,0.0000,0.0000,0.027525,-0.027525,0.000274,0.001706,-0.001106,1.8166,-0.0353,-0.3464,0.029146,-0.035282,0.000000,0.618194,-0.613592,0.585981,-0.616660,0.593651,-0.578311
2.6644,0.016747,0.000000,0.000000,0.001731,0.9778,0.0000,0.0000,0.026343,-0.026343,0.000302,0.001581,-0.001066,1.8345,0.0323,-0.2926,0.026078,-0.032214,0.000000,0.618194,-0.615126,0.589049,-0.616660,0.593651,-0.578311
2.6811,0.016745,0.000000,0.000000,0.001741,0.9805,0.0000,0.0000,0.025144,-0.025144,0.000219,0.001503,-0.001056,1.7743,0.1640,-0.1337,0.032214,-0.029146,0.000000,0.618194,-0.613592,0.592117,-0.616660,0.593651,-0.578311
2.6980,0.016927,0.000000,0.000000,0.001751,0.9832,0.0000,0.0000,0.023914,-0.023914,0.000160,0.001442,-0.001019,1.8095,0.2382,0.0139,0.032214,-0.029146,0.000000,0.619728,-0.613592,0.595185,-0.616660,0.593651,-0.578311
2.7148,0.016745,0.000000,0.000000,0.001761,0.9856,0.0000,0.0000,0.022681,-0.022681,0.000194,0.001323,-0.000984,1.8233,0.2978,0.0533,0.026078,-0.027612,0.000000,0.619728,-0.615126,0.598253,-0.616660,0.593651,-0.578311
2.7315,0.016757,0.000000,0.000000,0.001771,0.9878,0.0000,0.0000,0.021431,-0.021431,0.000067,0.001251,-0.000925,1.8896,0.4153,0.3234,0.021476,-0.026078,0.000000,0.622796,-0.615126,0.602854,-0.616660,0.593651,-0.578311
2.7483,0.016747,0.000000,0.000000,0.001781,0.9898,0.0000,0.0000,0.020167,-0.020167,0.000067,0.001251,-0.000925,1.8896,0.4153,0.3234,0.021476,-0.026078,0.000000,0.622796,-0.615126,0.602854,-0.616660,0.593651,-0.578311
2.7650,0.016748,0.000000,0.000000,0.001791,0.9917,0.0000,0.0000,0.018889,-0.018889,-0.000030,0.001228,-0.000882,1.9600,0.4753,0.5149,0.021476,-0.021476,0.000000,0.625864,-0.615126,0.605922,-0.616660,0.593651,-0.578311
2.7818,0.016742,0.000000,0.000000,0.001800,0.9933,0.0000,0.0000,0.017599,-0.017599,0.000008,0.001105,-0.000848,1.9700,0.5357,0.5503,0.021476,-0.019942,0.000000,0.625864,-0.616660,0.608990,-0.616660,0.593651,-0.578311
2.7985,0.016744,0.000000,0.000000,0.001809,0.9948,0.0000,0.0000,0.016296,-0.016296,-0.000107,0.001088,-0.000803,2.0459,0.6012,0.7669,0.021476,-0.021476,0.000000,0.628932,-0.616660,0.612058,-0.616660,0.593651,-0.578311
2.8153,0.016745,0.000000,0.000000,0.001818,0.9961,0.0000,0.0000,0.014981,-0.014981,-0.000152,0.001043,-0.000747,2.1530,0.6310,0.9099,0.016874,-0.018408,0.000000,0.632000,-0.618194,0.615126,-0.616660,0.593651,-0.578311
2.8321,0.016875,0.000000,0.000000,0.001826,0.9972,0.0000,0.0000,0.013646,-0.013646,-0.000190,0.001087,-0.000742,2.1907,0.6132,0.9500,0.012272,-0.013806,0.000000,0.633534,-0.618194,0.615126,-0.616660,0.593651,-0.578311
2.8489,0.016740,0.000000,0.000000,0.001835,0.9982,0.0000,0.0000,0.012312,-0.012312,-0.000190,0.001087,-0.000742,2.1907,0.6132,0.9500,0.012272,-0.013806,0.000000,0.633534,-0.618194,0.615126,-0.616660,0.593651,-0.578311
2.8656,0.016742,0.000000,0.000000,0.001843,0.9989,0.0000,0.0000,0.010970,-0.010970,-0.000199,0.001028,-0.000730,2.1760,0.6656,1.0013,0.012272,-0.016874,0.000000,0.633534,-0.618194,0.616660,-0.616660,0.593651,-0.578311
2.8824,0.016741,0.000000,0.000000,0.001851,0.9994,0.0000,0.0000,0.009620,-0.009620,-0.000143,0.001049,-0.000719,2.1386,0.6262,1.0491,0.015340,-0.016874,0.000000,0.633534,-0.618194,0.616660,-0.616660,0.595185,-0.578311
2.8991,0.016741,0.000000,0.000000,0.001859,0.9998,0.0000,0.0000,0.008263,-0.008263,-0.000081,0.001117,-0.000721,2.1145,0.5459,1.0419,0.012272,-0.012272,0.000000,0.633534,-0.618194,0.615126,-0.616660,0.596719,-0.578311
2.9159,0.016742,0.000000,0.000000,0.001867,1.0000,0.0000,0.0000,0.006901,-0.006901,-0.000088,0.001110,-0.000721,2.1170,0.5542,1.0426,0.007670,-0.009204,0.000000,0.633534,-0.618194,0.615126,-0.616660,0.596719,-0.578311
2.9327,0.016828,0.000000,0.000000,0.001874,1.0000,0.0000,0.0000,0.005527,-0.005527,-0.000088,0.001110,-0.000721,2.1170,0.5542,1.0426,0.006136,-0.009204,0.000000,0.633534,-0.618194,0.615126,-0.616660,0.596719,-0.578311
2.9494,0.016741,0.000000,0.000000,0.001882,0.9998,0.0000,0.0000,0.004156,-0.004156,-0.000088,0.001110,-0.000721,2.1170,0.5542,1.0426,0.006136,-0.009204,0.000000,0.633534,-0.618194,0.615126,-0.616660,0.596719,-0.578311
2.9662,0.016759,0.000000,0.000000,0.001889,0.9994,0.0000,0.0000,0.002780,-0.002780,-0.000100,0.001056,-0.000708,2.1060,0.6039,1.0980,0.006136,-0.009204,0.000000,0.633534,-0.618194,0.616660,-0.616660,0.596719,-0.578311
2.9829,0.016753,0.000000,0.000000,0.001895,0.9988,0.0000,0.0000,0.001404,-0.001404,-0.000086,0.001116,-0.000722,2.1179,0.5482,1.0368,0.007670,-0.007670,0.000000,0.633534,-0.618194,0.615126,-0.616660,0.596719,-0.578311
2.9997,0.016759,0.000000,0.000000,0.001902,0.9980,0.0000,0.0000,0.000025,-0.000025,-0.000087,0.001110,-0.000720,2.1167,0.5540,1.0432,0.003068,-0.006136,0.000000,0.633534,-0.618194,0.615126,-0.616660,0.596719,-0.578311
3.0164,0.016752,0.000000,0.000000,0.001908,0.9971,0.0000,0.0000,-0.001352,0.001352,-0.000087,0.001110,-0.000720,2.1167,0.5540,1.0432,-0.003068,-0.003068,0.000000,0.633534,-0.618194,0.615126,-0.616660,0.596719,-0.578311
3.0332,0.016754,0.000000,0.000000,0.001915,0.9960,0.0000,0.0000,-0.002729,0.002729,-0.000087,0.001110,-0.000720,2.1167,0.5540,1.0432,-0.001534,-0.001534,0.000000,0.633534,-0.618194,0.615126,-0.616660,0.596719,-0.578311
3.0499,0.016749,0.000000,0.000000,0.001921,0.9946,0.0000,0.0000,-0.004104,0.004104,-0.000087,0.001110,-0.000720,2.1167,0.5540,1.0432,-0.001534,-0.001534,0.000000,0.633534,-0.618194,0.615126,-0.616660,0.596719,-0.578311
3.0667,0.016754,0.000000,0.000000,0.001926,0.9931,0.0000,0.0000,-0.005476,0.005476,-0.000087,0.001110,-0.000720,2.1167,0.5540,1.0432,0.003068,-0.001534,0.000000,0.633534,-0.618194,0.615126,-0.616660,0.596719,-0.578311
3.0834,0.016750,0.000000,0.000000,0.001932,0.9914,0.0000,0.0000,-0.006844,0.006844,-0.000100,0.001056,-0.000708,2.1060,0.6039,1.0980,0.000000,-0.001534,0.000000,0.633534,-0.618194,0.616660,-0.616660,0.596719,-0.578311
3.1002,0.016753,0.000000,0.000000,0.001937,0.9896,0.0000,0.0000,-0.008207,0.008207,-0.000086,0.001116,-0.000722,2.1179,0.5482,1.0368,-0.006136,0.000000,0.000000,0.633534,-0.618194,0.615126,-0.616660,0.596719,-0.578311
3.1170,0.016762,0.000000,0.000000,0.001942,0.9875,0.0000,0.0000,-0.009566,0.009566,-0.000114,0.001112,-0.000696,2.1167,0.6553,1.0450,-0.006136,0.003068,0.000000,0.633534,-0.618194,0.616660,-0.618194,0.596719,-0.578311
3.1337,0.016753,0.000000,0.000000,0.001947,0.9852,0.0000,0.0000,-0.010917,0.010917,-0.000114,0.001112,-0.000696,2.1167,0.6553,1.0450,-0.006136,0.003068,0.000000,0.633534,-0.618194,0.616660,-0.618194,0.596719,-0.578311
3.1505,0.016748,0.000000,0.000000,0.001952,0.9828,0.0000,0.0000,-0.012260,0.012260,-0.000111,0.001223,-0.000700,2.1384,0.6442,0.9350,-0.004602,0.006136,0.000000,0.633534,-0.618194,0.615126,-0.619728,0.596719,-0.578311
3.1672,0.016758,0.000000,0.000000,0.001956,0.9802,0.0000,0.0000,-0.013596,0.013596,-0.000125,0.001268,-0.000688,2.1469,0.6959,0.8928,-0.004602,0.006136,0.000000,0.633534,-0.618194,0.615126,-0.621262,0.596719,-0.578311
3.1840,0.016750,0.000000,0.000000,0.001961,0.9774,0.0000,0.0000,-0.014922,0.014922,-0.000123,0.001264,-0.000689,2.1460,0.6905,0.8972,-0.009204,0.007670,0.000000,0.633534,-0.618194,0.615126,-0.621262,0.596719,-0.578311
3.2011,0.017080,0.000000,0.000000,0.001965,0.9743,0.0000,0.0000,-0.016263,0.016263,-0.000123,0.001264,-0.000689,2.1460,0.6905,0.8972,-0.015340,0.009204,0.000000,0.633534,-0.618194,0.615126,-0.621262,0.596719,-0.578311
3.2178,0.016750,0.000000,0.000000,0.001969,0.9712,0.0000,0.0000,-0.017566,0.017566,-0.000137,0.001321,-0.000678,2.1570,0.7417,0.8430,-0.016874,0.010738,0.000000,0.633534,-0.618194,0.615126,-0.622796,0.596719,-0.578311
3.2346,0.016767,0.000000,0.000000,0.001972,0.9678,0.0000,0.0000,-0.018859,0.018859,-0.000137,0.001321,-0.000678,2.1570,0.7417,0.8430,-0.016874,0.010738,0.000000,0.633534,-0.618194,0.615126,-0.622796,0.596719,-0.578311
3.2513,0.016748,0.000000,0.000000,0.001976,0.9643,0.0000,0.0000,-0.020137,0.020137,-0.000148,0.001260,-0.000666,2.1451,0.7869,0.9041,-0.012272,0.010738,0.000000,0.633534,-0.618194,0.616660,-0.622796,0.596719,-0.578311
3.2681,0.016770,0.000000,0.000000,0.001979,0.9606,0.0000,0.0000,-0.021404,0.021404,-0.000147,0.001378,-0.000669,2.1680,0.7821,0.7885,-0.012272,0.013806,0.000000,0.633534,-0.618194,0.615126,-0.624330,0.596719,-0.578311
3.2848,0.016752,0.000000,0.000000,0.001982,0.9567,0.0000,0.0000,-0.022653,0.022653,-0.000147,0.001366,-0.000668,2.1656,0.7826,0.8006,-0.018408,0.016874,0.000000,0.633534,-0.618194,0.615126,-0.624330,0.596719,-0.578311
3.3017,0.016905,0.000000,0.000000,0.001985,0.9525,0.0000,0.0000,-0.023899,0.023899,-0.000147,0.001366,-0.000668,2.1656,0.7826,0.8006,-0.023010,0.016874,0.000000,0.633534,-0.618194,0.615126,-0.624330,0.596719,-0.578311
3.3185,0.016756,0.000000,0.000000,0.001987,0.9483,0.0000,0.0000,-0.025117,0.025117,-0.000160,0.001312,-0.000656,2.1551,0.8332,0.8548,-0.019942,0.016874,0.000000,0.633534,-0.618194,0.616660,-0.624330,0.596719,-0.578311
3.3353,0.016766,0.000000,0.000000,0.001989,0.9439,0.0000,0.0000,-0.026318,0.026318,-0.000160,0.001312,-0.000656,2.1551,0.8332,0.8548,-0.018408,0.018408,0.000000,0.633534,-0.618194,0.615126,-0.624330,0.596719,-0.578311
3.3521,0.016875,0.000000,0.000000,0.001991,0.9392,0.0000,0.0000,-0.027508,0.027508,-0.000146,0.001372,-0.000670,2.1669,0.7773,0.7937,-0.018408,0.018408,0.000000,0.633534,-0.618194,0.615126,-0.624330,0.596719,-0.578311
3.3689,0.016777,0.000000,0.000000,0.001993,0.9344,0.0000,0.0000,-0.028673,0.028673,-0.000146,0.001372,-0.000670,2.1669,0.7773,0.7937,-0.018408,0.018408,0.000000,0.633534,-0.618194,0.615126,-0.624330,0.596719,-0.578311
3.3857,0.016778,0.000000,0.000000,0.001995,0.9295,0.0000,0.0000,-0.029817,0.029817,-0.000146,0.001372,-0.000670,2.1669,0.7773,0.7937,-0.018408,0.018408,0.000000,0.633534,-0.618194,0.615126,-0.624330,0.596719,-0.578311
3.4025,0.016791,0.000000,0.000000,0.001996,0.9243,0.0000,0.0000,-0.030942,0.030942,-0.000146,0.001372,-0.000670,2.1669,0.7773,0.7937,-0.018408,0.018408,0.000000,0.633534,-0.618194,0.615126,-0.624330,0.596719,-0.578311
3.4193,0.016804,0.000000,0.000000,0.001997,0.9190,0.0000,0.0000,-0.032046,0.032046,-0.000146,0.001372,-0.000670,2.1669,0.7773,0.7937,-0.018408,0.018408,0.000000,0.633534,-0.618194,0.615126,-0.624330,0.596719,-0.578311
3.4361,0.016847,0.000000,0.000000,0.001998,0.9135,0.0000,0.0000,-0.033130,0.033130,-0.000160,0.001312,-0.000655,2.1550,0.8337,0.8555,-0.021476,0.024544,0.000000,0.633534,-0.618194,0.616660,-0.624330,0.596719,-0.578311
3.4529,0.016754,0.000000,0.000000,0.001999,0.9078,0.0000,0.0000,-0.034186,0.034186,-0.000146,0.001373,-0.000670,2.1670,0.7772,0.7936,-0.029146,0.024544,0.000000,0.633534,-0.618194,0.615126,-0.624330,0.596719,-0.578311
3.4697,0.016762,0.000000,0.000000,0.002000,0.9020,0.0000,0.0000,-0.035218,0.035218,-0.000148,0.001366,-0.000668,2.1657,0.7831,0.8000,-0.029146,0.024544,0.000000,0.633534,-0.618194,0.615126,-0.624330,0.596719,-0.578311
3.4864,0.016753,0.000000,0.000000,0.002000,0.8960,0.0000,0.0000,-0.036225,0.036225,-0.000093,0.001382,-0.000656,2.1268,0.7487,0.8526,-0.024544,0.024544,0.000000,0.633534,-0.618194,0.615126,-0.624330,0.598253,-0.578311
3.5032,0.016772,0.000000,0.000000,0.002000,0.8898,0.0000,0.0000,-0.037209,0.037209,-0.000153,0.001365,-0.000670,2.1699,0.7861,0.7939,-0.027612,0.026078,0.000000,0.633534,-0.618194,0.615126,-0.624330,0.596719,-0.578311
3.5199,0.016744,0.000000,0.000000,0.002000,0.8835,0.0000,0.0000,-0.038165,0.038165,-0.000153,0.001365,-0.000670,2.1699,0.7861,0.7939,-0.027612,0.026078,0.000000,0.633534,-0.618194,0.615126,-0.624330,0.596719,-0.578311
3.5367,0.016755,0.000000,0.000000,0.001999,0.8770,0.0000,0.0000,-0.039095,0.039095,-0.000160,0.001312,-0.000655,2.1547,0.8328,0.8555,-0.035282,0.033748,0.000000,0.633534,-0.618194,0.616660,-0.624330,0.596719,-0.578311
3.5534,0.016745,0.000000,0.000000,0.001999,0.8704,0.0000,0.0000,-0.039997,0.039997,-0.000146,0.001372,-0.000670,2.1670,0.7773,0.7936,-0.039884,0.036816,0.000000,0.633534,-0.618194,0.615126,-0.624330,0.596719,-0.578311
3.5702,0.016760,0.000000,0.000000,0.001998,0.8635,0.0000,0.0000,-0.040873,0.040873,-0.000160,0.001312,-0.000655,2.1550,0.8337,0.8555,-0.036816,0.035282,0.000000,0.633534,-0.618194,0.616660,-0.624330,0.596719,-0.578311
3.5869,0.016743,0.000000,0.000000,0.001997,0.8566,0.0000,0.0000,-0.041719,0.041719,-0.000146,0.001373,-0.000670,2.1670,0.7772,0.7936,-0.041417,0.039884,0.000000,0.633534,-0.618194,0.615126,-0.624330,0.596719,-0.578311
3.6037,0.016774,0.000000,0.000000,0.001996,0.8494,0.0000,0.0000,-0.042538,0.042538,-0.000148,0.001366,-0.000668,2.1657,0.7831,0.8000,-0.046019,0.039884,0.000000,0.633534,-0.618194,0.615126,-0.624330,0.596719,-0.578311
3.6204,0.016737,0.000000,0.000000,0.001994,0.8421,0.0000,0.0000,-0.043326,0.043326,-0.000148,0.001366,-0.000668,2.1657,0.7831,0.8000,-0.046019,0.039884,0.000000,0.633534,-0.618194,0.615126,-0.624330,0.596719,-0.578311
3.6372,0.016751,0.000000,0.000000,0.001993,0.8347,0.0000,0.0000,-0.044085,0.044085,-0.000148,0.001366,-0.000668,2.1657,0.7831,0.8000,-0.042951,0.039884,0.000000,0.633534,-0.618194,0.615126,-0.624330,0.596719,-0.578311
3.6539,0.016742,0.000000,0.000000,0.001991,0.8270,0.0000,0.0000,-0.044812,0.044812,-0.000160,0.001312,-0.000656,2.1551,0.8331,0.8548,-0.038350,0.039884,0.000000,0.633534,-0.618194,0.616660,-0.624330,0.596719,-0.578311
3.6707,0.016755,0.000000,0.000000,0.001989,0.8193,0.0000,0.0000,-0.045509,0.045509,-0.000146,0.001372,-0.000670,2.1669,0.7773,0.7936,-0.041417,0.039884,0.000000,0.633534,-0.618194,0.615126,-0.624330,0.596719,-0.578311
3.6874,0.016746,0.000000,0.000000,0.001986,0.8114,0.0000,0.0000,-0.046175,0.046175,-0.000148,0.001366,-0.000668,2.1657,0.7831,0.8000,-0.049087,0.044485,0.000000,0.633534,-0.618194,0.615126,-0.624330,0.596719,-0.578311
3.7046,0.017170,0.000000,0.000000,0.001983,0.8031,0.0000,0.0000,-0.046824,0.046824,-0.000148,0.001366,-0.000668,2.1657,0.7831,0.8000,-0.049087,0.044485,0.000000,0.633534,-0.618194,0.615126,-0.624330,0.596719,-0.578311
3.7213,0.016743,0.000000,0.000000,0.001981,0.7948,0.0000,0.0000,-0.047424,0.047424,-0.000148,0.001366,-0.000668,2.1657,0.7831,0.8000,-0.047553,0.044485,0.000000,0.633534,-0.618194,0.615126,-0.624330,0.596719,-0.578311
3.7381,0.016743,0.000000,0.000000,0.001978,0.7865,0.0000,0.0000,-0.047991,0.047991,-0.000093,0.001382,-0.000656,2.1268,0.7487,0.8526,-0.041417,0.042951,0.000000,0.633534,-0.618194,0.615126,-0.624330,0.598253,-0.578311
3.7548,0.016742,0.000000,0.000000,0.001974,0.7780,0.0000,0.0000,-0.048525,0.048525,-0.000153,0.001365,-0.000670,2.1699,0.7861,0.7939,-0.044485,0.044485,0.000000,0.633534,-0.618194,0.615126,-0.624330,0.596719,-0.578311
3.7716,0.016754,0.000000,0.000000,0.001971,0.7693,0.0000,0.0000,-0.049026,0.049026,-0.000147,0.001367,-0.000668,2.1654,0.7822,0.8000,-0.053689,0.046019,0.000000,0.633534,-0.618194,0.615126,-0.624330,0.596719,-0.578311
3.7883,0.016743,0.000000,0.000000,0.001967,0.7605,0.0000,0.0000,-0.049492,0.049492,-0.000160,0.001312,-0.000656,2.1551,0.8332,0.8548,-0.052155,0.046019,0.000000,0.633534,-0.618194,0.616660,-0.624330,0.596719,-0.578311
3.8051,0.016752,0.000000,0.000000,0.001963,0.7515,0.0000,0.0000,-0.049925,0.049925,-0.000160,0.001312,-0.000656,2.1551,0.8332,0.8548,-0.052155,0.046019,0.000000,0.633534,-0.618194,0.616660,-0.624330,0.596719,-0.578311
3.8218,0.016740,0.000000,0.000000,0.001959,0.7424,0.0000,0.0000,-0.050322,0.050322,-0.000146,0.001373,-0.000670,2.1669,0.7773,0.7936,-0.042951,0.046019,0.000000,0.633534,-0.618194,0.615126,-0.624330,0.596719,-0.578311
3.8386,0.016758,0.000000,0.000000,0.001955,0.7332,0.0000,0.0000,-0.050686,0.050686,-0.000148,0.001366,-0.000668,2.1657,0.7831,0.8000,-0.047553,0.046019,0.000000,0.633534,-0.618194,0.615126,-0.624330,0.596719,-0.578311
3.8553,0.016737,0.000000,0.000000,0.001950,0.7238,0.0000,0.0000,-0.051013,0.051013,-0.000148,0.001366,-0.000668,2.1657,0.7831,0.8000,-0.056757,0.047553,0.000000,0.633534,-0.618194,0.615126,-0.624330,0.596719,-0.578311
3.8721,0.016758,0.000000,0.000000,0.001946,0.7143,0.0000,0.0000,-0.051306,0.051306,-0.000148,0.001366,-0.000668,2.1657,0.7831,0.8000,-0.053689,0.049087,0.000000,0.633534,-0.618194,0.615126,-0.624330,0.596719,-0.578311
3.8888,0.016740,0.000000,0.000000,0.001941,0.7047,0.0000,0.0000,-0.051563,0.051563,-0.000160,0.001312,-0.000656,2.1551,0.8331,0.8548,-0.047553,0.049087,0.000000,0.633534,-0.618194,0.616660,-0.624330,0.596719,-0.578311
3.9056,0.016773,0.000000,0.000000,0.001935,0.6949,0.0000,0.0000,-0.051785,0.051785,-0.000160,0.001312,-0.000656,2.1551,0.8331,0.8548,-0.047553,0.049087,0.000000,0.633534,-0.618194,0.616660,-0.624330,0.596719,-0.578311
3.9223,0.016745,0.000000,0.000000,0.001930,0.6850,0.0000,0.0000,-0.051971,0.051971,-0.000159,0.001429,-0.000658,2.1779,0.8277,0.7399,-0.049087,0.049087,0.000000,0.633534,-0.618194,0.615126,-0.625864,0.596719,-0.578311
3.9390,0.016709,0.000000,0.000000,0.001924,0.6750,0.0000,0.0000,-0.052120,0.052120,-0.000118,0.001489,-0.000635,2.1473,0.8448,0.7512,-0.056757,0.049087,0.000000,0.633534,-0.618194,0.615126,-0.627398,0.598253,-0.578311
3.9558,0.016742,0.000000,0.000000,0.001919,0.6648,0.0000,0.0000,-0.052234,0.052234,-0.000177,0.001468,-0.000649,2.1896,0.8768,0.6968,-0.053689,0.049087,0.000000,0.633534,-0.618194,0.615126,-0.627398,0.596719,-0.578311
3.9725,0.016759,0.000000,0.000000,0.001912,0.6545,0.0000,0.0000,-0.052311,0.052311,-0.000171,0.001470,-0.000648,2.1852,0.8735,0.7025,-0.047553,0.049087,0.000000,0.633534,-0.618194,0.615126,-0.627398,0.596719,-0.578311
3.9893,0.016744,0.000000,0.000000,0.001906,0.6441,0.0000,0.0000,-0.052352,0.052352,-0.000171,0.001470,-0.000648,2.1852,0.8735,0.7025,-0.049087,0.049087,0.000000,0.633534,-0.618194,0.615126,-0.627398,0.596719,-0.578311
4.0060,0.016749,0.000000,0.000000,0.001900,0.6336,0.0000,0.0000,-0.052358,0.052358,-0.000171,0.001470,-0.000648,2.1852,0.8735,0.7025,-0.049087,0.049087,0.000000,0.633534,-0.618194,0.615126,-0.627398,0.596719,-0.578311
4.0228,0.016747,0.000000,0.000000,0.001893,0.6230,0.0000,0.0000,-0.052326,0.052326,-0.000184,0.001415,-0.000635,2.1749,0.9245,0.7574,-0.058291,0.050621,0.000000,0.633534,-0.618194,0.616660,-0.627398,0.596719,-0.578311
4.0395,0.016747,0.000000,0.000000,0.001886,0.6122,0.0000,0.0000,-0.052259,0.052259,-0.000170,0.001475,-0.000649,2.1867,0.8685,0.6962,-0.055223,0.050621,0.000000,0.633534,-0.618194,0.615126,-0.627398,0.596719,-0.578311
4.0563,0.016747,0.000000,0.000000,0.001879,0.6013,0.0000,0.0000,-0.052155,0.052155,-0.000184,0.001414,-0.000635,2.1748,0.9251,0.7580,-0.047553,0.050621,0.000000,0.633534,-0.618194,0.616660,-0.627398,0.596719,-0.578311
4.0731,0.016783,0.000000,0.000000,0.001872,0.5903,0.0000,0.0000,-0.052015,0.052015,-0.000170,0.001475,-0.000649,2.1868,0.8685,0.6961,-0.052155,0.050621,0.000000,0.633534,-0.618194,0.615126,-0.627398,0.596719,-0.578311
4.0899,0.016871,0.000000,0.000000,0.001864,0.5792,0.0000,0.0000,-0.051838,0.051838,-0.000172,0.001469,-0.000648,2.1855,0.8743,0.7026,-0.056757,0.050621,0.000000,0.633534,-0.618194,0.615126,-0.627398,0.596719,-0.578311
4.1067,0.016760,0.000000,0.000000,0.001856,0.5679,0.0000,0.0000,-0.051626,0.051626,-0.000172,0.001469,-0.000648,2.1855,0.8743,0.7026,-0.056757,0.050621,0.000000,0.633534,-0.618194,0.615126,-0.627398,0.596719,-0.578311
4.1234,0.016743,0.000000,0.000000,0.001849,0.5566,0.0000,0.0000,-0.051379,0.051379,-0.000172,0.001469,-0.000648,2.1855,0.8743,0.7026,-0.053689,0.050621,0.000000,0.633534,-0.618194,0.615126,-0.627398,0.596719,-0.578311
4.1402,0.016752,0.000000,0.000000,0.001840,0.5452,0.0000,0.0000,-0.051096,0.051096,-0.000172,0.001469,-0.000648,2.1855,0.8743,0.7026,-0.047553,0.050621,0.000000,0.633534,-0.618194,0.615126,-0.627398,0.596719,-0.578311
4.1569,0.016741,0.000000,0.000000,0.001832,0.5337,0.0000,0.0000,-0.050777,0.050777,-0.000117,0.001485,-0.000636,2.1465,0.8400,0.7551,-0.052155,0.050621,0.000000,0.633534,-0.618194,0.615126,-0.627398,0.598253,-0.578311
4.1737,0.016749,0.000000,0.000000,0.001823,0.5221,0.0000,0.0000,-0.050423,0.050423,-0.000177,0.001468,-0.000649,2.1897,0.8773,0.6964,-0.055223,0.050621,0.000000,0.633534,-0.618194,0.615126,-0.627398,0.596719,-0.578311
4.1904,0.016742,0.000000,0.000000,0.001815,0.5104,0.0000,0.0000,-0.050035,0.050035,-0.000171,0.001470,-0.000648,2.1852,0.8734,0.7025,-0.052155,0.050621,0.000000,0.633534,-0.618194,0.615126,-0.627398,0.596719,-0.578311
4.2072,0.016758,0.000000,0.000000,0.001806,0.4986,0.0000,0.0000,-0.049612,0.049612,-0.000171,0.001470,-0.000648,2.1852,0.8734,0.7025,-0.052155,0.050621,0.000000,0.633534,-0.618194,0.615126,-0.627398,0.596719,-0.578311
4.2239,0.016750,0.000000,0.000000,0.001797,0.4866,0.0000,0.0000,-0.049154,0.049154,-0.000171,0.001470,-0.000648,2.1852,0.8734,0.7025,-0.047553,0.050621,0.000000,0.633534,-0.618194,0.615126,-0.627398,0.596719,-0.578311
4.2407,0.016748,0.000000,0.000000,0.001787,0.4746,0.0000,0.0000,-0.048663,0.048663,-0.000171,0.001470,-0.000648,2.1852,0.8734,0.7025,-0.053689,0.049087,0.000000,0.633534,-0.618194,0.615126,-0.627398,0.596719,-0.578311
4.2574,0.016737,0.000000,0.000000,0.001778,0.4626,0.0000,0.0000,-0.048138,0.048138,-0.000184,0.001415,-0.000635,2.1749,0.9245,0.7574,-0.053689,0.049087,0.000000,0.633534,-0.618194,0.616660,-0.627398,0.596719,-0.578311
4.2742,0.016751,0.000000,0.000000,0.001768,0.4504,0.0000,0.0000,-0.047579,0.047579,-0.000170,0.001475,-0.000649,2.1867,0.8685,0.6962,-0.049087,0.049087,0.000000,0.633534,-0.618194,0.615126,-0.627398,0.596719,-0.578311
4.2910,0.016809,0.000000,0.000000,0.001758,0.4381,0.0000,0.0000,-0.046985,0.046985,-0.000172,0.001469,-0.000648,2.1855,0.8743,0.7026,-0.046019,0.047553,0.000000,0.633534,-0.618194,0.615126,-0.627398,0.596719,-0.578311
4.3077,0.016757,0.000000,0.000000,0.001748,0.4258,0.0000,0.0000,-0.046361,0.046361,-0.000172,0.001469,-0.000648,2.1855,0.8743,0.7026,-0.046019,0.047553,0.000000,0.633534,-0.618194,0.615126,-0.627398,0.596719,-0.578311
4.3245,0.016746,0.000000,0.000000,0.001738,0.4133,0.0000,0.0000,-0.045705,0.045705,-0.000172,0.001469,-0.000648,2.1855,0.8743,0.7026,-0.049087,0.047553,0.000000,0.633534,-0.618194,0.615126,-0.627398,0.596719,-0.578311
4.3412,0.016752,0.000000,0.000000,0.001727,0.4008,0.0000,0.0000,-0.045017,0.045017,-0.000117,0.001485,-0.000636,2.1465,0.8400,0.7551,-0.052155,0.047553,0.000000,0.633534,-0.618194,0.615126,-0.627398,0.598253,-0.578311
4.3580,0.016746,0.000000,0.000000,0.001716,0.3883,0.0000,0.0000,-0.044298,0.044298,-0.000190,0.001413,-0.000636,2.1790,0.9280,0.7519,-0.047553,0.046019,0.000000,0.633534,-0.618194,0.616660,-0.627398,0.596719,-0.578311
4.3747,0.016752,0.000000,0.000000,0.001705,0.3756,0.0000,0.0000,-0.043548,0.043548,-0.000170,0.001475,-0.000649,2.1863,0.8682,0.6968,-0.041417,0.044485,0.000000,0.633534,-0.618194,0.615126,-0.627398,0.596719,-0.578311
4.3916,0.016859,0.000000,0.000000,0.001694,0.3628,0.0000,0.0000,-0.042763,0.042763,-0.000172,0.001469,-0.000648,2.1855,0.8744,0.7025,-0.046019,0.044485,0.000000,0.633534,-0.618194,0.615126,-0.627398,0.596719,-0.578311
4.4083,0.016751,0.000000,0.000000,0.001683,0.3500,0.0000,0.0000,-0.041953,0.041953,-0.000172,0.001469,-0.000648,2.1855,0.8744,0.7025,-0.046019,0.044485,0.000000,0.633534,-0.618194,0.615126,-0.627398,0.596719,-0.578311
4.4252,0.016836,0.000000,0.000000,0.001671,0.3371,0.0000,0.0000,-0.041110,0.041110,-0.000172,0.001469,-0.000648,2.1855,0.8744,0.7025,-0.047553,0.042951,0.000000,0.633534,-0.618194,0.615126,-0.627398,0.596719,-0.578311
4.4420,0.016806,0.000000,0.000000,0.001660,0.3242,0.0000,0.0000,-0.040240,0.040240,-0.000172,0.001469,-0.000648,2.1855,0.8744,0.7025,-0.047553,0.042951,0.000000,0.633534,-0.618194,0.615126,-0.627398,0.596719,-0.578311
4.4587,0.016743,0.000000,0.000000,0.001648,0.3112,0.0000,0.0000,-0.039345,0.039345,-0.000172,0.001469,-0.000648,2.1855,0.8744,0.7025,-0.047553,0.042951,0.000000,0.633534,-0.618194,0.615126,-0.627398,0.596719,-0.578311
4.4755,0.016743,0.000000,0.000000,0.001636,0.2982,0.0000,0.0000,-0.038423,0.038423,-0.000172,0.001469,-0.000648,2.1855,0.8744,0.7025,-0.044485,0.041417,0.000000,0.633534,-0.618194,0.615126,-0.627398,0.596719,-0.578311
4.4922,0.016753,0.000000,0.000000,0.001624,0.2851,0.0000,0.0000,-0.037474,0.037474,-0.000172,0.001469,-0.000648,2.1855,0.8744,0.7025,-0.046019,0.041417,0.000000,0.633534,-0.618194,0.615126,-0.627398,0.596719,-0.578311
4.5092,0.017021,0.000000,0.000000,0.001611,0.2717,0.0000,0.0000,-0.036483,0.036483,-0.000172,0.001469,-0.000648,2.1855,0.8744,0.7025,-0.041417,0.039884,0.000000,0.633534,-0.618194,0.615126,-0.627398,0.596719,-0.578311
4.5260,0.016758,0.000000,0.000000,0.001599,0.2585,0.0000,0.0000,-0.035482,0.035482,-0.000172,0.001469,-0.000648,2.1855,0.8744,0.7025,-0.041417,0.039884,0.000000,0.633534,-0.618194,0.615126,-0.627398,0.596719,-0.578311
4.5427,0.016745,0.000000,0.000000,0.001586,0.2453,0.0000,0.0000,-0.034457,0.034457,-0.000184,0.001415,-0.000635,2.1749,0.9244,0.7574,-0.036816,0.036816,0.000000,0.633534,-0.618194,0.616660,-0.627398,0.596719,-0.578311
