t,loop_dt,cmd_x,cmd_y,cmd_z,cmd_roll,cmd_pitch,cmd_yaw,cmd_ant_l,cmd_ant_r,pres_x,pres_y,pres_z,pres_roll,pres_pitch,pres_yaw,pres_ant_l,pres_ant_r,pres_j0,pres_j1,pres_j2,pres_j3,pres_j4,pres_j5,pres_j6
0.0000,0.000001,-0.000222,0.000814,-0.002458,0.5902,0.3682,0.2370,0.004602,0.001534,-0.000222,0.000814,-0.002458,0.5902,0.3682,0.2370,0.004602,0.001534,0.000000,0.578311,-0.566039,0.567573,-0.579845,0.567573,-0.559903
0.0168,0.016753,-0.000219,0.000800,-0.002416,0.5803,0.3621,0.2330,0.004525,0.001508,-0.000224,0.000808,-0.002456,0.5889,0.3741,0.2432,-0.001534,0.001534,0.000000,0.578311,-0.566039,0.567573,-0.579845,0.567573,-0.559903
0.0340,0.017221,-0.000215,0.000786,-0.002374,0.5701,0.3558,0.2289,0.004446,0.001482,-0.000224,0.000808,-0.002456,0.5889,0.3741,0.2432,-0.004602,0.001534,0.000000,0.578311,-0.566039,0.567573,-0.579845,0.567573,-0.559903
0.0507,0.016745,-0.000211,0.000773,-0.002333,0.5602,0.3496,0.2249,0.004369,0.001456,-0.000224,0.000808,-0.002456,0.5889,0.3741,0.2432,-0.001534,0.001534,0.000000,0.578311,-0.566039,0.567573,-0.579845,0.567573,-0.559903
0.0675,0.016744,-0.000207,0.000759,-0.002292,0.5503,0.3435,0.2209,0.004291,0.001430,-0.000224,0.000808,-0.002456,0.5889,0.3741,0.2432,0.006136,0.000000,0.000000,0.578311,-0.566039,0.567573,-0.579845,0.567573,-0.559903
0.0842,0.016751,-0.000204,0.000746,-0.002251,0.5404,0.3373,0.2169,0.004214,0.001405,-0.000074,0.000785,-0.002530,0.5002,0.4911,0.2417,0.004602,0.000000,0.000000,0.573709,-0.564505,0.567573,-0.579845,0.567573,-0.556835
0.1010,0.016771,-0.000200,0.000732,-0.002209,0.5305,0.3312,0.2129,0.004137,0.001379,-0.000074,0.000785,-0.002530,0.5002,0.4911,0.2417,0.004602,0.000000,0.000000,0.573709,-0.564505,0.567573,-0.579845,0.567573,-0.556835
0.1177,0.016743,-0.000196,0.000718,-0.002168,0.5206,0.3250,0.2089,0.004060,0.001353,0.000100,0.000880,-0.002611,0.5698,0.6155,0.4011,-0.001534,0.000000,0.000000,0.570641,-0.562971,0.567573,-0.579845,0.567573,-0.550699
0.1345,0.016760,-0.000193,0.000705,-0.002127,0.5107,0.3189,0.2050,0.003983,0.001328,0.000082,0.000870,-0.002603,0.5627,0.6027,0.3846,0.003068,0.000000,0.000000,0.570641,-0.562971,0.567573,-0.579845,0.567573,-0.550699
0.1512,0.016737,-0.000189,0.000691,-0.002086,0.5008,0.3127,0.2010,0.003906,0.001302,0.000124,0.000909,-0.002617,0.6133,0.6215,0.4396,0.006136,0.000000,0.000000,0.570641,-0.562971,0.567573,-0.579845,0.567573,-0.549165
0.1680,0.016749,-0.000185,0.000677,-0.002045,0.4909,0.3066,0.1970,0.003829,0.001276,0.000119,0.000905,-0.002615,0.6081,0.6195,0.4338,0.000000,0.000000,0.000000,0.570641,-0.562971,0.567573,-0.579845,0.567573,-0.549165
0.1847,0.016740,-0.000181,0.000664,-0.002004,0.4811,0.3004,0.1930,0.003752,0.001251,0.000119,0.000905,-0.002615,0.6081,0.6195,0.4338,-0.001534,0.000000,0.000000,0.570641,-0.562971,0.567573,-0.579845,0.567573,-0.549165
0.2015,0.016738,-0.000178,0.000650,-0.001962,0.4712,0.2943,0.1890,0.003675,0.001225,0.000119,0.000905,-0.002615,0.6081,0.6195,0.4338,-0.001534,0.000000,0.000000,0.570641,-0.562971,0.567573,-0.579845,0.567573,-0.549165
0.2182,0.016751,-0.000174,0.000636,-0.001921,0.4613,0.2881,0.1850,0.003598,0.001199,0.000119,0.000905,-0.002615,0.6081,0.6195,0.4338,0.006136,0.000000,0.000000,0.570641,-0.562971,0.567573,-0.579845,0.567573,-0.549165
0.2350,0.016746,-0.000170,0.000623,-0.001880,0.4514,0.2820,0.1810,0.003521,0.001174,0.000080,0.000867,-0.002602,0.5587,0.6022,0.3811,0.006136,0.000000,0.000000,0.570641,-0.562971,0.567573,-0.579845,0.567573,-0.550699
0.2517,0.016745,-0.000166,0.000609,-0.001839,0.4415,0.2758,0.1770,0.003444,0.001148,0.000084,0.000871,-0.002604,0.5638,0.6040,0.3866,0.000000,0.000000,0.000000,0.570641,-0.562971,0.567573,-0.579845,0.567573,-0.550699
0.2684,0.016745,-0.000163,0.000596,-0.001798,0.4316,0.2696,0.1731,0.003367,0.001122,0.000124,0.000909,-0.002617,0.6132,0.6213,0.4393,0.000000,0.000000,0.000000,0.570641,-0.562971,0.567573,-0.579845,0.567573,-0.549165
0.2852,0.016788,-0.000159,0.000582,-0.001757,0.4217,0.2635,0.1691,0.003289,0.001096,0.000120,0.000905,-0.002615,0.6081,0.6195,0.4339,0.006136,0.000000,0.000000,0.570641,-0.562971,0.567573,-0.579845,0.567573,-0.549165
0.3020,0.016750,-0.000155,0.000568,-0.001715,0.4118,0.2573,0.1651,0.003212,0.001071,0.000120,0.000905,-0.002615,0.6081,0.6195,0.4339,0.006136,0.000000,0.000000,0.570641,-0.562971,0.567573,-0.579845,0.567573,-0.549165
0.3187,0.016750,-0.000152,0.000555,-0.001674,0.4019,0.2512,0.1611,0.003135,0.001045,0.000120,0.000905,-0.002615,0.6081,0.6195,0.4339,0.004602,0.000000,0.000000,0.570641,-0.562971,0.567573,-0.579845,0.567573,-0.549165
0.3355,0.016744,-0.000148,0.000541,-0.001633,0.3920,0.2450,0.1571,0.003058,0.001019,0.000120,0.000905,-0.002615,0.6081,0.6195,0.4339,-0.003068,0.000000,0.000000,0.570641,-0.562971,0.567573,-0.579845,0.567573,-0.549165
0.3522,0.016748,-0.000144,0.000527,-0.001592,0.3821,0.2388,0.1531,0.002981,0.000994,0.000120,0.000905,-0.002615,0.6081,0.6195,0.4339,0.000000,0.000000,0.000000,0.570641,-0.562971,0.567573,-0.579845,0.567573,-0.549165
0.3690,0.016746,-0.000140,0.000514,-0.001551,0.3723,0.2327,0.1492,0.002904,0.000968,0.000120,0.000905,-0.002615,0.6081,0.6195,0.4339,0.007670,0.000000,0.000000,0.570641,-0.562971,0.567573,-0.579845,0.567573,-0.549165
0.3857,0.016748,-0.000137,0.000500,-0.001510,0.3624,0.2265,0.1452,0.002827,0.000942,0.000120,0.000905,-0.002615,0.6081,0.6195,0.4339,0.004602,0.000000,0.000000,0.570641,-0.562971,0.567573,-0.579845,0.567573,-0.549165
0.4025,0.016742,-0.000133,0.000486,-0.001468,0.3525,0.2204,0.1412,0.002750,0.000917,0.000120,0.000905,-0.002615,0.6081,0.6195,0.4339,0.004602,0.000000,0.000000,0.570641,-0.562971,0.567573,-0.579845,0.567573,-0.549165
0.4192,0.016747,-0.000129,0.000473,-0.001427,0.3426,0.2142,0.1372,0.002673,0.000891,0.000120,0.000905,-0.002615,0.6081,0.6195,0.4339,-0.004602,0.000000,0.000000,0.570641,-0.562971,0.567573,-0.579845,0.567573,-0.549165
0.4359,0.016741,-0.000125,0.000459,-0.001386,0.3327,0.2080,0.1333,0.002596,0.000865,0.000120,0.000905,-0.002615,0.6081,0.6195,0.4339,-0.001534,0.000000,0.000000,0.570641,-0.562971,0.567573,-0.579845,0.567573,-0.549165
0.4527,0.016773,-0.000122,0.000446,-0.001345,0.3228,0.2019,0.1293,0.002519,0.000840,0.000120,0.000905,-0.002615,0.6081,0.6195,0.4339,0.006136,0.000000,0.000000,0.570641,-0.562971,0.567573,-0.579845,0.567573,-0.549165
0.4695,0.016744,-0.000118,0.000432,-0.001304,0.3129,0.1957,0.1253,0.002442,0.000814,0.000120,0.000905,-0.002615,0.6081,0.6195,0.4339,0.003068,0.000000,0.000000,0.570641,-0.562971,0.567573,-0.579845,0.567573,-0.549165
0.4864,0.016909,-0.000114,0.000418,-0.001262,0.3030,0.1895,0.1213,0.002364,0.000788,0.000080,0.000867,-0.002602,0.5587,0.6022,0.3811,-0.003068,0.000000,0.000000,0.570641,-0.562971,0.567573,-0.579845,0.567573,-0.550699
0.5031,0.016739,-0.000111,0.000405,-0.001221,0.2931,0.1833,0.1173,0.002287,0.000762,0.000080,0.000867,-0.002602,0.5587,0.6022,0.3811,-0.003068,0.000000,0.000000,0.570641,-0.562971,0.567573,-0.579845,0.567573,-0.550699
0.5199,0.016743,-0.000107,0.000391,-0.001180,0.2832,0.1771,0.1134,0.002210,0.000737,0.000124,0.000910,-0.002617,0.6138,0.6215,0.4399,0.000000,0.000000,0.000000,0.570641,-0.562971,0.567573,-0.579845,0.567573,-0.549165
0.5366,0.016744,-0.000103,0.000377,-0.001139,0.2733,0.1710,0.1094,0.002133,0.000711,0.000119,0.000905,-0.002615,0.6080,0.6195,0.4338,0.006136,0.000000,0.000000,0.570641,-0.562971,0.567573,-0.579845,0.567573,-0.549165
0.5533,0.016747,-0.000099,0.000364,-0.001098,0.2634,0.1648,0.1054,0.002055,0.000685,0.000119,0.000905,-0.002615,0.6080,0.6195,0.4338,0.003068,0.000000,0.000000,0.570641,-0.562971,0.567573,-0.579845,0.567573,-0.549165
0.5701,0.016744,-0.000096,0.000350,-0.001057,0.2536,0.1586,0.1015,0.001978,0.000659,0.000119,0.000905,-0.002615,0.6080,0.6195,0.4338,-0.003068,0.000000,0.000000,0.570641,-0.562971,0.567573,-0.579845,0.567573,-0.549165
0.5868,0.016754,-0.000092,0.000336,-0.001015,0.2437,0.1525,0.0975,0.001901,0.000634,0.000119,0.000905,-0.002615,0.6080,0.6195,0.4338,0.001534,0.000000,0.000000,0.570641,-0.562971,0.567573,-0.579845,0.567573,-0.549165
0.6036,0.016742,-0.000088,0.000323,-0.000974,0.2338,0.1463,0.0935,0.001824,0.000608,0.000119,0.000905,-0.002615,0.6080,0.6195,0.4338,0.001534,0.000000,0.000000,0.570641,-0.562971,0.567573,-0.579845,0.567573,-0.549165
0.6203,0.016748,-0.000084,0.000309,-0.000933,0.2239,0.1401,0.0896,0.001747,0.000582,0.000119,0.000905,-0.002615,0.6080,0.6195,0.4338,0.006136,0.000000,0.000000,0.570641,-0.562971,0.567573,-0.579845,0.567573,-0.549165
0.6371,0.016744,-0.000081,0.000295,-0.000892,0.2140,0.1339,0.0856,0.001670,0.000557,0.000119,0.000905,-0.002615,0.6080,0.6195,0.4338,0.001534,0.000000,0.000000,0.570641,-0.562971,0.567573,-0.579845,0.567573,-0.549165
0.6538,0.016749,-0.000077,0.000282,-0.000851,0.2041,0.1278,0.0816,0.001593,0.000531,0.000119,0.000905,-0.002615,0.6080,0.6195,0.4338,-0.003068,0.000000,0.000000,0.570641,-0.562971,0.567573,-0.579845,0.567573,-0.549165
0.6706,0.016771,-0.000073,0.000268,-0.000810,0.1943,0.1216,0.0777,0.001516,0.000505,0.000119,0.000905,-0.002615,0.6080,0.6195,0.4338,0.001534,0.000000,0.000000,0.570641,-0.562971,0.567573,-0.579845,0.567573,-0.549165
0.6874,0.016757,-0.000070,0.000255,-0.000768,0.1844,0.1154,0.0737,0.001439,0.000480,0.000119,0.000905,-0.002615,0.6080,0.6195,0.4338,0.001534,0.000000,0.000000,0.570641,-0.562971,0.567573,-0.579845,0.567573,-0.549165
0.7041,0.016746,-0.000066,0.000241,-0.000727,0.1745,0.1092,0.0698,0.001362,0.000454,0.000119,0.000905,-0.002615,0.6080,0.6195,0.4338,0.006136,0.000000,0.000000,0.570641,-0.562971,0.567573,-0.579845,0.567573,-0.549165
0.7209,0.016750,-0.000062,0.000227,-0.000686,0.1646,0.1031,0.0658,0.001285,0.000428,0.000119,0.000905,-0.002615,0.6080,0.6195,0.4338,-0.001534,0.000000,0.000000,0.570641,-0.562971,0.567573,-0.579845,0.567573,-0.549165
0.7376,0.016742,-0.000058,0.000214,-0.000645,0.1547,0.0969,0.0618,0.001208,0.000403,0.000119,0.000905,-0.002615,0.6080,0.6195,0.4338,-0.003068,0.000000,0.000000,0.570641,-0.562971,0.567573,-0.579845,0.567573,-0.549165
0.7543,0.016752,-0.000055,0.000200,-0.000604,0.1448,0.0907,0.0579,0.001130,0.000377,0.000119,0.000905,-0.002615,0.6080,0.6195,0.4338,0.000000,0.000000,0.000000,0.570641,-0.562971,0.567573,-0.579845,0.567573,-0.549165
0.7711,0.016750,-0.000051,0.000186,-0.000563,0.1350,0.0845,0.0539,0.001053,0.000351,0.000119,0.000905,-0.002615,0.6080,0.6195,0.4338,0.004602,0.000000,0.000000,0.570641,-0.562971,0.567573,-0.579845,0.567573,-0.549165
0.7878,0.016751,-0.000047,0.000173,-0.000521,0.1251,0.0783,0.0500,0.000976,0.000325,0.000119,0.000905,-0.002615,0.6080,0.6195,0.4338,-0.001534,0.000000,0.000000,0.570641,-0.562971,0.567573,-0.579845,0.567573,-0.549165
0.8046,0.016739,-0.000043,0.000159,-0.000480,0.1152,0.0722,0.0460,0.000899,0.000300,0.000119,0.000905,-0.002615,0.6080,0.6195,0.4338,-0.001534,0.000000,0.000000,0.570641,-0.562971,0.567573,-0.579845,0.567573,-0.549165
0.8213,0.016751,-0.000040,0.000145,-0.000439,0.1053,0.0660,0.0421,0.000822,0.000274,0.000119,0.000905,-0.002615,0.6080,0.6195,0.4338,-0.003068,0.000000,0.000000,0.570641,-0.562971,0.567573,-0.579845,0.567573,-0.549165
0.8381,0.016758,-0.000036,0.000132,-0.000398,0.0955,0.0598,0.0381,0.000745,0.000248,0.000119,0.000905,-0.002615,0.6080,0.6195,0.4338,0.000000,0.000000,0.000000,0.570641,-0.562971,0.567573,-0.579845,0.567573,-0.549165
0.8549,0.016763,-0.000032,0.000118,-0.000357,0.0856,0.0536,0.0342,0.000668,0.000223,0.000119,0.000905,-0.002615,0.6080,0.6195,0.4338,0.004602,0.000000,0.000000,0.570641,-0.562971,0.567573,-0.579845,0.567573,-0.549165
0.8716,0.016724,-0.000029,0.000105,-0.000316,0.0757,0.0474,0.0302,0.000591,0.000197,0.000119,0.000905,-0.002615,0.6080,0.6195,0.4338,-0.001534,0.000000,0.000000,0.570641,-0.562971,0.567573,-0.579845,0.567573,-0.549165
0.8884,0.016792,-0.000025,0.000091,-0.000274,0.0658,0.0412,0.0263,0.000514,0.000171,0.000119,0.000905,-0.002615,0.6080,0.6195,0.4338,-0.001534,0.000000,0.000000,0.570641,-0.562971,0.567573,-0.579845,0.567573,-0.549165
0.9052,0.016835,-0.000021,0.000077,-0.000233,0.0559,0.0350,0.0223,0.000436,0.000145,0.000119,0.000905,-0.002615,0.6080,0.6195,0.4338,-0.003068,0.000000,0.000000,0.570641,-0.562971,0.567573,-0.579845,0.567573,-0.549165
0.9222,0.016955,-0.000017,0.000063,-0.000191,0.0459,0.0288,0.0183,0.000358,0.000119,0.000119,0.000905,-0.002615,0.6080,0.6195,0.4338,-0.003068,0.000000,0.000000,0.570641,-0.562971,0.567573,-0.579845,0.567573,-0.549165
0.9389,0.016740,-0.000014,0.000050,-0.000150,0.0360,0.0226,0.0144,0.000281,0.000094,0.000119,0.000905,-0.002615,0.6080,0.6195,0.4338,-0.003068,0.000000,0.000000,0.570641,-0.562971,0.567573,-0.579845,0.567573,-0.549165
0.9557,0.016761,-0.000010,0.000036,-0.000109,0.0261,0.0164,0.0104,0.000204,0.000068,0.000119,0.000905,-0.002615,0.6080,0.6195,0.4338,-0.001534,0.000000,0.000000,0.570641,-0.562971,0.567573,-0.579845,0.567573,-0.549165
0.9724,0.016745,-0.000006,0.000022,-0.000068,0.0163,0.0102,0.0065,0.000127,0.000042,0.000080,0.000867,-0.002602,0.5587,0.6022,0.3811,-0.003068,0.000000,0.000000,0.570641,-0.562971,0.567573,-0.579845,0.567573,-0.550699
0.9892,0.016757,-0.000002,0.000009,-0.000027,0.0064,0.0040,0.0025,0.000050,0.000017,0.000124,0.000910,-0.002617,0.6138,0.6215,0.4399,0.001534,0.000000,0.000000,0.570641,-0.562971,0.567573,-0.579845,0.567573,-0.549165
1.0059,0.016749,0.000000,0.000000,0.000011,0.0000,0.0000,0.0000,0.000584,-0.000584,0.000079,0.000867,-0.002602,0.5581,0.6020,0.3805,0.004602,0.000000,0.000000,0.570641,-0.562971,0.567573,-0.579845,0.567573,-0.550699
1.0227,0.016759,0.000000,0.000000,0.000043,0.0000,0.0000,0.0000,0.002237,-0.002237,0.000079,0.000867,-0.002602,0.5581,0.6020,0.3805,0.004602,0.000000,0.000000,0.570641,-0.562971,0.567573,-0.579845,0.567573,-0.550699
1.0394,0.016743,0.000000,0.000000,0.000074,0.0000,0.0000,0.0000,0.003887,-0.003887,0.000084,0.000871,-0.002604,0.5639,0.6041,0.3867,-0.001534,0.000000,0.000000,0.570641,-0.562971,0.567573,-0.579845,0.567573,-0.550699
1.0562,0.016760,0.000000,0.000000,0.000106,0.0000,0.0000,0.0000,0.005534,-0.005534,0.000043,0.000910,-0.002592,0.6131,0.5881,0.4397,-0.003068,0.000000,0.000000,0.572175,-0.562971,0.567573,-0.579845,0.567573,-0.550699
1.0729,0.016750,0.000000,0.000000,0.000137,0.0000,0.0000,0.0000,0.007175,-0.007175,0.000128,0.000905,-0.002618,0.6081,0.6230,0.4338,0.003068,-0.001534,0.000000,0.570641,-0.562971,0.567573,-0.579845,0.567573,-0.549165
1.0897,0.016752,0.000000,0.000000,0.000169,0.0000,0.0000,0.0000,0.008809,-0.008809,0.000079,0.000867,-0.002602,0.5587,0.6019,0.3811,0.006136,-0.003068,0.000000,0.570641,-0.562971,0.567573,-0.579845,0.567573,-0.550699
1.1064,0.016741,0.000000,0.000000,0.000200,0.0000,0.0000,0.0000,0.010433,-0.010433,0.000124,0.000910,-0.002617,0.6138,0.6216,0.4399,0.000000,-0.004602,0.000000,0.570641,-0.562971,0.567573,-0.579845,0.567573,-0.549165
1.1232,0.016753,0.000000,0.000000,0.000232,0.0000,0.0000,0.0000,0.012048,-0.012048,0.000124,0.000910,-0.002617,0.6138,0.6216,0.4399,0.000000,-0.004602,0.000000,0.570641,-0.562971,0.567573,-0.579845,0.567573,-0.549165
1.1399,0.016743,0.000000,0.000000,0.000263,0.0000,0.0000,0.0000,0.013650,-0.013650,0.000079,0.000867,-0.002602,0.5581,0.6020,0.3805,0.001534,-0.004602,0.000000,0.570641,-0.562971,0.567573,-0.579845,0.567573,-0.550699
1.1567,0.016754,0.000000,0.000000,0.000295,0.0000,0.0000,0.0000,0.015239,-0.015239,0.000124,0.000910,-0.002617,0.6138,0.6215,0.4400,0.007670,-0.007670,0.000000,0.570641,-0.562971,0.567573,-0.579845,0.567573,-0.549165
1.1734,0.016746,0.000000,0.000000,0.000326,0.0000,0.0000,0.0000,0.016812,-0.016812,0.000078,0.000944,-0.002603,0.6578,0.6038,0.4874,0.012272,-0.010738,0.000000,0.572175,-0.562971,0.567573,-0.579845,0.567573,-0.549165
1.1904,0.016990,0.000000,0.000000,0.000358,0.0000,0.0000,0.0000,0.018392,-0.018392,0.000124,0.000902,-0.002617,0.6035,0.6214,0.4289,0.012272,-0.012272,0.000000,0.570641,-0.562971,0.567573,-0.579845,0.567573,-0.549165
1.2072,0.016829,0.000000,0.000000,0.000390,0.0000,0.0000,0.0000,0.019937,-0.019937,0.000079,0.000868,-0.002602,0.5592,0.6020,0.3817,0.009204,-0.013806,0.000000,0.570641,-0.562971,0.567573,-0.579845,0.567573,-0.550699
1.2254,0.018138,0.000000,0.000000,0.000423,0.0000,0.0000,0.0000,0.021580,-0.021580,0.000079,0.000868,-0.002602,0.5592,0.6020,0.3817,0.013806,-0.015340,0.000000,0.572175,-0.564505,0.567573,-0.579845,0.567573,-0.549165
1.2421,0.016742,0.000000,0.000000,0.000455,0.0000,0.0000,0.0000,0.023075,-0.023075,0.000136,0.000933,-0.002592,0.7028,0.5704,0.4402,0.013806,-0.015340,0.000000,0.572175,-0.564505,0.567573,-0.579845,0.567573,-0.549165
1.2589,0.016755,0.000000,0.000000,0.000486,0.0000,0.0000,0.0000,0.024548,-0.024548,0.000185,0.000833,-0.002579,0.6274,0.5367,0.2739,0.018408,-0.016874,0.000000,0.570641,-0.566039,0.567573,-0.579845,0.567573,-0.550699
1.2756,0.016747,0.000000,0.000000,0.000517,0.0000,0.0000,0.0000,0.025995,-0.025995,0.000126,0.000937,-0.002557,0.6955,0.5755,0.2915,0.019942,-0.016874,0.000000,0.572175,-0.566039,0.567573,-0.581379,0.567573,-0.550699
1.2924,0.016746,0.000000,0.000000,0.000548,0.0000,0.0000,0.0000,0.027417,-0.027417,0.000185,0.000910,-0.002547,0.7276,0.5362,0.2363,0.016874,-0.016874,0.000000,0.572175,-0.567573,0.567573,-0.581379,0.567573,-0.550699
1.3091,0.016745,0.000000,0.000000,0.000579,0.0000,0.0000,0.0000,0.028811,-0.028811,0.000153,0.001023,-0.002524,0.7452,0.6423,0.1353,0.018408,-0.018408,0.000000,0.572175,-0.567573,0.567573,-0.584447,0.567573,-0.550699
1.3259,0.016762,0.000000,0.000000,0.000610,0.0000,0.0000,0.0000,0.030177,-0.030177,0.000153,0.001023,-0.002524,0.7452,0.6423,0.1353,0.018408,-0.018408,0.000000,0.572175,-0.567573,0.567573,-0.584447,0.567573,-0.550699
1.3426,0.016742,0.000000,0.000000,0.000641,0.0000,0.0000,0.0000,0.031513,-0.031513,0.000007,0.000957,-0.002451,0.7328,0.5119,0.0396,0.023010,-0.021476,0.000000,0.575243,-0.569107,0.567573,-0.584447,0.567573,-0.555301
1.3594,0.016754,0.000000,0.000000,0.000672,0.0000,0.0000,0.0000,0.032817,-0.032817,-0.000113,0.001059,-0.002373,0.7948,0.5256,-0.1103,0.032214,-0.024544,0.000000,0.578311,-0.570641,0.567573,-0.587515,0.567573,-0.558369
1.3761,0.016745,0.000000,0.000000,0.000702,0.0000,0.0000,0.0000,0.034088,-0.034088,-0.000261,0.001176,-0.002309,0.7715,0.6256,-0.3086,0.030680,-0.029146,0.000000,0.579845,-0.570641,0.567573,-0.592117,0.567573,-0.561437
1.3929,0.016748,0.000000,0.000000,0.000733,0.0000,0.0000,0.0000,0.035326,-0.035326,-0.000422,0.001219,-0.002255,0.7860,0.5992,-0.3410,0.026078,-0.032214,0.000000,0.582913,-0.570641,0.567573,-0.593651,0.567573,-0.564505
1.4096,0.016743,0.000000,0.000000,0.000764,0.0000,0.0000,0.0000,0.036528,-0.036528,-0.000663,0.001271,-0.002176,0.7971,0.5527,-0.3905,0.029146,-0.030680,0.000000,0.587515,-0.570641,0.567573,-0.595185,0.567573,-0.569107
1.4263,0.016731,0.000000,0.000000,0.000794,0.0000,0.0000,0.0000,0.037692,-0.037692,-0.000663,0.001271,-0.002176,0.7971,0.5527,-0.3905,0.029146,-0.030680,0.000000,0.587515,-0.570641,0.567573,-0.595185,0.567573,-0.569107
1.4431,0.016727,0.000000,0.000000,0.000824,0.0000,0.0000,0.0000,0.038819,-0.038819,-0.000855,0.001361,-0.002113,0.8580,0.5257,-0.3845,0.038350,-0.032214,0.000000,0.592117,-0.570641,0.567573,-0.596719,0.567573,-0.572175
1.4598,0.016753,0.000000,0.000000,0.000855,0.0000,0.0000,0.0000,0.039909,-0.039909,-0.000930,0.001407,-0.002085,0.8636,0.5457,-0.4385,0.036816,-0.035282,0.000000,0.593651,-0.570641,0.567573,-0.598253,0.567573,-0.573709
1.4766,0.016744,0.000000,0.000000,0.000885,0.0000,0.0000,0.0000,0.040959,-0.040959,-0.001086,0.001403,-0.002040,0.8642,0.4771,-0.4324,0.029146,-0.036816,0.000000,0.596719,-0.570641,0.567573,-0.598253,0.567573,-0.576777
1.4933,0.016721,0.000000,0.000000,0.000915,0.0000,0.0000,0.0000,0.041967,-0.041967,-0.001123,0.001420,-0.002021,0.8268,0.5171,-0.5407,0.030680,-0.038350,0.000000,0.596719,-0.570641,0.567573,-0.599786,0.567573,-0.578311
1.5100,0.016743,0.000000,0.000000,0.000945,0.0000,0.0000,0.0000,0.042934,-0.042934,-0.001106,0.001395,-0.001997,0.7415,0.4617,-0.5304,0.041417,-0.039884,0.000000,0.596719,-0.570641,0.567573,-0.599786,0.569107,-0.579845
1.5268,0.016751,0.000000,0.000000,0.000975,0.0000,0.0000,0.0000,0.043859,-0.043859,-0.001106,0.001395,-0.001997,0.7415,0.4617,-0.5304,0.041417,-0.039884,0.000000,0.596719,-0.570641,0.567573,-0.599786,0.569107,-0.579845
1.5435,0.016740,0.000000,0.000000,0.001005,0.0000,0.0000,0.0000,0.044739,-0.044739,-0.001001,0.001428,-0.001974,0.6698,0.3999,-0.4253,0.044485,-0.041417,0.000000,0.596719,-0.570641,0.567573,-0.599786,0.572175,-0.579845
1.5603,0.016748,0.000000,0.000000,0.001034,0.0000,0.0000,0.0000,0.045575,-0.045575,-0.000850,0.001472,-0.001937,0.5569,0.3051,-0.2766,0.039884,-0.039884,0.000000,0.596719,-0.570641,0.567573,-0.599786,0.576777,-0.579845
1.5770,0.016746,0.000000,0.000000,0.001064,0.0000,0.0000,0.0000,0.046366,-0.046366,-0.000773,0.001632,-0.001869,0.5975,0.3026,0.0300,0.038350,-0.041417,0.000000,0.599786,-0.570641,0.569107,-0.601320,0.581379,-0.578311
1.5938,0.016754,0.000000,0.000000,0.001093,0.0000,0.0000,0.0000,0.047111,-0.047111,-0.000658,0.001610,-0.001800,0.4635,0.3561,0.2118,0.042951,-0.044485,0.000000,0.599786,-0.570641,0.572175,-0.602854,0.585981,-0.578311
1.6105,0.016743,0.000000,0.000000,0.001123,0.0000,0.0000,0.0000,0.047809,-0.047809,-0.000696,0.001536,-0.001708,0.3769,0.4553,0.4075,0.047553,-0.046019,0.000000,0.601320,-0.570641,0.576777,-0.604388,0.589049,-0.579845
1.6273,0.016755,0.000000,0.000000,0.001152,0.0000,0.0000,0.0000,0.048459,-0.048459,-0.000696,0.001536,-0.001708,0.3769,0.4553,0.4075,0.047553,-0.046019,0.000000,0.601320,-0.570641,0.576777,-0.604388,0.589049,-0.579845
1.6440,0.016745,0.000000,0.000000,0.001181,0.0000,0.0000,0.0000,0.049061,-0.049061,-0.000664,0.001561,-0.001644,0.3455,0.5158,0.6022,0.046019,-0.044485,0.000000,0.602854,-0.570641,0.579845,-0.605922,0.592117,-0.579845
1.6608,0.016758,0.000000,0.000000,0.001210,0.0000,0.0000,0.0000,0.049614,-0.049614,-0.000544,0.001519,-0.001613,0.2976,0.5625,0.8510,0.041417,-0.044485,0.000000,0.602854,-0.570641,0.582913,-0.605922,0.595185,-0.578311
1.6775,0.016747,0.000000,0.000000,0.001239,0.0000,0.0000,0.0000,0.050117,-0.050117,-0.000500,0.001446,-0.001541,0.2025,0.6943,1.0401,0.042951,-0.046019,0.000000,0.602854,-0.570641,0.587515,-0.607456,0.598253,-0.578311
1.6942,0.016719,0.000000,0.000000,0.001267,0.0000,0.0000,0.0000,0.050570,-0.050570,-0.000476,0.001360,-0.001511,0.1514,0.7485,1.1821,0.049087,-0.046019,0.000000,0.602854,-0.570641,0.590583,-0.607456,0.599786,-0.578311
1.7110,0.016745,0.000000,0.000000,0.001296,0.0000,0.0000,0.0000,0.050973,-0.050973,-0.000517,0.001315,-0.001441,0.1447,0.8972,1.3836,0.049087,-0.047553,0.000000,0.604388,-0.570641,0.595185,-0.608990,0.601320,-0.578311
1.7277,0.016757,0.000000,0.000000,0.001324,0.0000,0.0000,0.0000,0.051326,-0.051326,-0.000517,0.001315,-0.001441,0.1447,0.8972,1.3836,0.049087,-0.047553,0.000000,0.604388,-0.570641,0.595185,-0.608990,0.601320,-0.578311
1.7445,0.016738,0.000000,0.000000,0.001353,0.0000,0.0000,0.0000,0.051627,-0.051627,-0.000512,0.001241,-0.001410,0.0458,0.8806,1.4165,0.044485,-0.047553,0.000000,0.604388,-0.570641,0.596719,-0.608990,0.602854,-0.579845
1.7612,0.016746,0.000000,0.000000,0.001381,0.0000,0.0000,0.0000,0.051877,-0.051877,-0.000401,0.001153,-0.001400,-0.0041,0.9823,1.5746,0.044485,-0.049087,0.000000,0.602854,-0.570641,0.599786,-0.608990,0.604388,-0.578311
1.7780,0.016742,0.000000,0.000000,0.001409,0.0000,0.0000,0.0000,0.052075,-0.052075,-0.000467,0.001147,-0.001377,0.0390,1.0070,1.6669,0.049087,-0.049087,0.000000,0.604388,-0.570641,0.601320,-0.608990,0.604388,-0.578311
1.7947,0.016753,0.000000,0.000000,0.001437,0.0000,0.0000,0.0000,0.052221,-0.052221,-0.000406,0.001163,-0.001368,-0.0040,0.9707,1.7113,0.055223,-0.050621,0.000000,0.604388,-0.570641,0.601320,-0.608990,0.605922,-0.578311
1.8117,0.017027,0.000000,0.000000,0.001465,0.0000,0.0000,0.0000,0.052316,-0.052316,-0.000371,0.001122,-0.001380,-0.0484,0.9894,1.6520,0.052155,-0.050621,0.000000,0.602854,-0.570641,0.601320,-0.608990,0.605922,-0.578311
1.8285,0.016758,0.000000,0.000000,0.001492,0.0000,0.0000,0.0000,0.052358,-0.052358,-0.000371,0.001122,-0.001380,-0.0484,0.9894,1.6520,0.052155,-0.050621,0.000000,0.602854,-0.570641,0.601320,-0.608990,0.605922,-0.578311
1.8452,0.016739,0.000000,0.000000,0.001519,0.0000,0.0000,0.0000,0.052347,-0.052347,-0.000404,0.001080,-0.001340,0.0738,0.9176,1.4984,0.046019,-0.049087,0.000000,0.604388,-0.573709,0.601320,-0.608990,0.604388,-0.579845
1.8620,0.016748,0.000000,0.000000,0.001547,0.0000,0.0000,0.0000,0.052284,-0.052284,-0.000306,0.001108,-0.001306,0.1514,0.9055,1.3535,0.049087,-0.050621,0.000000,0.604388,-0.576777,0.601320,-0.610524,0.604388,-0.579845
1.8787,0.016748,0.000000,0.000000,0.001573,0.0000,0.0000,0.0000,0.052168,-0.052168,-0.000168,0.001145,-0.001259,0.1947,0.8532,1.2615,0.058291,-0.052155,0.000000,0.604388,-0.579845,0.601320,-0.612058,0.605922,-0.579845
1.8955,0.016750,0.000000,0.000000,0.001600,0.0000,0.0000,0.0000,0.052001,-0.052001,-0.000171,0.001134,-0.001201,0.3574,0.8045,1.0027,0.058291,-0.052155,0.000000,0.605922,-0.584447,0.601320,-0.613592,0.604388,-0.581379
1.9123,0.016848,0.000000,0.000000,0.001627,0.0000,0.0000,0.0000,0.051781,-0.051781,-0.000092,0.001088,-0.001144,0.4580,0.6708,0.8690,0.047553,-0.052155,0.000000,0.607456,-0.589049,0.601320,-0.613592,0.604388,-0.582913
1.9291,0.016745,0.000000,0.000000,0.001653,0.0000,0.0000,0.0000,0.051510,-0.051510,-0.000092,0.001088,-0.001144,0.4580,0.6708,0.8690,0.047553,-0.052155,0.000000,0.607456,-0.589049,0.601320,-0.613592,0.604388,-0.582913
1.9459,0.016810,0.000000,0.000000,0.001680,0.0000,0.0000,0.0000,0.051186,-0.051186,0.000007,0.001140,-0.001088,0.6248,0.6144,0.7216,0.050621,-0.052155,0.000000,0.608990,-0.593651,0.601320,-0.615126,0.604388,-0.582913
1.9627,0.016775,0.000000,0.000000,0.001706,0.0000,0.0000,0.0000,0.050812,-0.050812,0.000007,0.001140,-0.001088,0.6248,0.6144,0.7216,0.050621,-0.052155,0.000000,0.608990,-0.593651,0.601320,-0.615126,0.604388,-0.582913
1.9796,0.016917,0.000000,0.000000,0.001732,0.0000,0.0000,0.0000,0.050383,-0.050383,0.000007,0.001140,-0.001088,0.6248,0.6144,0.7216,0.050621,-0.052155,0.000000,0.608990,-0.593651,0.601320,-0.615126,0.604388,-0.582913
1.9963,0.016752,0.000000,0.000000,0.001758,0.0000,0.0000,0.0000,0.049908,-0.049908,0.000033,0.001000,-0.000894,0.7907,0.2915,0.1960,0.046019,-0.052155,0.000000,0.613592,-0.604388,0.601320,-0.616660,0.604388,-0.590583
2.0131,0.016741,0.000000,0.000000,0.001783,0.0000,0.0000,0.0000,0.049384,-0.049384,-0.000039,0.000960,-0.000865,0.7619,0.2407,0.1428,0.049087,-0.052155,0.000000,0.615126,-0.605922,0.601320,-0.616660,0.604388,-0.593651
2.0298,0.016754,0.000000,0.000000,0.001809,0.0000,0.0000,0.0000,0.048810,-0.048810,-0.000059,0.000948,-0.000831,0.8034,0.1784,0.0941,0.056757,-0.052155,0.000000,0.616660,-0.607456,0.601320,-0.616660,0.604388,-0.595185
2.0466,0.016744,0.000000,0.000000,0.001834,0.0000,0.0000,0.0000,0.048187,-0.048187,-0.000140,0.000949,-0.000810,0.7991,0.1525,0.0995,0.052155,-0.047553,0.000000,0.618194,-0.607456,0.601320,-0.616660,0.604388,-0.596719
2.0633,0.016740,0.000000,0.000000,0.001858,0.0000,0.0000,0.0000,0.047517,-0.047517,-0.000172,0.000910,-0.000799,0.7503,0.1381,0.0446,0.042951,-0.047553,0.000000,0.618194,-0.607456,0.601320,-0.616660,0.604388,-0.598253
2.0813,0.017993,0.000000,0.000000,0.001885,0.0000,0.0000,0.0000,0.046744,-0.046744,-0.000210,0.000875,-0.000788,0.7062,0.1227,-0.0040,0.042951,-0.049087,0.000000,0.618194,-0.607456,0.601320,-0.616660,0.604388,-0.599786
2.0981,0.016759,0.000000,0.000000,0.001909,0.0000,0.0000,0.0000,0.045975,-0.045975,-0.000210,0.000875,-0.000788,0.7062,0.1227,-0.0040,0.042951,-0.049087,0.000000,0.618194,-0.607456,0.601320,-0.616660,0.604388,-0.599786
2.1148,0.016751,0.000000,0.000000,0.001934,0.0000,0.0000,0.0000,0.045162,-0.045162,-0.000192,0.000823,-0.000764,0.7001,0.0724,-0.1078,0.049087,-0.047553,0.000000,0.618194,-0.608990,0.601320,-0.616660,0.604388,-0.601320
2.1316,0.016752,0.000000,0.000000,0.001958,0.0000,0.0000,0.0000,0.044303,-0.044303,-0.000235,0.000789,-0.000754,0.6516,0.0608,-0.1513,0.049087,-0.047553,0.000000,0.618194,-0.608990,0.601320,-0.616660,0.604388,-0.602854
2.1483,0.016742,0.000000,0.000000,0.001982,0.0000,0.0000,0.0000,0.043400,-0.043400,-0.000176,0.000776,-0.000742,0.6951,0.0271,-0.2014,0.041417,-0.047553,0.000000,0.618194,-0.610524,0.601320,-0.616660,0.604388,-0.602854
2.1651,0.016753,0.000000,0.000000,0.002005,0.0000,0.0000,0.0000,0.042453,-0.042453,-0.000182,0.000778,-0.000743,0.6906,0.0306,-0.1961,0.038350,-0.044485,0.000000,0.618194,-0.610524,0.601320,-0.616660,0.604388,-0.602854
2.1818,0.016753,0.000000,0.000000,0.002029,0.0000,0.0000,0.0000,0.041465,-0.041465,-0.000181,0.000810,-0.000743,0.6136,0.0310,-0.0880,0.042951,-0.041417,0.000000,0.618194,-0.608990,0.601320,-0.616660,0.605922,-0.602854
2.1986,0.016752,0.000000,0.000000,0.002052,0.0000,0.0000,0.0000,0.040435,-0.040435,-0.000181,0.000810,-0.000743,0.6136,0.0310,-0.0880,0.042951,-0.041417,0.000000,0.618194,-0.608990,0.601320,-0.616660,0.605922,-0.602854
2.2153,0.016742,0.000000,0.000000,0.002075,0.0000,0.0000,0.0000,0.039365,-0.039365,-0.000223,0.000735,-0.000731,0.6500,0.0134,-0.2623,0.046019,-0.042951,0.000000,0.618194,-0.610524,0.601320,-0.616660,0.604388,-0.604388
2.2321,0.016750,0.000000,0.000000,0.002097,0.0000,0.0000,0.0000,0.038255,-0.038255,-0.000232,0.000799,-0.000720,0.6571,0.0656,-0.2985,0.041417,-0.042951,0.000000,0.618194,-0.610524,0.601320,-0.618194,0.604388,-0.604388
2.2488,0.016743,0.000000,0.000000,0.002120,0.0000,0.0000,0.0000,0.037108,-0.037108,-0.000203,0.000920,-0.000686,0.6391,0.1265,-0.3494,0.036816,-0.039884,0.000000,0.618194,-0.610524,0.601320,-0.621262,0.605922,-0.604388
2.2655,0.016745,0.000000,0.000000,0.002142,0.0000,0.0000,0.0000,0.035924,-0.035924,-0.000261,0.000891,-0.000702,0.6802,0.1542,-0.3981,0.036816,-0.038350,0.000000,0.618194,-0.610524,0.601320,-0.621262,0.604388,-0.604388
2.2823,0.016752,0.000000,0.000000,0.002164,0.0000,0.0000,0.0000,0.034703,-0.034703,-0.000213,0.000966,-0.000676,0.6476,0.1674,-0.3934,0.039884,-0.038350,0.000000,0.618194,-0.610524,0.601320,-0.622796,0.605922,-0.604388
2.2990,0.016750,0.000000,0.000000,0.002186,0.0000,0.0000,0.0000,0.033448,-0.033448,-0.000213,0.000966,-0.000676,0.6476,0.1674,-0.3934,0.039884,-0.038350,0.000000,0.618194,-0.610524,0.601320,-0.622796,0.605922,-0.604388
2.3158,0.016744,0.000000,0.000000,0.002207,0.0000,0.0000,0.0000,0.032160,-0.032160,-0.000232,0.001014,-0.000668,0.6620,0.2162,-0.4483,0.036816,-0.038350,0.000000,0.618194,-0.610524,0.601320,-0.624330,0.605922,-0.604388
2.3325,0.016745,0.000000,0.000000,0.002228,0.0000,0.0000,0.0000,0.030840,-0.030840,-0.000230,0.001009,-0.000669,0.6605,0.2111,-0.4426,0.029146,-0.036816,0.000000,0.618194,-0.610524,0.601320,-0.624330,0.605922,-0.604388
2.3493,0.016756,0.000000,0.000000,0.002249,0.0000,0.0000,0.0000,0.029489,-0.029489,-0.000298,0.001050,-0.000669,0.7110,0.2957,-0.5516,0.029146,-0.033748,0.000000,0.618194,-0.610524,0.601320,-0.625864,0.604388,-0.604388
2.3660,0.016747,0.000000,0.000000,0.002270,0.0000,0.0000,0.0000,0.028109,-0.028109,-0.000250,0.001118,-0.000646,0.6775,0.3028,-0.5408,0.035282,-0.030680,0.000000,0.618194,-0.610524,0.601320,-0.627398,0.605922,-0.604388
2.3828,0.016754,0.000000,0.000000,0.002291,0.0000,0.0000,0.0000,0.026700,-0.026700,-0.000309,0.001095,-0.000661,0.7204,0.3360,-0.5959,0.032214,-0.030680,0.000000,0.618194,-0.610524,0.601320,-0.627398,0.604388,-0.604388
2.3995,0.016753,0.000000,0.000000,0.002311,0.0000,0.0000,0.0000,0.025264,-0.025264,-0.000309,0.001095,-0.000661,0.7204,0.3360,-0.5959,0.032214,-0.030680,0.000000,0.618194,-0.610524,0.601320,-0.627398,0.604388,-0.604388
2.4163,0.016744,0.000000,0.000000,0.002331,0.0000,0.0000,0.0000,0.023805,-0.023805,-0.000303,0.001097,-0.000659,0.7159,0.3326,-0.5902,0.026078,-0.030680,0.000000,0.618194,-0.610524,0.601320,-0.627398,0.604388,-0.604388
2.4330,0.016744,0.000000,0.000000,0.002351,0.0000,0.0000,0.0000,0.022321,-0.022321,-0.000317,0.001153,-0.000648,0.7275,0.3828,-0.6453,0.024544,-0.029146,0.000000,0.618194,-0.610524,0.601320,-0.628932,0.604388,-0.604388
2.4498,0.016777,0.000000,0.000000,0.002370,0.0000,0.0000,0.0000,0.020812,-0.020812,-0.000248,0.001107,-0.000648,0.6757,0.2938,-0.5310,0.026078,-0.027612,0.000000,0.618194,-0.610524,0.601320,-0.627398,0.605922,-0.604388
2.4666,0.016758,0.000000,0.000000,0.002389,0.0000,0.0000,0.0000,0.019284,-0.019284,-0.000146,0.001079,-0.000623,0.7575,0.2329,-0.6521,0.024544,-0.026078,0.000000,0.618194,-0.613592,0.601320,-0.627398,0.605922,-0.604388
2.4833,0.016761,0.000000,0.000000,0.002408,0.0000,0.0000,0.0000,0.017737,-0.017737,-0.000074,0.001083,-0.000539,0.7477,0.2733,-0.4768,0.019942,-0.021476,0.000000,0.619728,-0.615126,0.604388,-0.628932,0.608990,-0.604388
2.5001,0.016737,0.000000,0.000000,0.002427,0.0000,0.0000,0.0000,0.016174,-0.016174,-0.000074,0.001083,-0.000539,0.7477,0.2733,-0.4768,0.019942,-0.021476,0.000000,0.619728,-0.615126,0.604388,-0.628932,0.608990,-0.604388
2.5168,0.016750,0.000000,0.000000,0.002446,0.0000,0.0000,0.0000,0.014594,-0.014594,-0.000068,0.001027,-0.000449,0.7373,0.2207,-0.2774,0.015340,-0.016874,0.000000,0.622796,-0.616660,0.607456,-0.628932,0.612058,-0.605922
2.5336,0.016749,0.000000,0.000000,0.002464,0.0000,0.0000,0.0000,0.013000,-0.013000,-0.000028,0.001074,-0.000361,0.7870,0.2446,-0.0802,0.016874,-0.016874,0.000000,0.625864,-0.618194,0.610524,-0.630466,0.615126,-0.605922
2.5503,0.016749,0.000000,0.000000,0.002482,0.0000,0.0000,0.0000,0.011392,-0.011392,0.000052,0.000992,-0.000210,0.6826,0.2741,-0.0466,0.016874,-0.018408,0.000000,0.627398,-0.621262,0.615126,-0.633534,0.619728,-0.608990
2.5671,0.016743,0.000000,0.000000,0.002499,0.0000,0.0000,0.0000,0.009774,-0.009774,0.000071,0.000985,-0.000116,0.7318,0.3401,0.2237,0.013806,-0.013806,0.000000,0.630466,-0.622796,0.619728,-0.635068,0.622796,-0.608990
2.5838,0.016725,0.000000,0.000000,0.002516,0.0000,0.0000,0.0000,0.008148,-0.008148,0.000071,0.000985,-0.000116,0.7318,0.3401,0.2237,0.010738,-0.010738,0.000000,0.633534,-0.622796,0.622796,-0.636602,0.624330,-0.610524
2.6005,0.016745,0.000000,0.000000,0.002534,0.0000,0.0000,0.0000,0.006511,-0.006511,-0.000041,0.000987,-0.000040,0.7266,0.4036,0.3605,0.010738,-0.010738,0.000000,0.633534,-0.622796,0.622796,-0.636602,0.624330,-0.610524
2.6173,0.016750,0.000000,0.000000,0.002550,0.0000,0.0000,0.0000,0.004868,-0.004868,0.000052,0.000971,0.000050,0.7649,0.2624,0.4559,0.006136,-0.010738,0.000000,0.636602,-0.625864,0.624330,-0.636602,0.627398,-0.612058
2.6340,0.016750,0.000000,0.000000,0.002567,0.0000,0.0000,0.0000,0.003220,-0.003220,0.000042,0.000973,0.000076,0.7609,0.2788,0.6106,0.007670,-0.012272,0.000000,0.638136,-0.625864,0.625864,-0.636602,0.628932,-0.612058
2.6508,0.016748,0.000000,0.000000,0.002583,0.0000,0.0000,0.0000,0.001569,-0.001569,-0.000012,0.000957,0.000098,0.7995,0.3125,0.7048,0.007670,-0.007670,0.000000,0.639670,-0.625864,0.627398,-0.636602,0.628932,-0.612058
2.6675,0.016759,0.000000,0.000000,0.002599,0.0000,0.0000,0.0000,-0.000085,0.000085,0.000006,0.001014,0.000119,0.8060,0.2603,0.8047,0.001534,-0.003068,0.000000,0.641204,-0.625864,0.627398,-0.636602,0.630466,-0.612058
2.6843,0.016758,0.000000,0.000000,0.002615,0.0000,0.0000,0.0000,-0.001739,0.001739,0.000006,0.001014,0.000119,0.8060,0.2603,0.8047,0.001534,-0.003068,0.000000,0.641204,-0.625864,0.627398,-0.636602,0.630466,-0.612058
2.7010,0.016745,0.000000,0.000000,0.002630,0.0000,0.0000,0.0000,-0.003389,0.003389,0.000004,0.001008,0.000117,0.8053,0.2658,0.7943,-0.001534,-0.003068,0.000000,0.641204,-0.625864,0.627398,-0.636602,0.630466,-0.612058
2.7178,0.016735,0.000000,0.000000,0.002645,0.0000,0.0000,0.0000,-0.005036,0.005036,0.000004,0.001008,0.000117,0.8053,0.2658,0.7943,0.003068,-0.004602,0.000000,0.641204,-0.625864,0.627398,-0.636602,0.630466,-0.612058
2.7345,0.016740,0.000000,0.000000,0.002660,0.0000,0.0000,0.0000,-0.006677,0.006677,0.000004,0.001008,0.000117,0.8053,0.2658,0.7943,0.004602,-0.001534,0.000000,0.641204,-0.625864,0.627398,-0.636602,0.630466,-0.612058
2.7513,0.016753,0.000000,0.000000,0.002674,0.0000,0.0000,0.0000,-0.008314,0.008314,0.000046,0.001081,0.000140,0.7778,0.2818,0.7952,-0.003068,0.003068,0.000000,0.641204,-0.625864,0.627398,-0.638136,0.632000,-0.612058
2.7680,0.016765,0.000000,0.000000,0.002688,0.0000,0.0000,0.0000,-0.009943,0.009943,0.000028,0.001130,0.000149,0.7913,0.3305,0.7404,-0.007670,0.004602,0.000000,0.641204,-0.625864,0.627398,-0.639670,0.632000,-0.612058
2.7848,0.016747,0.000000,0.000000,0.002702,0.0000,0.0000,0.0000,-0.011561,0.011561,0.000028,0.001130,0.000149,0.7913,0.3305,0.7404,-0.007670,0.004602,0.000000,0.641204,-0.625864,0.627398,-0.639670,0.632000,-0.612058
2.8015,0.016738,0.000000,0.000000,0.002716,0.0000,0.0000,0.0000,-0.013166,0.013166,0.000086,0.001141,0.000160,0.7517,0.2917,0.8007,-0.007670,0.004602,0.000000,0.641204,-0.625864,0.627398,-0.639670,0.633534,-0.612058
2.8183,0.016739,0.000000,0.000000,0.002729,0.0000,0.0000,0.0000,-0.014758,0.014758,0.000066,0.001196,0.000171,0.7665,0.3460,0.7396,-0.004602,0.007670,0.000000,0.641204,-0.625864,0.627398,-0.641204,0.633534,-0.612058
2.8350,0.016740,0.000000,0.000000,0.002742,0.0000,0.0000,0.0000,-0.016336,0.016336,0.000110,0.001263,0.000193,0.7373,0.3569,0.7458,-0.006136,0.010738,0.000000,0.641204,-0.625864,0.627398,-0.642738,0.635068,-0.612058
2.8517,0.016741,0.000000,0.000000,0.002755,0.0000,0.0000,0.0000,-0.017897,0.017897,0.000092,0.001313,0.000202,0.7510,0.4060,0.6903,-0.012272,0.010738,0.000000,0.641204,-0.625864,0.627398,-0.644272,0.635068,-0.612058
2.8685,0.016751,0.000000,0.000000,0.002767,0.0000,0.0000,0.0000,-0.019441,0.019441,0.000094,0.001307,0.000201,0.7496,0.4009,0.6961,-0.018408,0.012272,0.000000,0.641204,-0.625864,0.627398,-0.644272,0.635068,-0.612058
2.8852,0.016745,0.000000,0.000000,0.002779,0.0000,0.0000,0.0000,-0.020966,0.020966,0.000094,0.001307,0.000201,0.7496,0.4009,0.6961,-0.018408,0.012272,0.000000,0.641204,-0.625864,0.627398,-0.644272,0.635068,-0.612058
2.9020,0.016741,0.000000,0.000000,0.002791,0.0000,0.0000,0.0000,-0.022469,0.022469,0.000080,0.001365,0.000213,0.7604,0.4516,0.6406,-0.018408,0.016874,0.000000,0.641204,-0.625864,0.627398,-0.645806,0.635068,-0.612058
2.9187,0.016743,0.000000,0.000000,0.002802,0.0000,0.0000,0.0000,-0.023951,0.023951,0.000136,0.001342,0.000224,0.7976,0.4110,0.5915,-0.015340,0.016874,0.000000,0.641204,-0.627398,0.627398,-0.645806,0.635068,-0.612058
2.9355,0.016757,0.000000,0.000000,0.002813,0.0000,0.0000,0.0000,-0.025409,0.025409,0.000185,0.001328,0.000235,0.8320,0.3799,0.5416,-0.016874,0.015340,0.000000,0.641204,-0.628932,0.627398,-0.645806,0.635068,-0.612058
2.9522,0.016752,0.000000,0.000000,0.002824,0.0000,0.0000,0.0000,-0.026842,0.026842,0.000180,0.001330,0.000234,0.8284,0.3832,0.5468,-0.023010,0.018408,0.000000,0.641204,-0.628932,0.627398,-0.645806,0.635068,-0.612058
2.9690,0.016747,0.000000,0.000000,0.002835,0.0000,0.0000,0.0000,-0.028247,0.028247,0.000167,0.001386,0.000246,0.8394,0.4329,0.4914,-0.027612,0.023010,0.000000,0.641204,-0.628932,0.627398,-0.647340,0.635068,-0.612058
2.9857,0.016778,0.000000,0.000000,0.002845,0.0000,0.0000,0.0000,-0.029627,0.029627,0.000167,0.001386,0.000246,0.8394,0.4329,0.4914,-0.027612,0.023010,0.000000,0.641204,-0.628932,0.627398,-0.647340,0.635068,-0.612058
3.0026,0.016861,0.000000,0.000000,0.002855,0.0000,0.0000,0.0000,-0.030984,0.030984,0.000167,0.001386,0.000246,0.8394,0.4329,0.4914,-0.027612,0.023010,0.000000,0.641204,-0.628932,0.627398,-0.647340,0.635068,-0.612058
3.0194,0.016832,0.000000,0.000000,0.002864,0.0000,0.0000,0.0000,-0.032307,0.032307,0.000167,0.001386,0.000246,0.8394,0.4329,0.4914,-0.027612,0.023010,0.000000,0.641204,-0.628932,0.627398,-0.647340,0.635068,-0.612058
3.0362,0.016748,0.000000,0.000000,0.002874,0.0000,0.0000,0.0000,-0.033592,0.033592,0.000167,0.001386,0.000246,0.8394,0.4329,0.4914,-0.027612,0.023010,0.000000,0.641204,-0.628932,0.627398,-0.647340,0.635068,-0.612058
3.0529,0.016748,0.000000,0.000000,0.002882,0.0000,0.0000,0.0000,-0.034843,0.034843,0.000113,0.001364,0.000233,0.8766,0.4613,0.4426,-0.029146,0.026078,0.000000,0.641204,-0.628932,0.627398,-0.647340,0.633534,-0.612058
3.0697,0.016743,0.000000,0.000000,0.002891,0.0000,0.0000,0.0000,-0.036059,0.036059,0.000174,0.001382,0.000246,0.8343,0.4247,0.5022,-0.024544,0.026078,0.000000,0.641204,-0.628932,0.627398,-0.647340,0.635068,-0.612058
3.0867,0.016986,0.000000,0.000000,0.002899,0.0000,0.0000,0.0000,-0.037256,0.037256,0.000168,0.001380,0.000244,0.8387,0.4285,0.4960,-0.024544,0.026078,0.000000,0.641204,-0.628932,0.627398,-0.647340,0.635068,-0.612058
3.1034,0.016749,0.000000,0.000000,0.002907,0.0000,0.0000,0.0000,-0.038399,0.038399,0.000113,0.001365,0.000233,0.8767,0.4618,0.4421,-0.030680,0.029146,0.000000,0.641204,-0.628932,0.627398,-0.647340,0.633534,-0.612058
3.1202,0.016754,0.000000,0.000000,0.002915,0.0000,0.0000,0.0000,-0.039503,0.039503,0.000113,0.001365,0.000233,0.8767,0.4618,0.4421,-0.039884,0.038350,0.000000,0.641204,-0.628932,0.627398,-0.647340,0.635068,-0.612058
3.1369,0.016743,0.000000,0.000000,0.002922,0.0000,0.0000,0.0000,-0.040568,0.040568,0.000174,0.001382,0.000246,0.8343,0.4247,0.5023,-0.039884,0.038350,0.000000,0.641204,-0.628932,0.627398,-0.647340,0.635068,-0.612058
3.1537,0.016750,0.000000,0.000000,0.002929,0.0000,0.0000,0.0000,-0.041593,0.041593,0.000168,0.001380,0.000244,0.8387,0.4285,0.4960,-0.041417,0.039884,0.000000,0.641204,-0.628932,0.627398,-0.647340,0.635068,-0.612058
3.1704,0.016744,0.000000,0.000000,0.002936,0.0000,0.0000,0.0000,-0.042576,0.042576,0.000168,0.001380,0.000244,0.8387,0.4285,0.4960,-0.036816,0.036816,0.000000,0.641204,-0.628932,0.627398,-0.647340,0.635068,-0.612058
3.1872,0.016754,0.000000,0.000000,0.002942,0.0000,0.0000,0.0000,-0.043517,0.043517,0.000168,0.001380,0.000244,0.8387,0.4285,0.4960,-0.038350,0.038350,0.000000,0.641204,-0.628932,0.627398,-0.647340,0.635068,-0.612058
3.2039,0.016747,0.000000,0.000000,0.002948,0.0000,0.0000,0.0000,-0.044414,0.044414,0.000113,0.001365,0.000233,0.8767,0.4618,0.4421,-0.044485,0.041417,0.000000,0.641204,-0.628932,0.627398,-0.647340,0.633534,-0.612058
3.2207,0.016770,0.000000,0.000000,0.002954,0.0000,0.0000,0.0000,-0.045268,0.045268,0.000113,0.001365,0.000233,0.8767,0.4618,0.4421,-0.046019,0.041417,0.000000,0.641204,-0.628932,0.628932,-0.647340,0.635068,-0.612058
3.2374,0.016742,0.000000,0.000000,0.002959,0.0000,0.0000,0.0000,-0.046076,0.046076,0.000161,0.001327,0.000259,0.8238,0.4751,0.5575,-0.046019,0.041417,0.000000,0.641204,-0.628932,0.628932,-0.647340,0.635068,-0.612058
3.2542,0.016749,0.000000,0.000000,0.002964,0.0000,0.0000,0.0000,-0.046838,0.046838,0.000143,0.001275,0.000269,0.8187,0.5241,0.6007,-0.041417,0.041417,0.000000,0.641204,-0.628932,0.630466,-0.647340,0.635068,-0.612058
3.2709,0.016742,0.000000,0.000000,0.002969,0.0000,0.0000,0.0000,-0.047553,0.047553,0.000145,0.001281,0.000268,0.8192,0.5190,0.5962,-0.039884,0.042951,0.000000,0.641204,-0.628932,0.630466,-0.647340,0.635068,-0.612058
3.2877,0.016755,0.000000,0.000000,0.002973,0.0000,0.0000,0.0000,-0.048222,0.048222,0.000145,0.001281,0.000268,0.8192,0.5190,0.5962,-0.047553,0.042951,0.000000,0.641204,-0.628932,0.630466,-0.647340,0.635068,-0.612058
3.3044,0.016746,0.000000,0.000000,0.002977,0.0000,0.0000,0.0000,-0.048841,0.048841,0.000145,0.001281,0.000268,0.8192,0.5190,0.5962,-0.052155,0.046019,0.000000,0.641204,-0.628932,0.630466,-0.647340,0.635068,-0.612058
3.3212,0.016755,0.000000,0.000000,0.002981,0.0000,0.0000,0.0000,-0.049413,0.049413,0.000145,0.001281,0.000268,0.8192,0.5190,0.5962,-0.052155,0.046019,0.000000,0.641204,-0.628932,0.630466,-0.647340,0.635068,-0.612058
3.3379,0.016744,0.000000,0.000000,0.002984,0.0000,0.0000,0.0000,-0.049935,0.049935,0.000145,0.001281,0.000268,0.8192,0.5190,0.5962,-0.047553,0.046019,0.000000,0.641204,-0.628932,0.630466,-0.647340,0.635068,-0.612058
3.3547,0.016760,0.000000,0.000000,0.002988,0.0000,0.0000,0.0000,-0.050407,0.050407,0.000145,0.001281,0.000268,0.8192,0.5190,0.5962,-0.042951,0.046019,0.000000,0.641204,-0.628932,0.630466,-0.647340,0.635068,-0.612058
3.3714,0.016746,0.000000,0.000000,0.002990,0.0000,0.0000,0.0000,-0.050829,0.050829,0.000145,0.001281,0.000268,0.8192,0.5190,0.5962,-0.049087,0.046019,0.000000,0.641204,-0.628932,0.630466,-0.647340,0.635068,-0.612058
3.3882,0.016753,0.000000,0.000000,0.002993,0.0000,0.0000,0.0000,-0.051201,0.051201,0.000131,0.001337,0.000279,0.8298,0.5696,0.5417,-0.055223,0.046019,0.000000,0.641204,-0.628932,0.630466,-0.648874,0.635068,-0.612058
3.4049,0.016744,0.000000,0.000000,0.002995,0.0000,0.0000,0.0000,-0.051521,0.051521,0.000119,0.001388,0.000289,0.8394,0.6143,0.4924,-0.050621,0.047553,0.000000,0.641204,-0.628932,0.630466,-0.650408,0.635068,-0.612058
3.4217,0.016777,0.000000,0.000000,0.002996,0.0000,0.0000,0.0000,-0.051790,0.051790,0.000119,0.001388,0.000289,0.8394,0.6143,0.4924,-0.050621,0.047553,0.000000,0.641204,-0.628932,0.630466,-0.650408,0.635068,-0.612058
3.4384,0.016745,0.000000,0.000000,0.002998,0.0000,0.0000,0.0000,-0.052008,0.052008,0.000121,0.001382,0.000288,0.8384,0.6096,0.4975,-0.047553,0.049087,0.000000,0.641204,-0.628932,0.630466,-0.650408,0.635068,-0.612058
3.4552,0.016755,0.000000,0.000000,0.002999,0.0000,0.0000,0.0000,-0.052173,0.052173,0.000121,0.001382,0.000288,0.8384,0.6096,0.4975,-0.052155,0.049087,0.000000,0.641204,-0.628932,0.630466,-0.650408,0.635068,-0.612058
3.4719,0.016743,0.000000,0.000000,0.003000,0.0000,0.0000,0.0000,-0.052287,0.052287,0.000121,0.001382,0.000288,0.8384,0.6096,0.4975,-0.055223,0.049087,0.000000,0.641204,-0.628932,0.630466,-0.650408,0.635068,-0.612058
3.4887,0.016743,0.000000,0.000000,0.003000,0.0000,0.0000,0.0000,-0.052348,0.052348,0.000121,0.001382,0.000288,0.8384,0.6096,0.4975,-0.049087,0.049087,0.000000,0.641204,-0.628932,0.630466,-0.650408,0.635068,-0.612058
3.5054,0.016754,0.000000,0.000000,0.003000,0.0000,0.0000,0.0000,-0.052357,0.052357,0.000121,0.001382,0.000288,0.8384,0.6096,0.4975,-0.049087,0.050621,0.000000,0.641204,-0.628932,0.630466,-0.650408,0.635068,-0.612058
3.5222,0.016758,0.000000,0.000000,0.003000,0.0000,0.0000,0.0000,-0.052314,0.052314,0.000121,0.001382,0.000288,0.8384,0.6096,0.4975,-0.049087,0.050621,0.000000,0.641204,-0.628932,0.630466,-0.650408,0.635068,-0.612058
3.5389,0.016743,0.000000,0.000000,0.002999,0.0000,0.0000,0.0000,-0.052219,0.052219,0.000121,0.001382,0.000288,0.8384,0.6096,0.4975,-0.056757,0.050621,0.000000,0.641204,-0.628932,0.630466,-0.650408,0.635068,-0.612058
3.5557,0.016751,0.000000,0.000000,0.002998,0.0000,0.0000,0.0000,-0.052072,0.052072,0.000121,0.001382,0.000288,0.8384,0.6096,0.4975,-0.055223,0.050621,0.000000,0.641204,-0.628932,0.630466,-0.650408,0.635068,-0.612058
3.5724,0.016726,0.000000,0.000000,0.002997,0.0000,0.0000,0.0000,-0.051873,0.051873,0.000121,0.001382,0.000288,0.8384,0.6096,0.4975,-0.047553,0.050621,0.000000,0.641204,-0.628932,0.630466,-0.650408,0.635068,-0.612058
3.5891,0.016740,0.000000,0.000000,0.002995,0.0000,0.0000,0.0000,-0.051622,0.051622,0.000107,0.001440,0.000300,0.8492,0.6600,0.4420,-0.049087,0.050621,0.000000,0.641204,-0.628932,0.630466,-0.651942,0.635068,-0.612058
3.6063,0.017170,0.000000,0.000000,0.002993,0.0000,0.0000,0.0000,-0.051312,0.051312,0.000109,0.001434,0.000298,0.8481,0.6548,0.4478,-0.056757,0.050621,0.000000,0.641204,-0.628932,0.630466,-0.651942,0.635068,-0.612058
3.6231,0.016779,0.000000,0.000000,0.002991,0.0000,0.0000,0.0000,-0.050957,0.050957,0.000109,0.001434,0.000298,0.8481,0.6548,0.4478,-0.056757,0.050621,0.000000,0.641204,-0.628932,0.630466,-0.651942,0.635068,-0.612058
3.6398,0.016739,0.000000,0.000000,0.002988,0.0000,0.0000,0.0000,-0.050552,0.050552,0.000109,0.001434,0.000298,0.8481,0.6548,0.4478,-0.053689,0.050621,0.000000,0.641204,-0.628932,0.630466,-0.651942,0.635068,-0.612058
3.6566,0.016740,0.000000,0.000000,0.002985,0.0000,0.0000,0.0000,-0.050096,0.050096,0.000095,0.001491,0.000310,0.8590,0.7052,0.3922,-0.047553,0.050621,0.000000,0.641204,-0.628932,0.630466,-0.653476,0.635068,-0.612058
3.6733,0.016741,0.000000,0.000000,0.002982,0.0000,0.0000,0.0000,-0.049590,0.049590,0.000096,0.001485,0.000309,0.8578,0.6999,0.3980,-0.049087,0.050621,0.000000,0.641204,-0.628932,0.630466,-0.653476,0.635068,-0.612058
3.6901,0.016752,0.000000,0.000000,0.002979,0.0000,0.0000,0.0000,-0.049035,0.049035,0.000096,0.001485,0.000309,0.8578,0.6999,0.3980,-0.055223,0.049087,0.000000,0.641204,-0.628932,0.630466,-0.653476,0.635068,-0.612058
3.7068,0.016765,0.000000,0.000000,0.002975,0.0000,0.0000,0.0000,-0.048431,0.048431,0.000014,0.001407,0.000335,0.7598,0.6660,0.2875,-0.053689,0.049087,0.000000,0.641204,-0.628932,0.630466,-0.653476,0.635068,-0.615126
3.7236,0.016744,0.000000,0.000000,0.002970,0.0000,0.0000,0.0000,-0.047779,0.047779,0.000014,0.001407,0.000335,0.7598,0.6660,0.2875,-0.053689,0.049087,0.000000,0.641204,-0.628932,0.630466,-0.653476,0.635068,-0.615126
3.7403,0.016745,0.000000,0.000000,0.002966,0.0000,0.0000,0.0000,-0.047079,0.047079,0.000023,0.001415,0.000332,0.7701,0.6696,0.2991,-0.046019,0.049087,0.000000,0.641204,-0.628932,0.630466,-0.653476,0.635068,-0.615126
3.7571,0.016754,0.000000,0.000000,0.002961,0.0000,0.0000,0.0000,-0.046332,0.046332,-0.000020,0.001374,0.000345,0.7200,0.6521,0.2429,-0.047553,0.049087,0.000000,0.641204,-0.628932,0.630466,-0.653476,0.635068,-0.616660
3.7738,0.016745,0.000000,0.000000,0.002956,0.0000,0.0000,0.0000,-0.045539,0.045539,-0.000098,0.001299,0.000370,0.6273,0.6198,0.1388,-0.052155,0.047553,0.000000,0.641204,-0.628932,0.630466,-0.653476,0.635068,-0.619728
3.7906,0.016778,0.000000,0.000000,0.002950,0.0000,0.0000,0.0000,-0.044699,0.044699,-0.000131,0.001267,0.000380,0.5882,0.6063,0.0947,-0.049087,0.046019,0.000000,0.641204,-0.628932,0.630466,-0.653476,0.635068,-0.621262
3.8073,0.016740,0.000000,0.000000,0.002944,0.0000,0.0000,0.0000,-0.043816,0.043816,-0.000169,0.001231,0.000392,0.5434,0.5908,0.0442,-0.041417,0.046019,0.000000,0.641204,-0.628932,0.630466,-0.653476,0.635068,-0.622796
3.8241,0.016758,0.000000,0.000000,0.002938,0.0000,0.0000,0.0000,-0.042889,0.042889,-0.000169,0.001231,0.000392,0.5434,0.5908,0.0442,-0.041417,0.046019,0.000000,0.641204,-0.628932,0.630466,-0.653476,0.635068,-0.622796
3.8408,0.016746,0.000000,0.000000,0.002931,0.0000,0.0000,0.0000,-0.041920,0.041920,-0.000165,0.001235,0.000391,0.5481,0.5924,0.0495,-0.044485,0.044485,0.000000,0.641204,-0.628932,0.630466,-0.653476,0.635068,-0.622796
3.8576,0.016751,0.000000,0.000000,0.002925,0.0000,0.0000,0.0000,-0.040909,0.040909,-0.000165,0.001235,0.000391,0.5481,0.5924,0.0495,-0.049087,0.044485,0.000000,0.641204,-0.628932,0.630466,-0.653476,0.635068,-0.622796
3.8743,0.016741,0.000000,0.000000,0.002917,0.0000,0.0000,0.0000,-0.039857,0.039857,-0.000165,0.001235,0.000391,0.5481,0.5924,0.0495,-0.046019,0.042951,0.000000,0.641204,-0.628932,0.630466,-0.653476,0.635068,-0.622796
3.8914,0.017063,0.000000,0.000000,0.002910,0.0000,0.0000,0.0000,-0.038745,0.038745,-0.000165,0.001235,0.000391,0.5481,0.5924,0.0495,-0.038350,0.041417,0.000000,0.641204,-0.628932,0.630466,-0.653476,0.635068,-0.622796
3.9083,0.016863,0.000000,0.000000,0.002902,0.0000,0.0000,0.0000,-0.037606,0.037606,-0.000165,0.001235,0.000391,0.5481,0.5924,0.0495,-0.039884,0.039884,0.000000,0.641204,-0.628932,0.630466,-0.653476,0.635068,-0.622796
3.9250,0.016749,0.000000,0.000000,0.002894,0.0000,0.0000,0.0000,-0.036437,0.036437,-0.000165,0.001235,0.000391,0.5481,0.5924,0.0495,-0.039884,0.039884,0.000000,0.641204,-0.628932,0.630466,-0.653476,0.635068,-0.622796
3.9418,0.016744,0.000000,0.000000,0.002885,0.0000,0.0000,0.0000,-0.035232,0.035232,-0.000165,0.001235,0.000391,0.5481,0.5924,0.0495,-0.044485,0.038350,0.000000,0.641204,-0.628932,0.630466,-0.653476,0.635068,-0.622796
3.9585,0.016753,0.000000,0.000000,0.002876,0.0000,0.0000,0.0000,-0.033992,0.033992,-0.000165,0.001235,0.000391,0.5481,0.5924,0.0495,-0.041417,0.038350,0.000000,0.641204,-0.628932,0.630466,-0.653476,0.635068,-0.622796
3.9752,0.016738,0.000000,0.000000,0.002867,0.0000,0.0000,0.0000,-0.032719,0.032719,-0.000165,0.001235,0.000391,0.5481,0.5924,0.0495,-0.035282,0.038350,0.000000,0.641204,-0.628932,0.630466,-0.653476,0.635068,-0.622796
3.9920,0.016748,0.000000,0.000000,0.002858,0.0000,0.0000,0.0000,-0.031412,0.031412,-0.000208,0.001274,0.000402,0.5966,0.5773,0.1043,-0.035282,0.036816,0.000000,0.642738,-0.628932,0.630466,-0.653476,0.635068,-0.622796
4.0087,0.016738,0.000000,0.000000,0.002848,0.0000,0.0000,0.0000,-0.030075,0.030075,-0.000245,0.001310,0.000412,0.6405,0.5640,0.1540,-0.036816,0.036816,0.000000,0.644272,-0.628932,0.630466,-0.653476,0.635068,-0.622796
4.0257,0.016951,0.000000,0.000000,0.002838,0.0000,0.0000,0.0000,-0.028690,0.028690,-0.000245,0.001310,0.000412,0.6405,0.5640,0.1540,-0.036816,0.036816,0.000000,0.644272,-0.628932,0.630466,-0.653476,0.635068,-0.622796
4.0425,0.016824,0.000000,0.000000,0.002827,0.0000,0.0000,0.0000,-0.027287,0.027287,-0.000242,0.001307,0.000411,0.6360,0.5654,0.1488,-0.036816,0.035282,0.000000,0.644272,-0.628932,0.630466,-0.653476,0.635068,-0.622796
4.0593,0.016775,0.000000,0.000000,0.002817,0.0000,0.0000,0.0000,-0.025861,0.025861,-0.000242,0.001307,0.000411,0.6360,0.5654,0.1488,-0.036816,0.035282,0.000000,0.644272,-0.628932,0.630466,-0.653476,0.635068,-0.622796
4.0760,0.016717,0.000000,0.000000,0.002806,0.0000,0.0000,0.0000,-0.024413,0.024413,-0.000242,0.001307,0.000411,0.6360,0.5654,0.1488,-0.036816,0.035282,0.000000,0.644272,-0.628932,0.630466,-0.653476,0.635068,-0.622796
4.0930,0.016951,0.000000,0.000000,0.002794,0.0000,0.0000,0.0000,-0.022921,0.022921,-0.000327,0.001387,0.000434,0.7343,0.5355,0.2602,-0.027612,0.035282,0.000000,0.647340,-0.628932,0.630466,-0.653476,0.635068,-0.622796
4.1097,0.016740,0.000000,0.000000,0.002783,0.0000,0.0000,0.0000,-0.021425,0.021425,-0.000387,0.001420,0.000430,0.7738,0.6220,0.1389,-0.033748,0.033748,0.000000,0.647340,-0.628932,0.630466,-0.655010,0.633534,-0.622796
4.1267,0.016987,0.000000,0.000000,0.002770,0.0000,0.0000,0.0000,-0.019884,0.019884,-0.000312,0.001375,0.000432,0.7198,0.5297,0.2612,-0.029146,0.032214,0.000000,0.647340,-0.628932,0.630466,-0.653476,0.635068,-0.622796
4.1434,0.016741,0.000000,0.000000,0.002758,0.0000,0.0000,0.0000,-0.018346,0.018346,-0.000312,0.001375,0.000432,0.7198,0.5297,0.2612,-0.029146,0.032214,0.000000,0.647340,-0.628932,0.630466,-0.653476,0.635068,-0.622796
4.1602,0.016754,0.000000,0.000000,0.002746,0.0000,0.0000,0.0000,-0.016788,0.016788,-0.000319,0.001380,0.000432,0.7255,0.5393,0.2484,-0.018408,0.029146,0.000000,0.647340,-0.628932,0.630466,-0.653476,0.635068,-0.622796
4.1769,0.016738,0.000000,0.000000,0.002733,0.0000,0.0000,0.0000,-0.015216,0.015216,-0.000318,0.001379,0.000432,0.7247,0.5380,0.2502,-0.018408,0.021476,0.000000,0.647340,-0.628932,0.630466,-0.653476,0.635068,-0.622796
4.1937,0.016766,0.000000,0.000000,0.002720,0.0000,0.0000,0.0000,-0.013625,0.013625,-0.000318,0.001379,0.000432,0.7247,0.5380,0.2502,-0.024544,0.016874,0.000000,0.647340,-0.628932,0.630466,-0.653476,0.635068,-0.622796
4.2104,0.016739,0.000000,0.000000,0.002706,0.0000,0.0000,0.0000,-0.012023,0.012023,-0.000318,0.001379,0.000432,0.7247,0.5380,0.2502,-0.021476,0.015340,0.000000,0.647340,-0.628932,0.630466,-0.653476,0.635068,-0.622796
4.2272,0.016770,0.000000,0.000000,0.002692,0.0000,0.0000,0.0000,-0.010407,0.010407,-0.000361,0.001420,0.000443,0.7739,0.5237,0.3050,-0.013806,0.013806,0.000000,0.648874,-0.628932,0.630466,-0.653476,0.635068,-0.622796
4.2439,0.016737,0.000000,0.000000,0.002678,0.0000,0.0000,0.0000,-0.008783,0.008783,-0.000361,0.001420,0.000443,0.7739,0.5237,0.3050,-0.013806,0.013806,0.000000,0.648874,-0.628932,0.630466,-0.653476,0.635068,-0.622796
4.2607,0.016759,0.000000,0.000000,0.002664,0.0000,0.0000,0.0000,-0.007148,0.007148,-0.000370,0.001359,0.000418,0.7586,0.5735,0.1893,-0.010738,0.012272,0.000000,0.647340,-0.628932,0.630466,-0.653476,0.633534,-0.622796
4.2774,0.016741,0.000000,0.000000,0.002649,0.0000,0.0000,0.0000,-0.005508,0.005508,-0.000369,0.001366,0.000421,0.7602,0.5683,0.2013,-0.010738,0.010738,0.000000,0.647340,-0.628932,0.630466,-0.653476,0.633534,-0.622796
4.2942,0.016753,0.000000,0.000000,0.002634,0.0000,0.0000,0.0000,-0.003861,0.003861,-0.000313,0.001381,0.000433,0.7213,0.5353,0.2547,-0.012272,0.009204,0.000000,0.647340,-0.628932,0.630466,-0.653476,0.635068,-0.622796
4.3109,0.016739,0.000000,0.000000,0.002619,0.0000,0.0000,0.0000,-0.002212,0.002212,-0.000375,0.001363,0.000419,0.7640,0.5723,0.1945,-0.012272,0.009204,0.000000,0.647340,-0.628932,0.630466,-0.653476,0.633534,-0.622796
4.3277,0.016772,0.000000,0.000000,0.002603,0.0000,0.0000,0.0000,-0.000557,0.000557,-0.000375,0.001363,0.000419,0.7640,0.5723,0.1945,-0.006136,0.007670,0.000000,0.648874,-0.628932,0.630466,-0.653476,0.635068,-0.622796
4.3444,0.016743,0.000000,0.000000,0.002588,0.0000,0.0000,0.0000,0.001095,-0.001095,-0.000355,0.001421,0.000444,0.7697,0.5201,0.3108,-0.006136,0.007670,0.000000,0.648874,-0.628932,0.630466,-0.653476,0.635068,-0.622796
4.3612,0.016752,0.000000,0.000000,0.002571,0.0000,0.0000,0.0000,0.002747,-0.002747,-0.000315,0.001375,0.000430,0.7203,0.5403,0.2433,0.001534,0.006136,0.000000,0.647340,-0.628932,0.630466,-0.653476,0.635068,-0.622796
4.3779,0.016742,0.000000,0.000000,0.002555,0.0000,0.0000,0.0000,0.004396,-0.004396,-0.000319,0.001380,0.000432,0.7255,0.5382,0.2503,0.001534,0.004602,0.000000,0.647340,-0.628932,0.630466,-0.653476,0.635068,-0.622796
4.3947,0.016765,0.000000,0.000000,0.002538,0.0000,0.0000,0.0000,0.006042,-0.006042,-0.000319,0.001380,0.000432,0.7255,0.5382,0.2503,-0.004602,0.003068,0.000000,0.647340,-0.628932,0.630466,-0.653476,0.635068,-0.622796
4.4114,0.016740,0.000000,0.000000,0.002521,0.0000,0.0000,0.0000,0.007680,-0.007680,-0.000319,0.001380,0.000432,0.7255,0.5382,0.2503,-0.003068,0.000000,0.000000,0.647340,-0.628932,0.630466,-0.653476,0.635068,-0.622796
4.4282,0.016778,0.000000,0.000000,0.002504,0.0000,0.0000,0.0000,0.009314,-0.009314,-0.000319,0.001380,0.000432,0.7255,0.5382,0.2503,0.004602,-0.004602,0.000000,0.647340,-0.628932,0.630466,-0.653476,0.633534,-0.622796
4.4449,0.016742,0.000000,0.000000,0.002487,0.0000,0.0000,0.0000,0.010935,-0.010935,-0.000374,0.001363,0.000420,0.7636,0.5720,0.1950,0.004602,-0.004602,0.000000,0.647340,-0.628932,0.630466,-0.653476,0.633534,-0.622796
4.4617,0.016748,0.000000,0.000000,0.002469,0.0000,0.0000,0.0000,0.012546,-0.012546,-0.000313,0.001381,0.000433,0.7209,0.5349,0.2553,0.006136,-0.004602,0.000000,0.647340,-0.628932,0.630466,-0.653476,0.635068,-0.622796
4.4784,0.016744,0.000000,0.000000,0.002451,0.0000,0.0000,0.0000,0.014144,-0.014144,-0.000319,0.001379,0.000432,0.7254,0.5388,0.2490,0.001534,-0.006136,0.000000,0.647340,-0.628932,0.630466,-0.653476,0.635068,-0.622796
4.4961,0.017671,0.000000,0.000000,0.002431,0.0000,0.0000,0.0000,0.015815,-0.015815,-0.000319,0.001379,0.000432,0.7254,0.5388,0.2490,0.003068,-0.009204,0.000000,0.647340,-0.628932,0.630466,-0.653476,0.635068,-0.622796
4.5129,0.016744,0.000000,0.000000,0.002413,0.0000,0.0000,0.0000,0.017382,-0.017382,-0.000319,0.001379,0.000432,0.7254,0.5388,0.2490,0.010738,-0.012272,0.000000,0.647340,-0.628932,0.630466,-0.653476,0.635068,-0.622796
4.5296,0.016780,0.000000,0.000000,0.002394,0.0000,0.0000,0.0000,0.018935,-0.018935,-0.000319,0.001379,0.000432,0.7254,0.5388,0.2490,0.016874,-0.013806,0.000000,0.647340,-0.628932,0.630466,-0.653476,0.635068,-0.622796
4.5464,0.016741,0.000000,0.000000,0.002375,0.0000,0.0000,0.0000,0.020466,-0.020466,-0.000319,0.001379,0.000432,0.7254,0.5388,0.2490,0.016874,-0.013806,0.000000,0.647340,-0.628932,0.630466,-0.653476,0.635068,-0.622796
4.5631,0.016748,0.000000,0.000000,0.002355,0.0000,0.0000,0.0000,0.021977,-0.021977,-0.000319,0.001379,0.000432,0.7254,0.5388,0.2490,0.015340,-0.013806,0.000000,0.647340,-0.628932,0.630466,-0.653476,0.635068,-0.622796
