t,loop_dt,cmd_x,cmd_y,cmd_z,cmd_roll,cmd_pitch,cmd_yaw,cmd_ant_l,cmd_ant_r,pres_x,pres_y,pres_z,pres_roll,pres_pitch,pres_yaw,pres_ant_l,pres_ant_r,pres_j0,pres_j1,pres_j2,pres_j3,pres_j4,pres_j5,pres_j6
0.0000,0.000001,0.000238,0.000211,-0.001993,1.2744,0.3027,-0.1928,-0.006136,0.007670,0.000238,0.000211,-0.001993,1.2744,0.3027,-0.1928,-0.006136,0.007670,0.000000,0.585981,-0.595185,0.584447,-0.584447,0.567573,-0.564505
0.0168,0.016749,0.000234,0.000207,-0.001959,1.2531,0.2976,-0.1896,-0.006033,0.007541,0.000251,0.000156,-0.002005,1.2641,0.2523,-0.1402,-0.012272,0.006136,0.000000,0.585981,-0.595185,0.584447,-0.582913,0.567573,-0.564505
0.0335,0.016746,0.000230,0.000204,-0.001926,1.2318,0.2925,-0.1865,-0.005930,0.007413,0.000250,0.000162,-0.002004,1.2652,0.2576,-0.1457,-0.009204,0.006136,0.000000,0.585981,-0.595185,0.584447,-0.582913,0.567573,-0.564505
0.0502,0.016745,0.000226,0.000200,-0.001893,1.2105,0.2874,-0.1833,-0.005828,0.007285,0.000237,0.000216,-0.001991,1.2755,0.3080,-0.1983,-0.001534,0.006136,0.000000,0.585981,-0.595185,0.584447,-0.584447,0.567573,-0.564505
0.0670,0.016744,0.000222,0.000197,-0.001859,1.1891,0.2823,-0.1801,-0.005725,0.007156,0.000238,0.000211,-0.001993,1.2744,0.3027,-0.1928,-0.003068,0.006136,0.000000,0.585981,-0.595185,0.584447,-0.584447,0.567573,-0.564505
0.0839,0.016880,0.000218,0.000193,-0.001826,1.1676,0.2772,-0.1769,-0.005621,0.007027,0.000374,0.000117,-0.002042,1.2146,0.3015,-0.1941,-0.009204,0.006136,0.000000,0.582913,-0.595185,0.584447,-0.582913,0.567573,-0.562971
0.1016,0.017776,0.000214,0.000189,-0.001790,1.1450,0.2718,-0.1735,-0.005512,0.006890,0.000374,0.000117,-0.002042,1.2146,0.3015,-0.1941,-0.009204,0.006136,0.000000,0.582913,-0.595185,0.584447,-0.582913,0.567573,-0.562971
0.1184,0.016743,0.000210,0.000186,-0.001757,1.1237,0.2667,-0.1703,-0.005410,0.006762,0.000590,0.000182,-0.002138,1.2326,0.4520,-0.0867,-0.006136,0.006136,0.000000,0.578311,-0.593651,0.584447,-0.582913,0.567573,-0.556835
0.1353,0.016900,0.000206,0.000182,-0.001723,1.1021,0.2615,-0.1671,-0.005306,0.006632,0.000689,0.000214,-0.002166,1.2810,0.4861,-0.0446,0.001534,0.007670,0.000000,0.576777,-0.593651,0.584447,-0.582913,0.567573,-0.553767
0.1521,0.016797,0.000202,0.000179,-0.001690,1.0807,0.2564,-0.1639,-0.005203,0.006503,0.000689,0.000214,-0.002166,1.2810,0.4861,-0.0446,0.001534,0.007670,0.000000,0.576777,-0.593651,0.584447,-0.582913,0.567573,-0.553767
0.1688,0.016744,0.000198,0.000175,-0.001656,1.0594,0.2513,-0.1607,-0.005100,0.006375,0.000689,0.000214,-0.002166,1.2810,0.4861,-0.0446,0.001534,0.007670,0.000000,0.576777,-0.593651,0.584447,-0.582913,0.567573,-0.553767
0.1856,0.016742,0.000194,0.000172,-0.001623,1.0381,0.2462,-0.1575,-0.004997,0.006247,0.000679,0.000211,-0.002163,1.2760,0.4826,-0.0489,-0.006136,0.006136,0.000000,0.576777,-0.593651,0.584447,-0.582913,0.567573,-0.553767
0.2024,0.016825,0.000190,0.000168,-0.001589,1.0166,0.2411,-0.1543,-0.004894,0.006118,0.000680,0.000211,-0.002164,1.2767,0.4831,-0.0483,0.001534,0.006136,0.000000,0.576777,-0.593651,0.584447,-0.582913,0.567573,-0.553767
0.2191,0.016740,0.000186,0.000165,-0.001556,0.9953,0.2360,-0.1511,-0.004791,0.005989,0.000640,0.000172,-0.002151,1.2263,0.4661,-0.1020,0.000000,0.006136,0.000000,0.576777,-0.593651,0.584447,-0.582913,0.567573,-0.555301
0.2362,0.017071,0.000182,0.000161,-0.001522,0.9735,0.2308,-0.1479,-0.004687,0.005858,0.000684,0.000215,-0.002165,1.2817,0.4847,-0.0430,-0.009204,0.006136,0.000000,0.576777,-0.593651,0.584447,-0.582913,0.567573,-0.553767
0.2529,0.016744,0.000178,0.000157,-0.001489,0.9522,0.2258,-0.1447,-0.004584,0.005730,0.000684,0.000215,-0.002165,1.2817,0.4847,-0.0430,-0.009204,0.006136,0.000000,0.576777,-0.593651,0.584447,-0.582913,0.567573,-0.553767
0.2697,0.016744,0.000174,0.000154,-0.001455,0.9309,0.2207,-0.1415,-0.004481,0.005601,0.000679,0.000210,-0.002163,1.2759,0.4827,-0.0491,-0.007670,0.006136,0.000000,0.576777,-0.593651,0.584447,-0.582913,0.567573,-0.553767
0.2864,0.016742,0.000170,0.000150,-0.001422,0.9096,0.2156,-0.1383,-0.004378,0.005473,0.000679,0.000210,-0.002163,1.2759,0.4827,-0.0491,-0.003068,0.006136,0.000000,0.576777,-0.593651,0.584447,-0.582913,0.567573,-0.553767
0.3032,0.016749,0.000166,0.000147,-0.001389,0.8882,0.2105,-0.1351,-0.004276,0.005345,0.000679,0.000210,-0.002163,1.2759,0.4827,-0.0491,-0.001534,0.006136,0.000000,0.576777,-0.593651,0.584447,-0.582913,0.567573,-0.553767
0.3199,0.016746,0.000162,0.000143,-0.001355,0.8669,0.2054,-0.1319,-0.004173,0.005216,0.000679,0.000210,-0.002163,1.2759,0.4827,-0.0491,-0.007670,0.004602,0.000000,0.576777,-0.593651,0.584447,-0.582913,0.567573,-0.553767
0.3367,0.016747,0.000158,0.000140,-0.001322,0.8455,0.2003,-0.1287,-0.004070,0.005088,0.000679,0.000210,-0.002163,1.2759,0.4827,-0.0491,-0.004602,0.004602,0.000000,0.576777,-0.593651,0.584447,-0.582913,0.567573,-0.553767
0.3534,0.016744,0.000154,0.000136,-0.001288,0.8242,0.1953,-0.1254,-0.003967,0.004959,0.000679,0.000210,-0.002163,1.2759,0.4827,-0.0491,-0.004602,0.004602,0.000000,0.576777,-0.593651,0.584447,-0.582913,0.567573,-0.553767
0.3702,0.016744,0.000150,0.000133,-0.001255,0.8029,0.1902,-0.1222,-0.003865,0.004831,0.000679,0.000210,-0.002163,1.2759,0.4827,-0.0491,0.003068,0.004602,0.000000,0.576777,-0.593651,0.584447,-0.582913,0.567573,-0.553767
0.3869,0.016749,0.000146,0.000129,-0.001222,0.7815,0.1851,-0.1190,-0.003762,0.004702,0.000679,0.000210,-0.002163,1.2759,0.4827,-0.0491,0.001534,0.004602,0.000000,0.576777,-0.593651,0.584447,-0.582913,0.567573,-0.553767
0.4037,0.016765,0.000142,0.000126,-0.001188,0.7601,0.1800,-0.1158,-0.003659,0.004574,0.000679,0.000210,-0.002163,1.2759,0.4827,-0.0491,-0.007670,0.004602,0.000000,0.576777,-0.593651,0.584447,-0.582913,0.567573,-0.553767
0.4204,0.016752,0.000138,0.000122,-0.001155,0.7388,0.1749,-0.1126,-0.003556,0.004445,0.000679,0.000210,-0.002163,1.2759,0.4827,-0.0491,-0.004602,0.004602,0.000000,0.576777,-0.593651,0.584447,-0.582913,0.567573,-0.553767
0.4372,0.016741,0.000134,0.000119,-0.001122,0.7175,0.1699,-0.1094,-0.003453,0.004317,0.000679,0.000210,-0.002163,1.2759,0.4827,-0.0491,-0.004602,0.004602,0.000000,0.576777,-0.593651,0.584447,-0.582913,0.567573,-0.553767
0.4539,0.016754,0.000130,0.000115,-0.001088,0.6961,0.1648,-0.1061,-0.003351,0.004188,0.000679,0.000210,-0.002163,1.2759,0.4827,-0.0491,0.000000,0.004602,0.000000,0.576777,-0.593651,0.584447,-0.582913,0.567573,-0.553767
0.4707,0.016747,0.000126,0.000112,-0.001055,0.6748,0.1597,-0.1029,-0.003248,0.004060,0.000679,0.000210,-0.002163,1.2759,0.4827,-0.0491,0.001534,0.004602,0.000000,0.576777,-0.593651,0.584447,-0.582913,0.567573,-0.553767
0.4874,0.016748,0.000122,0.000108,-0.001021,0.6534,0.1546,-0.0997,-0.003145,0.003931,0.000679,0.000210,-0.002163,1.2759,0.4827,-0.0491,-0.006136,0.003068,0.000000,0.576777,-0.593651,0.584447,-0.582913,0.567573,-0.553767
0.5042,0.016752,0.000118,0.000104,-0.000988,0.6321,0.1496,-0.0964,-0.003042,0.003803,0.000679,0.000210,-0.002163,1.2759,0.4827,-0.0491,-0.004602,0.003068,0.000000,0.576777,-0.593651,0.584447,-0.582913,0.567573,-0.553767
0.5209,0.016771,0.000114,0.000101,-0.000955,0.6107,0.1445,-0.0932,-0.002939,0.003674,0.000679,0.000210,-0.002163,1.2759,0.4827,-0.0491,0.000000,0.003068,0.000000,0.576777,-0.593651,0.584447,-0.582913,0.567573,-0.553767
0.5377,0.016742,0.000110,0.000097,-0.000921,0.5894,0.1394,-0.0900,-0.002837,0.003546,0.000679,0.000210,-0.002163,1.2759,0.4827,-0.0491,0.000000,0.003068,0.000000,0.576777,-0.593651,0.584447,-0.582913,0.567573,-0.553767
0.5544,0.016750,0.000106,0.000094,-0.000888,0.5680,0.1344,-0.0867,-0.002734,0.003417,0.000679,0.000210,-0.002163,1.2759,0.4827,-0.0491,0.000000,0.003068,0.000000,0.576777,-0.593651,0.584447,-0.582913,0.567573,-0.553767
0.5712,0.016745,0.000102,0.000090,-0.000855,0.5467,0.1293,-0.0835,-0.002631,0.003289,0.000679,0.000210,-0.002163,1.2759,0.4827,-0.0491,-0.004602,0.003068,0.000000,0.576777,-0.593651,0.584447,-0.582913,0.567573,-0.553767
0.5879,0.016760,0.000098,0.000087,-0.000821,0.5253,0.1242,-0.0803,-0.002528,0.003160,0.000679,0.000210,-0.002163,1.2759,0.4827,-0.0491,-0.003068,0.003068,0.000000,0.576777,-0.593651,0.584447,-0.582913,0.567573,-0.553767
0.6047,0.016748,0.000094,0.000083,-0.000788,0.5040,0.1192,-0.0770,-0.002426,0.003032,0.000679,0.000210,-0.002163,1.2759,0.4827,-0.0491,0.003068,0.003068,0.000000,0.576777,-0.593651,0.584447,-0.582913,0.567573,-0.553767
0.6214,0.016758,0.000090,0.000080,-0.000754,0.4826,0.1141,-0.0738,-0.002323,0.002904,0.000679,0.000210,-0.002163,1.2759,0.4827,-0.0491,0.003068,0.003068,0.000000,0.576777,-0.593651,0.584447,-0.582913,0.567573,-0.553767
0.6382,0.016743,0.000086,0.000076,-0.000721,0.4613,0.1090,-0.0705,-0.002220,0.002775,0.000679,0.000210,-0.002163,1.2759,0.4827,-0.0491,0.003068,0.003068,0.000000,0.576777,-0.593651,0.584447,-0.582913,0.567573,-0.553767
0.6550,0.016790,0.000082,0.000073,-0.000688,0.4399,0.1040,-0.0673,-0.002117,0.002646,0.000679,0.000210,-0.002163,1.2759,0.4827,-0.0491,-0.004602,0.004602,0.000000,0.576777,-0.593651,0.584447,-0.582913,0.567573,-0.553767
0.6717,0.016740,0.000078,0.000069,-0.000654,0.4185,0.0989,-0.0640,-0.002014,0.002518,0.000679,0.000210,-0.002163,1.2759,0.4827,-0.0491,-0.004602,0.003068,0.000000,0.576777,-0.593651,0.584447,-0.582913,0.567573,-0.553767
0.6885,0.016749,0.000074,0.000066,-0.000621,0.3972,0.0939,-0.0608,-0.001912,0.002389,0.000679,0.000210,-0.002163,1.2759,0.4827,-0.0491,0.003068,0.001534,0.000000,0.576777,-0.593651,0.584447,-0.582913,0.567573,-0.553767
0.7052,0.016749,0.000070,0.000062,-0.000587,0.3758,0.0888,-0.0575,-0.001809,0.002261,0.000679,0.000210,-0.002163,1.2759,0.4827,-0.0491,0.003068,0.001534,0.000000,0.576777,-0.593651,0.584447,-0.582913,0.567573,-0.553767
0.7220,0.016782,0.000066,0.000059,-0.000554,0.3544,0.0837,-0.0543,-0.001706,0.002132,0.000679,0.000210,-0.002163,1.2759,0.4827,-0.0491,-0.004602,0.001534,0.000000,0.576777,-0.593651,0.584447,-0.582913,0.567573,-0.555301
0.7387,0.016745,0.000062,0.000055,-0.000521,0.3331,0.0787,-0.0510,-0.001603,0.002004,0.000640,0.000172,-0.002151,1.2264,0.4661,-0.1019,-0.004602,0.001534,0.000000,0.576777,-0.593651,0.584447,-0.582913,0.567573,-0.555301
0.7555,0.016760,0.000058,0.000052,-0.000487,0.3117,0.0736,-0.0478,-0.001500,0.001875,0.000684,0.000215,-0.002165,1.2816,0.4847,-0.0430,-0.004602,0.001534,0.000000,0.576777,-0.593651,0.584447,-0.582913,0.567573,-0.553767
0.7722,0.016742,0.000054,0.000048,-0.000454,0.2904,0.0686,-0.0445,-0.001398,0.001747,0.000639,0.000172,-0.002150,1.2258,0.4659,-0.1026,0.003068,0.001534,0.000000,0.576777,-0.593651,0.584447,-0.582913,0.567573,-0.555301
0.7890,0.016763,0.000050,0.000044,-0.000420,0.2690,0.0635,-0.0412,-0.001295,0.001618,0.000644,0.000176,-0.002152,1.2316,0.4679,-0.0963,0.003068,0.001534,0.000000,0.576777,-0.593651,0.584447,-0.582913,0.567573,-0.555301
0.8057,0.016746,0.000046,0.000041,-0.000387,0.2477,0.0585,-0.0380,-0.001192,0.001490,0.000644,0.000176,-0.002152,1.2316,0.4679,-0.0963,-0.004602,0.001534,0.000000,0.576777,-0.593651,0.584447,-0.582913,0.567573,-0.555301
0.8225,0.016767,0.000042,0.000037,-0.000354,0.2263,0.0534,-0.0347,-0.001089,0.001361,0.000644,0.000176,-0.002152,1.2316,0.4679,-0.0963,-0.004602,0.001534,0.000000,0.576777,-0.593651,0.584447,-0.582913,0.567573,-0.555301
0.8393,0.016742,0.000038,0.000034,-0.000320,0.2049,0.0484,-0.0314,-0.000986,0.001233,0.000644,0.000176,-0.002152,1.2316,0.4679,-0.0963,-0.004602,0.001534,0.000000,0.576777,-0.593651,0.584447,-0.582913,0.567573,-0.555301
0.8560,0.016759,0.000034,0.000030,-0.000287,0.1836,0.0433,-0.0282,-0.000883,0.001104,0.000644,0.000176,-0.002152,1.2316,0.4679,-0.0963,0.003068,0.001534,0.000000,0.576777,-0.593651,0.584447,-0.582913,0.567573,-0.555301
0.8728,0.016742,0.000030,0.000027,-0.000254,0.1622,0.0383,-0.0249,-0.000781,0.000976,0.000604,0.000137,-0.002139,1.1810,0.4509,-0.1505,0.003068,0.001534,0.000000,0.576777,-0.593651,0.584447,-0.582913,0.567573,-0.556835
0.8895,0.016767,0.000026,0.000023,-0.000220,0.1409,0.0332,-0.0216,-0.000678,0.000847,0.000608,0.000141,-0.002140,1.1863,0.4527,-0.1448,-0.003068,0.000000,0.000000,0.576777,-0.593651,0.584447,-0.582913,0.567573,-0.556835
0.9063,0.016743,0.000022,0.000020,-0.000187,0.1195,0.0282,-0.0184,-0.000575,0.000719,0.000608,0.000141,-0.002140,1.1863,0.4527,-0.1448,-0.004602,0.000000,0.000000,0.576777,-0.593651,0.584447,-0.582913,0.567573,-0.556835
0.9230,0.016759,0.000018,0.000016,-0.000153,0.0981,0.0232,-0.0151,-0.000472,0.000590,0.000608,0.000141,-0.002140,1.1863,0.4527,-0.1448,-0.004602,0.000000,0.000000,0.576777,-0.593651,0.584447,-0.582913,0.567573,-0.556835
0.9398,0.016748,0.000014,0.000013,-0.000120,0.0768,0.0181,-0.0118,-0.000370,0.000462,0.000566,0.000180,-0.002128,1.2356,0.4363,-0.0918,-0.001534,0.000000,0.000000,0.578311,-0.593651,0.584447,-0.582913,0.567573,-0.556835
0.9565,0.016762,0.000010,0.000009,-0.000087,0.0554,0.0131,-0.0085,-0.000267,0.000333,0.000570,0.000176,-0.002129,1.2304,0.4380,-0.0973,0.003068,0.000000,0.000000,0.578311,-0.593651,0.584447,-0.582913,0.567573,-0.556835
0.9733,0.016738,0.000006,0.000006,-0.000053,0.0341,0.0080,-0.0052,-0.000164,0.000205,0.000570,0.000176,-0.002129,1.2304,0.4380,-0.0973,-0.001534,0.000000,0.000000,0.578311,-0.593651,0.584447,-0.582913,0.567573,-0.556835
0.9900,0.016766,0.000002,0.000002,-0.000020,0.0127,0.0030,-0.0020,-0.000061,0.000076,0.000570,0.000176,-0.002129,1.2304,0.4380,-0.0973,-0.004602,0.000000,0.000000,0.578311,-0.593651,0.584447,-0.582913,0.567573,-0.556835
1.0068,0.016746,0.000000,0.000000,0.000000,0.0000,0.0064,0.0000,0.005581,-0.005581,0.000570,0.000176,-0.002129,1.2304,0.4380,-0.0973,-0.001534,0.000000,0.000000,0.578311,-0.593651,0.584447,-0.582913,0.567573,-0.556835
1.0235,0.016757,0.000000,0.000000,0.000000,0.0000,0.0222,0.0000,0.019346,-0.019346,0.000570,0.000176,-0.002129,1.2304,0.4380,-0.0973,-0.001534,0.000000,0.000000,0.578311,-0.593651,0.584447,-0.582913,0.567573,-0.556835
1.0403,0.016745,0.000000,0.000000,0.000000,0.0000,0.0380,0.0000,0.033048,-0.033048,0.000570,0.000176,-0.002129,1.2304,0.4380,-0.0973,0.003068,0.000000,0.000000,0.578311,-0.593651,0.584447,-0.582913,0.567573,-0.556835
1.0570,0.016759,0.000000,0.000000,0.000000,0.0000,0.0538,0.0000,0.046669,-0.046669,0.000570,0.000176,-0.002129,1.2304,0.4380,-0.0973,-0.001534,0.000000,0.000000,0.578311,-0.593651,0.584447,-0.582913,0.567573,-0.556835
1.0738,0.016746,0.000000,0.000000,0.000000,0.0000,0.0695,0.0000,0.060151,-0.060151,0.000570,0.000176,-0.002129,1.2304,0.4380,-0.0973,-0.004602,-0.001534,0.000000,0.578311,-0.593651,0.584447,-0.582913,0.567573,-0.556835
1.0905,0.016755,0.000000,0.000000,0.000000,0.0000,0.0853,0.0000,0.073473,-0.073473,0.000570,0.000176,-0.002129,1.2304,0.4380,-0.0973,0.004602,-0.006136,0.000000,0.578311,-0.593651,0.584447,-0.582913,0.567573,-0.556835
1.1073,0.016742,0.000000,0.000000,0.000000,0.0000,0.1010,0.0000,0.086582,-0.086582,0.000570,0.000176,-0.002129,1.2304,0.4380,-0.0973,0.021476,-0.019942,0.000000,0.578311,-0.593651,0.584447,-0.582913,0.567573,-0.556835
1.1240,0.016754,0.000000,0.000000,0.000000,0.0000,0.1168,0.0000,0.099460,-0.099460,0.000570,0.000176,-0.002129,1.2304,0.4380,-0.0973,0.021476,-0.019942,0.000000,0.578311,-0.593651,0.584447,-0.582913,0.567573,-0.556835
1.1408,0.016746,0.000000,0.000000,0.000000,0.0000,0.1325,0.0000,0.112057,-0.112057,0.000570,0.000176,-0.002129,1.2304,0.4380,-0.0973,0.067495,-0.059825,0.000000,0.578311,-0.593651,0.584447,-0.582913,0.567573,-0.556835
1.1575,0.016755,0.000000,0.000000,0.000000,0.0000,0.1482,0.0000,0.124350,-0.124350,0.000570,0.000176,-0.002129,1.2304,0.4380,-0.0973,0.067495,-0.059825,0.000000,0.578311,-0.593651,0.584447,-0.582913,0.567573,-0.556835
1.1744,0.016894,0.000000,0.000000,0.000000,0.0000,0.1641,0.0000,0.136397,-0.136397,0.000570,0.000176,-0.002129,1.2304,0.4380,-0.0973,0.096641,-0.092039,0.000000,0.578311,-0.593651,0.584447,-0.582913,0.567573,-0.556835
1.1913,0.016814,0.000000,0.000000,0.000000,0.0000,0.1798,0.0000,0.148005,-0.148005,0.000570,0.000176,-0.002129,1.2304,0.4380,-0.0973,0.096641,-0.092039,0.000000,0.578311,-0.593651,0.584447,-0.582913,0.567573,-0.556835
1.2080,0.016778,0.000000,0.000000,0.000000,0.0000,0.1955,0.0000,0.159176,-0.159176,0.000570,0.000176,-0.002129,1.2304,0.4380,-0.0973,0.096641,-0.092039,0.000000,0.578311,-0.593651,0.584447,-0.582913,0.567573,-0.556835
1.2248,0.016755,0.000000,0.000000,0.000000,0.0000,0.2112,0.0000,0.169892,-0.169892,0.000570,0.000176,-0.002129,1.2304,0.4380,-0.0973,0.096641,-0.092039,0.000000,0.578311,-0.593651,0.584447,-0.582913,0.567573,-0.556835
1.2415,0.016746,0.000000,0.000000,0.000000,0.0000,0.2268,0.0000,0.180130,-0.180130,0.000570,0.000176,-0.002129,1.2304,0.4380,-0.0973,0.133456,-0.130388,0.000000,0.578311,-0.593651,0.584447,-0.582913,0.567573,-0.556835
1.2583,0.016771,0.000000,0.000000,0.000000,0.0000,0.2424,0.0000,0.189886,-0.189886,0.000570,0.000176,-0.002129,1.2304,0.4380,-0.0973,0.133456,-0.130388,0.000000,0.578311,-0.593651,0.584447,-0.582913,0.567573,-0.556835
1.2750,0.016741,0.000000,0.000000,0.000000,0.0000,0.2579,0.0000,0.199098,-0.199098,0.000570,0.000176,-0.002129,1.2304,0.4380,-0.0973,0.130388,-0.128854,0.000000,0.578311,-0.593651,0.584447,-0.582913,0.567573,-0.556835
1.2918,0.016759,0.000000,0.000000,0.000000,0.0000,0.2735,0.0000,0.207768,-0.207768,0.000570,0.000176,-0.002129,1.2304,0.4380,-0.0973,0.119651,-0.125786,0.000000,0.578311,-0.593651,0.584447,-0.582913,0.567573,-0.556835
1.3085,0.016745,0.000000,0.000000,0.000000,0.0000,0.2890,0.0000,0.215856,-0.215856,0.000557,0.000231,-0.002116,1.2412,0.4888,-0.1499,0.131922,-0.138058,0.000000,0.578311,-0.593651,0.584447,-0.584447,0.567573,-0.556835
1.3253,0.016754,0.000000,0.000000,0.000000,0.0000,0.3045,0.0000,0.223351,-0.223351,0.000571,0.000170,-0.002130,1.2298,0.4326,-0.0912,0.164136,-0.164136,0.000000,0.578311,-0.593651,0.584447,-0.582913,0.567573,-0.556835
1.3421,0.016748,0.000000,0.000000,0.000000,0.0000,0.3199,0.0000,0.230224,-0.230224,0.000570,0.000177,-0.002129,1.2310,0.4384,-0.0973,0.202485,-0.194816,0.000000,0.578311,-0.593651,0.584447,-0.582913,0.567573,-0.556835
1.3588,0.016766,0.000000,0.000000,0.000000,0.0000,0.3353,0.0000,0.236467,-0.236467,0.000570,0.000177,-0.002129,1.2310,0.4384,-0.0973,0.202485,-0.194816,0.000000,0.578311,-0.593651,0.584447,-0.582913,0.567573,-0.556835
1.3756,0.016748,0.000000,0.000000,0.000000,0.0000,0.3507,0.0000,0.242048,-0.242048,0.000570,0.000177,-0.002129,1.2310,0.4384,-0.0973,0.230097,-0.219359,0.000000,0.578311,-0.593651,0.584447,-0.582913,0.567573,-0.556835
1.3923,0.016754,0.000000,0.000000,0.000000,0.0000,0.3660,0.0000,0.246961,-0.246961,0.000570,0.000177,-0.002129,1.2310,0.4384,-0.0973,0.231631,-0.230097,0.000000,0.578311,-0.593651,0.584447,-0.582913,0.567573,-0.556835
1.4091,0.016742,0.000000,0.000000,0.000000,0.0000,0.3813,0.0000,0.251188,-0.251188,0.000570,0.000177,-0.002129,1.2310,0.4384,-0.0973,0.222427,-0.228563,0.000000,0.578311,-0.593651,0.584447,-0.582913,0.567573,-0.556835
1.4258,0.016758,0.000000,0.000000,0.000000,0.0000,0.3966,0.0000,0.254722,-0.254722,0.000570,0.000177,-0.002129,1.2310,0.4384,-0.0973,0.228563,-0.231631,0.000000,0.578311,-0.593651,0.584447,-0.582913,0.567573,-0.556835
1.4426,0.016750,0.000000,0.000000,0.000000,0.0000,0.4118,0.0000,0.257550,-0.257550,0.000570,0.000177,-0.002129,1.2310,0.4384,-0.0973,0.245437,-0.243903,0.000000,0.578311,-0.593651,0.584447,-0.582913,0.567573,-0.556835
1.4593,0.016758,0.000000,0.000000,0.000000,0.0000,0.4269,0.0000,0.259665,-0.259665,0.000570,0.000177,-0.002129,1.2310,0.4384,-0.0973,0.245437,-0.243903,0.000000,0.578311,-0.593651,0.584447,-0.582913,0.567573,-0.556835
1.4761,0.016743,0.000000,0.000000,0.000000,0.0000,0.4420,0.0000,0.261060,-0.261060,0.000557,0.000231,-0.002117,1.2411,0.4888,-0.1499,0.256175,-0.254641,0.000000,0.578311,-0.593651,0.584447,-0.584447,0.567573,-0.556835
1.4928,0.016742,0.000000,0.000000,0.000000,0.0000,0.4571,0.0000,0.261733,-0.261733,0.000571,0.000170,-0.002130,1.2298,0.4326,-0.0912,0.254641,-0.254641,0.000000,0.578311,-0.593651,0.584447,-0.582913,0.567573,-0.556835
1.5096,0.016741,0.000000,0.000000,0.000000,0.0000,0.4721,0.0000,0.261682,-0.261682,0.000570,0.000177,-0.002129,1.2310,0.4384,-0.0973,0.251573,-0.254641,0.000000,0.578311,-0.593651,0.584447,-0.582913,0.567573,-0.556835
1.5263,0.016757,0.000000,0.000000,0.000000,0.0000,0.4870,0.0000,0.260906,-0.260906,0.000570,0.000177,-0.002129,1.2310,0.4384,-0.0973,0.262311,-0.260777,0.000000,0.578311,-0.593651,0.584447,-0.582913,0.567573,-0.556835
1.5431,0.016741,0.000000,0.000000,0.000000,0.0000,0.5019,0.0000,0.259409,-0.259409,0.000570,0.000177,-0.002129,1.2310,0.4384,-0.0973,0.262311,-0.263845,0.000000,0.578311,-0.593651,0.584447,-0.582913,0.567573,-0.556835
1.5598,0.016776,0.000000,0.000000,0.000000,0.0000,0.5168,0.0000,0.257189,-0.257189,0.000570,0.000177,-0.002129,1.2310,0.4384,-0.0973,0.262311,-0.263845,0.000000,0.578311,-0.593651,0.584447,-0.582913,0.567573,-0.556835
1.5766,0.016739,0.000000,0.000000,0.000000,0.0000,0.5316,0.0000,0.254262,-0.254262,0.000557,0.000231,-0.002117,1.2411,0.4888,-0.1499,0.257709,-0.260777,0.000000,0.578311,-0.593651,0.584447,-0.584447,0.567573,-0.556835
1.5933,0.016746,0.000000,0.000000,0.000000,0.0000,0.5463,0.0000,0.250631,-0.250631,0.000558,0.000225,-0.002118,1.2401,0.4835,-0.1444,0.260777,-0.260777,0.000000,0.578311,-0.593651,0.584447,-0.584447,0.567573,-0.556835
1.6101,0.016743,0.000000,0.000000,0.000000,0.0000,0.5610,0.0000,0.246307,-0.246307,0.000571,0.000171,-0.002130,1.2299,0.4331,-0.0918,0.260777,-0.262311,0.000000,0.578311,-0.593651,0.584447,-0.582913,0.567573,-0.556835
1.6268,0.016758,0.000000,0.000000,0.000000,0.0000,0.5756,0.0000,0.241297,-0.241297,0.000570,0.000176,-0.002129,1.2310,0.4384,-0.0973,0.257709,-0.259243,0.000000,0.578311,-0.593651,0.584447,-0.582913,0.567573,-0.556835
1.6436,0.016745,0.000000,0.000000,0.000000,0.0000,0.5901,0.0000,0.235623,-0.235623,0.000557,0.000231,-0.002117,1.2411,0.4888,-0.1499,0.251573,-0.256175,0.000000,0.578311,-0.593651,0.584447,-0.584447,0.567573,-0.556835
1.6603,0.016753,0.000000,0.000000,0.000000,0.0000,0.6046,0.0000,0.229294,-0.229294,0.000557,0.000231,-0.002117,1.2411,0.4888,-0.1499,0.251573,-0.256175,0.000000,0.578311,-0.593651,0.584447,-0.584447,0.567573,-0.556835
1.6770,0.016740,0.000000,0.000000,0.000000,0.0000,0.6190,0.0000,0.222335,-0.222335,0.000558,0.000225,-0.002118,1.2401,0.4835,-0.1444,0.248505,-0.254641,0.000000,0.578311,-0.593651,0.584447,-0.584447,0.567573,-0.556835
1.6938,0.016750,0.000000,0.000000,0.000000,0.0000,0.6334,0.0000,0.214758,-0.214758,0.000571,0.000171,-0.002130,1.2299,0.4331,-0.0918,0.245437,-0.251573,0.000000,0.578311,-0.593651,0.584447,-0.582913,0.567573,-0.556835
1.7105,0.016739,0.000000,0.000000,0.000000,0.0000,0.6476,0.0000,0.206591,-0.206591,0.000570,0.000176,-0.002129,1.2310,0.4384,-0.0973,0.242369,-0.245437,0.000000,0.578311,-0.593651,0.584447,-0.582913,0.567573,-0.556835
1.7273,0.016750,0.000000,0.000000,0.000000,0.0000,0.6618,0.0000,0.197846,-0.197846,0.000570,0.000176,-0.002129,1.2310,0.4384,-0.0973,0.234699,-0.236233,0.000000,0.578311,-0.593651,0.584447,-0.582913,0.567573,-0.556835
1.7440,0.016739,0.000000,0.000000,0.000000,0.0000,0.6760,0.0000,0.188561,-0.188561,0.000570,0.000176,-0.002129,1.2310,0.4384,-0.0973,0.223961,-0.225495,0.000000,0.578311,-0.593651,0.584447,-0.582913,0.567573,-0.556835
1.7608,0.016753,0.000000,0.000000,0.000000,0.0000,0.6900,0.0000,0.178745,-0.178745,0.000570,0.000176,-0.002129,1.2310,0.4384,-0.0973,0.223961,-0.225495,0.000000,0.578311,-0.593651,0.584447,-0.582913,0.567573,-0.556835
1.7775,0.016741,0.000000,0.000000,0.000000,0.0000,0.7040,0.0000,0.168443,-0.168443,0.000570,0.000176,-0.002129,1.2310,0.4384,-0.0973,0.213223,-0.214757,0.000000,0.578311,-0.593651,0.584447,-0.582913,0.567573,-0.556835
1.7943,0.016743,0.000000,0.000000,0.000000,0.0000,0.7179,0.0000,0.157673,-0.157673,0.000570,0.000176,-0.002129,1.2310,0.4384,-0.0973,0.200951,-0.205553,0.000000,0.578311,-0.593651,0.584447,-0.582913,0.567573,-0.556835
1.8110,0.016745,0.000000,0.000000,0.000000,0.0000,0.7317,0.0000,0.146466,-0.146466,0.000570,0.000176,-0.002129,1.2310,0.4384,-0.0973,0.190214,-0.197884,0.000000,0.578311,-0.593651,0.584447,-0.582913,0.567573,-0.556835
1.8278,0.016759,0.000000,0.000000,0.000000,0.0000,0.7455,0.0000,0.134843,-0.134843,0.000570,0.000176,-0.002129,1.2310,0.4384,-0.0973,0.179476,-0.193282,0.000000,0.578311,-0.593651,0.584447,-0.582913,0.567573,-0.556835
1.8445,0.016744,0.000000,0.000000,0.000000,0.0000,0.7591,0.0000,0.122858,-0.122858,0.000570,0.000176,-0.002129,1.2310,0.4384,-0.0973,0.165670,-0.179476,0.000000,0.578311,-0.593651,0.584447,-0.582913,0.567573,-0.556835
1.8613,0.016760,0.000000,0.000000,0.000000,0.0000,0.7727,0.0000,0.110521,-0.110521,0.000570,0.000176,-0.002129,1.2310,0.4384,-0.0973,0.165670,-0.179476,0.000000,0.578311,-0.593651,0.584447,-0.582913,0.567573,-0.556835
1.8780,0.016738,0.000000,0.000000,0.000000,0.0000,0.7862,0.0000,0.097895,-0.097895,0.000570,0.000176,-0.002129,1.2310,0.4384,-0.0973,0.153398,-0.164136,0.000000,0.578311,-0.593651,0.584447,-0.582913,0.567573,-0.556835
1.8948,0.016751,0.000000,0.000000,0.000000,0.0000,0.7996,0.0000,0.084988,-0.084988,0.000557,0.000231,-0.002117,1.2411,0.4888,-0.1499,0.139592,-0.147262,0.000000,0.578311,-0.593651,0.584447,-0.584447,0.567573,-0.556835
1.9115,0.016740,0.000000,0.000000,0.000000,0.0000,0.8129,0.0000,0.071854,-0.071854,0.000558,0.000225,-0.002118,1.2401,0.4835,-0.1444,0.127320,-0.134990,0.000000,0.578311,-0.593651,0.584447,-0.584447,0.567573,-0.556835
1.9282,0.016748,0.000000,0.000000,0.000000,0.0000,0.8261,0.0000,0.058515,-0.058515,0.000558,0.000225,-0.002118,1.2401,0.4835,-0.1444,0.115049,-0.122718,0.000000,0.578311,-0.593651,0.584447,-0.584447,0.567573,-0.556835
1.9450,0.016800,0.000000,0.000000,0.000000,0.0000,0.8393,0.0000,0.044972,-0.044972,0.000558,0.000225,-0.002118,1.2401,0.4835,-0.1444,0.098175,-0.104311,0.000000,0.578311,-0.593651,0.584447,-0.584447,0.567573,-0.556835
1.9618,0.016762,0.000000,0.000000,0.000000,0.0000,0.8523,0.0000,0.031334,-0.031334,0.000558,0.000225,-0.002118,1.2401,0.4835,-0.1444,0.098175,-0.104311,0.000000,0.578311,-0.593651,0.584447,-0.584447,0.567573,-0.556835
1.9786,0.016743,0.000000,0.000000,0.000000,0.0000,0.8652,0.0000,0.017626,-0.017626,0.000558,0.000225,-0.002118,1.2401,0.4835,-0.1444,0.079767,-0.085903,0.000000,0.578311,-0.593651,0.584447,-0.584447,0.567573,-0.556835
1.9953,0.016749,0.000000,0.000000,0.000000,0.0000,0.8781,0.0000,0.003863,-0.003863,0.000545,0.000281,-0.002105,1.2505,0.5350,-0.1982,0.062893,-0.067495,0.000000,0.578311,-0.593651,0.584447,-0.585981,0.567573,-0.556835
2.0120,0.016743,0.000000,0.000000,0.000000,0.0000,0.8908,0.0000,-0.009905,0.009905,0.000533,0.000331,-0.002095,1.2597,0.5804,-0.2459,0.049087,-0.052155,0.000000,0.578311,-0.593651,0.584447,-0.587515,0.567573,-0.556835
2.0288,0.016752,0.000000,0.000000,0.000000,0.0000,0.9035,0.0000,-0.023653,0.023653,0.000535,0.000326,-0.002096,1.2588,0.5757,-0.2409,0.035282,-0.035282,0.000000,0.578311,-0.593651,0.584447,-0.587515,0.567573,-0.556835
2.0463,0.017529,0.000000,0.000000,0.000000,0.0000,0.9166,0.0000,-0.037968,0.037968,0.000509,0.000437,-0.002071,1.2795,0.6777,-0.3480,0.018408,-0.016874,0.000000,0.578311,-0.593651,0.584447,-0.590583,0.567573,-0.556835
2.0631,0.016761,0.000000,0.000000,0.000000,0.0000,0.9291,0.0000,-0.051548,0.051548,0.000509,0.000437,-0.002071,1.2795,0.6777,-0.3480,0.018408,-0.016874,0.000000,0.578311,-0.593651,0.584447,-0.590583,0.567573,-0.556835
2.0798,0.016746,0.000000,0.000000,0.000000,0.0000,0.9414,0.0000,-0.064974,0.064974,0.000499,0.000371,-0.002061,1.2673,0.7185,-0.2825,-0.001534,0.001534,0.000000,0.578311,-0.593651,0.585981,-0.590583,0.567573,-0.556835
2.0966,0.016749,0.000000,0.000000,0.000000,0.0000,0.9537,0.0000,-0.078223,0.078223,0.000499,0.000488,-0.002063,1.2891,0.7135,-0.3970,-0.021476,0.019942,0.000000,0.578311,-0.593651,0.584447,-0.592117,0.567573,-0.556835
2.1133,0.016747,0.000000,0.000000,0.000000,0.0000,0.9658,0.0000,-0.091253,0.091253,0.000499,0.000476,-0.002063,1.2868,0.7140,-0.3851,-0.035282,0.033748,0.000000,0.578311,-0.593651,0.584447,-0.592117,0.567573,-0.556835
2.1301,0.016760,0.000000,0.000000,0.000000,0.0000,0.9778,0.0000,-0.104040,0.104040,0.000486,0.000423,-0.002050,1.2770,0.7654,-0.3320,-0.046019,0.044485,0.000000,0.578311,-0.593651,0.585981,-0.592117,0.567573,-0.556835
2.1470,0.016893,0.000000,0.000000,0.000000,0.0000,0.9898,0.0000,-0.116638,0.116638,0.000488,0.000428,-0.002051,1.2780,0.7600,-0.3376,-0.058291,0.058291,0.000000,0.578311,-0.593651,0.585981,-0.592117,0.567573,-0.556835
2.1637,0.016765,0.000000,0.000000,0.000000,0.0000,1.0016,0.0000,-0.128815,0.128815,0.000488,0.000428,-0.002051,1.2780,0.7600,-0.3376,-0.058291,0.058291,0.000000,0.578311,-0.593651,0.585981,-0.592117,0.567573,-0.556835
2.1805,0.016747,0.000000,0.000000,0.000000,0.0000,1.0133,0.0000,-0.140623,0.140623,0.000500,0.000482,-0.002064,1.2880,0.7091,-0.3913,-0.079767,0.078233,0.000000,0.578311,-0.593651,0.584447,-0.592117,0.567573,-0.556835
2.1972,0.016753,0.000000,0.000000,0.000000,0.0000,1.0249,0.0000,-0.152045,0.152045,0.000499,0.000476,-0.002063,1.2869,0.7144,-0.3857,-0.102777,0.101243,0.000000,0.578311,-0.593651,0.584447,-0.592117,0.567573,-0.556835
2.2140,0.016747,0.000000,0.000000,0.000000,0.0000,1.0364,0.0000,-0.163042,0.163042,0.000499,0.000476,-0.002063,1.2869,0.7144,-0.3857,-0.118117,0.115049,0.000000,0.578311,-0.593651,0.584447,-0.592117,0.567573,-0.556835
2.2308,0.016756,0.000000,0.000000,0.000000,0.0000,1.0478,0.0000,-0.173594,0.173594,0.000487,0.000422,-0.002050,1.2770,0.7654,-0.3320,-0.127320,0.122718,0.000000,0.578311,-0.593651,0.585981,-0.592117,0.567573,-0.556835
2.2476,0.016835,0.000000,0.000000,0.000000,0.0000,1.0591,0.0000,-0.183711,0.183711,0.000487,0.000422,-0.002050,1.2770,0.7654,-0.3320,-0.127320,0.122718,0.000000,0.578311,-0.593651,0.585981,-0.592117,0.567573,-0.556835
2.2643,0.016751,0.000000,0.000000,0.000000,0.0000,1.0702,0.0000,-0.193268,0.193268,0.000487,0.000422,-0.002050,1.2770,0.7654,-0.3320,-0.127320,0.122718,0.000000,0.578311,-0.593651,0.585981,-0.592117,0.567573,-0.556835
2.2811,0.016754,0.000000,0.000000,0.000000,0.0000,1.0812,0.0000,-0.202291,0.202291,0.000488,0.000428,-0.002051,1.2780,0.7600,-0.3376,-0.173340,0.168738,0.000000,0.578311,-0.593651,0.585981,-0.592117,0.567573,-0.556835
2.2979,0.016777,0.000000,0.000000,0.000000,0.0000,1.0921,0.0000,-0.210765,0.210765,0.000488,0.000428,-0.002051,1.2780,0.7600,-0.3376,-0.173340,0.167204,0.000000,0.578311,-0.593651,0.585981,-0.592117,0.567573,-0.556835
2.3146,0.016747,0.000000,0.000000,0.000000,0.0000,1.1028,0.0000,-0.218640,0.218640,0.000488,0.000428,-0.002051,1.2780,0.7600,-0.3376,-0.173340,0.167204,0.000000,0.578311,-0.593651,0.585981,-0.592117,0.567573,-0.556835
2.3314,0.016749,0.000000,0.000000,0.000000,0.0000,1.1135,0.0000,-0.225911,0.225911,0.000488,0.000428,-0.002051,1.2780,0.7600,-0.3376,-0.173340,0.170272,0.000000,0.578311,-0.593651,0.585981,-0.592117,0.567573,-0.556835
2.3481,0.016744,0.000000,0.000000,0.000000,0.0000,1.1240,0.0000,-0.232554,0.232554,0.000488,0.000428,-0.002051,1.2780,0.7600,-0.3376,-0.191748,0.191748,0.000000,0.578311,-0.593651,0.585981,-0.592117,0.567573,-0.556835
2.3649,0.016745,0.000000,0.000000,0.000000,0.0000,1.1344,0.0000,-0.238555,0.238555,0.000488,0.000428,-0.002051,1.2780,0.7600,-0.3376,-0.214757,0.213223,0.000000,0.578311,-0.593651,0.585981,-0.592117,0.567573,-0.556835
2.3816,0.016753,0.000000,0.000000,0.000000,0.0000,1.1446,0.0000,-0.243898,0.243898,0.000488,0.000428,-0.002051,1.2780,0.7600,-0.3376,-0.233165,0.233165,0.000000,0.578311,-0.593651,0.585981,-0.592117,0.567573,-0.556835
2.3984,0.016807,0.000000,0.000000,0.000000,0.0000,1.1548,0.0000,-0.248579,0.248579,0.000488,0.000428,-0.002051,1.2780,0.7600,-0.3376,-0.233165,0.233165,0.000000,0.578311,-0.593651,0.585981,-0.592117,0.567573,-0.556835
2.4152,0.016748,0.000000,0.000000,0.000000,0.0000,1.1648,0.0000,-0.252555,0.252555,0.000488,0.000428,-0.002051,1.2780,0.7600,-0.3376,-0.234699,0.234699,0.000000,0.578311,-0.593651,0.585981,-0.592117,0.567573,-0.556835
2.4319,0.016746,0.000000,0.000000,0.000000,0.0000,1.1747,0.0000,-0.255832,0.255832,0.000488,0.000428,-0.002051,1.2780,0.7600,-0.3376,-0.233165,0.231631,0.000000,0.578311,-0.593651,0.585981,-0.592117,0.567573,-0.556835
2.4487,0.016745,0.000000,0.000000,0.000000,0.0000,1.1845,0.0000,-0.258400,0.258400,0.000488,0.000428,-0.002051,1.2780,0.7600,-0.3376,-0.243903,0.242369,0.000000,0.578311,-0.593651,0.585981,-0.592117,0.567573,-0.556835
2.4654,0.016749,0.000000,0.000000,0.000000,0.0000,1.1941,0.0000,-0.260254,0.260254,0.000488,0.000428,-0.002051,1.2780,0.7600,-0.3376,-0.253107,0.251573,0.000000,0.578311,-0.593651,0.585981,-0.592117,0.567573,-0.556835
2.4821,0.016743,0.000000,0.000000,0.000000,0.0000,1.2036,0.0000,-0.261388,0.261388,0.000488,0.000428,-0.002051,1.2780,0.7600,-0.3376,-0.254641,0.254641,0.000000,0.578311,-0.593651,0.585981,-0.592117,0.567573,-0.556835
2.4989,0.016748,0.000000,0.000000,0.000000,0.0000,1.2129,0.0000,-0.261798,0.261798,0.000488,0.000428,-0.002051,1.2780,0.7600,-0.3376,-0.254641,0.254641,0.000000,0.578311,-0.593651,0.585981,-0.592117,0.567573,-0.556835
2.5156,0.016747,0.000000,0.000000,0.000000,0.0000,1.2221,0.0000,-0.261484,0.261484,0.000488,0.000428,-0.002051,1.2780,0.7600,-0.3376,-0.256175,0.256175,0.000000,0.578311,-0.593651,0.585981,-0.592117,0.567573,-0.556835
2.5324,0.016747,0.000000,0.000000,0.000000,0.0000,1.2312,0.0000,-0.260446,0.260446,0.000488,0.000428,-0.002051,1.2780,0.7600,-0.3376,-0.265379,0.257709,0.000000,0.578311,-0.593651,0.585981,-0.592117,0.567573,-0.556835
2.5491,0.016743,0.000000,0.000000,0.000000,0.0000,1.2402,0.0000,-0.258687,0.258687,0.000488,0.000428,-0.002051,1.2780,0.7600,-0.3376,-0.263845,0.259243,0.000000,0.578311,-0.593651,0.585981,-0.592117,0.567573,-0.556835
2.5659,0.016745,0.000000,0.000000,0.000000,0.0000,1.2490,0.0000,-0.256213,0.256213,0.000488,0.000428,-0.002051,1.2780,0.7600,-0.3376,-0.260777,0.260777,0.000000,0.578311,-0.593651,0.585981,-0.592117,0.567573,-0.556835
2.5826,0.016747,0.000000,0.000000,0.000000,0.0000,1.2576,0.0000,-0.253030,0.253030,0.000488,0.000428,-0.002051,1.2780,0.7600,-0.3376,-0.262311,0.259243,0.000000,0.578311,-0.593651,0.585981,-0.592117,0.567573,-0.556835
2.5994,0.016744,0.000000,0.000000,0.000000,0.0000,1.2662,0.0000,-0.249147,0.249147,0.000488,0.000428,-0.002051,1.2780,0.7600,-0.3376,-0.262311,0.259243,0.000000,0.578311,-0.593651,0.585981,-0.592117,0.567573,-0.556835
2.6161,0.016751,0.000000,0.000000,0.000000,0.0000,1.2746,0.0000,-0.244573,0.244573,0.000488,0.000428,-0.002051,1.2780,0.7600,-0.3376,-0.260777,0.257709,0.000000,0.578311,-0.593651,0.585981,-0.592117,0.567573,-0.556835
2.6329,0.016745,0.000000,0.000000,0.000000,0.0000,1.2828,0.0000,-0.239324,0.239324,0.000475,0.000483,-0.002039,1.2883,0.8112,-0.3904,-0.259243,0.257709,0.000000,0.578311,-0.593651,0.585981,-0.593651,0.567573,-0.556835
2.6496,0.016746,0.000000,0.000000,0.000000,0.0000,1.2909,0.0000,-0.233412,0.233412,0.000476,0.000477,-0.002041,1.2872,0.8059,-0.3849,-0.259243,0.256175,0.000000,0.578311,-0.593651,0.585981,-0.593651,0.567573,-0.556835
2.6664,0.016745,0.000000,0.000000,0.000000,0.0000,1.2989,0.0000,-0.226854,0.226854,0.000463,0.000533,-0.002029,1.2978,0.8570,-0.4388,-0.257709,0.254641,0.000000,0.578311,-0.593651,0.585981,-0.595185,0.567573,-0.556835
2.6836,0.017248,0.000000,0.000000,0.000000,0.0000,1.3069,0.0000,-0.219444,0.219444,0.000464,0.000528,-0.002030,1.2967,0.8517,-0.4332,-0.256175,0.251573,0.000000,0.578311,-0.593651,0.585981,-0.595185,0.567573,-0.556835
2.7003,0.016747,0.000000,0.000000,0.000000,0.0000,1.3146,0.0000,-0.211633,0.211633,0.000464,0.000528,-0.002030,1.2967,0.8517,-0.4332,-0.256175,0.251573,0.000000,0.578311,-0.593651,0.585981,-0.595185,0.567573,-0.556835
2.7171,0.016746,0.000000,0.000000,0.000000,0.0000,1.3221,0.0000,-0.203236,0.203236,0.000464,0.000528,-0.002030,1.2967,0.8517,-0.4332,-0.251573,0.250039,0.000000,0.578311,-0.593651,0.585981,-0.595185,0.567573,-0.556835
2.7338,0.016745,0.000000,0.000000,0.000000,0.0000,1.3295,0.0000,-0.194278,0.194278,0.000451,0.000584,-0.002018,1.3073,0.9028,-0.4873,-0.242369,0.243903,0.000000,0.578311,-0.593651,0.585981,-0.596719,0.567573,-0.556835
2.7506,0.016747,0.000000,0.000000,0.000000,0.0000,1.3368,0.0000,-0.184780,0.184780,0.000440,0.000634,-0.002007,1.3167,0.9479,-0.5351,-0.230097,0.234699,0.000000,0.578311,-0.593651,0.585981,-0.598253,0.567573,-0.556835
2.7673,0.016747,0.000000,0.000000,0.000000,0.0000,1.3438,0.0000,-0.174772,0.174772,0.000441,0.000628,-0.002008,1.3157,0.9432,-0.5301,-0.217825,0.223961,0.000000,0.578311,-0.593651,0.585981,-0.598253,0.567573,-0.556835
2.7843,0.016949,0.000000,0.000000,0.000000,0.0000,1.3509,0.0000,-0.164150,0.164150,0.000441,0.000628,-0.002008,1.3157,0.9432,-0.5301,-0.204019,0.214757,0.000000,0.578311,-0.593651,0.585981,-0.598253,0.567573,-0.556835
2.8010,0.016741,0.000000,0.000000,0.000000,0.0000,1.3577,0.0000,-0.153201,0.153201,0.000441,0.000628,-0.002008,1.3157,0.9432,-0.5301,-0.204019,0.214757,0.000000,0.578311,-0.593651,0.585981,-0.598253,0.567573,-0.556835
2.8178,0.016745,0.000000,0.000000,0.000000,0.0000,1.3643,0.0000,-0.141827,0.141827,0.000441,0.000628,-0.002008,1.3157,0.9432,-0.5301,-0.193282,0.205553,0.000000,0.578311,-0.593651,0.585981,-0.598253,0.567573,-0.556835
2.8345,0.016741,0.000000,0.000000,0.000000,0.0000,1.3708,0.0000,-0.130062,0.130062,0.000428,0.000685,-0.001997,1.3263,0.9941,-0.5841,-0.182544,0.193282,0.000000,0.578311,-0.593651,0.585981,-0.599786,0.567573,-0.556835
2.8513,0.016749,0.000000,0.000000,0.000000,0.0000,1.3771,0.0000,-0.117932,0.117932,0.000429,0.000679,-0.001998,1.3252,0.9888,-0.5785,-0.171806,0.179476,0.000000,0.578311,-0.593651,0.585981,-0.599786,0.567573,-0.556835
2.8680,0.016745,0.000000,0.000000,0.000000,0.0000,1.3833,0.0000,-0.105479,0.105479,0.000429,0.000679,-0.001998,1.3252,0.9888,-0.5785,-0.162602,0.165670,0.000000,0.578311,-0.593651,0.585981,-0.599786,0.567573,-0.556835
2.8848,0.016750,0.000000,0.000000,0.000000,0.0000,1.3893,0.0000,-0.092730,0.092730,0.000429,0.000679,-0.001998,1.3252,0.9888,-0.5785,-0.148796,0.150330,0.000000,0.578311,-0.593651,0.585981,-0.599786,0.567573,-0.556835
2.9015,0.016741,0.000000,0.000000,0.000000,0.0000,1.3952,0.0000,-0.079732,0.079732,0.000429,0.000679,-0.001998,1.3252,0.9888,-0.5785,-0.148796,0.150330,0.000000,0.578311,-0.593651,0.585981,-0.599786,0.567573,-0.556835
2.9182,0.016745,0.000000,0.000000,0.000000,0.0000,1.4009,0.0000,-0.066510,0.066510,0.000429,0.000679,-0.001998,1.3252,0.9888,-0.5785,-0.131922,0.133456,0.000000,0.578311,-0.593651,0.585981,-0.599786,0.567573,-0.556835
2.9350,0.016744,0.000000,0.000000,0.000000,0.0000,1.4065,0.0000,-0.053104,0.053104,0.000429,0.000679,-0.001998,1.3252,0.9888,-0.5785,-0.116583,0.116583,0.000000,0.578311,-0.593651,0.585981,-0.599786,0.567573,-0.556835
2.9517,0.016739,0.000000,0.000000,0.000000,0.0000,1.4119,0.0000,-0.039556,0.039556,0.000429,0.000679,-0.001998,1.3252,0.9888,-0.5785,-0.102777,0.102777,0.000000,0.578311,-0.593651,0.585981,-0.599786,0.567573,-0.556835
2.9685,0.016744,0.000000,0.000000,0.000000,0.0000,1.4171,0.0000,-0.025894,0.025894,0.000429,0.000679,-0.001998,1.3252,0.9888,-0.5785,-0.088971,0.087437,0.000000,0.578311,-0.593651,0.585981,-0.599786,0.567573,-0.556835
2.9852,0.016750,0.000000,0.000000,0.000000,0.0000,1.4222,0.0000,-0.012156,0.012156,0.000429,0.000679,-0.001998,1.3252,0.9888,-0.5785,-0.088971,0.087437,0.000000,0.578311,-0.593651,0.585981,-0.599786,0.567573,-0.556835
3.0020,0.016745,0.000000,0.000000,0.000000,0.0000,1.4272,0.0000,0.001612,-0.001612,0.000429,0.000679,-0.001998,1.3252,0.9888,-0.5785,-0.072097,0.072097,0.000000,0.578311,-0.593651,0.585981,-0.599786,0.567573,-0.556835
3.0187,0.016746,0.000000,0.000000,0.000000,0.0000,1.4319,0.0000,0.015377,-0.015377,0.000429,0.000679,-0.001998,1.3252,0.9888,-0.5785,-0.052155,0.052155,0.000000,0.578311,-0.593651,0.585981,-0.599786,0.567573,-0.556835
3.0355,0.016749,0.000000,0.000000,0.000000,0.0000,1.4366,0.0000,0.029101,-0.029101,0.000429,0.000679,-0.001998,1.3252,0.9888,-0.5785,-0.035282,0.038350,0.000000,0.578311,-0.593651,0.585981,-0.599786,0.567573,-0.556835
3.0523,0.016820,0.000000,0.000000,0.000000,0.0000,1.4410,0.0000,0.042802,-0.042802,0.000416,0.000735,-0.001986,1.3359,1.0397,-0.6326,0.000000,0.004602,0.000000,0.578311,-0.593651,0.585981,-0.601320,0.567573,-0.556835
3.0690,0.016742,0.000000,0.000000,0.000000,0.0000,1.4453,0.0000,0.056321,-0.056321,0.000417,0.000729,-0.001987,1.3348,1.0344,-0.6270,0.015340,-0.009204,0.000000,0.578311,-0.593651,0.585981,-0.601320,0.567573,-0.556835
3.0858,0.016759,0.000000,0.000000,0.000000,0.0000,1.4495,0.0000,0.069697,-0.069697,0.000417,0.000729,-0.001987,1.3348,1.0344,-0.6270,0.035282,-0.029146,0.000000,0.578311,-0.593651,0.585981,-0.601320,0.567573,-0.556835
3.1025,0.016746,0.000000,0.000000,0.000000,0.0000,1.4535,0.0000,0.082871,-0.082871,0.000417,0.000729,-0.001987,1.3348,1.0344,-0.6270,0.035282,-0.029146,0.000000,0.578311,-0.593651,0.585981,-0.601320,0.567573,-0.556835
3.1193,0.016745,0.000000,0.000000,0.000000,0.0000,1.4573,0.0000,0.095815,-0.095815,0.000417,0.000729,-0.001987,1.3348,1.0344,-0.6270,0.050621,-0.047553,0.000000,0.578311,-0.593651,0.585981,-0.601320,0.567573,-0.556835
3.1360,0.016762,0.000000,0.000000,0.000000,0.0000,1.4609,0.0000,0.108506,-0.108506,0.000417,0.000729,-0.001987,1.3348,1.0344,-0.6270,0.050621,-0.047553,0.000000,0.578311,-0.593651,0.585981,-0.601320,0.567573,-0.556835
3.1528,0.016744,0.000000,0.000000,0.000000,0.0000,1.4644,0.0000,0.120883,-0.120883,0.000417,0.000729,-0.001987,1.3348,1.0344,-0.6270,0.075165,-0.078233,0.000000,0.578311,-0.593651,0.585981,-0.601320,0.567573,-0.556835
3.1695,0.016739,0.000000,0.000000,0.000000,0.0000,1.4678,0.0000,0.132922,-0.132922,0.000417,0.000729,-0.001987,1.3348,1.0344,-0.6270,0.090505,-0.092039,0.000000,0.578311,-0.593651,0.585981,-0.601320,0.567573,-0.556835
3.1863,0.016747,0.000000,0.000000,0.000000,0.0000,1.4709,0.0000,0.144599,-0.144599,0.000417,0.000729,-0.001987,1.3348,1.0344,-0.6270,0.090505,-0.092039,0.000000,0.578311,-0.593651,0.585981,-0.601320,0.567573,-0.556835
3.2030,0.016740,0.000000,0.000000,0.000000,0.0000,1.4740,0.0000,0.155871,-0.155871,0.000417,0.000729,-0.001987,1.3348,1.0344,-0.6270,0.111981,-0.107379,0.000000,0.578311,-0.593651,0.585981,-0.601320,0.567573,-0.556835
3.2197,0.016749,0.000000,0.000000,0.000000,0.0000,1.4768,0.0000,0.166719,-0.166719,0.000404,0.000786,-0.001975,1.3455,1.0853,-0.6811,0.130388,-0.119651,0.000000,0.578311,-0.593651,0.585981,-0.602854,0.567573,-0.556835
3.2365,0.016741,0.000000,0.000000,0.000000,0.0000,1.4795,0.0000,0.177099,-0.177099,0.000419,0.000724,-0.001988,1.3338,1.0297,-0.6219,0.144194,-0.136524,0.000000,0.578311,-0.593651,0.585981,-0.601320,0.567573,-0.556835
3.2532,0.016750,0.000000,0.000000,0.000000,0.0000,1.4820,0.0000,0.186995,-0.186995,0.000417,0.000730,-0.001987,1.3350,1.0354,-0.6281,0.151864,-0.153398,0.000000,0.578311,-0.593651,0.585981,-0.601320,0.567573,-0.556835
3.2700,0.016745,0.000000,0.000000,0.000000,0.0000,1.4844,0.0000,0.196371,-0.196371,0.000417,0.000730,-0.001987,1.3350,1.0354,-0.6281,0.164136,-0.167204,0.000000,0.578311,-0.593651,0.585981,-0.601320,0.567573,-0.556835
3.2868,0.016838,0.000000,0.000000,0.000000,0.0000,1.4866,0.0000,0.205251,-0.205251,0.000417,0.000730,-0.001987,1.3350,1.0354,-0.6281,0.164136,-0.167204,0.000000,0.578311,-0.593651,0.585981,-0.601320,0.567573,-0.556835
3.3036,0.016822,0.000000,0.000000,0.000000,0.0000,1.4886,0.0000,0.213549,-0.213549,0.000417,0.000730,-0.001987,1.3350,1.0354,-0.6281,0.164136,-0.167204,0.000000,0.578311,-0.593651,0.585981,-0.601320,0.567573,-0.556835
3.3204,0.016753,0.000000,0.000000,0.000000,0.0000,1.4905,0.0000,0.221220,-0.221220,0.000417,0.000730,-0.001987,1.3350,1.0354,-0.6281,0.193282,-0.191748,0.000000,0.578311,-0.593651,0.585981,-0.601320,0.567573,-0.556835
3.3371,0.016746,0.000000,0.000000,0.000000,0.0000,1.4922,0.0000,0.228276,-0.228276,0.000417,0.000730,-0.001987,1.3350,1.0354,-0.6281,0.193282,-0.191748,0.000000,0.578311,-0.593651,0.585981,-0.601320,0.567573,-0.556835
3.3539,0.016761,0.000000,0.000000,0.000000,0.0000,1.4937,0.0000,0.234706,-0.234706,0.000404,0.000786,-0.001975,1.3455,1.0852,-0.6810,0.185612,-0.187146,0.000000,0.578311,-0.593651,0.585981,-0.602854,0.567573,-0.556835
3.3707,0.016747,0.000000,0.000000,0.000000,0.0000,1.4950,0.0000,0.240480,-0.240480,0.000419,0.000724,-0.001988,1.3338,1.0297,-0.6219,0.185612,-0.188680,0.000000,0.578311,-0.593651,0.585981,-0.601320,0.567573,-0.556835
3.3874,0.016742,0.000000,0.000000,0.000000,0.0000,1.4962,0.0000,0.245588,-0.245588,0.000404,0.000786,-0.001975,1.3456,1.0858,-0.6817,0.200951,-0.204019,0.000000,0.578311,-0.593651,0.585981,-0.602854,0.567573,-0.556835
3.4042,0.016772,0.000000,0.000000,0.000000,0.0000,1.4973,0.0000,0.250024,-0.250024,0.000419,0.000724,-0.001988,1.3338,1.0296,-0.6219,0.227029,-0.222427,0.000000,0.578311,-0.593651,0.585981,-0.601320,0.567573,-0.556835
3.4209,0.016755,0.000000,0.000000,0.000000,0.0000,1.4981,0.0000,0.253762,-0.253762,0.000419,0.000724,-0.001988,1.3338,1.0296,-0.6219,0.227029,-0.222427,0.000000,0.578311,-0.593651,0.585981,-0.601320,0.567573,-0.556835
3.4377,0.016753,0.000000,0.000000,0.000000,0.0000,1.4989,0.0000,0.256797,-0.256797,0.000417,0.000730,-0.001987,1.3350,1.0355,-0.6281,0.248505,-0.243903,0.000000,0.578311,-0.593651,0.585981,-0.601320,0.567573,-0.556835
3.4545,0.016864,0.000000,0.000000,0.000000,0.0000,1.4994,0.0000,0.259134,-0.259134,0.000417,0.000730,-0.001987,1.3350,1.0355,-0.6281,0.248505,-0.248505,0.000000,0.578311,-0.593651,0.585981,-0.601320,0.567573,-0.556835
3.4713,0.016750,0.000000,0.000000,0.000000,0.0000,1.4998,0.0000,0.260735,-0.260735,0.000417,0.000730,-0.001987,1.3350,1.0355,-0.6281,0.243903,-0.245437,0.000000,0.578311,-0.593651,0.585981,-0.601320,0.567573,-0.556835
3.4883,0.016969,0.000000,0.000000,0.000000,0.0000,1.5000,0.0000,0.261621,-0.261621,0.000417,0.000730,-0.001987,1.3350,1.0355,-0.6281,0.251573,-0.250039,0.000000,0.578311,-0.593651,0.585981,-0.601320,0.567573,-0.556835
3.5050,0.016747,0.000000,0.000000,0.000000,0.0000,1.5000,0.0000,0.261767,-0.261767,0.000404,0.000786,-0.001975,1.3455,1.0852,-0.6810,0.260777,-0.260777,0.000000,0.578311,-0.593651,0.585981,-0.602854,0.567573,-0.556835
3.5218,0.016768,0.000000,0.000000,0.000000,0.0000,1.4999,0.0000,0.261187,-0.261187,0.000406,0.000780,-0.001977,1.3444,1.0800,-0.6755,0.259243,-0.262311,0.000000,0.578311,-0.593651,0.585981,-0.602854,0.567573,-0.556835
3.5385,0.016747,0.000000,0.000000,0.000000,0.0000,1.4996,0.0000,0.259885,-0.259885,0.000406,0.000780,-0.001977,1.3444,1.0800,-0.6755,0.259243,-0.262311,0.000000,0.578311,-0.593651,0.585981,-0.602854,0.567573,-0.556835
3.5553,0.016756,0.000000,0.000000,0.000000,0.0000,1.4991,0.0000,0.257862,-0.257862,0.000406,0.000780,-0.001977,1.3444,1.0800,-0.6755,0.256175,-0.259243,0.000000,0.578311,-0.593651,0.585981,-0.602854,0.567573,-0.556835
3.5720,0.016743,0.000000,0.000000,0.000000,0.0000,1.4985,0.0000,0.255127,-0.255127,0.000406,0.000780,-0.001977,1.3444,1.0800,-0.6755,0.265379,-0.262311,0.000000,0.578311,-0.593651,0.585981,-0.602854,0.567573,-0.556835
3.5888,0.016768,0.000000,0.000000,0.000000,0.0000,1.4977,0.0000,0.251681,-0.251681,0.000418,0.000725,-0.001988,1.3339,1.0302,-0.6225,0.265379,-0.262311,0.000000,0.578311,-0.593651,0.585981,-0.601320,0.567573,-0.556835
3.6055,0.016745,0.000000,0.000000,0.000000,0.0000,1.4967,0.0000,0.247543,-0.247543,0.000404,0.000786,-0.001975,1.3456,1.0857,-0.6816,0.259243,-0.259243,0.000000,0.578311,-0.593651,0.585981,-0.602854,0.567573,-0.556835
3.6223,0.016766,0.000000,0.000000,0.000000,0.0000,1.4956,0.0000,0.242713,-0.242713,0.000404,0.000786,-0.001975,1.3456,1.0857,-0.6816,0.253107,-0.257709,0.000000,0.578311,-0.593651,0.585981,-0.601320,0.567573,-0.556835
3.6390,0.016741,0.000000,0.000000,0.000000,0.0000,1.4943,0.0000,0.237219,-0.237219,0.000419,0.000724,-0.001988,1.3338,1.0296,-0.6219,0.253107,-0.257709,0.000000,0.578311,-0.593651,0.585981,-0.601320,0.567573,-0.556835
3.6558,0.016756,0.000000,0.000000,0.000000,0.0000,1.4928,0.0000,0.231063,-0.231063,0.000404,0.000786,-0.001975,1.3456,1.0858,-0.6817,0.253107,-0.256175,0.000000,0.578311,-0.593651,0.585981,-0.602854,0.567573,-0.556835
3.6725,0.016746,0.000000,0.000000,0.000000,0.0000,1.4912,0.0000,0.224271,-0.224271,0.000406,0.000780,-0.001977,1.3444,1.0799,-0.6754,0.251573,-0.254641,0.000000,0.578311,-0.593651,0.585981,-0.602854,0.567573,-0.556835
3.6893,0.016761,0.000000,0.000000,0.000000,0.0000,1.4894,0.0000,0.216852,-0.216852,0.000406,0.000780,-0.001977,1.3444,1.0799,-0.6754,0.250039,-0.251573,0.000000,0.578311,-0.593651,0.585981,-0.602854,0.567573,-0.556835
3.7060,0.016746,0.000000,0.000000,0.000000,0.0000,1.4874,0.0000,0.208839,-0.208839,0.000406,0.000780,-0.001977,1.3444,1.0799,-0.6754,0.245437,-0.245437,0.000000,0.578311,-0.593651,0.585981,-0.602854,0.567573,-0.556835
3.7228,0.016759,0.000000,0.000000,0.000000,0.0000,1.4853,0.0000,0.200241,-0.200241,0.000406,0.000780,-0.001977,1.3444,1.0799,-0.6754,0.237767,-0.236233,0.000000,0.578311,-0.593651,0.585981,-0.602854,0.567573,-0.556835
3.7395,0.016740,0.000000,0.000000,0.000000,0.0000,1.4830,0.0000,0.191099,-0.191099,0.000406,0.000780,-0.001977,1.3444,1.0799,-0.6754,0.237767,-0.236233,0.000000,0.578311,-0.593651,0.585981,-0.602854,0.567573,-0.556835
3.7563,0.016753,0.000000,0.000000,0.000000,0.0000,1.4806,0.0000,0.181421,-0.181421,0.000406,0.000780,-0.001977,1.3444,1.0799,-0.6754,0.225495,-0.225495,0.000000,0.578311,-0.593651,0.585981,-0.602854,0.567573,-0.556835
3.7730,0.016743,0.000000,0.000000,0.000000,0.0000,1.4780,0.0000,0.171246,-0.171246,0.000406,0.000780,-0.001977,1.3444,1.0799,-0.6754,0.214757,-0.216291,0.000000,0.578311,-0.593651,0.585981,-0.602854,0.567573,-0.556835
3.7898,0.016763,0.000000,0.000000,0.000000,0.0000,1.4752,0.0000,0.160585,-0.160585,0.000418,0.000725,-0.001988,1.3339,1.0302,-0.6225,0.202485,-0.207087,0.000000,0.578311,-0.593651,0.585981,-0.601320,0.567573,-0.556835
3.8065,0.016744,0.000000,0.000000,0.000000,0.0000,1.4723,0.0000,0.149492,-0.149492,0.000404,0.000786,-0.001975,1.3456,1.0857,-0.6816,0.193282,-0.199418,0.000000,0.578311,-0.593651,0.585981,-0.602854,0.567573,-0.556835
3.8233,0.016759,0.000000,0.000000,0.000000,0.0000,1.4692,0.0000,0.137974,-0.137974,0.000404,0.000786,-0.001975,1.3456,1.0857,-0.6816,0.193282,-0.199418,0.000000,0.578311,-0.593651,0.585981,-0.602854,0.567573,-0.556835
3.8401,0.016746,0.000000,0.000000,0.000000,0.0000,1.4659,0.0000,0.126084,-0.126084,0.000406,0.000780,-0.001977,1.3444,1.0799,-0.6754,0.181010,-0.193282,0.000000,0.578311,-0.593651,0.585981,-0.602854,0.567573,-0.556835
3.8568,0.016752,0.000000,0.000000,0.000000,0.0000,1.4625,0.0000,0.113840,-0.113840,0.000406,0.000780,-0.001977,1.3444,1.0799,-0.6754,0.165670,-0.179476,0.000000,0.578311,-0.593651,0.585981,-0.602854,0.567573,-0.556835
3.8735,0.016742,0.000000,0.000000,0.000000,0.0000,1.4589,0.0000,0.101289,-0.101289,0.000418,0.000725,-0.001988,1.3339,1.0302,-0.6225,0.154932,-0.167204,0.000000,0.578311,-0.593651,0.585981,-0.601320,0.567573,-0.556835
3.8903,0.016751,0.000000,0.000000,0.000000,0.0000,1.4551,0.0000,0.088450,-0.088450,0.000417,0.000730,-0.001987,1.3350,1.0354,-0.6280,0.142660,-0.151864,0.000000,0.578311,-0.593651,0.585981,-0.601320,0.567573,-0.556835
3.9070,0.016743,0.000000,0.000000,0.000000,0.0000,1.4512,0.0000,0.075373,-0.075373,0.000417,0.000730,-0.001987,1.3350,1.0354,-0.6280,0.128854,-0.138058,0.000000,0.578311,-0.593651,0.585981,-0.601320,0.567573,-0.556835
3.9238,0.016753,0.000000,0.000000,0.000000,0.0000,1.4471,0.0000,0.062079,-0.062079,0.000417,0.000730,-0.001987,1.3350,1.0354,-0.6280,0.128854,-0.138058,0.000000,0.578311,-0.593651,0.585981,-0.601320,0.567573,-0.556835
3.9405,0.016743,0.000000,0.000000,0.000000,0.0000,1.4429,0.0000,0.048622,-0.048622,0.000417,0.000730,-0.001987,1.3350,1.0354,-0.6280,0.096641,-0.102777,0.000000,0.578311,-0.593651,0.585981,-0.601320,0.567573,-0.556835
3.9573,0.016748,0.000000,0.000000,0.000000,0.0000,1.4385,0.0000,0.035026,-0.035026,0.000404,0.000786,-0.001975,1.3455,1.0852,-0.6810,0.081301,-0.087437,0.000000,0.578311,-0.593651,0.585981,-0.602854,0.567573,-0.556835
3.9740,0.016740,0.000000,0.000000,0.000000,0.0000,1.4340,0.0000,0.021339,-0.021339,0.000406,0.000780,-0.001977,1.3444,1.0800,-0.6755,0.081301,-0.087437,0.000000,0.578311,-0.593651,0.585981,-0.602854,0.567573,-0.556835
3.9908,0.016758,0.000000,0.000000,0.000000,0.0000,1.4292,0.0000,0.007579,-0.007579,0.000418,0.000725,-0.001988,1.3339,1.0302,-0.6225,0.065961,-0.070563,0.000000,0.578311,-0.593651,0.585981,-0.601320,0.567573,-0.556835
4.0075,0.016743,0.000000,0.000000,0.000000,0.0000,1.4244,0.0000,-0.006190,0.006190,0.000417,0.000730,-0.001987,1.3350,1.0354,-0.6280,0.027612,-0.029146,0.000000,0.578311,-0.593651,0.585981,-0.601320,0.567573,-0.556835
4.0243,0.016753,0.000000,0.000000,0.000000,0.0000,1.4193,0.0000,-0.019950,0.019950,0.000417,0.000730,-0.001987,1.3350,1.0354,-0.6280,0.027612,-0.029146,0.000000,0.578311,-0.593651,0.585981,-0.601320,0.567573,-0.556835
4.0410,0.016742,0.000000,0.000000,0.000000,0.0000,1.4142,0.0000,-0.033646,0.033646,0.000417,0.000730,-0.001987,1.3350,1.0354,-0.6280,0.012272,-0.010738,0.000000,0.578311,-0.593651,0.585981,-0.601320,0.567573,-0.556835
4.0578,0.016749,0.000000,0.000000,0.000000,0.0000,1.4088,0.0000,-0.047254,0.047254,0.000417,0.000730,-0.001987,1.3350,1.0354,-0.6280,0.012272,-0.010738,0.000000,0.578311,-0.593651,0.585981,-0.601320,0.567573,-0.556835
4.0745,0.016739,0.000000,0.000000,0.000000,0.0000,1.4033,0.0000,-0.060724,0.060724,0.000404,0.000786,-0.001975,1.3455,1.0852,-0.6810,-0.019942,0.016874,0.000000,0.578311,-0.593651,0.585981,-0.602854,0.567573,-0.556835
4.0913,0.016751,0.000000,0.000000,0.000000,0.0000,1.3977,0.0000,-0.074036,0.074036,0.000406,0.000780,-0.001977,1.3444,1.0800,-0.6755,-0.033748,0.029146,0.000000,0.578311,-0.593651,0.585981,-0.602854,0.567573,-0.556835
4.1081,0.016842,0.000000,0.000000,0.000000,0.0000,1.3918,0.0000,-0.087212,0.087212,0.000406,0.000780,-0.001977,1.3444,1.0800,-0.6755,-0.050621,0.047553,0.000000,0.578311,-0.593651,0.585981,-0.602854,0.567573,-0.556835
4.1249,0.016759,0.000000,0.000000,0.000000,0.0000,1.3859,0.0000,-0.100081,0.100081,0.000406,0.000780,-0.001977,1.3444,1.0800,-0.6755,-0.050621,0.047553,0.000000,0.578311,-0.593651,0.585981,-0.602854,0.567573,-0.556835
4.1416,0.016752,0.000000,0.000000,0.000000,0.0000,1.3798,0.0000,-0.112669,0.112669,0.000406,0.000780,-0.001977,1.3444,1.0800,-0.6755,-0.070563,0.069029,0.000000,0.578311,-0.593651,0.585981,-0.602854,0.567573,-0.556835
4.1584,0.016761,0.000000,0.000000,0.000000,0.0000,1.3735,0.0000,-0.124950,0.124950,0.000406,0.000780,-0.001977,1.3444,1.0800,-0.6755,-0.087437,0.085903,0.000000,0.578311,-0.593651,0.585981,-0.602854,0.567573,-0.556835
4.1751,0.016755,0.000000,0.000000,0.000000,0.0000,1.3671,0.0000,-0.136881,0.136881,0.000406,0.000780,-0.001977,1.3444,1.0800,-0.6755,-0.093573,0.093573,0.000000,0.578311,-0.593651,0.585981,-0.602854,0.567573,-0.556835
4.1919,0.016765,0.000000,0.000000,0.000000,0.0000,1.3605,0.0000,-0.148439,0.148439,0.000418,0.000725,-0.001988,1.3339,1.0302,-0.6225,-0.104311,0.104311,0.000000,0.578311,-0.593651,0.585981,-0.601320,0.567573,-0.556835
4.2087,0.016761,0.000000,0.000000,0.000000,0.0000,1.3537,0.0000,-0.159584,0.159584,0.000404,0.000786,-0.001975,1.3456,1.0857,-0.6816,-0.122718,0.122718,0.000000,0.578311,-0.593651,0.585981,-0.602854,0.567573,-0.556835
4.2254,0.016758,0.000000,0.000000,0.000000,0.0000,1.3469,0.0000,-0.170284,0.170284,0.000404,0.000786,-0.001975,1.3456,1.0857,-0.6816,-0.122718,0.122718,0.000000,0.578311,-0.593651,0.585981,-0.602854,0.567573,-0.556835
4.2422,0.016749,0.000000,0.000000,0.000000,0.0000,1.3398,0.0000,-0.180507,0.180507,0.000406,0.000780,-0.001977,1.3444,1.0799,-0.6754,-0.145728,0.144194,0.000000,0.578311,-0.593651,0.585981,-0.602854,0.567573,-0.556835
4.2589,0.016767,0.000000,0.000000,0.000000,0.0000,1.3327,0.0000,-0.190240,0.190240,0.000406,0.000780,-0.001977,1.3444,1.0799,-0.6754,-0.164136,0.159534,0.000000,0.578311,-0.593651,0.585981,-0.602854,0.567573,-0.556835
4.2757,0.016751,0.000000,0.000000,0.000000,0.0000,1.3253,0.0000,-0.199437,0.199437,0.000406,0.000780,-0.001977,1.3444,1.0799,-0.6754,-0.168738,0.164136,0.000000,0.578311,-0.593651,0.585981,-0.602854,0.567573,-0.556835
4.2924,0.016760,0.000000,0.000000,0.000000,0.0000,1.3179,0.0000,-0.208087,0.208087,0.000406,0.000780,-0.001977,1.3444,1.0799,-0.6754,-0.176408,0.173340,0.000000,0.578311,-0.593651,0.585981,-0.602854,0.567573,-0.556835
4.3092,0.016750,0.000000,0.000000,0.000000,0.0000,1.3103,0.0000,-0.216154,0.216154,0.000406,0.000780,-0.001977,1.3444,1.0799,-0.6754,-0.191748,0.191748,0.000000,0.578311,-0.593651,0.585981,-0.602854,0.567573,-0.556835
4.3274,0.018231,0.000000,0.000000,0.000000,0.0000,1.3018,0.0000,-0.224255,0.224255,0.000406,0.000780,-0.001977,1.3444,1.0799,-0.6754,-0.191748,0.191748,0.000000,0.578311,-0.593651,0.585981,-0.602854,0.567573,-0.556835
4.3453,0.017887,0.000000,0.000000,0.000000,0.0000,1.2934,0.0000,-0.231488,0.231488,0.000406,0.000780,-0.001977,1.3444,1.0799,-0.6754,-0.191748,0.191748,0.000000,0.578311,-0.593651,0.585981,-0.602854,0.567573,-0.556835
4.3621,0.016758,0.000000,0.000000,0.000000,0.0000,1.2853,0.0000,-0.237602,0.237602,0.000406,0.000780,-0.001977,1.3444,1.0799,-0.6754,-0.191748,0.191748,0.000000,0.578311,-0.593651,0.585981,-0.602854,0.567573,-0.556835
4.3790,0.016890,0.000000,0.000000,0.000000,0.0000,1.2770,0.0000,-0.243098,0.243098,0.000406,0.000780,-0.001977,1.3444,1.0799,-0.6754,-0.211689,0.208621,0.000000,0.578311,-0.593651,0.585981,-0.602854,0.567573,-0.556835
4.3957,0.016759,0.000000,0.000000,0.000000,0.0000,1.2687,0.0000,-0.247874,0.247874,0.000406,0.000780,-0.001977,1.3444,1.0799,-0.6754,-0.208621,0.208621,0.000000,0.578311,-0.593651,0.585981,-0.602854,0.567573,-0.556835
4.4125,0.016748,0.000000,0.000000,0.000000,0.0000,1.2602,0.0000,-0.251962,0.251962,0.000406,0.000780,-0.001977,1.3444,1.0799,-0.6754,-0.219359,0.216291,0.000000,0.578311,-0.593651,0.585981,-0.602854,0.567573,-0.556835
4.4292,0.016772,0.000000,0.000000,0.000000,0.0000,1.2515,0.0000,-0.255357,0.255357,0.000406,0.000780,-0.001977,1.3444,1.0799,-0.6754,-0.219359,0.216291,0.000000,0.578311,-0.593651,0.585981,-0.602854,0.567573,-0.556835
4.4460,0.016746,0.000000,0.000000,0.000000,0.0000,1.2427,0.0000,-0.258039,0.258039,0.000418,0.000725,-0.001988,1.3339,1.0302,-0.6225,-0.243903,0.242369,0.000000,0.578311,-0.593651,0.585981,-0.601320,0.567573,-0.556835
4.4627,0.016755,0.000000,0.000000,0.000000,0.0000,1.2338,0.0000,-0.260008,0.260008,0.000404,0.000786,-0.001975,1.3456,1.0857,-0.6816,-0.257709,0.256175,0.000000,0.578311,-0.593651,0.585981,-0.602854,0.567573,-0.556835
4.4795,0.016742,0.000000,0.000000,0.000000,0.0000,1.2248,0.0000,-0.261255,0.261255,0.000406,0.000780,-0.001977,1.3444,1.0799,-0.6754,-0.257709,0.257709,0.000000,0.578311,-0.593651,0.585981,-0.602854,0.567573,-0.556835
4.4962,0.016755,0.000000,0.000000,0.000000,0.0000,1.2156,0.0000,-0.261781,0.261781,0.000406,0.000780,-0.001977,1.3444,1.0799,-0.6754,-0.254641,0.256175,0.000000,0.578311,-0.593651,0.585981,-0.602854,0.567573,-0.556835
4.5130,0.016741,0.000000,0.000000,0.000000,0.0000,1.2063,0.0000,-0.261582,0.261582,0.000406,0.000780,-0.001977,1.3444,1.0799,-0.6754,-0.263845,0.260777,0.000000,0.578311,-0.593651,0.585981,-0.602854,0.567573,-0.556835
4.5297,0.016759,0.000000,0.000000,0.000000,0.0000,1.1968,0.0000,-0.260658,0.260658,0.000406,0.000780,-0.001977,1.3444,1.0799,-0.6754,-0.263845,0.260777,0.000000,0.578311,-0.593651,0.585981,-0.602854,0.567573,-0.556835
4.5465,0.016745,0.000000,0.000000,0.000000,0.0000,1.1873,0.0000,-0.259014,0.259014,0.000406,0.000780,-0.001977,1.3444,1.0799,-0.6754,-0.263845,0.260777,0.000000,0.578311,-0.593651,0.585981,-0.602854,0.567573,-0.556835
