t,loop_dt,cmd_x,cmd_y,cmd_z,cmd_roll,cmd_pitch,cmd_yaw,cmd_ant_l,cmd_ant_r,pres_x,pres_y,pres_z,pres_roll,pres_pitch,pres_yaw,pres_ant_l,pres_ant_r,pres_j0,pres_j1,pres_j2,pres_j3,pres_j4,pres_j5,pres_j6
0.0000,0.000001,0.000440,0.000072,-0.002485,0.5670,0.1744,0.1878,-0.177942,0.174874,0.000440,0.000072,-0.002485,0.5670,0.1744,0.1878,-0.177942,0.174874,0.000000,0.569107,-0.576777,0.573709,-0.570641,0.567573,-0.556835
0.0167,0.016744,0.000432,0.000070,-0.002444,0.5575,0.1715,0.1846,-0.177885,0.174868,0.000434,0.000073,-0.002487,0.5629,0.1780,0.1933,-0.179476,0.174874,0.000000,0.569107,-0.576777,0.573709,-0.570641,0.567573,-0.556835
0.0335,0.016748,0.000425,0.000069,-0.002402,0.5480,0.1686,0.1814,-0.177828,0.174862,0.000434,0.000073,-0.002487,0.5629,0.1780,0.1933,-0.177942,0.176408,0.000000,0.569107,-0.576777,0.573709,-0.570641,0.567573,-0.556835
0.0502,0.016747,0.000418,0.000068,-0.002361,0.5385,0.1657,0.1783,-0.177771,0.174857,0.000434,0.000073,-0.002487,0.5629,0.1780,0.1933,-0.177942,0.176408,0.000000,0.569107,-0.576777,0.573709,-0.570641,0.567573,-0.556835
0.0670,0.016752,0.000410,0.000067,-0.002319,0.5290,0.1627,0.1751,-0.177713,0.174851,0.000434,0.000073,-0.002487,0.5629,0.1780,0.1933,-0.177942,0.174874,0.000000,0.569107,-0.576777,0.573709,-0.570641,0.567573,-0.556835
0.0837,0.016742,0.000403,0.000066,-0.002277,0.5195,0.1598,0.1720,-0.177656,0.174845,0.000422,0.000051,-0.002511,0.4745,0.2288,0.1930,-0.179476,0.174874,0.000000,0.567573,-0.575243,0.573709,-0.570641,0.567573,-0.556835
0.1005,0.016740,0.000396,0.000064,-0.002236,0.5100,0.1569,0.1688,-0.177599,0.174840,0.000546,0.000107,-0.002634,0.4954,0.4444,0.2998,-0.179476,0.174874,0.000000,0.562971,-0.572175,0.573709,-0.570641,0.566039,-0.550699
0.1172,0.016744,0.000388,0.000063,-0.002194,0.5005,0.1540,0.1657,-0.177542,0.174834,0.000748,0.000117,-0.002660,0.4549,0.4535,0.3415,-0.179476,0.174874,0.000000,0.559903,-0.572175,0.573709,-0.570641,0.567573,-0.547631
0.1340,0.016773,0.000381,0.000062,-0.002152,0.4910,0.1511,0.1625,-0.177485,0.174828,0.000727,0.000116,-0.002658,0.4591,0.4526,0.3371,-0.179476,0.174874,0.000000,0.559903,-0.572175,0.573709,-0.570641,0.567573,-0.547631
0.1507,0.016747,0.000373,0.000061,-0.002111,0.4815,0.1482,0.1593,-0.177428,0.174822,0.000727,0.000116,-0.002658,0.4591,0.4526,0.3371,-0.179476,0.174874,0.000000,0.559903,-0.572175,0.573709,-0.570641,0.567573,-0.547631
0.1675,0.016744,0.000366,0.000060,-0.002069,0.4720,0.1453,0.1562,-0.177371,0.174817,0.000770,0.000078,-0.002671,0.4087,0.4690,0.2843,-0.179476,0.174874,0.000000,0.558369,-0.572175,0.573709,-0.570641,0.567573,-0.547631
0.1842,0.016742,0.000359,0.000058,-0.002028,0.4625,0.1424,0.1530,-0.177314,0.174811,0.000725,0.000120,-0.002657,0.4639,0.4510,0.3431,-0.179476,0.174874,0.000000,0.559903,-0.572175,0.573709,-0.570641,0.567573,-0.547631
0.2010,0.016742,0.000351,0.000057,-0.001986,0.4530,0.1395,0.1499,-0.177257,0.174805,0.000742,0.000061,-0.002671,0.4482,0.4014,0.3901,-0.179476,0.173340,0.000000,0.559903,-0.572175,0.573709,-0.569107,0.567573,-0.547631
0.2177,0.016743,0.000344,0.000056,-0.001944,0.4435,0.1366,0.1467,-0.177200,0.174800,0.000728,0.000122,-0.002657,0.4598,0.4580,0.3320,-0.179476,0.173340,0.000000,0.559903,-0.572175,0.573709,-0.570641,0.567573,-0.547631
0.2345,0.016741,0.000337,0.000055,-0.001903,0.4340,0.1337,0.1436,-0.177143,0.174794,0.000729,0.000115,-0.002658,0.4586,0.4521,0.3381,-0.179476,0.174874,0.000000,0.559903,-0.572175,0.573709,-0.570641,0.567573,-0.547631
0.2512,0.016749,0.000329,0.000054,-0.001861,0.4245,0.1308,0.1404,-0.177085,0.174788,0.000729,0.000115,-0.002658,0.4586,0.4521,0.3381,-0.179476,0.174874,0.000000,0.559903,-0.572175,0.573709,-0.570641,0.567573,-0.547631
0.2679,0.016742,0.000322,0.000052,-0.001820,0.4150,0.1278,0.1373,-0.177028,0.174782,0.000729,0.000115,-0.002658,0.4586,0.4521,0.3381,-0.179476,0.173340,0.000000,0.559903,-0.572175,0.573709,-0.570641,0.567573,-0.547631
0.2847,0.016741,0.000315,0.000051,-0.001778,0.4055,0.1249,0.1341,-0.176971,0.174777,0.000729,0.000115,-0.002658,0.4586,0.4521,0.3381,-0.179476,0.173340,0.000000,0.559903,-0.572175,0.573709,-0.570641,0.567573,-0.547631
0.3014,0.016741,0.000307,0.000050,-0.001736,0.3960,0.1220,0.1310,-0.176914,0.174771,0.000729,0.000115,-0.002658,0.4586,0.4521,0.3381,-0.179476,0.173340,0.000000,0.559903,-0.572175,0.573709,-0.570641,0.567573,-0.547631
0.3182,0.016739,0.000300,0.000049,-0.001695,0.3865,0.1191,0.1278,-0.176857,0.174765,0.000729,0.000115,-0.002658,0.4586,0.4521,0.3381,-0.179476,0.173340,0.000000,0.559903,-0.572175,0.573709,-0.570641,0.567573,-0.547631
0.3349,0.016740,0.000292,0.000048,-0.001653,0.3771,0.1162,0.1247,-0.176800,0.174760,0.000729,0.000115,-0.002658,0.4586,0.4521,0.3381,-0.179476,0.173340,0.000000,0.559903,-0.572175,0.573709,-0.570641,0.567573,-0.547631
0.3517,0.016760,0.000285,0.000046,-0.001611,0.3675,0.1133,0.1215,-0.176743,0.174754,0.000729,0.000115,-0.002658,0.4586,0.4521,0.3381,-0.179476,0.173340,0.000000,0.559903,-0.572175,0.573709,-0.570641,0.567573,-0.547631
0.3684,0.016745,0.000278,0.000045,-0.001570,0.3581,0.1104,0.1184,-0.176686,0.174748,0.000729,0.000115,-0.002658,0.4586,0.4521,0.3381,-0.177942,0.173340,0.000000,0.559903,-0.572175,0.573709,-0.570641,0.567573,-0.547631
0.3851,0.016740,0.000270,0.000044,-0.001528,0.3486,0.1074,0.1152,-0.176629,0.174743,0.000729,0.000115,-0.002658,0.4586,0.4521,0.3381,-0.179476,0.173340,0.000000,0.559903,-0.572175,0.573709,-0.570641,0.567573,-0.547631
0.4019,0.016745,0.000263,0.000043,-0.001487,0.3391,0.1045,0.1121,-0.176572,0.174737,0.000729,0.000115,-0.002658,0.4586,0.4521,0.3381,-0.179476,0.174874,0.000000,0.559903,-0.572175,0.573709,-0.570641,0.567573,-0.547631
0.4186,0.016742,0.000256,0.000042,-0.001445,0.3296,0.1016,0.1090,-0.176515,0.174731,0.000729,0.000115,-0.002658,0.4586,0.4521,0.3381,-0.179476,0.173340,0.000000,0.559903,-0.572175,0.573709,-0.570641,0.567573,-0.547631
0.4355,0.016876,0.000248,0.000040,-0.001403,0.3200,0.0987,0.1058,-0.176457,0.174725,0.000729,0.000115,-0.002658,0.4586,0.4521,0.3381,-0.179476,0.173340,0.000000,0.559903,-0.572175,0.573709,-0.570641,0.567573,-0.547631
0.4523,0.016740,0.000241,0.000039,-0.001361,0.3105,0.0958,0.1026,-0.176400,0.174720,0.000729,0.000115,-0.002658,0.4586,0.4521,0.3381,-0.179476,0.173340,0.000000,0.559903,-0.572175,0.573709,-0.570641,0.567573,-0.547631
0.4690,0.016744,0.000234,0.000038,-0.001320,0.3010,0.0928,0.0995,-0.176343,0.174714,0.000729,0.000115,-0.002658,0.4586,0.4521,0.3381,-0.179476,0.173340,0.000000,0.559903,-0.572175,0.573709,-0.570641,0.567573,-0.547631
0.4857,0.016744,0.000226,0.000037,-0.001278,0.2915,0.0899,0.0963,-0.176286,0.174708,0.000729,0.000115,-0.002658,0.4586,0.4521,0.3381,-0.179476,0.173340,0.000000,0.559903,-0.572175,0.573709,-0.570641,0.567573,-0.547631
0.5025,0.016741,0.000219,0.000036,-0.001237,0.2820,0.0870,0.0932,-0.176229,0.174703,0.000783,0.000100,-0.002646,0.4978,0.4177,0.2840,-0.179476,0.174874,0.000000,0.559903,-0.573709,0.573709,-0.570641,0.567573,-0.547631
0.5192,0.016743,0.000211,0.000034,-0.001195,0.2725,0.0841,0.0901,-0.176172,0.174697,0.000724,0.000118,-0.002659,0.4546,0.4563,0.3431,-0.177942,0.173340,0.000000,0.559903,-0.572175,0.573709,-0.570641,0.567573,-0.547631
0.5366,0.017420,0.000204,0.000033,-0.001152,0.2627,0.0810,0.0868,-0.176112,0.174691,0.000730,0.000116,-0.002658,0.4591,0.4523,0.3369,-0.179476,0.174874,0.000000,0.559903,-0.572175,0.573709,-0.570641,0.567573,-0.547631
0.5534,0.016748,0.000196,0.000032,-0.001110,0.2532,0.0781,0.0836,-0.176055,0.174685,0.000730,0.000116,-0.002658,0.4591,0.4523,0.3369,-0.179476,0.174874,0.000000,0.559903,-0.572175,0.573709,-0.570641,0.567573,-0.547631
0.5701,0.016757,0.000189,0.000031,-0.001068,0.2437,0.0752,0.0805,-0.175998,0.174679,0.000783,0.000100,-0.002646,0.4978,0.4177,0.2841,-0.179476,0.173340,0.000000,0.559903,-0.573709,0.573709,-0.570641,0.567573,-0.547631
0.5869,0.016744,0.000182,0.000030,-0.001027,0.2342,0.0723,0.0774,-0.175941,0.174674,0.000724,0.000118,-0.002659,0.4547,0.4563,0.3431,-0.179476,0.173340,0.000000,0.559903,-0.572175,0.573709,-0.570641,0.567573,-0.547631
0.6037,0.016813,0.000174,0.000028,-0.000985,0.2246,0.0693,0.0742,-0.175884,0.174668,0.000783,0.000100,-0.002646,0.4982,0.4173,0.2834,-0.179476,0.173340,0.000000,0.559903,-0.573709,0.573709,-0.570641,0.567573,-0.547631
0.6204,0.016745,0.000167,0.000027,-0.000943,0.2151,0.0664,0.0711,-0.175827,0.174662,0.000723,0.000118,-0.002659,0.4546,0.4564,0.3432,-0.179476,0.174874,0.000000,0.559903,-0.572175,0.573709,-0.570641,0.567573,-0.547631
0.6372,0.016765,0.000160,0.000026,-0.000902,0.2056,0.0635,0.0679,-0.175770,0.174657,0.000723,0.000118,-0.002659,0.4546,0.4564,0.3432,-0.179476,0.173340,0.000000,0.559903,-0.572175,0.573709,-0.570641,0.567573,-0.547631
0.6540,0.016768,0.000152,0.000025,-0.000860,0.1961,0.0606,0.0648,-0.175712,0.174651,0.000730,0.000116,-0.002658,0.4591,0.4523,0.3369,-0.179476,0.173340,0.000000,0.559903,-0.572175,0.573709,-0.570641,0.567573,-0.547631
0.6707,0.016756,0.000145,0.000024,-0.000818,0.1866,0.0576,0.0616,-0.175655,0.174645,0.000730,0.000116,-0.002658,0.4591,0.4523,0.3369,-0.177942,0.173340,0.000000,0.559903,-0.572175,0.573709,-0.570641,0.567573,-0.547631
0.6875,0.016746,0.000137,0.000022,-0.000777,0.1771,0.0547,0.0585,-0.175598,0.174639,0.000730,0.000116,-0.002658,0.4591,0.4523,0.3369,-0.179476,0.173340,0.000000,0.559903,-0.572175,0.573709,-0.570641,0.567573,-0.547631
0.7043,0.016766,0.000130,0.000021,-0.000735,0.1676,0.0518,0.0554,-0.175541,0.174634,0.000730,0.000116,-0.002658,0.4591,0.4523,0.3369,-0.179476,0.173340,0.000000,0.559903,-0.572175,0.573709,-0.570641,0.567573,-0.547631
0.7215,0.017239,0.000122,0.000020,-0.000692,0.1579,0.0488,0.0521,-0.175482,0.174628,0.000783,0.000100,-0.002646,0.4978,0.4177,0.2841,-0.179476,0.173340,0.000000,0.559903,-0.573709,0.573709,-0.570641,0.567573,-0.547631
0.7383,0.016765,0.000115,0.000019,-0.000651,0.1484,0.0458,0.0490,-0.175425,0.174622,0.000783,0.000100,-0.002646,0.4978,0.4177,0.2841,-0.179476,0.173340,0.000000,0.559903,-0.573709,0.573709,-0.570641,0.567573,-0.547631
0.7550,0.016746,0.000108,0.000018,-0.000609,0.1389,0.0429,0.0458,-0.175368,0.174616,0.000724,0.000118,-0.002659,0.4547,0.4563,0.3431,-0.179476,0.173340,0.000000,0.559903,-0.572175,0.573709,-0.570641,0.567573,-0.547631
0.7718,0.016758,0.000100,0.000016,-0.000567,0.1294,0.0400,0.0427,-0.175311,0.174611,0.000677,0.000132,-0.002632,0.4189,0.4868,0.2305,-0.177942,0.173340,0.000000,0.559903,-0.572175,0.573709,-0.572175,0.567573,-0.549165
0.7885,0.016747,0.000093,0.000015,-0.000526,0.1199,0.0370,0.0396,-0.175254,0.174605,0.000735,0.000115,-0.002623,0.4617,0.4487,0.1888,-0.179476,0.173340,0.000000,0.559903,-0.573709,0.573709,-0.572175,0.567573,-0.549165
0.8053,0.016757,0.000086,0.000014,-0.000484,0.1104,0.0341,0.0364,-0.175197,0.174599,0.000729,0.000116,-0.002624,0.4572,0.4527,0.1931,-0.177942,0.173340,0.000000,0.559903,-0.573709,0.573709,-0.572175,0.567573,-0.549165
0.8220,0.016755,0.000078,0.000013,-0.000442,0.1009,0.0312,0.0333,-0.175140,0.174594,0.000729,0.000116,-0.002624,0.4572,0.4527,0.1931,-0.177942,0.173340,0.000000,0.559903,-0.573709,0.573709,-0.572175,0.567573,-0.549165
0.8388,0.016774,0.000071,0.000012,-0.000401,0.0914,0.0282,0.0302,-0.175082,0.174588,0.000729,0.000116,-0.002624,0.4572,0.4527,0.1931,-0.179476,0.173340,0.000000,0.559903,-0.573709,0.573709,-0.572175,0.567573,-0.549165
0.8555,0.016746,0.000064,0.000010,-0.000359,0.0819,0.0253,0.0270,-0.175025,0.174582,0.000729,0.000116,-0.002624,0.4572,0.4527,0.1931,-0.179476,0.173340,0.000000,0.559903,-0.573709,0.573709,-0.572175,0.567573,-0.549165
0.8723,0.016754,0.000056,0.000009,-0.000317,0.0724,0.0224,0.0239,-0.174968,0.174576,0.000729,0.000116,-0.002624,0.4572,0.4527,0.1931,-0.179476,0.173340,0.000000,0.559903,-0.573709,0.573709,-0.572175,0.567573,-0.549165
0.8890,0.016749,0.000049,0.000008,-0.000276,0.0629,0.0194,0.0208,-0.174911,0.174571,0.000729,0.000116,-0.002624,0.4572,0.4527,0.1931,-0.177942,0.173340,0.000000,0.559903,-0.573709,0.573709,-0.572175,0.567573,-0.549165
0.9058,0.016764,0.000041,0.000007,-0.000234,0.0534,0.0165,0.0176,-0.174854,0.174565,0.000717,0.000062,-0.002611,0.4477,0.5035,0.2464,-0.179476,0.173340,0.000000,0.559903,-0.573709,0.575243,-0.572175,0.567573,-0.549165
0.9226,0.016751,0.000034,0.000006,-0.000192,0.0439,0.0136,0.0145,-0.174797,0.174559,0.000731,0.000122,-0.002625,0.4587,0.4470,0.1871,-0.179476,0.173340,0.000000,0.559903,-0.573709,0.573709,-0.572175,0.567573,-0.549165
0.9393,0.016772,0.000027,0.000004,-0.000151,0.0344,0.0106,0.0113,-0.174740,0.174554,0.000729,0.000116,-0.002624,0.4575,0.4528,0.1933,-0.177942,0.173340,0.000000,0.559903,-0.573709,0.573709,-0.572175,0.567573,-0.549165
0.9561,0.016742,0.000019,0.000003,-0.000109,0.0249,0.0077,0.0082,-0.174683,0.174548,0.000729,0.000116,-0.002624,0.4575,0.4528,0.1933,-0.177942,0.173340,0.000000,0.559903,-0.573709,0.573709,-0.572175,0.567573,-0.549165
0.9728,0.016757,0.000012,0.000002,-0.000068,0.0154,0.0048,0.0051,-0.174626,0.174542,0.000717,0.000063,-0.002611,0.4476,0.5035,0.3343,-0.177942,0.173340,0.001534,0.559903,-0.573709,0.575243,-0.572175,0.567573,-0.549165
0.9897,0.016869,0.000005,0.000001,-0.000026,0.0058,0.0018,0.0019,-0.174568,0.174536,0.000677,0.000106,-0.002600,0.4986,0.4818,0.2942,-0.177942,0.173340,0.000000,0.561437,-0.573709,0.575243,-0.572175,0.567573,-0.549165
1.0065,0.016791,0.000000,0.000000,0.000018,0.0163,0.0000,0.0098,-0.172399,0.172399,0.000677,0.000106,-0.002600,0.4986,0.4818,0.2942,-0.177942,0.173340,0.000000,0.561437,-0.573709,0.575243,-0.572175,0.567573,-0.549165
1.0233,0.016796,0.000000,0.000000,0.000066,0.0585,0.0000,0.0351,-0.166880,0.166880,0.000677,0.000106,-0.002600,0.4986,0.4818,0.2942,-0.177942,0.173340,0.000000,0.561437,-0.573709,0.575243,-0.572175,0.567573,-0.549165
1.0403,0.016979,0.000000,0.000000,0.000114,0.1011,0.0000,0.0607,-0.161323,0.161323,0.000677,0.000106,-0.002600,0.4986,0.4818,0.2942,-0.177942,0.173340,0.000000,0.561437,-0.573709,0.575243,-0.572175,0.567573,-0.549165
1.0570,0.016754,0.000000,0.000000,0.000161,0.1432,0.0000,0.0860,-0.155876,0.155876,0.000677,0.000106,-0.002600,0.4986,0.4818,0.2942,-0.177942,0.173340,0.000000,0.561437,-0.573709,0.575243,-0.572175,0.567573,-0.549165
1.0738,0.016779,0.000000,0.000000,0.000208,0.1852,0.0000,0.1112,-0.150472,0.150472,0.000560,0.000140,-0.002563,0.5429,0.4347,0.3428,-0.176408,0.173340,0.000000,0.564505,-0.573709,0.575243,-0.572175,0.567573,-0.550699
1.0906,0.016761,0.000000,0.000000,0.000256,0.2271,0.0000,0.1364,-0.145142,0.145142,0.000572,0.000137,-0.002567,0.5382,0.4396,0.3377,-0.176408,0.173340,0.000000,0.564505,-0.573709,0.575243,-0.572175,0.567573,-0.550699
1.1073,0.016755,0.000000,0.000000,0.000303,0.2689,0.0000,0.1616,-0.139894,0.139894,0.000572,0.000137,-0.002567,0.5382,0.4396,0.3377,-0.176408,0.173340,0.000000,0.564505,-0.573709,0.575243,-0.572175,0.567573,-0.550699
1.1241,0.016748,0.000000,0.000000,0.000350,0.3105,0.0000,0.1868,-0.134745,0.134745,0.000611,0.000175,-0.002580,0.5889,0.4560,0.3915,-0.176408,0.173340,0.000000,0.564505,-0.573709,0.575243,-0.572175,0.567573,-0.549165
1.1408,0.016745,0.000000,0.000000,0.000397,0.3520,0.0000,0.2119,-0.129706,0.129706,0.000567,0.000133,-0.002565,0.5334,0.4374,0.3326,-0.173340,0.171806,0.000000,0.564505,-0.573709,0.575243,-0.572175,0.567573,-0.550699
1.1576,0.016826,0.000000,0.000000,0.000444,0.3936,0.0000,0.2371,-0.124768,0.124768,0.000477,0.000269,-0.002529,0.6490,0.4583,0.3925,-0.165670,0.167204,0.000000,0.567573,-0.573709,0.575243,-0.573709,0.567573,-0.550699
1.1744,0.016757,0.000000,0.000000,0.000491,0.4348,0.0000,0.2622,-0.119989,0.119989,0.000458,0.000239,-0.002533,0.6765,0.3886,0.4929,-0.151864,0.159534,0.000000,0.569107,-0.573709,0.575243,-0.572175,0.567573,-0.550699
1.1911,0.016749,0.000000,0.000000,0.000538,0.4758,0.0000,0.2872,-0.115363,0.115363,0.000378,0.000319,-0.002508,0.7731,0.3638,0.5895,-0.136524,0.147262,0.000000,0.572175,-0.573709,0.575243,-0.572175,0.567573,-0.550699
1.2079,0.016751,0.000000,0.000000,0.000584,0.5166,0.0000,0.3122,-0.110900,0.110900,0.000378,0.000319,-0.002508,0.7731,0.3638,0.5895,-0.136524,0.147262,0.000000,0.572175,-0.573709,0.575243,-0.572175,0.567573,-0.550699
1.2246,0.016740,0.000000,0.000000,0.000630,0.5571,0.0000,0.3371,-0.106616,0.106616,0.000250,0.000481,-0.002462,0.9221,0.3700,0.6871,-0.125786,0.134990,0.000000,0.576777,-0.573709,0.575243,-0.573709,0.567573,-0.550699
1.2414,0.016752,0.000000,0.000000,0.000677,0.5974,0.0000,0.3620,-0.102517,0.102517,0.000101,0.000465,-0.002417,0.9053,0.3031,0.6777,-0.122718,0.124252,0.000000,0.579845,-0.573709,0.575243,-0.573709,0.567573,-0.553767
1.2581,0.016761,0.000000,0.000000,0.000723,0.6375,0.0000,0.3868,-0.098615,0.098615,-0.000359,0.000694,-0.002262,1.0742,0.2328,0.7356,-0.121184,0.113515,0.000000,0.590583,-0.573709,0.575243,-0.576777,0.567573,-0.559903
1.2749,0.016751,0.000000,0.000000,0.000769,0.6772,0.0000,0.4116,-0.094926,0.094926,-0.000449,0.000842,-0.002194,1.2153,0.2435,0.6778,-0.115049,0.111981,0.000000,0.595185,-0.575243,0.575243,-0.579845,0.567573,-0.561437
1.2916,0.016754,0.000000,0.000000,0.000814,0.7167,0.0000,0.4363,-0.091457,0.091457,-0.000449,0.000842,-0.002194,1.2153,0.2435,0.6778,-0.105845,0.105845,0.000000,0.598253,-0.578311,0.575243,-0.584447,0.567573,-0.564505
1.3084,0.016754,0.000000,0.000000,0.000860,0.7558,0.0000,0.4609,-0.088218,0.088218,-0.000535,0.000961,-0.002091,1.3111,0.2593,0.4174,-0.105845,0.105845,0.000000,0.598253,-0.578311,0.575243,-0.584447,0.567573,-0.564505
1.3251,0.016745,0.000000,0.000000,0.000905,0.7946,0.0000,0.4854,-0.085220,0.085220,-0.000651,0.001066,-0.001992,1.4504,0.2074,0.2852,-0.095107,0.098175,0.000000,0.602854,-0.581379,0.575243,-0.587515,0.567573,-0.567573
1.3419,0.016747,0.000000,0.000000,0.000950,0.8331,0.0000,0.5099,-0.082468,0.082468,-0.000614,0.001228,-0.001931,1.5968,0.2795,0.0851,-0.092039,0.090505,0.000000,0.604388,-0.584447,0.575243,-0.592117,0.567573,-0.567573
1.3586,0.016747,0.000000,0.000000,0.000995,0.8712,0.0000,0.5342,-0.079971,0.079971,-0.000566,0.001273,-0.001889,1.7200,0.2366,-0.0016,-0.093573,0.088971,0.000000,0.605922,-0.587515,0.575243,-0.593651,0.567573,-0.567573
1.3754,0.016748,0.000000,0.000000,0.001039,0.9088,0.0000,0.5585,-0.077736,0.077736,-0.000532,0.001386,-0.001833,1.8566,0.2563,-0.1536,-0.092039,0.087437,0.000000,0.607456,-0.590583,0.575243,-0.596719,0.567573,-0.567573
1.3921,0.016746,0.000000,0.000000,0.001084,0.9461,0.0000,0.5827,-0.075769,0.075769,-0.000532,0.001386,-0.001833,1.8566,0.2563,-0.1536,-0.092039,0.087437,0.000000,0.607456,-0.590583,0.575243,-0.596719,0.567573,-0.567573
1.4089,0.016760,0.000000,0.000000,0.001128,0.9830,0.0000,0.6069,-0.074073,0.074073,-0.000605,0.001385,-0.001729,1.9702,0.3397,-0.1896,-0.087437,0.085903,0.000000,0.610524,-0.593651,0.578311,-0.599786,0.567573,-0.569107
1.4256,0.016742,0.000000,0.000000,0.001171,1.0195,0.0000,0.6309,-0.072658,0.072658,-0.000503,0.001395,-0.001678,2.0861,0.4823,-0.2385,-0.078233,0.082835,0.000000,0.610524,-0.596719,0.581379,-0.602854,0.567573,-0.567573
1.4424,0.016749,0.000000,0.000000,0.001215,1.0554,0.0000,0.6548,-0.071524,0.071524,-0.000458,0.001255,-0.001607,2.1304,0.6023,-0.2318,-0.075165,0.076699,0.000000,0.610524,-0.599786,0.585981,-0.604388,0.567573,-0.567573
1.4591,0.016743,0.000000,0.000000,0.001258,1.0910,0.0000,0.6786,-0.070675,0.070675,-0.000394,0.001185,-0.001552,2.1927,0.6729,-0.2856,-0.076699,0.070563,0.000000,0.610524,-0.602854,0.589049,-0.605922,0.567573,-0.567573
1.4759,0.016745,0.000000,0.000000,0.001301,1.1260,0.0000,0.7023,-0.070114,0.070114,-0.000223,0.001027,-0.001468,2.1515,0.6817,-0.1197,-0.073631,0.070563,0.000000,0.610524,-0.605922,0.593651,-0.605922,0.570641,-0.567573
1.4926,0.016752,0.000000,0.000000,0.001343,1.1605,0.0000,0.7259,-0.069841,0.069841,-0.000223,0.001027,-0.001468,2.1515,0.6817,-0.1197,-0.073631,0.070563,0.000000,0.610524,-0.605922,0.593651,-0.605922,0.570641,-0.567573
1.5094,0.016772,0.000000,0.000000,0.001386,1.1946,0.0000,0.7494,-0.069859,0.069859,-0.000118,0.000863,-0.001400,2.1615,0.7305,-0.0290,-0.069029,0.070563,0.000000,0.610524,-0.608990,0.598253,-0.605922,0.572175,-0.567573
1.5261,0.016746,0.000000,0.000000,0.001427,1.2281,0.0000,0.7728,-0.070166,0.070166,0.000061,0.000768,-0.001295,2.1367,0.6906,0.2297,-0.070563,0.070563,0.000000,0.612058,-0.612058,0.602854,-0.605922,0.576777,-0.567573
1.5429,0.016744,0.000000,0.000000,0.001469,1.2610,0.0000,0.7960,-0.070762,0.070762,0.000124,0.000779,-0.001220,2.1385,0.7284,0.3648,-0.072097,0.069029,0.000000,0.613592,-0.613592,0.605922,-0.607456,0.579845,-0.567573
1.5596,0.016743,0.000000,0.000000,0.001510,1.2934,0.0000,0.8191,-0.071645,0.071645,0.000115,0.000746,-0.001154,2.2153,0.7265,0.5684,-0.070563,0.069029,0.000000,0.616660,-0.615126,0.608990,-0.607456,0.581379,-0.567573
1.5765,0.016849,0.000000,0.000000,0.001551,1.3254,0.0000,0.8422,-0.072821,0.072821,0.000114,0.000860,-0.001089,2.2276,0.7295,0.7642,-0.070563,0.069029,0.000000,0.619728,-0.615126,0.610524,-0.608990,0.584447,-0.567573
1.5932,0.016746,0.000000,0.000000,0.001591,1.3566,0.0000,0.8650,-0.074272,0.074272,0.000114,0.000860,-0.001089,2.2276,0.7295,0.7642,-0.070563,0.069029,0.000000,0.619728,-0.615126,0.610524,-0.608990,0.584447,-0.567573
1.6100,0.016770,0.000000,0.000000,0.001631,1.3873,0.0000,0.8878,-0.076003,0.076003,0.000113,0.000848,-0.001024,2.2255,0.7323,1.0699,-0.070563,0.070563,0.000000,0.622796,-0.615126,0.613592,-0.608990,0.587515,-0.567573
1.6267,0.016747,0.000000,0.000000,0.001671,1.4173,0.0000,0.9103,-0.078005,0.078005,0.000056,0.000946,-0.000971,2.2848,0.7697,1.2028,-0.070563,0.070563,0.000000,0.625864,-0.615126,0.615126,-0.610524,0.589049,-0.567573
1.6435,0.016768,0.000000,0.000000,0.001710,1.4467,0.0000,0.9328,-0.080277,0.080277,0.000049,0.001024,-0.000929,2.2111,0.8197,1.4069,-0.075165,0.072097,0.000000,0.627398,-0.613592,0.616660,-0.612058,0.592117,-0.567573
1.6603,0.016745,0.000000,0.000000,0.001749,1.4755,0.0000,0.9550,-0.082806,0.082806,-0.000037,0.001206,-0.000876,2.3372,0.7881,1.5502,-0.079767,0.075165,0.000000,0.632000,-0.613592,0.616660,-0.613592,0.593651,-0.567573
1.6770,0.016763,0.000000,0.000000,0.001787,1.5036,0.0000,0.9772,-0.085593,0.085593,-0.000060,0.001250,-0.000847,2.4606,0.7276,1.5904,-0.078233,0.078233,0.000000,0.635068,-0.615126,0.616660,-0.613592,0.593651,-0.567573
1.6938,0.016744,0.000000,0.000000,0.001825,1.5310,0.0000,0.9991,-0.088623,0.088623,-0.000060,0.001250,-0.000847,2.4606,0.7276,1.5904,-0.078233,0.078233,0.000000,0.635068,-0.615126,0.616660,-0.613592,0.593651,-0.567573
1.7105,0.016757,0.000000,0.000000,0.001862,1.5577,0.0000,1.0209,-0.091892,0.091892,-0.000155,0.001302,-0.000852,2.4573,0.7551,1.6963,-0.078233,0.076699,0.000000,0.636602,-0.613592,0.616660,-0.613592,0.593651,-0.567573
1.7273,0.016754,0.000000,0.000000,0.001899,1.5838,0.0000,1.0426,-0.095391,0.095391,-0.000177,0.001359,-0.000817,2.5941,0.6886,1.7406,-0.084369,0.079767,0.000000,0.639670,-0.615126,0.616660,-0.613592,0.593651,-0.567573
1.7440,0.016770,0.000000,0.000000,0.001936,1.6092,0.0000,1.0641,-0.099112,0.099112,-0.000218,0.001393,-0.000810,2.6284,0.6815,1.7911,-0.087437,0.084369,0.000000,0.641204,-0.615126,0.616660,-0.613592,0.593651,-0.567573
1.7608,0.016749,0.000000,0.000000,0.001971,1.6338,0.0000,1.0854,-0.103037,0.103037,-0.000257,0.001429,-0.000800,2.6734,0.6683,1.8411,-0.088971,0.092039,0.000000,0.642738,-0.615126,0.616660,-0.613592,0.593651,-0.567573
1.7776,0.016773,0.000000,0.000000,0.002007,1.6578,0.0000,1.1065,-0.107166,0.107166,-0.000379,0.001466,-0.000766,2.7155,0.6233,1.8922,-0.096641,0.096641,0.000000,0.645806,-0.615126,0.616660,-0.613592,0.593651,-0.569107
1.7943,0.016747,0.000000,0.000000,0.002042,1.6810,0.0000,1.1275,-0.111476,0.111476,-0.000379,0.001466,-0.000766,2.7155,0.6233,1.8922,-0.096641,0.096641,0.000000,0.645806,-0.615126,0.616660,-0.613592,0.593651,-0.569107
1.8111,0.016749,0.000000,0.000000,0.002076,1.7034,0.0000,1.1482,-0.115960,0.115960,-0.000192,0.001498,-0.000708,2.7608,0.4759,1.9378,-0.104311,0.098175,0.000000,0.647340,-0.618194,0.616660,-0.613592,0.596719,-0.569107
1.8278,0.016745,0.000000,0.000000,0.002110,1.7251,0.0000,1.1688,-0.120606,0.120606,-0.000240,0.001478,-0.000677,2.7934,0.4235,1.8789,-0.104311,0.098175,0.000000,0.648874,-0.619728,0.616660,-0.613592,0.596719,-0.570641
1.8446,0.016758,0.000000,0.000000,0.002144,1.7460,0.0000,1.1892,-0.125404,0.125404,-0.000223,0.001536,-0.000620,2.7995,0.3786,1.8306,-0.107379,0.104311,0.000000,0.650408,-0.621262,0.616660,-0.615126,0.598253,-0.572175
1.8613,0.016741,0.000000,0.000000,0.002176,1.7661,0.0000,1.2094,-0.130334,0.130334,-0.000173,0.001593,-0.000578,2.9361,0.3495,1.7266,-0.116583,0.113515,0.000000,0.651942,-0.624330,0.616660,-0.616660,0.598253,-0.572175
1.8781,0.016764,0.000000,0.000000,0.002209,1.7855,0.0000,1.2295,-0.135392,0.135392,-0.000199,0.001704,-0.000561,3.0686,0.2392,1.7366,-0.125786,0.124252,0.000000,0.655010,-0.625864,0.615126,-0.616660,0.598253,-0.572175
1.8948,0.016743,0.000000,0.000000,0.002241,1.8041,0.0000,1.2493,-0.140553,0.140553,-0.000199,0.001704,-0.000561,3.0686,0.2392,1.7366,-0.125786,0.124252,0.000000,0.655010,-0.625864,0.615126,-0.616660,0.598253,-0.572175
1.9116,0.016752,0.000000,0.000000,0.002272,1.8218,0.0000,1.2689,-0.145811,0.145811,-0.000158,0.001700,-0.000502,3.1808,0.2674,1.6822,-0.128854,0.125786,0.000000,0.656544,-0.628932,0.616660,-0.618194,0.598253,-0.572175
1.9283,0.016743,0.000000,0.000000,0.002302,1.8388,0.0000,1.2883,-0.151145,0.151145,-0.000161,0.001701,-0.000470,3.1684,0.2611,1.5246,-0.130388,0.124252,0.000000,0.656544,-0.630466,0.616660,-0.619728,0.598253,-0.573709
1.9451,0.016759,0.000000,0.000000,0.002333,1.8550,0.0000,1.3075,-0.156549,0.156549,-0.000190,0.001684,-0.000436,3.2067,0.1941,1.4863,-0.136524,0.131922,0.000000,0.658078,-0.632000,0.616660,-0.619728,0.598253,-0.575243
1.9618,0.016738,0.000000,0.000000,0.002362,1.8703,0.0000,1.3265,-0.161997,0.161997,-0.000216,0.001657,-0.000379,3.2790,0.3037,1.5488,-0.148796,0.142660,0.000000,0.659612,-0.633534,0.619728,-0.621262,0.598253,-0.575243
1.9786,0.016765,0.000000,0.000000,0.002391,1.8848,0.0000,1.3454,-0.167487,0.167487,-0.000216,0.001657,-0.000379,3.2790,0.3037,1.5488,-0.148796,0.142660,0.000000,0.659612,-0.633534,0.619728,-0.621262,0.598253,-0.575243
1.9953,0.016741,0.000000,0.000000,0.002419,1.8984,0.0000,1.3639,-0.172989,0.172989,-0.000232,0.001654,-0.000301,3.4348,0.3457,1.6005,-0.158000,0.154932,0.000000,0.662680,-0.636602,0.622796,-0.622796,0.598253,-0.575243
2.0121,0.016752,0.000000,0.000000,0.002447,1.9113,0.0000,1.3823,-0.178500,0.178500,-0.000283,0.001672,-0.000284,3.3792,0.3735,1.4874,-0.162602,0.159534,0.000000,0.662680,-0.636602,0.622796,-0.624330,0.598253,-0.576777
2.0288,0.016740,0.000000,0.000000,0.002474,1.9232,0.0000,1.4004,-0.183995,0.183995,-0.000374,0.001617,-0.000249,3.3724,0.3889,1.5566,-0.162602,0.156466,0.000000,0.664214,-0.636602,0.624330,-0.624330,0.598253,-0.578311
2.0457,0.016910,0.000000,0.000000,0.002501,1.9345,0.0000,1.4185,-0.189519,0.189519,-0.000337,0.001608,-0.000215,3.4118,0.4529,1.4964,-0.165670,0.159534,0.000000,0.664214,-0.638136,0.625864,-0.625864,0.598253,-0.578311
2.0625,0.016746,0.000000,0.000000,0.002527,1.9447,0.0000,1.4362,-0.194949,0.194949,-0.000339,0.001598,-0.000158,3.4464,0.6127,1.4527,-0.174874,0.171806,0.000000,0.664214,-0.639670,0.628932,-0.628932,0.598253,-0.578311
2.0793,0.016842,0.000000,0.000000,0.002552,1.9542,0.0000,1.4538,-0.200352,0.200352,-0.000339,0.001598,-0.000158,3.4464,0.6127,1.4527,-0.174874,0.171806,0.000000,0.664214,-0.639670,0.628932,-0.628932,0.598253,-0.578311
2.0985,0.019215,0.000000,0.000000,0.002580,1.9639,0.0000,1.4735,-0.206427,0.206427,-0.000339,0.001598,-0.000158,3.4464,0.6127,1.4527,-0.174874,0.171806,0.000000,0.664214,-0.639670,0.628932,-0.628932,0.598253,-0.578311
2.1153,0.016749,0.000000,0.000000,0.002604,1.9714,0.0000,1.4905,-0.211629,0.211629,-0.000339,0.001598,-0.000158,3.4464,0.6127,1.4527,-0.174874,0.171806,0.000000,0.664214,-0.639670,0.628932,-0.628932,0.598253,-0.578311
2.1320,0.016740,0.000000,0.000000,0.002627,1.9781,0.0000,1.5072,-0.216726,0.216726,-0.000230,0.001665,-0.000079,3.5806,0.6919,1.1853,-0.190214,0.185612,0.000000,0.664214,-0.644272,0.630466,-0.633534,0.598253,-0.578311
2.1488,0.016801,0.000000,0.000000,0.002650,1.9839,0.0000,1.5237,-0.221723,0.221723,-0.000279,0.001606,-0.000086,3.5572,0.8315,1.1078,-0.191748,0.188680,0.000000,0.662680,-0.644272,0.632000,-0.635068,0.596719,-0.578311
2.1657,0.016891,0.000000,0.000000,0.002672,1.9888,0.0000,1.5401,-0.226616,0.226616,-0.000301,0.001616,-0.000025,3.5587,0.9205,1.2840,-0.197884,0.194816,0.000000,0.664214,-0.644272,0.635068,-0.636602,0.598253,-0.578311
2.1825,0.016777,0.000000,0.000000,0.002693,1.9928,0.0000,1.5561,-0.231329,0.231329,-0.000301,0.001616,-0.000025,3.5587,0.9205,1.2840,-0.197884,0.194816,0.000000,0.664214,-0.644272,0.635068,-0.636602,0.598253,-0.578311
2.1992,0.016749,0.000000,0.000000,0.002714,1.9959,0.0000,1.5719,-0.235878,0.235878,-0.000270,0.001489,0.000007,3.5750,0.9764,1.3228,-0.204019,0.207087,0.000000,0.664214,-0.645806,0.638136,-0.636602,0.598253,-0.578311
2.2159,0.016717,0.000000,0.000000,0.002733,1.9982,0.0000,1.5873,-0.240249,0.240249,-0.000274,0.001502,0.000004,3.5733,0.9706,1.3187,-0.219359,0.220893,0.000000,0.664214,-0.645806,0.638136,-0.636602,0.598253,-0.578311
2.2327,0.016743,0.000000,0.000000,0.002753,1.9995,0.0000,1.6025,-0.244444,0.244444,-0.000219,0.001483,0.000017,3.6119,0.9360,1.2631,-0.233165,0.230097,0.000000,0.664214,-0.647340,0.638136,-0.636602,0.598253,-0.578311
2.2494,0.016761,0.000000,0.000000,0.002771,2.0000,0.0000,1.6175,-0.248451,0.248451,-0.000226,0.001486,0.000051,3.6065,0.9423,1.4341,-0.236233,0.231631,0.000000,0.665748,-0.647340,0.639670,-0.636602,0.599786,-0.578311
2.2663,0.016871,0.000000,0.000000,0.002789,1.9996,0.0000,1.6324,-0.252277,0.252277,-0.000204,0.001563,0.000093,3.7034,0.8455,1.5246,-0.237767,0.239301,0.000000,0.668816,-0.648874,0.639670,-0.636602,0.601320,-0.578311
2.2831,0.016738,0.000000,0.000000,0.002806,1.9983,0.0000,1.6468,-0.255857,0.255857,-0.000204,0.001563,0.000093,3.7034,0.8455,1.5246,-0.237767,0.239301,0.000000,0.668816,-0.648874,0.639670,-0.636602,0.601320,-0.578311
2.2998,0.016744,0.000000,0.000000,0.002822,1.9961,0.0000,1.6610,-0.259213,0.259213,-0.000197,0.001578,0.000112,3.7800,0.8069,1.5149,-0.246971,0.243903,0.000000,0.670350,-0.650408,0.639670,-0.636602,0.601320,-0.578311
2.3165,0.016744,0.000000,0.000000,0.002838,1.9930,0.0000,1.6750,-0.262335,0.262335,-0.000131,0.001646,0.000145,3.7429,0.7303,1.6775,-0.246971,0.245437,0.000000,0.671884,-0.650408,0.639670,-0.636602,0.604388,-0.578311
2.3333,0.016744,0.000000,0.000000,0.002853,1.9891,0.0000,1.6886,-0.265215,0.265215,-0.000202,0.001829,0.000172,3.8639,0.6148,1.8245,-0.246971,0.248505,0.000000,0.676486,-0.650408,0.638136,-0.636602,0.605922,-0.578311
2.3501,0.016798,0.000000,0.000000,0.002867,1.9842,0.0000,1.7021,-0.267851,0.267851,-0.000240,0.001851,0.000214,3.8983,0.6174,2.0310,-0.254641,0.260777,0.000000,0.679553,-0.650408,0.639670,-0.636602,0.607456,-0.578311
2.3668,0.016761,0.000000,0.000000,0.002881,1.9785,0.0000,1.7152,-0.270223,0.270223,-0.000240,0.001851,0.000214,3.8983,0.6174,2.0310,-0.254641,0.260777,0.000000,0.679553,-0.650408,0.639670,-0.636602,0.607456,-0.578311
2.3836,0.016746,0.000000,0.000000,0.002894,1.9719,0.0000,1.7280,-0.272327,0.272327,-0.000269,0.001944,0.000242,3.9525,0.5579,2.1746,-0.266913,0.262311,0.000000,0.682621,-0.650408,0.639670,-0.636602,0.608990,-0.578311
2.4003,0.016718,0.000000,0.000000,0.002906,1.9644,0.0000,1.7406,-0.274158,0.274158,-0.000355,0.002015,0.000259,4.0430,0.5385,2.2719,-0.266913,0.259243,0.000000,0.685689,-0.650408,0.639670,-0.636602,0.608990,-0.578311
2.4171,0.016748,0.000000,0.000000,0.002917,1.9561,0.0000,1.7529,-0.275717,0.275717,-0.000279,0.002078,0.000291,4.0048,0.4614,2.4241,-0.266913,0.265379,0.000000,0.687223,-0.650408,0.639670,-0.636602,0.612058,-0.578311
2.4338,0.016753,0.000000,0.000000,0.002928,1.9469,0.0000,1.7649,-0.276997,0.276997,-0.000346,0.002170,0.000309,4.0679,0.5076,2.4110,-0.271515,0.269981,0.000000,0.688757,-0.650408,0.639670,-0.638136,0.612058,-0.578311
2.4506,0.016747,0.000000,0.000000,0.002938,1.9368,0.0000,1.7767,-0.277992,0.277992,-0.000397,0.002258,0.000328,4.1204,0.5409,2.4152,-0.274583,0.274583,0.000000,0.690291,-0.650408,0.639670,-0.639670,0.612058,-0.578311
2.4673,0.016744,0.000000,0.000000,0.002947,1.9259,0.0000,1.7881,-0.278701,0.278701,-0.000397,0.002258,0.000328,4.1204,0.5409,2.4152,-0.274583,0.274583,0.000000,0.690291,-0.650408,0.639670,-0.639670,0.612058,-0.578311
2.4840,0.016738,0.000000,0.000000,0.002956,1.9141,0.0000,1.7993,-0.279121,0.279121,-0.000462,0.002181,0.000362,4.1406,0.6246,2.5852,-0.274583,0.274583,0.000000,0.691825,-0.650408,0.642738,-0.639670,0.612058,-0.578311
2.5008,0.016742,0.000000,0.000000,0.002963,1.9015,0.0000,1.8102,-0.279252,0.279252,-0.000483,0.002193,0.000416,4.1367,0.7204,2.7377,-0.274583,0.274583,0.000000,0.693359,-0.650408,0.645806,-0.641204,0.613592,-0.578311
2.5175,0.016740,0.000000,0.000000,0.002970,1.8880,0.0000,1.8207,-0.279094,0.279094,-0.000494,0.002250,0.000422,4.1483,0.7611,2.6683,-0.277651,0.276117,0.000000,0.693359,-0.650408,0.645806,-0.642738,0.613592,-0.578311
2.5343,0.016748,0.000000,0.000000,0.002977,1.8737,0.0000,1.8310,-0.278647,0.278647,-0.000506,0.002190,0.000434,4.1358,0.8065,2.7327,-0.279185,0.279185,0.000000,0.693359,-0.650408,0.647340,-0.642738,0.613592,-0.578311
2.5510,0.016751,0.000000,0.000000,0.002982,1.8586,0.0000,1.8411,-0.277911,0.277911,-0.000461,0.002156,0.000457,4.0876,0.8182,2.8362,-0.279185,0.277651,0.000000,0.693359,-0.650408,0.648874,-0.642738,0.615126,-0.578311
2.5678,0.016744,0.000000,0.000000,0.002987,1.8427,0.0000,1.8508,-0.276889,0.276889,-0.000461,0.002156,0.000457,4.0876,0.8182,2.8362,-0.279185,0.277651,0.000000,0.693359,-0.650408,0.648874,-0.642738,0.615126,-0.578311
2.5845,0.016742,0.000000,0.000000,0.002991,1.8259,0.0000,1.8602,-0.275584,0.275584,-0.000480,0.002218,0.000466,4.1038,0.8677,2.7719,-0.279185,0.279185,0.000000,0.693359,-0.650408,0.648874,-0.644272,0.615126,-0.578311
2.6013,0.016749,0.000000,0.000000,0.002994,1.8083,0.0000,1.8693,-0.273999,0.273999,-0.000490,0.002157,0.000478,4.0908,0.9120,2.8359,-0.279185,0.279185,0.000000,0.693359,-0.650408,0.650408,-0.644272,0.615126,-0.578311
2.6180,0.016749,0.000000,0.000000,0.002997,1.7899,0.0000,1.8782,-0.272139,0.272139,-0.000447,0.002236,0.000499,4.0652,0.9250,2.8287,-0.279185,0.277651,0.000000,0.693359,-0.650408,0.650408,-0.645806,0.616660,-0.578311
2.6347,0.016748,0.000000,0.000000,0.002999,1.7708,0.0000,1.8867,-0.270009,0.270009,-0.000507,0.002213,0.000485,4.1060,0.9567,2.7764,-0.279185,0.277651,0.000000,0.693359,-0.650408,0.650408,-0.645806,0.615126,-0.578311
2.6520,0.017210,0.000000,0.000000,0.003000,1.7502,0.0000,1.8951,-0.267545,0.267545,-0.000527,0.002219,0.000511,4.1017,1.0535,2.7855,-0.276117,0.277651,0.000000,0.693359,-0.650408,0.651942,-0.647340,0.615126,-0.578311
2.6687,0.016755,0.000000,0.000000,0.003000,1.7295,0.0000,1.9031,-0.264884,0.264884,-0.000527,0.002219,0.000511,4.1017,1.0535,2.7855,-0.276117,0.277651,0.000000,0.693359,-0.650408,0.651942,-0.647340,0.615126,-0.578311
2.6855,0.016742,0.000000,0.000000,0.003000,1.7080,0.0000,1.9107,-0.261976,0.261976,-0.000525,0.002218,0.000508,4.1022,1.0434,2.7846,-0.273049,0.276117,0.000000,0.693359,-0.650408,0.651942,-0.647340,0.615126,-0.578311
2.7022,0.016749,0.000000,0.000000,0.002998,1.6857,0.0000,1.9180,-0.258825,0.258825,-0.000525,0.002218,0.000508,4.1022,1.0434,2.7846,-0.273049,0.274583,0.000000,0.693359,-0.650408,0.651942,-0.647340,0.615126,-0.578311
2.7190,0.016746,0.000000,0.000000,0.002996,1.6627,0.0000,1.9250,-0.255441,0.255441,-0.000538,0.002163,0.000521,4.0908,1.0939,2.8419,-0.269981,0.268447,0.000000,0.693359,-0.650408,0.653476,-0.647340,0.615126,-0.578311
2.7357,0.016758,0.000000,0.000000,0.002994,1.6389,0.0000,1.9317,-0.251830,0.251830,-0.000536,0.002169,0.000520,4.0920,1.0886,2.8360,-0.269981,0.268447,0.000000,0.693359,-0.650408,0.653476,-0.647340,0.615126,-0.578311
2.7525,0.016750,0.000000,0.000000,0.002990,1.6144,0.0000,1.9381,-0.248007,0.248007,-0.000468,0.002238,0.000519,4.0650,1.0067,2.8324,-0.269981,0.263845,0.000000,0.693359,-0.650408,0.651942,-0.647340,0.616660,-0.578311
2.7692,0.016746,0.000000,0.000000,0.002986,1.5892,0.0000,1.9442,-0.243981,0.243981,-0.000468,0.002238,0.000519,4.0650,1.0067,2.8324,-0.269981,0.263845,0.000000,0.693359,-0.650408,0.651942,-0.647340,0.616660,-0.578311
2.7860,0.016767,0.000000,0.000000,0.002981,1.5633,0.0000,1.9499,-0.239758,0.239758,-0.000531,0.002216,0.000507,4.1060,1.0483,2.7797,-0.269981,0.257709,0.000000,0.693359,-0.650408,0.651942,-0.647340,0.615126,-0.578311
2.8027,0.016764,0.000000,0.000000,0.002975,1.5366,0.0000,1.9554,-0.235355,0.235355,-0.000525,0.002218,0.000508,4.1017,1.0440,2.7852,-0.268447,0.254641,0.000000,0.693359,-0.650408,0.651942,-0.647340,0.615126,-0.578311
2.8196,0.016847,0.000000,0.000000,0.002969,1.5092,0.0000,1.9606,-0.230761,0.230761,-0.000482,0.002178,0.000533,4.0526,1.0607,2.8949,-0.260777,0.254641,0.000000,0.693359,-0.650408,0.653476,-0.647340,0.616660,-0.578311
2.8364,0.016785,0.000000,0.000000,0.002962,1.4812,0.0000,1.9654,-0.226026,0.226026,-0.000431,0.002197,0.000542,4.0196,1.0259,2.9365,-0.253107,0.253107,0.000000,0.693359,-0.650408,0.653476,-0.647340,0.618194,-0.578311
2.8532,0.016849,0.000000,0.000000,0.002954,1.4524,0.0000,1.9700,-0.221130,0.221130,-0.000380,0.002210,0.000553,3.9850,0.9965,2.9853,-0.243903,0.248505,0.000000,0.693359,-0.650408,0.653476,-0.647340,0.619728,-0.578311
2.8700,0.016797,0.000000,0.000000,0.002945,1.4230,0.0000,1.9742,-0.216118,0.216118,-0.000380,0.002210,0.000553,3.9850,0.9965,2.9853,-0.243903,0.248505,0.000000,0.693359,-0.650408,0.653476,-0.647340,0.619728,-0.578311
2.8868,0.016756,0.000000,0.000000,0.002936,1.3931,0.0000,1.9781,-0.211004,0.211004,-0.000373,0.002263,0.000539,3.9999,0.9502,2.9230,-0.234699,0.242369,0.000000,0.693359,-0.650408,0.651942,-0.647340,0.619728,-0.578311
2.9035,0.016756,0.000000,0.000000,0.002926,1.3626,0.0000,1.9816,-0.205788,0.205788,-0.000386,0.002203,0.000553,3.9871,1.0044,2.9867,-0.227029,0.234699,0.000000,0.693359,-0.650408,0.653476,-0.647340,0.619728,-0.578311
2.9203,0.016769,0.000000,0.000000,0.002915,1.3315,0.0000,1.9849,-0.200482,0.200482,-0.000385,0.002209,0.000552,3.9884,0.9987,2.9801,-0.219359,0.225495,0.000000,0.693359,-0.650408,0.653476,-0.647340,0.619728,-0.578311
2.9370,0.016756,0.000000,0.000000,0.002903,1.2998,0.0000,1.9878,-0.195108,0.195108,-0.000385,0.002209,0.000552,3.9884,0.9987,2.9801,-0.211689,0.219359,0.000000,0.693359,-0.650408,0.653476,-0.647340,0.619728,-0.578311
2.9538,0.016770,0.000000,0.000000,0.002891,1.2674,0.0000,1.9905,-0.189672,0.189672,-0.000385,0.002209,0.000552,3.9884,0.9987,2.9801,-0.205553,0.213223,0.000000,0.693359,-0.650408,0.653476,-0.647340,0.619728,-0.578311
2.9706,0.016756,0.000000,0.000000,0.002878,1.2346,0.0000,1.9928,-0.184199,0.184199,-0.000385,0.002209,0.000552,3.9884,0.9987,2.9801,-0.205553,0.213223,0.000000,0.693359,-0.650408,0.653476,-0.647340,0.619728,-0.578311
2.9873,0.016750,0.000000,0.000000,0.002864,1.2012,0.0000,1.9948,-0.178702,0.178702,-0.000372,0.002263,0.000539,3.9995,0.9500,2.9236,-0.200951,0.205553,0.000000,0.693359,-0.650408,0.651942,-0.647340,0.619728,-0.578311
3.0041,0.016758,0.000000,0.000000,0.002850,1.1673,0.0000,1.9964,-0.173190,0.173190,-0.000374,0.002258,0.000540,3.9984,0.9551,2.9294,-0.199418,0.197884,0.000000,0.693359,-0.650408,0.651942,-0.647340,0.619728,-0.578311
3.0208,0.016763,0.000000,0.000000,0.002834,1.1328,0.0000,1.9978,-0.167679,0.167679,-0.000386,0.002203,0.000553,3.9873,1.0039,2.9861,-0.196350,0.193282,0.000000,0.693359,-0.650408,0.653476,-0.647340,0.619728,-0.578311
3.0376,0.016759,0.000000,0.000000,0.002819,1.0978,0.0000,1.9988,-0.162190,0.162190,-0.000385,0.002209,0.000552,3.9884,0.9988,2.9801,-0.187146,0.187146,0.000000,0.693359,-0.650408,0.653476,-0.647340,0.619728,-0.578311
3.0549,0.017265,0.000000,0.000000,0.002801,1.0613,0.0000,1.9995,-0.156570,0.156570,-0.000385,0.002209,0.000552,3.9884,0.9988,2.9801,-0.187146,0.187146,0.000000,0.693359,-0.650408,0.653476,-0.647340,0.619728,-0.578311
3.0716,0.016769,0.000000,0.000000,0.002784,1.0253,0.0000,1.9999,-0.151163,0.151163,-0.000385,0.002209,0.000552,3.9884,0.9988,2.9801,-0.177942,0.179476,0.000000,0.693359,-0.650408,0.653476,-0.647340,0.619728,-0.578311
3.0884,0.016754,0.000000,0.000000,0.002766,0.9890,0.0000,2.0000,-0.145825,0.145825,-0.000385,0.002209,0.000552,3.9884,0.9988,2.9801,-0.171806,0.168738,0.000000,0.693359,-0.650408,0.653476,-0.647340,0.619728,-0.578311
3.1052,0.016772,0.000000,0.000000,0.002747,0.9521,0.0000,1.9997,-0.140561,0.140561,-0.000385,0.002209,0.000552,3.9884,0.9988,2.9801,-0.164136,0.164136,0.000000,0.693359,-0.650408,0.653476,-0.647340,0.619728,-0.578311
3.1219,0.016759,0.000000,0.000000,0.002728,0.9149,0.0000,1.9992,-0.135395,0.135395,-0.000372,0.002263,0.000539,3.9995,0.9500,2.9236,-0.156466,0.156466,0.000000,0.693359,-0.650408,0.651942,-0.647340,0.619728,-0.578311
3.1387,0.016811,0.000000,0.000000,0.002708,0.8771,0.0000,1.9983,-0.130322,0.130322,-0.000372,0.002263,0.000539,3.9995,0.9500,2.9236,-0.156466,0.156466,0.000000,0.693359,-0.650408,0.651942,-0.647340,0.619728,-0.578311
3.1555,0.016800,0.000000,0.000000,0.002687,0.8390,0.0000,1.9970,-0.125376,0.125376,-0.000372,0.002263,0.000539,3.9995,0.9500,2.9236,-0.156466,0.156466,0.000000,0.693359,-0.650408,0.651942,-0.647340,0.619728,-0.578311
3.1724,0.016824,0.000000,0.000000,0.002666,0.8004,0.0000,1.9955,-0.120560,0.120560,-0.000372,0.002263,0.000539,3.9995,0.9500,2.9236,-0.156466,0.156466,0.000000,0.693359,-0.650408,0.651942,-0.647340,0.619728,-0.578311
3.1910,0.018633,0.000000,0.000000,0.002641,0.7573,0.0000,1.9934,-0.115402,0.115402,-0.000372,0.002263,0.000539,3.9995,0.9500,2.9236,-0.156466,0.156466,0.000000,0.693359,-0.650408,0.651942,-0.647340,0.619728,-0.578311
3.2078,0.016760,0.000000,0.000000,0.002618,0.7181,0.0000,1.9912,-0.110935,0.110935,-0.000372,0.002263,0.000539,3.9995,0.9500,2.9236,-0.156466,0.156466,0.000000,0.693359,-0.650408,0.651942,-0.647340,0.619728,-0.578311
3.2245,0.016753,0.000000,0.000000,0.002595,0.6786,0.0000,1.9887,-0.106647,0.106647,-0.000374,0.002258,0.000540,3.9984,0.9551,2.9294,-0.142660,0.141126,0.000000,0.693359,-0.650408,0.651942,-0.647340,0.619728,-0.578311
3.2413,0.016747,0.000000,0.000000,0.002571,0.6389,0.0000,1.9858,-0.102548,0.102548,-0.000374,0.002258,0.000540,3.9984,0.9551,2.9294,-0.142660,0.139592,0.000000,0.693359,-0.650408,0.651942,-0.647340,0.619728,-0.578311
3.2580,0.016742,0.000000,0.000000,0.002546,0.5989,0.0000,1.9827,-0.098649,0.098649,-0.000386,0.002203,0.000553,3.9873,1.0039,2.9861,-0.141126,0.139592,0.000000,0.693359,-0.650408,0.653476,-0.647340,0.619728,-0.578311
3.2747,0.016743,0.000000,0.000000,0.002521,0.5586,0.0000,1.9792,-0.094960,0.094960,-0.000372,0.002264,0.000539,3.9997,0.9495,2.9229,-0.134990,0.134990,0.000000,0.693359,-0.650408,0.651942,-0.647340,0.619728,-0.578311
3.2915,0.016761,0.000000,0.000000,0.002495,0.5180,0.0000,1.9754,-0.091487,0.091487,-0.000386,0.002203,0.000553,3.9871,1.0044,2.9867,-0.122718,0.122718,0.000000,0.693359,-0.650408,0.653476,-0.647340,0.619728,-0.578311
3.3083,0.016768,0.000000,0.000000,0.002468,0.4772,0.0000,1.9713,-0.088243,0.088243,-0.000386,0.002203,0.000553,3.9871,1.0044,2.9867,-0.122718,0.122718,0.000000,0.693359,-0.650408,0.653476,-0.647340,0.619728,-0.578311
3.3250,0.016746,0.000000,0.000000,0.002441,0.4363,0.0000,1.9669,-0.085242,0.085242,-0.000385,0.002209,0.000552,3.9884,0.9987,2.9801,-0.107379,0.107379,0.000000,0.693359,-0.650408,0.653476,-0.647340,0.619728,-0.578311
3.3418,0.016742,0.000000,0.000000,0.002413,0.3951,0.0000,1.9622,-0.082489,0.082489,-0.000385,0.002209,0.000552,3.9884,0.9987,2.9801,-0.092039,0.088971,0.000000,0.693359,-0.650408,0.653476,-0.647340,0.619728,-0.578311
3.3586,0.016882,0.000000,0.000000,0.002384,0.3534,0.0000,1.9571,-0.079971,0.079971,-0.000372,0.002263,0.000539,3.9995,0.9500,2.9236,-0.093573,0.088971,0.000000,0.693359,-0.650408,0.651942,-0.647340,0.619728,-0.578311
3.3754,0.016747,0.000000,0.000000,0.002355,0.3119,0.0000,1.9517,-0.077736,0.077736,-0.000386,0.002203,0.000553,3.9871,1.0044,2.9867,-0.092039,0.088971,0.000000,0.693359,-0.650408,0.653476,-0.647340,0.619728,-0.578311
3.3921,0.016747,0.000000,0.000000,0.002326,0.2703,0.0000,1.9460,-0.075769,0.075769,-0.000340,0.002168,0.000542,3.9406,1.0109,2.9235,-0.088971,0.084369,0.000000,0.691825,-0.650408,0.653476,-0.647340,0.619728,-0.578311
3.4089,0.016757,0.000000,0.000000,0.002295,0.2285,0.0000,1.9401,-0.074074,0.074074,-0.000340,0.002168,0.000542,3.9406,1.0109,2.9235,-0.088971,0.084369,0.000000,0.691825,-0.650408,0.653476,-0.647340,0.619728,-0.578311
3.4256,0.016742,0.000000,0.000000,0.002265,0.1866,0.0000,1.9338,-0.072658,0.072658,-0.000332,0.002227,0.000530,3.9567,0.9609,2.8729,-0.081301,0.081301,0.000000,0.691825,-0.650408,0.651942,-0.647340,0.619728,-0.578311
3.4424,0.016758,0.000000,0.000000,0.002233,0.1447,0.0000,1.9272,-0.071524,0.071524,-0.000289,0.002180,0.000522,3.9072,0.9784,2.8217,-0.073631,0.073631,0.000000,0.690291,-0.650408,0.651942,-0.647340,0.619728,-0.578311
3.4593,0.016915,0.000000,0.000000,0.002201,0.1022,0.0000,1.9202,-0.070668,0.070668,-0.000249,0.002144,0.000513,3.8645,0.9889,2.7706,-0.075165,0.072097,0.000000,0.688757,-0.650408,0.651942,-0.647340,0.619728,-0.578311
3.4761,0.016758,0.000000,0.000000,0.002169,0.0602,0.0000,1.9130,-0.070109,0.070109,-0.000253,0.002148,0.000514,3.8689,0.9878,2.7759,-0.073631,0.072097,0.000000,0.688757,-0.650408,0.651942,-0.647340,0.619728,-0.578311
3.4928,0.016748,0.000000,0.000000,0.002136,0.0181,0.0000,1.9054,-0.069840,0.069840,-0.000176,0.002011,0.000506,3.7615,1.0621,2.7196,-0.069029,0.070563,0.000000,0.685689,-0.650408,0.653476,-0.647340,0.619728,-0.578311
3.5096,0.016753,0.000000,0.000000,0.002102,-0.0240,0.0000,1.8976,-0.069860,0.069860,-0.000176,0.002011,0.000506,3.7615,1.0621,2.7196,-0.069029,0.070563,0.000000,0.685689,-0.650408,0.653476,-0.647340,0.619728,-0.578311
3.5263,0.016753,0.000000,0.000000,0.002068,-0.0661,0.0000,1.8895,-0.070171,0.070171,-0.000082,0.001999,0.000474,3.6878,1.0301,2.5557,-0.073631,0.069029,0.000000,0.682621,-0.650408,0.651942,-0.647340,0.619728,-0.578311
3.5431,0.016751,0.000000,0.000000,0.002033,-0.1082,0.0000,1.8810,-0.070770,0.070770,-0.000105,0.001946,0.000490,3.6845,1.0829,2.6298,-0.072097,0.070563,0.000000,0.682621,-0.650408,0.653476,-0.647340,0.619728,-0.578311
3.5598,0.016756,0.000000,0.000000,0.001998,-0.1502,0.0000,1.8723,-0.071657,0.071657,-0.000090,0.002006,0.000476,3.6958,1.0280,2.5650,-0.069029,0.069029,0.000000,0.682621,-0.650408,0.651942,-0.647340,0.619728,-0.578311
3.5766,0.016751,0.000000,0.000000,0.001963,-0.1922,0.0000,1.8633,-0.072829,0.072829,-0.000104,0.001945,0.000490,3.6836,1.0831,2.6288,-0.070563,0.069029,0.000000,0.682621,-0.650408,0.653476,-0.647340,0.619728,-0.578311
3.5933,0.016769,0.000000,0.000000,0.001927,-0.2341,0.0000,1.8539,-0.074284,0.074284,-0.000014,0.001870,0.000468,3.5889,1.1027,2.5095,-0.073631,0.069029,0.000000,0.679553,-0.650408,0.653476,-0.647340,0.619728,-0.578311
3.6101,0.016752,0.000000,0.000000,0.001890,-0.2758,0.0000,1.8443,-0.076015,0.076015,-0.000014,0.001870,0.000468,3.5889,1.1027,2.5095,-0.073631,0.069029,0.000000,0.679553,-0.650408,0.653476,-0.647340,0.619728,-0.578311
3.6268,0.016744,0.000000,0.000000,0.001853,-0.3174,0.0000,1.8344,-0.078018,0.078018,0.000034,0.001893,0.000448,3.5616,1.0640,2.4087,-0.073631,0.070563,0.000000,0.678020,-0.650408,0.651942,-0.647340,0.619728,-0.578311
3.6436,0.016750,0.000000,0.000000,0.001816,-0.3589,0.0000,1.8242,-0.080288,0.080288,0.000060,0.001795,0.000452,3.5054,1.1303,2.4200,-0.070563,0.072097,0.000000,0.676486,-0.650408,0.653476,-0.647340,0.619728,-0.578311
3.6603,0.016755,0.000000,0.000000,0.001778,-0.4003,0.0000,1.8137,-0.082821,0.082821,0.000102,0.001764,0.000442,3.4631,1.1363,2.3626,-0.076699,0.073631,0.000000,0.674952,-0.650408,0.653476,-0.647340,0.619728,-0.578311
3.6771,0.016763,0.000000,0.000000,0.001739,-0.4415,0.0000,1.8029,-0.085609,0.085609,0.000154,0.001782,0.000420,3.4302,1.0992,2.2555,-0.082835,0.076699,0.000000,0.673418,-0.650408,0.651942,-0.647340,0.619728,-0.578311
3.6939,0.016751,0.000000,0.000000,0.001701,-0.4824,0.0000,1.7918,-0.088641,0.088641,0.000154,0.001782,0.000420,3.4302,1.0992,2.2555,-0.082835,0.076699,0.000000,0.673418,-0.650408,0.651942,-0.647340,0.619728,-0.578311
3.7106,0.016751,0.000000,0.000000,0.001661,-0.5232,0.0000,1.7805,-0.091911,0.091911,0.000237,0.001700,0.000401,3.3371,1.1290,2.1544,-0.082835,0.078233,0.000000,0.670350,-0.650408,0.651942,-0.647340,0.619728,-0.578311
3.7274,0.016750,0.000000,0.000000,0.001622,-0.5637,0.0000,1.7688,-0.095410,0.095410,0.000260,0.001613,0.000405,3.2878,1.1886,2.1658,-0.079767,0.081301,0.000000,0.668816,-0.650408,0.653476,-0.647340,0.619728,-0.578311
3.7441,0.016747,0.000000,0.000000,0.001582,-0.6039,0.0000,1.7569,-0.099126,0.099126,0.000257,0.001622,0.000404,3.2929,1.1823,2.1646,-0.084369,0.084369,0.000000,0.668816,-0.650408,0.653476,-0.647340,0.619728,-0.578311
3.7609,0.016754,0.000000,0.000000,0.001541,-0.6439,0.0000,1.7447,-0.103054,0.103054,0.000314,0.001635,0.000381,3.2548,1.1467,2.0518,-0.090505,0.088971,0.000000,0.667282,-0.650408,0.651942,-0.647340,0.619728,-0.578311
3.7777,0.016800,0.000000,0.000000,0.001500,-0.6838,0.0000,1.7321,-0.107191,0.107191,0.000298,0.001611,0.000360,3.1720,1.1991,2.0635,-0.096641,0.096641,0.000000,0.665748,-0.648874,0.651942,-0.647340,0.619728,-0.578311
3.7944,0.016757,0.000000,0.000000,0.001459,-0.7232,0.0000,1.7194,-0.111504,0.111504,0.000298,0.001611,0.000360,3.1720,1.1991,2.0635,-0.096641,0.096641,0.000000,0.665748,-0.648874,0.651942,-0.647340,0.619728,-0.578311
3.8112,0.016754,0.000000,0.000000,0.001418,-0.7623,0.0000,1.7063,-0.115991,0.115991,0.000311,0.001471,0.000318,2.9478,1.3538,2.0628,-0.105845,0.101243,0.000000,0.661146,-0.645806,0.653476,-0.647340,0.619728,-0.578311
3.8279,0.016752,0.000000,0.000000,0.001376,-0.8010,0.0000,1.6930,-0.120639,0.120639,0.000255,0.001502,0.000309,2.9325,1.3732,2.1186,-0.107379,0.101243,0.000000,0.661146,-0.644272,0.653476,-0.647340,0.619728,-0.578311
3.8447,0.016801,0.000000,0.000000,0.001333,-0.8395,0.0000,1.6794,-0.125451,0.125451,0.000251,0.001475,0.000287,2.8470,1.4200,2.1124,-0.105845,0.104311,0.000000,0.659612,-0.642738,0.653476,-0.647340,0.619728,-0.578311
3.8615,0.016754,0.000000,0.000000,0.001291,-0.8776,0.0000,1.6655,-0.130386,0.130386,0.000251,0.001478,0.000289,2.8559,1.4151,2.1131,-0.111981,0.111981,0.000000,0.659612,-0.642738,0.653476,-0.647340,0.619728,-0.578311
3.8783,0.016773,0.000000,0.000000,0.001248,-0.9153,0.0000,1.6514,-0.135449,0.135449,0.000243,0.001486,0.000229,2.6916,1.4639,2.0556,-0.122718,0.122718,0.000000,0.656544,-0.639670,0.651942,-0.647340,0.619728,-0.578311
3.8950,0.016753,0.000000,0.000000,0.001204,-0.9525,0.0000,1.6370,-0.140613,0.140613,0.000243,0.001486,0.000229,2.6916,1.4639,2.0556,-0.122718,0.122718,0.000000,0.656544,-0.639670,0.651942,-0.647340,0.619728,-0.578311
3.9118,0.016753,0.000000,0.000000,0.001161,-0.9893,0.0000,1.6224,-0.145872,0.145872,0.000156,0.001399,0.000188,2.4847,1.6417,2.1723,-0.133456,0.127320,0.000000,0.653476,-0.635068,0.653476,-0.647340,0.619728,-0.578311
3.9285,0.016758,0.000000,0.000000,0.001117,-1.0257,0.0000,1.6075,-0.151212,0.151212,0.000209,0.001367,0.000182,2.4577,1.6367,2.1043,-0.133456,0.127320,0.000000,0.651942,-0.635068,0.653476,-0.647340,0.619728,-0.578311
3.9453,0.016818,0.000000,0.000000,0.001073,-1.0617,0.0000,1.5923,-0.156636,0.156636,0.000204,0.001402,0.000181,2.3835,1.6390,2.2200,-0.133456,0.130388,0.000000,0.651942,-0.633534,0.653476,-0.647340,0.621262,-0.578311
3.9621,0.016757,0.000000,0.000000,0.001028,-1.0972,0.0000,1.5768,-0.162090,0.162090,0.000261,0.001414,0.000158,2.3536,1.6030,2.0957,-0.142660,0.139592,0.000000,0.650408,-0.633534,0.651942,-0.647340,0.621262,-0.578311
3.9789,0.016784,0.000000,0.000000,0.000984,-1.1322,0.0000,1.5611,-0.167587,0.167587,0.000232,0.001333,0.000114,2.2588,1.7032,1.9986,-0.156466,0.151864,0.000000,0.647340,-0.632000,0.651942,-0.647340,0.619728,-0.578311
3.9956,0.016751,0.000000,0.000000,0.000939,-1.1667,0.0000,1.5452,-0.173093,0.173093,0.000232,0.001333,0.000114,2.2588,1.7032,1.9986,-0.156466,0.151864,0.000000,0.647340,-0.632000,0.651942,-0.647340,0.619728,-0.578311
4.0124,0.016747,0.000000,0.000000,0.000894,-1.2006,0.0000,1.5291,-0.178601,0.178601,0.000227,0.001236,0.000060,2.0832,1.7406,2.0614,-0.165670,0.159534,0.000000,0.644272,-0.628932,0.651942,-0.645806,0.619728,-0.578311
4.0291,0.016750,0.000000,0.000000,0.000848,-1.2340,0.0000,1.5127,-0.184100,0.184100,0.000191,0.001224,0.000066,2.0136,1.8859,2.0559,-0.162602,0.159534,0.000000,0.642738,-0.627398,0.653476,-0.647340,0.619728,-0.578311
4.0459,0.016754,0.000000,0.000000,0.000803,-1.2668,0.0000,1.4960,-0.189573,0.189573,0.000153,0.001297,0.000040,1.9926,1.8568,2.0551,-0.162602,0.162602,0.000000,0.642738,-0.625864,0.651942,-0.647340,0.619728,-0.578311
4.0626,0.016753,0.000000,0.000000,0.000757,-1.2991,0.0000,1.4791,-0.195004,0.195004,0.000212,0.001305,0.000054,1.9567,1.8261,2.1087,-0.174874,0.174874,0.000000,0.642738,-0.625864,0.651942,-0.647340,0.621262,-0.578311
4.0794,0.016763,0.000000,0.000000,0.000711,-1.3309,0.0000,1.4620,-0.200381,0.200381,0.000139,0.001197,-0.000079,1.7739,1.7465,2.1530,-0.188680,0.188680,0.000000,0.639670,-0.621262,0.648874,-0.642738,0.619728,-0.578311
4.0961,0.016753,0.000000,0.000000,0.000665,-1.3620,0.0000,1.4446,-0.205684,0.205684,0.000139,0.001197,-0.000079,1.7739,1.7465,2.1530,-0.188680,0.188680,0.000000,0.639670,-0.621262,0.648874,-0.642738,0.619728,-0.578311
4.1129,0.016750,0.000000,0.000000,0.000619,-1.3925,0.0000,1.4271,-0.210899,0.210899,0.000150,0.001158,-0.000137,1.6176,1.7534,2.1447,-0.197884,0.190214,0.000000,0.636602,-0.618194,0.647340,-0.641204,0.619728,-0.578311
4.1296,0.016748,0.000000,0.000000,0.000572,-1.4224,0.0000,1.4093,-0.216013,0.216013,0.000149,0.001162,-0.000131,1.6338,1.7527,2.1455,-0.193282,0.194816,0.000000,0.636602,-0.618194,0.647340,-0.641204,0.619728,-0.578311
4.1465,0.016813,0.000000,0.000000,0.000526,-1.4518,0.0000,1.3912,-0.221032,0.221032,0.000108,0.001234,-0.000157,1.6037,1.7389,2.1441,-0.194816,0.205553,0.000000,0.636602,-0.616660,0.645806,-0.641204,0.619728,-0.578311
4.1632,0.016741,0.000000,0.000000,0.000479,-1.4804,0.0000,1.3729,-0.225900,0.225900,0.000223,0.001257,-0.000201,1.5314,1.6695,1.9214,-0.211689,0.211689,0.000000,0.633534,-0.616660,0.642738,-0.641204,0.619728,-0.578311
4.1810,0.017829,0.000000,0.000000,0.000429,-1.5102,0.0000,1.3532,-0.230929,0.230929,0.000323,0.001093,-0.000279,1.3434,1.6036,1.8857,-0.220893,0.214757,0.000000,0.628932,-0.615126,0.641204,-0.638136,0.619728,-0.578311
4.1978,0.016756,0.000000,0.000000,0.000382,-1.5375,0.0000,1.3345,-0.235493,0.235493,0.000323,0.001093,-0.000279,1.3434,1.6036,1.8857,-0.220893,0.214757,0.000000,0.628932,-0.615126,0.641204,-0.638136,0.619728,-0.578311
4.2147,0.016889,0.000000,0.000000,0.000335,-1.5643,0.0000,1.3154,-0.239923,0.239923,0.000261,0.001045,-0.000319,1.2252,1.6448,1.9971,-0.222427,0.219359,0.000000,0.627398,-0.612058,0.641204,-0.636602,0.619728,-0.578311
4.2354,0.020735,0.000000,0.000000,0.000276,-1.5962,0.0000,1.2917,-0.245109,0.245109,0.000261,0.001045,-0.000319,1.2252,1.6448,1.9971,-0.222427,0.219359,0.000000,0.627398,-0.612058,0.641204,-0.636602,0.619728,-0.578311
4.2521,0.016740,0.000000,0.000000,0.000229,-1.6212,0.0000,1.2724,-0.249078,0.249078,0.000261,0.001045,-0.000319,1.2252,1.6448,1.9971,-0.222427,0.219359,0.000000,0.627398,-0.612058,0.641204,-0.636602,0.619728,-0.578311
4.2689,0.016777,0.000000,0.000000,0.000182,-1.6455,0.0000,1.2527,-0.252849,0.252849,0.000199,0.001168,-0.000414,1.0926,1.5617,1.9807,-0.236233,0.230097,0.000000,0.625864,-0.607456,0.636602,-0.635068,0.619728,-0.578311
4.2858,0.016869,0.000000,0.000000,0.000134,-1.6693,0.0000,1.2328,-0.256422,0.256422,0.000205,0.001155,-0.000404,1.1064,1.5703,1.9824,-0.228563,0.230097,0.000000,0.625864,-0.607456,0.636602,-0.635068,0.619728,-0.578311
4.3026,0.016761,0.000000,0.000000,0.000087,-1.6921,0.0000,1.2128,-0.259744,0.259744,0.000205,0.001155,-0.000404,1.1064,1.5703,1.9824,-0.228563,0.230097,0.000000,0.625864,-0.607456,0.636602,-0.635068,0.619728,-0.578311
4.3193,0.016742,0.000000,0.000000,0.000040,-1.7141,0.0000,1.1926,-0.262826,0.262826,0.000260,0.001061,-0.000390,1.0454,1.5303,1.8182,-0.231631,0.236233,0.000000,0.624330,-0.608990,0.636602,-0.635068,0.619728,-0.579845
4.3360,0.016757,0.000000,0.000000,-0.000008,-1.7355,0.0000,1.1723,-0.265666,0.265666,0.000323,0.001061,-0.000501,0.9264,1.4511,1.8858,-0.248505,0.250039,0.000000,0.621262,-0.605922,0.633534,-0.632000,0.619728,-0.578311
4.3529,0.016818,0.000000,0.000000,-0.000055,-1.7561,0.0000,1.1516,-0.268264,0.268264,0.000358,0.000987,-0.000635,0.6753,1.3071,1.8732,-0.263845,0.259243,0.000000,0.616660,-0.601320,0.628932,-0.627398,0.619728,-0.578311
4.3696,0.016758,0.000000,0.000000,-0.000103,-1.7758,0.0000,1.1309,-0.270591,0.270591,0.000397,0.001018,-0.000670,0.4974,1.3384,1.8713,-0.263845,0.260777,0.000000,0.613592,-0.598253,0.627398,-0.627398,0.621262,-0.578311
4.3866,0.016958,0.000000,0.000000,-0.000151,-1.7950,0.0000,1.1097,-0.272675,0.272675,0.000364,0.001110,-0.000668,0.5756,1.2709,1.8715,-0.260777,0.263845,0.000000,0.615126,-0.598253,0.625864,-0.627398,0.621262,-0.578311
4.4033,0.016757,0.000000,0.000000,-0.000198,-1.8132,0.0000,1.0886,-0.274462,0.274462,0.000364,0.001110,-0.000668,0.5756,1.2709,1.8715,-0.260777,0.263845,0.000000,0.615126,-0.598253,0.625864,-0.627398,0.621262,-0.578311
4.4201,0.016741,0.000000,0.000000,-0.000245,-1.8306,0.0000,1.0673,-0.275969,0.275969,0.000409,0.001061,-0.000679,0.5185,1.2924,1.8165,-0.269981,0.266913,0.000000,0.613592,-0.598253,0.625864,-0.627398,0.621262,-0.578311
4.4368,0.016754,0.000000,0.000000,-0.000292,-1.8471,0.0000,1.0458,-0.277198,0.277198,0.000393,0.001042,-0.000738,0.4355,1.3390,1.6571,-0.273049,0.266913,0.000000,0.610524,-0.596719,0.624330,-0.627398,0.619728,-0.578311
4.4536,0.016747,0.000000,0.000000,-0.000339,-1.8628,0.0000,1.0242,-0.278141,0.278141,0.000421,0.000964,-0.000792,0.3459,1.2325,1.7268,-0.271515,0.271515,0.000000,0.608990,-0.595185,0.622796,-0.624330,0.619728,-0.578311
4.4703,0.016746,0.000000,0.000000,-0.000386,-1.8778,0.0000,1.0025,-0.278798,0.278798,0.000431,0.000948,-0.000836,0.2672,1.1928,1.7181,-0.274583,0.274583,0.000000,0.607456,-0.593651,0.621262,-0.622796,0.619728,-0.578311
4.4872,0.016821,0.000000,0.000000,-0.000433,-1.8919,0.0000,0.9804,-0.279167,0.279167,0.000431,0.000902,-0.000904,0.0987,1.1964,1.7166,-0.276117,0.274583,0.000000,0.604388,-0.590583,0.619728,-0.621262,0.619728,-0.578311
4.5039,0.016751,0.000000,0.000000,-0.000480,-1.9051,0.0000,0.9583,-0.279245,0.279245,0.000431,0.000902,-0.000904,0.0987,1.1964,1.7166,-0.276117,0.274583,0.000000,0.604388,-0.590583,0.619728,-0.621262,0.619728,-0.578311
4.5207,0.016750,0.000000,0.000000,-0.000527,-1.9175,0.0000,0.9361,-0.279032,0.279032,0.000512,0.000922,-0.000910,0.0788,1.0610,1.7710,-0.276117,0.277651,0.000000,0.604388,-0.590583,0.618194,-0.619728,0.621262,-0.578311
4.5374,0.016762,0.000000,0.000000,-0.000573,-1.9291,0.0000,0.9137,-0.278530,0.278530,0.000450,0.000857,-0.000920,-0.0579,1.1078,1.7100,-0.277651,0.279185,0.000000,0.602854,-0.589049,0.618194,-0.619728,0.621262,-0.579845
4.5542,0.016752,0.000000,0.000000,-0.000620,-1.9397,0.0000,0.8911,-0.277740,0.277740,0.000469,0.000951,-0.000968,-0.1111,1.0535,1.6062,-0.277651,0.279185,0.000000,0.601320,-0.587515,0.615126,-0.619728,0.621262,-0.579845
4.5709,0.016749,0.000000,0.000000,-0.000666,-1.9496,0.0000,0.8685,-0.276665,0.276665,0.000492,0.001020,-0.001025,-0.0066,0.9594,1.5625,-0.279185,0.277651,0.000000,0.601320,-0.587515,0.612058,-0.618194,0.619728,-0.578311
