t,loop_dt,cmd_x,cmd_y,cmd_z,cmd_roll,cmd_pitch,cmd_yaw,cmd_ant_l,cmd_ant_r,pres_x,pres_y,pres_z,pres_roll,pres_pitch,pres_yaw,pres_ant_l,pres_ant_r,pres_j0,pres_j1,pres_j2,pres_j3,pres_j4,pres_j5,pres_j6
0.0000,0.000001,0.001053,0.001988,-0.001944,0.9208,-1.2655,-0.2461,-0.012272,0.010738,0.001053,0.001988,-0.001944,0.9208,-1.2655,-0.2461,-0.012272,0.010738,0.000000,0.595185,-0.592117,0.549165,-0.590583,0.598253,-0.567573
0.0167,0.016743,0.001035,0.001955,-0.001912,0.9053,-1.2443,-0.2418,-0.012066,0.010558,0.001053,0.001988,-0.001944,0.9208,-1.2655,-0.2461,-0.012272,0.010738,0.000000,0.595185,-0.592117,0.549165,-0.590583,0.598253,-0.567573
0.0335,0.016756,0.001018,0.001921,-0.001879,0.8899,-1.2232,-0.2375,-0.011861,0.010378,0.001039,0.002043,-0.001933,0.9306,-1.2154,-0.2992,-0.012272,0.010738,0.000000,0.595185,-0.592117,0.549165,-0.592117,0.598253,-0.567573
0.0502,0.016745,0.001000,0.001888,-0.001847,0.8744,-1.2020,-0.2332,-0.011655,0.010198,0.001055,0.001982,-0.001946,0.9197,-1.2712,-0.2400,-0.012272,0.010738,0.000000,0.595185,-0.592117,0.549165,-0.590583,0.598253,-0.567573
0.0670,0.016765,0.000982,0.001855,-0.001814,0.8589,-1.1808,-0.2289,-0.011450,0.010018,0.001053,0.001988,-0.001944,0.9208,-1.2654,-0.2461,-0.012272,0.009204,0.000000,0.595185,-0.592117,0.549165,-0.590583,0.598253,-0.567573
0.0850,0.017975,0.000964,0.001819,-0.001779,0.8423,-1.1581,-0.2244,-0.011229,0.009825,0.001053,0.001988,-0.001944,0.9208,-1.2654,-0.2461,-0.012272,0.009204,0.000000,0.595185,-0.592117,0.549165,-0.590583,0.598253,-0.567573
0.1017,0.016759,0.000946,0.001786,-0.001747,0.8269,-1.1370,-0.2201,-0.011023,0.009645,0.001053,0.001988,-0.001944,0.9208,-1.2654,-0.2461,-0.012272,0.009204,0.000000,0.595185,-0.592117,0.549165,-0.590583,0.598253,-0.567573
0.1185,0.016746,0.000928,0.001752,-0.001714,0.8114,-1.1158,-0.2159,-0.010818,0.009466,0.001471,0.002023,-0.002137,0.9680,-0.9826,-0.1946,-0.010738,0.009204,0.000000,0.585981,-0.590583,0.549165,-0.590583,0.596719,-0.556835
0.1353,0.016771,0.000911,0.001719,-0.001681,0.7959,-1.0946,-0.2116,-0.010612,0.009285,0.001522,0.002073,-0.002120,0.9743,-1.0280,-0.0929,-0.012272,0.009204,0.000000,0.585981,-0.590583,0.549165,-0.590583,0.598253,-0.555301
0.1520,0.016746,0.000893,0.001686,-0.001649,0.7805,-1.0734,-0.2074,-0.010406,0.009106,0.001522,0.002073,-0.002120,0.9743,-1.0280,-0.0929,-0.012272,0.009204,0.000000,0.585981,-0.590583,0.549165,-0.590583,0.598253,-0.555301
0.1688,0.016752,0.000875,0.001653,-0.001616,0.7650,-1.0523,-0.2031,-0.010201,0.008926,0.001517,0.002068,-0.002122,0.9737,-1.0232,-0.1035,-0.013806,0.009204,0.000000,0.585981,-0.590583,0.549165,-0.590583,0.598253,-0.555301
0.1855,0.016749,0.000858,0.001619,-0.001584,0.7496,-1.0311,-0.1989,-0.009995,0.008746,0.001478,0.002031,-0.002107,0.9237,-1.0415,-0.1552,-0.013806,0.009204,0.000000,0.585981,-0.590583,0.549165,-0.590583,0.598253,-0.556835
0.2023,0.016753,0.000840,0.001586,-0.001551,0.7341,-1.0099,-0.1947,-0.009790,0.008566,0.001427,0.002019,-0.002120,0.9677,-1.0057,-0.2040,-0.012272,0.009204,0.000000,0.585981,-0.590583,0.549165,-0.590583,0.596719,-0.556835
0.2190,0.016742,0.000822,0.001553,-0.001519,0.7187,-0.9888,-0.1904,-0.009584,0.008386,0.001500,0.002089,-0.002122,0.9336,-1.0957,-0.1981,-0.009204,0.009204,0.000000,0.585981,-0.590583,0.547631,-0.590583,0.598253,-0.556835
0.2358,0.016768,0.000805,0.001519,-0.001486,0.7032,-0.9676,-0.1862,-0.009379,0.008206,0.001500,0.002089,-0.002122,0.9336,-1.0957,-0.1981,-0.009204,0.009204,0.000000,0.585981,-0.590583,0.547631,-0.590583,0.598253,-0.556835
0.2525,0.016746,0.000787,0.001486,-0.001453,0.6878,-0.9464,-0.1820,-0.009173,0.008026,0.001493,0.002082,-0.002121,0.9372,-1.0863,-0.1987,-0.006136,0.009204,0.000000,0.585981,-0.590583,0.547631,-0.590583,0.598253,-0.556835
0.2693,0.016754,0.000769,0.001453,-0.001421,0.6723,-0.9252,-0.1778,-0.008967,0.007846,0.001493,0.002082,-0.002121,0.9372,-1.0863,-0.1987,-0.010738,0.009204,0.000000,0.585981,-0.590583,0.547631,-0.590583,0.598253,-0.556835
0.2860,0.016743,0.000752,0.001419,-0.001388,0.6569,-0.9040,-0.1736,-0.008762,0.007667,0.001425,0.002013,-0.002118,0.9664,-1.0010,-0.1995,-0.013806,0.009204,0.000000,0.585981,-0.590583,0.549165,-0.590583,0.596719,-0.556835
0.3028,0.016747,0.000734,0.001386,-0.001356,0.6414,-0.8829,-0.1694,-0.008556,0.007487,0.001487,0.002037,-0.002108,0.9245,-1.0438,-0.1452,-0.012272,0.009204,0.000000,0.585981,-0.590583,0.549165,-0.590583,0.598253,-0.556835
0.3195,0.016743,0.000717,0.001353,-0.001323,0.6260,-0.8617,-0.1653,-0.008351,0.007307,0.001481,0.002034,-0.002109,0.9289,-1.0393,-0.1509,-0.009204,0.009204,0.000000,0.585981,-0.590583,0.549165,-0.590583,0.598253,-0.556835
0.3363,0.016753,0.000699,0.001320,-0.001291,0.6106,-0.8405,-0.1611,-0.008145,0.007127,0.001481,0.002034,-0.002109,0.9289,-1.0393,-0.1509,-0.009204,0.009204,0.000000,0.585981,-0.590583,0.549165,-0.590583,0.598253,-0.556835
0.3530,0.016740,0.000681,0.001286,-0.001258,0.5951,-0.8193,-0.1569,-0.007940,0.006947,0.001495,0.002088,-0.002123,0.9377,-1.0922,-0.2037,-0.006136,0.009204,0.000000,0.585981,-0.590583,0.547631,-0.590583,0.598253,-0.556835
0.3697,0.016750,0.000664,0.001253,-0.001226,0.5797,-0.7981,-0.1527,-0.007734,0.006768,0.001493,0.002082,-0.002121,0.9367,-1.0867,-0.1982,-0.007670,0.007670,0.000000,0.585981,-0.590583,0.547631,-0.590583,0.598253,-0.556835
0.3865,0.016742,0.000646,0.001220,-0.001193,0.5643,-0.7769,-0.1486,-0.007529,0.006588,0.001493,0.002082,-0.002121,0.9367,-1.0867,-0.1982,-0.010738,0.007670,0.000000,0.585981,-0.590583,0.547631,-0.590583,0.598253,-0.556835
0.4033,0.016786,0.000628,0.001186,-0.001160,0.5488,-0.7557,-0.1444,-0.007323,0.006408,0.001425,0.002013,-0.002118,0.9664,-1.0010,-0.1995,-0.010738,0.007670,0.000000,0.585981,-0.590583,0.549165,-0.590583,0.596719,-0.556835
0.4200,0.016739,0.000611,0.001153,-0.001128,0.5334,-0.7345,-0.1403,-0.007117,0.006228,0.001487,0.002037,-0.002108,0.9245,-1.0438,-0.1452,-0.007670,0.007670,0.000000,0.585981,-0.590583,0.549165,-0.590583,0.598253,-0.556835
0.4368,0.016756,0.000593,0.001120,-0.001095,0.5180,-0.7133,-0.1361,-0.006912,0.006048,0.001487,0.002037,-0.002108,0.9245,-1.0438,-0.1452,-0.007670,0.007670,0.000000,0.585981,-0.590583,0.549165,-0.590583,0.598253,-0.556835
0.4535,0.016720,0.000575,0.001086,-0.001063,0.5026,-0.6922,-0.1320,-0.006707,0.005868,0.001481,0.002034,-0.002109,0.9289,-1.0393,-0.1509,-0.004602,0.007670,0.000000,0.585981,-0.590583,0.549165,-0.590583,0.598253,-0.556835
0.4702,0.016748,0.000558,0.001053,-0.001030,0.4871,-0.6710,-0.1278,-0.006501,0.005689,0.001495,0.002088,-0.002123,0.9377,-1.0922,-0.2037,-0.006136,0.007670,0.000000,0.585981,-0.590583,0.547631,-0.590583,0.598253,-0.556835
0.4870,0.016742,0.000540,0.001020,-0.000998,0.4717,-0.6498,-0.1237,-0.006296,0.005509,0.001480,0.002029,-0.002107,0.9275,-1.0343,-0.1448,-0.010738,0.007670,0.000000,0.585981,-0.590583,0.549165,-0.590583,0.598253,-0.556835
0.5039,0.016915,0.000522,0.000986,-0.000965,0.4561,-0.6284,-0.1196,-0.006088,0.005327,0.001482,0.002035,-0.002109,0.9286,-1.0403,-0.1509,-0.006136,0.007670,0.000000,0.585981,-0.590583,0.549165,-0.590583,0.598253,-0.556835
0.5206,0.016745,0.000505,0.000953,-0.000932,0.4407,-0.6072,-0.1154,-0.005883,0.005147,0.001495,0.002088,-0.002123,0.9377,-1.0921,-0.2037,-0.001534,0.007670,0.000000,0.585981,-0.590583,0.547631,-0.590583,0.598253,-0.556835
0.5374,0.016757,0.000487,0.000920,-0.000900,0.4253,-0.5860,-0.1113,-0.005677,0.004967,0.001495,0.002088,-0.002123,0.9377,-1.0921,-0.2037,-0.001534,0.007670,0.000000,0.585981,-0.590583,0.547631,-0.590583,0.598253,-0.556835
0.5541,0.016741,0.000469,0.000886,-0.000867,0.4099,-0.5648,-0.1072,-0.005472,0.004788,0.001493,0.002082,-0.002121,0.9367,-1.0867,-0.1982,-0.004602,0.007670,0.000000,0.585981,-0.590583,0.547631,-0.590583,0.598253,-0.556835
0.5709,0.016749,0.000452,0.000853,-0.000834,0.3945,-0.5436,-0.1031,-0.005266,0.004608,0.001480,0.002029,-0.002107,0.9276,-1.0349,-0.1453,-0.009204,0.007670,0.000000,0.585981,-0.590583,0.549165,-0.590583,0.598253,-0.556835
0.5876,0.016740,0.000434,0.000820,-0.000802,0.3791,-0.5224,-0.0990,-0.005061,0.004428,0.001495,0.002088,-0.002123,0.9378,-1.0927,-0.2042,-0.004602,0.007670,0.000000,0.585981,-0.590583,0.547631,-0.590583,0.598253,-0.556835
0.6044,0.016775,0.000417,0.000786,-0.000769,0.3636,-0.5012,-0.0949,-0.004855,0.004248,0.001480,0.002029,-0.002107,0.9275,-1.0342,-0.1447,0.000000,0.007670,0.000000,0.585981,-0.590583,0.549165,-0.590583,0.598253,-0.556835
0.6211,0.016742,0.000399,0.000753,-0.000737,0.3482,-0.4800,-0.0908,-0.004649,0.004068,0.001482,0.002035,-0.002109,0.9286,-1.0403,-0.1509,-0.003068,0.007670,0.000000,0.585981,-0.590583,0.549165,-0.590583,0.598253,-0.556835
0.6379,0.016754,0.000381,0.000720,-0.000704,0.3328,-0.4588,-0.0868,-0.004444,0.003888,0.001482,0.002035,-0.002109,0.9286,-1.0403,-0.1509,-0.003068,0.007670,0.000000,0.585981,-0.590583,0.549165,-0.590583,0.598253,-0.556835
0.6546,0.016730,0.000364,0.000687,-0.000672,0.3174,-0.4376,-0.0827,-0.004238,0.003709,0.001482,0.002035,-0.002109,0.9286,-1.0403,-0.1509,-0.009204,0.007670,0.000000,0.585981,-0.590583,0.549165,-0.590583,0.598253,-0.556835
0.6714,0.016756,0.000346,0.000653,-0.000639,0.3020,-0.4164,-0.0786,-0.004033,0.003529,0.001482,0.002035,-0.002109,0.9286,-1.0403,-0.1509,-0.007670,0.007670,0.000000,0.585981,-0.590583,0.549165,-0.590583,0.598253,-0.556835
0.6881,0.016740,0.000328,0.000620,-0.000606,0.2866,-0.3952,-0.0746,-0.003827,0.003349,0.001482,0.002035,-0.002109,0.9286,-1.0403,-0.1509,0.001534,0.007670,0.000000,0.585981,-0.590583,0.549165,-0.590583,0.598253,-0.556835
0.7049,0.016748,0.000311,0.000587,-0.000574,0.2712,-0.3739,-0.0705,-0.003622,0.003169,0.001482,0.002035,-0.002109,0.9286,-1.0403,-0.1509,0.000000,0.007670,0.000000,0.585981,-0.590583,0.549165,-0.590583,0.598253,-0.556835
0.7216,0.016744,0.000293,0.000553,-0.000541,0.2558,-0.3527,-0.0665,-0.003416,0.002989,0.001482,0.002035,-0.002109,0.9286,-1.0403,-0.1509,-0.007670,0.006136,0.000000,0.585981,-0.590583,0.549165,-0.590583,0.598253,-0.556835
0.7384,0.016760,0.000275,0.000520,-0.000509,0.2404,-0.3315,-0.0624,-0.003211,0.002809,0.001482,0.002035,-0.002109,0.9286,-1.0403,-0.1509,-0.007670,0.006136,0.000000,0.585981,-0.590583,0.549165,-0.590583,0.598253,-0.556835
0.7551,0.016739,0.000258,0.000487,-0.000476,0.2250,-0.3103,-0.0584,-0.003005,0.002630,0.001482,0.002035,-0.002109,0.9286,-1.0403,-0.1509,-0.004602,0.006136,0.000000,0.585981,-0.590583,0.549165,-0.590583,0.598253,-0.556835
0.7719,0.016749,0.000240,0.000454,-0.000444,0.2096,-0.2891,-0.0544,-0.002800,0.002450,0.001482,0.002035,-0.002109,0.9286,-1.0403,-0.1509,0.001534,0.006136,0.000000,0.585981,-0.590583,0.549165,-0.590583,0.598253,-0.556835
0.7887,0.016843,0.000222,0.000420,-0.000411,0.1941,-0.2678,-0.0503,-0.002593,0.002269,0.001482,0.002035,-0.002109,0.9286,-1.0403,-0.1509,0.000000,0.006136,0.000000,0.585981,-0.590583,0.549165,-0.590583,0.598253,-0.556835
0.8056,0.016904,0.000205,0.000386,-0.000378,0.1786,-0.2463,-0.0463,-0.002386,0.002087,0.001468,0.002089,-0.002097,0.9380,-0.9891,-0.2039,-0.006136,0.004602,0.000000,0.585981,-0.590583,0.549165,-0.592117,0.598253,-0.556835
0.8224,0.016744,0.000187,0.000353,-0.000345,0.1632,-0.2251,-0.0422,-0.002180,0.001908,0.001483,0.002029,-0.002110,0.9275,-1.0450,-0.1447,-0.003068,0.003068,0.000000,0.585981,-0.590583,0.549165,-0.590583,0.598253,-0.556835
0.8391,0.016754,0.000169,0.000320,-0.000313,0.1478,-0.2039,-0.0382,-0.001974,0.001728,0.001483,0.002029,-0.002110,0.9275,-1.0450,-0.1447,-0.003068,0.003068,0.000000,0.585981,-0.590583,0.549165,-0.590583,0.598253,-0.556835
0.8559,0.016753,0.000152,0.000287,-0.000280,0.1324,-0.1827,-0.0342,-0.001769,0.001548,0.001481,0.002035,-0.002109,0.9286,-1.0392,-0.1509,0.004602,0.001534,0.000000,0.585981,-0.590583,0.549165,-0.590583,0.598253,-0.556835
0.8726,0.016767,0.000134,0.000253,-0.000248,0.1170,-0.1614,-0.0302,-0.001563,0.001368,0.001481,0.002035,-0.002109,0.9286,-1.0392,-0.1509,0.003068,0.001534,0.000000,0.585981,-0.590583,0.549165,-0.590583,0.598253,-0.556835
0.8894,0.016750,0.000116,0.000220,-0.000215,0.1016,-0.1402,-0.0262,-0.001358,0.001188,0.001536,0.002018,-0.002097,0.9662,-1.0760,-0.2048,-0.006136,0.001534,0.000000,0.585981,-0.592117,0.549165,-0.590583,0.598253,-0.556835
0.9062,0.016816,0.000099,0.000186,-0.000182,0.0861,-0.1189,-0.0222,-0.001151,0.001007,0.001476,0.002036,-0.002110,0.9245,-1.0360,-0.1447,-0.003068,0.001534,0.000000,0.585981,-0.590583,0.549165,-0.590583,0.598253,-0.556835
0.9229,0.016752,0.000081,0.000153,-0.000150,0.0708,-0.0977,-0.0182,-0.000946,0.000827,0.001476,0.002036,-0.002110,0.9245,-1.0360,-0.1447,0.004602,0.000000,0.000000,0.585981,-0.590583,0.549165,-0.590583,0.598253,-0.556835
0.9397,0.016751,0.000064,0.000120,-0.000117,0.0554,-0.0764,-0.0143,-0.000740,0.000648,0.001482,0.002034,-0.002109,0.9289,-1.0402,-0.1509,0.004602,0.000000,0.000000,0.585981,-0.590583,0.549165,-0.590583,0.598253,-0.556835
0.9564,0.016751,0.000046,0.000087,-0.000085,0.0400,-0.0552,-0.0103,-0.000534,0.000468,0.001482,0.002034,-0.002109,0.9289,-1.0402,-0.1509,0.003068,0.000000,0.000000,0.585981,-0.590583,0.549165,-0.590583,0.598253,-0.556835
0.9732,0.016748,0.000028,0.000053,-0.000052,0.0246,-0.0340,-0.0063,-0.000329,0.000288,0.001482,0.002034,-0.002109,0.9289,-1.0402,-0.1509,-0.004602,0.000000,0.000000,0.585981,-0.590583,0.549165,-0.590583,0.598253,-0.556835
0.9899,0.016752,0.000011,0.000020,-0.000020,0.0092,-0.0127,-0.0024,-0.000123,0.000108,0.001482,0.002034,-0.002109,0.9289,-1.0402,-0.1509,-0.004602,0.000000,0.000000,0.585981,-0.590583,0.549165,-0.590583,0.598253,-0.556835
1.0067,0.016769,0.000000,0.000000,0.000008,0.0082,0.0000,0.0000,0.005523,-0.005523,0.001482,0.002034,-0.002109,0.9289,-1.0402,-0.1509,0.003068,0.000000,0.000000,0.585981,-0.590583,0.549165,-0.590583,0.598253,-0.556835
1.0235,0.016763,0.000000,0.000000,0.000030,0.0288,0.0000,0.0000,0.019293,-0.019293,0.001482,0.002034,-0.002109,0.9289,-1.0402,-0.1509,0.003068,0.000000,0.000000,0.585981,-0.590583,0.549165,-0.590583,0.598253,-0.556835
1.0402,0.016751,0.000000,0.000000,0.000051,0.0493,0.0000,0.0000,0.032999,-0.032999,0.001536,0.002018,-0.002097,0.9662,-1.0759,-0.2048,0.003068,0.000000,0.000000,0.585981,-0.592117,0.549165,-0.590583,0.598253,-0.556835
1.0570,0.016750,0.000000,0.000000,0.000072,0.0698,0.0000,0.0000,0.046614,-0.046614,0.001530,0.002019,-0.002098,0.9623,-1.0722,-0.1992,-0.003068,0.000000,0.000000,0.585981,-0.592117,0.549165,-0.590583,0.598253,-0.556835
1.0737,0.016769,0.000000,0.000000,0.000093,0.0903,0.0000,0.0000,0.060114,-0.060114,0.001476,0.002036,-0.002110,0.9250,-1.0364,-0.1452,-0.003068,-0.001534,0.000000,0.585981,-0.590583,0.549165,-0.590583,0.598253,-0.556835
1.0905,0.016755,0.000000,0.000000,0.000114,0.1108,0.0000,0.0000,0.073438,-0.073438,0.001482,0.002034,-0.002109,0.9288,-1.0401,-0.1509,0.006136,-0.006136,0.000000,0.585981,-0.590583,0.549165,-0.590583,0.598253,-0.556835
1.1076,0.017102,0.000000,0.000000,0.000135,0.1317,0.0000,0.0000,0.086826,-0.086826,0.001536,0.002018,-0.002097,0.9662,-1.0759,-0.2048,0.023010,-0.019942,0.000000,0.585981,-0.592117,0.549165,-0.590583,0.598253,-0.556835
1.1244,0.016781,0.000000,0.000000,0.000156,0.1521,0.0000,0.0000,0.099720,-0.099720,0.001536,0.002018,-0.002097,0.9662,-1.0759,-0.2048,0.023010,-0.019942,0.000000,0.585981,-0.592117,0.549165,-0.590583,0.598253,-0.556835
1.1412,0.016833,0.000000,0.000000,0.000177,0.1726,0.0000,0.0000,0.112376,-0.112376,0.001536,0.002018,-0.002097,0.9662,-1.0759,-0.2048,0.023010,-0.019942,0.000000,0.585981,-0.592117,0.549165,-0.590583,0.598253,-0.556835
1.1580,0.016808,0.000000,0.000000,0.000198,0.1931,0.0000,0.0000,0.124699,-0.124699,0.001536,0.002018,-0.002097,0.9662,-1.0759,-0.2048,0.023010,-0.019942,0.000000,0.585981,-0.592117,0.549165,-0.590583,0.598253,-0.556835
1.1748,0.016750,0.000000,0.000000,0.000219,0.2134,0.0000,0.0000,0.136634,-0.136634,0.001536,0.002018,-0.002097,0.9662,-1.0759,-0.2048,0.023010,-0.019942,0.000000,0.585981,-0.592117,0.549165,-0.590583,0.598253,-0.556835
1.1915,0.016748,0.000000,0.000000,0.000240,0.2337,0.0000,0.0000,0.148189,-0.148189,0.001530,0.002019,-0.002098,0.9623,-1.0722,-0.1992,0.078233,-0.078233,0.000000,0.585981,-0.592117,0.549165,-0.590583,0.598253,-0.556835
1.2083,0.016748,0.000000,0.000000,0.000261,0.2540,0.0000,0.0000,0.159334,-0.159334,0.001530,0.002019,-0.002098,0.9623,-1.0722,-0.1992,0.067495,-0.069029,0.000000,0.585981,-0.592117,0.549165,-0.590583,0.598253,-0.556835
1.2250,0.016753,0.000000,0.000000,0.000282,0.2742,0.0000,0.0000,0.170041,-0.170041,0.001530,0.002019,-0.002098,0.9623,-1.0722,-0.1992,0.070563,-0.075165,0.000000,0.585981,-0.592117,0.549165,-0.590583,0.598253,-0.556835
1.2418,0.016766,0.000000,0.000000,0.000303,0.2943,0.0000,0.0000,0.180285,-0.180285,0.001517,0.002074,-0.002087,0.9723,-1.0220,-0.2534,0.095107,-0.095107,0.000000,0.585981,-0.592117,0.549165,-0.592117,0.598253,-0.556835
1.2585,0.016746,0.000000,0.000000,0.000323,0.3144,0.0000,0.0000,0.190018,-0.190018,0.001517,0.002074,-0.002087,0.9723,-1.0220,-0.2534,0.095107,-0.095107,0.000000,0.585981,-0.592117,0.549165,-0.592117,0.598253,-0.556835
1.2753,0.016751,0.000000,0.000000,0.000344,0.3345,0.0000,0.0000,0.199228,-0.199228,0.001518,0.002069,-0.002088,0.9712,-1.0272,-0.2478,0.133456,-0.125786,0.000000,0.585981,-0.592117,0.549165,-0.592117,0.598253,-0.556835
1.2920,0.016746,0.000000,0.000000,0.000365,0.3544,0.0000,0.0000,0.207884,-0.207884,0.001532,0.002014,-0.002099,0.9618,-1.0773,-0.1947,0.174874,-0.161068,0.000000,0.585981,-0.592117,0.549165,-0.590583,0.598253,-0.556835
1.3088,0.016748,0.000000,0.000000,0.000386,0.3743,0.0000,0.0000,0.215965,-0.215965,0.001530,0.002020,-0.002098,0.9627,-1.0721,-0.2003,0.194816,-0.185612,0.000000,0.585981,-0.592117,0.549165,-0.590583,0.598253,-0.556835
1.3255,0.016755,0.000000,0.000000,0.000406,0.3942,0.0000,0.0000,0.223451,-0.223451,0.001530,0.002020,-0.002098,0.9627,-1.0721,-0.2003,0.200951,-0.204019,0.000000,0.585981,-0.592117,0.549165,-0.590583,0.598253,-0.556835
1.3423,0.016769,0.000000,0.000000,0.000427,0.4140,0.0000,0.0000,0.230324,-0.230324,0.001476,0.002003,-0.002109,1.0014,-1.0387,-0.2539,0.200951,-0.211689,0.000000,0.585981,-0.592117,0.549165,-0.590583,0.596719,-0.556835
1.3590,0.016741,0.000000,0.000000,0.000447,0.4336,0.0000,0.0000,0.236548,-0.236548,0.001476,0.002003,-0.002109,1.0014,-1.0387,-0.2539,0.200951,-0.211689,0.000000,0.585981,-0.592117,0.549165,-0.590583,0.596719,-0.556835
1.3758,0.016743,0.000000,0.000000,0.000468,0.4532,0.0000,0.0000,0.242119,-0.242119,0.001481,0.002005,-0.002108,0.9974,-1.0422,-0.2483,0.210155,-0.213223,0.000000,0.585981,-0.592117,0.549165,-0.590583,0.596719,-0.556835
1.3925,0.016755,0.000000,0.000000,0.000488,0.4728,0.0000,0.0000,0.247023,-0.247023,0.001536,0.002021,-0.002097,0.9590,-1.0757,-0.1947,0.225495,-0.217825,0.000000,0.585981,-0.592117,0.549165,-0.590583,0.598253,-0.556835
1.4093,0.016755,0.000000,0.000000,0.000509,0.4922,0.0000,0.0000,0.251243,-0.251243,0.001530,0.002019,-0.002098,0.9630,-1.0722,-0.2003,0.233165,-0.225495,0.000000,0.585981,-0.592117,0.549165,-0.590583,0.598253,-0.556835
1.4260,0.016741,0.000000,0.000000,0.000529,0.5115,0.0000,0.0000,0.254764,-0.254764,0.001530,0.002019,-0.002098,0.9630,-1.0722,-0.2003,0.233165,-0.240835,0.000000,0.585981,-0.592117,0.549165,-0.590583,0.598253,-0.556835
1.4428,0.016768,0.000000,0.000000,0.000549,0.5308,0.0000,0.0000,0.257585,-0.257585,0.001530,0.002019,-0.002098,0.9630,-1.0722,-0.2003,0.239301,-0.251573,0.000000,0.585981,-0.592117,0.549165,-0.590583,0.598253,-0.556835
1.4595,0.016738,0.000000,0.000000,0.000569,0.5499,0.0000,0.0000,0.259688,-0.259688,0.001530,0.002019,-0.002098,0.9630,-1.0722,-0.2003,0.239301,-0.251573,0.000000,0.585981,-0.592117,0.549165,-0.590583,0.598253,-0.556835
1.4763,0.016747,0.000000,0.000000,0.000590,0.5690,0.0000,0.0000,0.261074,-0.261074,0.001489,0.002058,-0.002086,1.0131,-1.0875,-0.1465,0.254641,-0.253107,0.000000,0.587515,-0.592117,0.549165,-0.590583,0.598253,-0.556835
1.4930,0.016746,0.000000,0.000000,0.000610,0.5879,0.0000,0.0000,0.261737,-0.261737,0.001494,0.002054,-0.002087,1.0079,-1.0859,-0.1521,0.256175,-0.253107,0.000000,0.587515,-0.592117,0.549165,-0.590583,0.598253,-0.556835
1.5099,0.016830,0.000000,0.000000,0.000630,0.6068,0.0000,0.0000,0.261674,-0.261674,0.001534,0.002016,-0.002099,0.9579,-1.0712,-0.2047,0.253107,-0.256175,0.000000,0.585981,-0.592117,0.549165,-0.590583,0.598253,-0.556835
1.5266,0.016751,0.000000,0.000000,0.000650,0.6255,0.0000,0.0000,0.260884,-0.260884,0.001530,0.002020,-0.002098,0.9631,-1.0727,-0.1992,0.259243,-0.262311,0.000000,0.585981,-0.592117,0.549165,-0.590583,0.598253,-0.556835
1.5434,0.016745,0.000000,0.000000,0.000670,0.6441,0.0000,0.0000,0.259374,-0.259374,0.001476,0.002003,-0.002109,1.0014,-1.0386,-0.2540,0.262311,-0.263845,0.000000,0.585981,-0.592117,0.549165,-0.590583,0.596719,-0.556835
1.5602,0.016819,0.000000,0.000000,0.000690,0.6626,0.0000,0.0000,0.257134,-0.257134,0.001476,0.002003,-0.002109,1.0014,-1.0386,-0.2540,0.262311,-0.263845,0.000000,0.585981,-0.592117,0.549165,-0.590583,0.596719,-0.556835
1.5769,0.016742,0.000000,0.000000,0.000709,0.6810,0.0000,0.0000,0.254191,-0.254191,0.001495,0.002059,-0.002085,1.0091,-1.0910,-0.1409,0.259243,-0.262311,0.000000,0.587515,-0.592117,0.549165,-0.590583,0.598253,-0.556835
1.5937,0.016744,0.000000,0.000000,0.000729,0.6992,0.0000,0.0000,0.250546,-0.250546,0.001274,0.002115,-0.002048,1.1486,-1.1141,-0.0999,0.260777,-0.262311,0.000000,0.592117,-0.592117,0.549165,-0.590583,0.596719,-0.558369
1.6104,0.016747,0.000000,0.000000,0.000748,0.7173,0.0000,0.0000,0.246206,-0.246206,0.001257,0.002181,-0.002004,1.1054,-1.1275,-0.1031,0.260777,-0.260777,0.000000,0.593651,-0.592117,0.549165,-0.592117,0.598253,-0.559903
1.6272,0.016741,0.000000,0.000000,0.000768,0.7352,0.0000,0.0000,0.241186,-0.241186,0.001191,0.002119,-0.001994,1.1006,-1.2093,-0.0487,0.256175,-0.259243,0.000000,0.595185,-0.592117,0.549165,-0.590583,0.598253,-0.561437
1.6439,0.016751,0.000000,0.000000,0.000787,0.7531,0.0000,0.0000,0.235496,-0.235496,0.001077,0.002088,-0.001955,1.0517,-1.2513,-0.1068,0.250039,-0.256175,0.000000,0.596719,-0.592117,0.549165,-0.590583,0.598253,-0.564505
1.6607,0.016751,0.000000,0.000000,0.000807,0.7707,0.0000,0.0000,0.229154,-0.229154,0.001077,0.002088,-0.001955,1.0517,-1.2513,-0.1068,0.250039,-0.256175,0.000000,0.596719,-0.592117,0.549165,-0.590583,0.598253,-0.564505
1.6774,0.016743,0.000000,0.000000,0.000826,0.7883,0.0000,0.0000,0.222182,-0.222182,0.001049,0.002053,-0.001945,1.0071,-1.2647,-0.1537,0.246971,-0.254641,0.000000,0.596719,-0.592117,0.549165,-0.590583,0.598253,-0.566039
1.6942,0.016757,0.000000,0.000000,0.000845,0.8057,0.0000,0.0000,0.214588,-0.214588,0.000929,0.002096,-0.001909,1.0625,-1.3109,-0.0950,0.245437,-0.251573,0.000000,0.599786,-0.592117,0.549165,-0.590583,0.598253,-0.567573
1.7111,0.016897,0.000000,0.000000,0.000864,0.8230,0.0000,0.0000,0.206328,-0.206328,0.000860,0.002092,-0.001887,1.0572,-1.3387,-0.1006,0.242369,-0.245437,0.000000,0.601320,-0.592117,0.549165,-0.590583,0.598253,-0.569107
1.7278,0.016746,0.000000,0.000000,0.000883,0.8401,0.0000,0.0000,0.197569,-0.197569,0.000731,0.002078,-0.001838,1.0986,-1.3309,0.0075,0.234699,-0.233165,0.000000,0.604388,-0.592117,0.550699,-0.590583,0.598253,-0.570641
1.7445,0.016745,0.000000,0.000000,0.000902,0.8570,0.0000,0.0000,0.188264,-0.188264,0.000731,0.002078,-0.001838,1.0986,-1.3309,0.0075,0.234699,-0.233165,0.000000,0.604388,-0.592117,0.550699,-0.590583,0.598253,-0.570641
1.7613,0.016760,0.000000,0.000000,0.000921,0.8738,0.0000,0.0000,0.178429,-0.178429,0.000678,0.001935,-0.001802,1.0249,-1.2450,0.0503,0.222427,-0.223961,0.000000,0.604388,-0.592117,0.553767,-0.590583,0.598253,-0.572175
1.7781,0.016752,0.000000,0.000000,0.000939,0.8904,0.0000,0.0000,0.168104,-0.168104,0.000643,0.001789,-0.001764,1.0030,-1.0976,0.2069,0.213223,-0.213223,0.000000,0.604388,-0.592117,0.558369,-0.590583,0.598253,-0.572175
1.7948,0.016749,0.000000,0.000000,0.000958,0.9068,0.0000,0.0000,0.157316,-0.157316,0.000607,0.001643,-0.001727,0.9755,-0.9573,0.3518,0.202485,-0.204019,0.000000,0.604388,-0.592117,0.562971,-0.590583,0.598253,-0.572175
1.8116,0.016750,0.000000,0.000000,0.000976,0.9231,0.0000,0.0000,0.146091,-0.146091,0.000516,0.001482,-0.001666,0.9880,-0.7800,0.6060,0.191748,-0.197884,0.000000,0.605922,-0.592117,0.569107,-0.590583,0.598253,-0.572175
1.8291,0.017576,0.000000,0.000000,0.000995,0.9400,0.0000,0.0000,0.133879,-0.133879,0.000516,0.001482,-0.001666,0.9880,-0.7800,0.6060,0.177942,-0.190214,0.000000,0.605922,-0.592117,0.573709,-0.592117,0.598253,-0.572175
1.8459,0.016745,0.000000,0.000000,0.001014,0.9559,0.0000,0.0000,0.121864,-0.121864,0.000472,0.001392,-0.001620,0.9663,-0.5931,0.6878,0.177942,-0.190214,0.000000,0.605922,-0.592117,0.573709,-0.592117,0.598253,-0.572175
1.8626,0.016754,0.000000,0.000000,0.001032,0.9716,0.0000,0.0000,0.109505,-0.109505,0.000396,0.001169,-0.001573,0.9670,-0.4735,1.0033,0.162602,-0.176408,0.000000,0.607456,-0.592117,0.579845,-0.590583,0.598253,-0.572175
1.8794,0.016741,0.000000,0.000000,0.001050,0.9871,0.0000,0.0000,0.096853,-0.096853,0.000364,0.001030,-0.001539,0.9358,-0.3330,1.1330,0.147262,-0.161068,0.000000,0.607456,-0.592117,0.584447,-0.590583,0.598253,-0.572175
1.8961,0.016764,0.000000,0.000000,0.001068,1.0025,0.0000,0.0000,0.083915,-0.083915,0.000287,0.000919,-0.001529,0.9566,-0.2119,1.1742,0.136524,-0.147262,0.000000,0.607456,-0.592117,0.587515,-0.590583,0.596719,-0.572175
1.9129,0.016745,0.000000,0.000000,0.001085,1.0177,0.0000,0.0000,0.070760,-0.070760,0.000310,0.000893,-0.001480,0.9054,-0.1056,1.2789,0.125786,-0.134990,0.000000,0.607456,-0.592117,0.590583,-0.592117,0.598253,-0.572175
1.9297,0.016812,0.000000,0.000000,0.001103,1.0327,0.0000,0.0000,0.057354,-0.057354,0.000281,0.000787,-0.001460,0.8897,-0.0154,1.3768,0.110447,-0.118117,0.000000,0.607456,-0.592117,0.593651,-0.592117,0.598253,-0.572175
1.9465,0.016755,0.000000,0.000000,0.001120,1.0475,0.0000,0.0000,0.043835,-0.043835,0.000281,0.000787,-0.001460,0.8897,-0.0154,1.3768,0.110447,-0.118117,0.000000,0.607456,-0.592117,0.593651,-0.592117,0.598253,-0.572175
1.9632,0.016750,0.000000,0.000000,0.001138,1.0621,0.0000,0.0000,0.030199,-0.030199,0.000284,0.000798,-0.001462,0.8913,-0.0249,1.3666,0.093573,-0.101243,0.000000,0.607456,-0.592117,0.593651,-0.592117,0.598253,-0.572175
1.9800,0.016751,0.000000,0.000000,0.001155,1.0765,0.0000,0.0000,0.016479,-0.016479,0.000325,0.000836,-0.001437,0.9406,-0.0077,1.2597,0.076699,-0.082835,0.000000,0.607456,-0.593651,0.593651,-0.593651,0.598253,-0.572175
1.9967,0.016747,0.000000,0.000000,0.001172,1.0907,0.0000,0.0000,0.002716,-0.002716,0.000320,0.000832,-0.001440,0.9355,-0.0095,1.2709,0.059825,-0.065961,0.000000,0.607456,-0.593651,0.593651,-0.593651,0.598253,-0.572175
2.0134,0.016747,0.000000,0.000000,0.001189,1.1047,0.0000,0.0000,-0.011054,0.011054,0.000308,0.000888,-0.001427,0.9462,0.0421,1.2161,0.047553,-0.049087,0.000000,0.607456,-0.593651,0.593651,-0.595185,0.598253,-0.572175
2.0302,0.016758,0.000000,0.000000,0.001206,1.1184,0.0000,0.0000,-0.024803,0.024803,0.000308,0.000888,-0.001427,0.9462,0.0421,1.2161,0.047553,-0.049087,0.000000,0.607456,-0.593651,0.593651,-0.595185,0.598253,-0.572175
2.0469,0.016743,0.000000,0.000000,0.001223,1.1320,0.0000,0.0000,-0.038471,0.038471,0.000363,0.000865,-0.001416,0.9842,0.0013,1.1675,0.030680,-0.030680,0.000000,0.607456,-0.595185,0.593651,-0.595185,0.598253,-0.572175
2.0637,0.016735,0.000000,0.000000,0.001239,1.1454,0.0000,0.0000,-0.052026,0.052026,0.000385,0.000962,-0.001381,1.0397,0.0728,1.0108,0.013806,-0.009204,0.000000,0.607456,-0.596719,0.593651,-0.598253,0.598253,-0.572175
2.0808,0.017132,0.000000,0.000000,0.001256,1.1588,0.0000,0.0000,-0.065753,0.065753,0.000477,0.000975,-0.001348,1.1220,0.0458,0.8646,-0.004602,0.009204,0.000000,0.607456,-0.599786,0.593651,-0.599786,0.598253,-0.572175
2.0977,0.016839,0.000000,0.000000,0.001273,1.1718,0.0000,0.0000,-0.079061,0.079061,0.000549,0.001052,-0.001303,1.2112,0.0799,0.6634,-0.026078,0.019942,0.000000,0.607456,-0.602854,0.593651,-0.602854,0.598253,-0.572175
2.1144,0.016770,0.000000,0.000000,0.001289,1.1845,0.0000,0.0000,-0.092094,0.092094,0.000651,0.001012,-0.001208,1.2767,0.0017,0.2506,-0.042951,0.041417,0.000000,0.607456,-0.608990,0.593651,-0.605922,0.598253,-0.575243
2.1312,0.016775,0.000000,0.000000,0.001305,1.1970,0.0000,0.0000,-0.104875,0.104875,0.000651,0.001012,-0.001208,1.2767,0.0017,0.2506,-0.059825,0.064427,0.000000,0.607456,-0.610524,0.593651,-0.607456,0.596719,-0.575243
2.1480,0.016779,0.000000,0.000000,0.001321,1.2093,0.0000,0.0000,-0.117368,0.117368,0.000627,0.001039,-0.001206,1.3569,0.0594,0.1315,-0.059825,0.064427,0.000000,0.607456,-0.610524,0.593651,-0.607456,0.596719,-0.575243
2.1647,0.016749,0.000000,0.000000,0.001336,1.2213,0.0000,0.0000,-0.129513,0.129513,0.000767,0.001052,-0.001183,1.3085,0.0496,0.0348,-0.082835,0.088971,0.000000,0.605922,-0.612058,0.593651,-0.608990,0.598253,-0.575243
2.1815,0.016774,0.000000,0.000000,0.001352,1.2331,0.0000,0.0000,-0.141318,0.141318,0.000752,0.001051,-0.001185,1.3135,0.0507,0.0449,-0.082835,0.088971,0.000000,0.605922,-0.612058,0.593651,-0.608990,0.598253,-0.575243
2.1983,0.016770,0.000000,0.000000,0.001368,1.2447,0.0000,0.0000,-0.152727,0.152727,0.000752,0.001051,-0.001185,1.3135,0.0507,0.0449,-0.082835,0.088971,0.000000,0.605922,-0.612058,0.593651,-0.608990,0.598253,-0.575243
2.2151,0.016793,0.000000,0.000000,0.001383,1.2561,0.0000,0.0000,-0.163727,0.163727,0.000752,0.001051,-0.001185,1.3135,0.0507,0.0449,-0.082835,0.088971,0.000000,0.605922,-0.612058,0.593651,-0.608990,0.598253,-0.575243
2.2319,0.016807,0.000000,0.000000,0.001398,1.2672,0.0000,0.0000,-0.174281,0.174281,0.000752,0.001051,-0.001185,1.3135,0.0507,0.0449,-0.082835,0.088971,0.000000,0.605922,-0.612058,0.593651,-0.608990,0.598253,-0.575243
2.2486,0.016781,0.000000,0.000000,0.001413,1.2781,0.0000,0.0000,-0.184333,0.184333,0.000752,0.001051,-0.001185,1.3135,0.0507,0.0449,-0.136524,0.133456,0.000000,0.605922,-0.615126,0.593651,-0.612058,0.598253,-0.575243
2.2654,0.016755,0.000000,0.000000,0.001428,1.2887,0.0000,0.0000,-0.193858,0.193858,0.000836,0.001130,-0.001138,1.4094,0.0809,-0.1736,-0.136524,0.133456,0.000000,0.605922,-0.615126,0.593651,-0.612058,0.598253,-0.575243
2.2822,0.016748,0.000000,0.000000,0.001442,1.2991,0.0000,0.0000,-0.202843,0.202843,0.000676,0.001162,-0.001154,1.4502,0.1319,-0.0954,-0.138058,0.133456,0.000000,0.607456,-0.613592,0.593651,-0.612058,0.596719,-0.575243
2.2989,0.016747,0.000000,0.000000,0.001457,1.3092,0.0000,0.0000,-0.211266,0.211266,0.000734,0.001230,-0.001129,1.4172,0.1428,-0.1037,-0.131922,0.130388,0.000000,0.607456,-0.613592,0.593651,-0.613592,0.598253,-0.575243
2.3157,0.016753,0.000000,0.000000,0.001471,1.3191,0.0000,0.0000,-0.219108,0.219108,0.000727,0.001191,-0.001132,1.4976,0.1404,-0.2114,-0.177942,0.176408,0.000000,0.607456,-0.615126,0.593651,-0.613592,0.596719,-0.575243
2.3324,0.016746,0.000000,0.000000,0.001486,1.3288,0.0000,0.0000,-0.226339,0.226339,0.000728,0.001195,-0.001132,1.4892,0.1407,-0.2002,-0.177942,0.176408,0.000000,0.607456,-0.615126,0.593651,-0.613592,0.596719,-0.575243
2.3492,0.016757,0.000000,0.000000,0.001500,1.3382,0.0000,0.0000,-0.232948,0.232948,0.000728,0.001195,-0.001132,1.4892,0.1407,-0.2002,-0.177942,0.176408,0.000000,0.607456,-0.615126,0.593651,-0.613592,0.596719,-0.575243
2.3659,0.016758,0.000000,0.000000,0.001513,1.3473,0.0000,0.0000,-0.238913,0.238913,0.000783,0.001210,-0.001120,1.4511,0.1065,-0.1477,-0.225495,0.223961,0.000000,0.607456,-0.615126,0.593651,-0.613592,0.598253,-0.575243
2.3827,0.016743,0.000000,0.000000,0.001527,1.3562,0.0000,0.0000,-0.244210,0.244210,0.000693,0.001286,-0.001097,1.5546,0.0797,-0.0447,-0.222427,0.222427,0.000000,0.610524,-0.615126,0.593651,-0.613592,0.598253,-0.575243
2.3994,0.016720,0.000000,0.000000,0.001541,1.3648,0.0000,0.0000,-0.248827,0.248827,0.000647,0.001263,-0.001111,1.5828,0.1166,-0.1091,-0.222427,0.223961,0.000000,0.610524,-0.615126,0.593651,-0.613592,0.596719,-0.575243
2.4161,0.016756,0.000000,0.000000,0.001554,1.3732,0.0000,0.0000,-0.252764,0.252764,0.000665,0.001320,-0.001086,1.5906,0.0636,0.0055,-0.242369,0.242369,0.000000,0.612058,-0.615126,0.593651,-0.613592,0.598253,-0.575243
2.4330,0.016872,0.000000,0.000000,0.001567,1.3814,0.0000,0.0000,-0.256022,0.256022,0.000579,0.001392,-0.001065,1.6891,0.0391,0.1022,-0.253107,0.251573,0.000000,0.615126,-0.615126,0.593651,-0.613592,0.598253,-0.575243
2.4498,0.016751,0.000000,0.000000,0.001580,1.3893,0.0000,0.0000,-0.258544,0.258544,0.000579,0.001392,-0.001065,1.6891,0.0391,0.1022,-0.253107,0.251573,0.000000,0.615126,-0.615126,0.593651,-0.613592,0.598253,-0.575243
2.4665,0.016761,0.000000,0.000000,0.001593,1.3969,0.0000,0.0000,-0.260352,0.260352,0.000503,0.001463,-0.001044,1.7780,0.0119,0.2008,-0.251573,0.250039,0.000000,0.618194,-0.615126,0.593651,-0.613592,0.598253,-0.575243
2.4833,0.016748,0.000000,0.000000,0.001606,1.4042,0.0000,0.0000,-0.261438,0.261438,0.000414,0.001479,-0.001046,1.8573,0.0339,0.1914,-0.251573,0.251573,0.000000,0.619728,-0.615126,0.593651,-0.613592,0.596719,-0.575243
2.5003,0.017002,0.000000,0.000000,0.001618,1.4114,0.0000,0.0000,-0.261799,0.261799,0.000299,0.001550,-0.001010,1.8211,-0.0140,0.3561,-0.259243,0.259243,0.000000,0.622796,-0.613592,0.593651,-0.613592,0.598253,-0.576777
2.5170,0.016735,0.000000,0.000000,0.001630,1.4182,0.0000,0.0000,-0.261426,0.261426,0.000240,0.001565,-0.000965,1.9122,-0.0916,0.3389,-0.263845,0.260777,0.000000,0.625864,-0.615126,0.593651,-0.613592,0.598253,-0.578311
2.5338,0.016758,0.000000,0.000000,0.001643,1.4248,0.0000,0.0000,-0.260328,0.260328,0.000179,0.001494,-0.000969,1.9313,0.0016,0.3421,-0.262311,0.259243,0.000000,0.625864,-0.615126,0.595185,-0.613592,0.596719,-0.578311
2.5505,0.016744,0.000000,0.000000,0.001655,1.4311,0.0000,0.0000,-0.258511,0.258511,0.000179,0.001494,-0.000969,1.9313,0.0016,0.3421,-0.262311,0.259243,0.000000,0.625864,-0.615126,0.595185,-0.613592,0.596719,-0.578311
2.5673,0.016751,0.000000,0.000000,0.001666,1.4371,0.0000,0.0000,-0.255978,0.255978,0.000187,0.001424,-0.000930,1.8303,-0.0083,0.3963,-0.262311,0.260777,0.000000,0.625864,-0.615126,0.596719,-0.613592,0.598253,-0.579845
2.5840,0.016744,0.000000,0.000000,0.001678,1.4428,0.0000,0.0000,-0.252737,0.252737,0.000184,0.001509,-0.000936,1.9398,-0.0044,0.4991,-0.262311,0.259243,0.000000,0.627398,-0.615126,0.596719,-0.613592,0.598253,-0.578311
2.6008,0.016756,0.000000,0.000000,0.001689,1.4483,0.0000,0.0000,-0.248794,0.248794,0.000183,0.001469,-0.000898,2.0056,-0.0036,0.5429,-0.260777,0.259243,0.000000,0.628932,-0.616660,0.598253,-0.613592,0.598253,-0.578311
2.6175,0.016742,0.000000,0.000000,0.001700,1.4535,0.0000,0.0000,-0.244166,0.244166,0.000168,0.001387,-0.000852,2.0655,0.0485,0.6480,-0.259243,0.256175,0.000000,0.630466,-0.618194,0.601320,-0.613592,0.598253,-0.578311
2.6343,0.016768,0.000000,0.000000,0.001711,1.4585,0.0000,0.0000,-0.238854,0.238854,0.000046,0.001311,-0.000831,2.1262,0.1643,0.7487,-0.257709,0.254641,0.000000,0.632000,-0.618194,0.604388,-0.613592,0.596719,-0.578311
2.6510,0.016741,0.000000,0.000000,0.001722,1.4631,0.0000,0.0000,-0.232889,0.232889,0.000046,0.001311,-0.000831,2.1262,0.1643,0.7487,-0.257709,0.254641,0.000000,0.632000,-0.618194,0.604388,-0.613592,0.596719,-0.578311
2.6678,0.016755,0.000000,0.000000,0.001733,1.4675,0.0000,0.0000,-0.226275,0.226275,0.000112,0.001302,-0.000785,2.1580,0.1193,0.8464,-0.256175,0.253107,0.000000,0.633534,-0.619728,0.605922,-0.613592,0.598253,-0.578311
2.6845,0.016754,0.000000,0.000000,0.001743,1.4716,0.0000,0.0000,-0.219034,0.219034,0.000091,0.001217,-0.000740,2.2212,0.1758,0.9464,-0.256175,0.253107,0.000000,0.635068,-0.621262,0.608990,-0.613592,0.598253,-0.578311
2.7013,0.016805,0.000000,0.000000,0.001753,1.4755,0.0000,0.0000,-0.211161,0.211161,0.000079,0.001139,-0.000731,2.2813,0.2192,0.8827,-0.254641,0.250039,0.000000,0.635068,-0.622796,0.610524,-0.613592,0.596719,-0.578311
2.7181,0.016749,0.000000,0.000000,0.001763,1.4790,0.0000,0.0000,-0.202730,0.202730,0.000067,0.001093,-0.000719,2.2645,0.2654,0.9448,-0.246971,0.242369,0.000000,0.635068,-0.622796,0.612058,-0.613592,0.596719,-0.578311
2.7348,0.016772,0.000000,0.000000,0.001773,1.4823,0.0000,0.0000,-0.193724,0.193724,0.000165,0.001042,-0.000683,2.2555,0.2420,0.9918,-0.231631,0.231631,0.000000,0.635068,-0.624330,0.613592,-0.613592,0.598253,-0.578311
2.7516,0.016744,0.000000,0.000000,0.001783,1.4853,0.0000,0.0000,-0.184197,0.184197,0.000165,0.001042,-0.000683,2.2555,0.2420,0.9918,-0.231631,0.231631,0.000000,0.635068,-0.624330,0.613592,-0.613592,0.598253,-0.578311
2.7683,0.016756,0.000000,0.000000,0.001792,1.4880,0.0000,0.0000,-0.174153,0.174153,0.000140,0.001072,-0.000639,2.3440,0.2961,0.9885,-0.216291,0.222427,0.000000,0.636602,-0.625864,0.615126,-0.615126,0.598253,-0.578311
2.7851,0.016747,0.000000,0.000000,0.001802,1.4905,0.0000,0.0000,-0.163633,0.163633,0.000116,0.001071,-0.000619,2.3348,0.3918,0.9909,-0.202485,0.213223,0.000000,0.636602,-0.625864,0.616660,-0.616660,0.598253,-0.578311
2.8019,0.016768,0.000000,0.000000,0.001811,1.4927,0.0000,0.0000,-0.152646,0.152646,0.000129,0.001061,-0.000597,2.5004,0.3309,0.8814,-0.191748,0.202485,0.000000,0.638136,-0.628932,0.616660,-0.616660,0.596719,-0.578311
2.8186,0.016747,0.000000,0.000000,0.001819,1.4945,0.0000,0.0000,-0.141249,0.141249,0.000195,0.001132,-0.000600,2.4549,0.2526,0.8905,-0.181010,0.190214,0.000000,0.638136,-0.628932,0.615126,-0.616660,0.598253,-0.578311
2.8354,0.016771,0.000000,0.000000,0.001828,1.4962,0.0000,0.0000,-0.129445,0.129445,0.000133,0.001109,-0.000611,2.4983,0.2948,0.8362,-0.168738,0.173340,0.000000,0.638136,-0.628932,0.615126,-0.616660,0.596719,-0.578311
2.8521,0.016744,0.000000,0.000000,0.001837,1.4975,0.0000,0.0000,-0.117301,0.117301,0.000133,0.001109,-0.000611,2.4983,0.2948,0.8362,-0.168738,0.173340,0.000000,0.638136,-0.628932,0.615126,-0.616660,0.596719,-0.578311
2.8689,0.016752,0.000000,0.000000,0.001845,1.4985,0.0000,0.0000,-0.104827,0.104827,0.000152,0.001166,-0.000587,2.5039,0.2419,0.9501,-0.154932,0.158000,0.000000,0.639670,-0.628932,0.615126,-0.616660,0.598253,-0.578311
2.8856,0.016747,0.000000,0.000000,0.001853,1.4993,0.0000,0.0000,-0.092066,0.092066,0.000150,0.001160,-0.000590,2.5034,0.2474,0.9382,-0.142660,0.145728,0.000000,0.639670,-0.628932,0.615126,-0.616660,0.598253,-0.578311
2.9024,0.016762,0.000000,0.000000,0.001861,1.4998,0.0000,0.0000,-0.079039,0.079039,0.000052,0.001185,-0.000590,2.5910,0.2663,0.9412,-0.133456,0.131922,0.000000,0.641204,-0.628932,0.615126,-0.616660,0.596719,-0.578311
2.9191,0.016741,0.000000,0.000000,0.001868,1.5000,0.0000,0.0000,-0.065809,0.065809,0.000117,0.001198,-0.000578,2.5431,0.2304,0.9942,-0.115049,0.113515,0.000000,0.641204,-0.628932,0.615126,-0.616660,0.598253,-0.578311
2.9359,0.016775,0.000000,0.000000,0.001876,1.4999,0.0000,0.0000,-0.052371,0.052371,0.000043,0.001127,-0.000578,2.5763,0.3187,0.9911,-0.096641,0.099709,0.000000,0.641204,-0.628932,0.616660,-0.616660,0.596719,-0.578311
2.9526,0.016740,0.000000,0.000000,0.001883,1.4996,0.0000,0.0000,-0.038815,0.038815,0.000043,0.001127,-0.000578,2.5763,0.3187,0.9911,-0.096641,0.099709,0.000000,0.641204,-0.628932,0.616660,-0.616660,0.596719,-0.578311
2.9694,0.016758,0.000000,0.000000,0.001890,1.4989,0.0000,0.0000,-0.025136,0.025136,0.000063,0.001189,-0.000591,2.5834,0.2589,0.9357,-0.081301,0.081301,0.000000,0.641204,-0.628932,0.615126,-0.616660,0.596719,-0.578311
2.9861,0.016737,0.000000,0.000000,0.001897,1.4980,0.0000,0.0000,-0.011406,0.011406,0.000116,0.001198,-0.000578,2.5439,0.2312,0.9947,-0.065961,0.065961,0.000000,0.641204,-0.628932,0.615126,-0.616660,0.598253,-0.578311
3.0030,0.016831,0.000000,0.000000,0.001903,1.4968,0.0000,0.0000,0.002433,-0.002433,0.000056,0.001181,-0.000591,2.5868,0.2680,0.9353,-0.050621,0.052155,0.000000,0.641204,-0.628932,0.615126,-0.616660,0.596719,-0.578311
3.0197,0.016738,0.000000,0.000000,0.001910,1.4953,0.0000,0.0000,0.016189,-0.016189,0.000104,0.001144,-0.000565,2.5330,0.2809,1.0505,-0.033748,0.035282,0.000000,0.641204,-0.628932,0.616660,-0.616660,0.598253,-0.578311
3.0365,0.016762,0.000000,0.000000,0.001916,1.4936,0.0000,0.0000,0.029921,-0.029921,0.000112,0.001202,-0.000581,2.5492,0.2289,0.9828,-0.013806,0.016874,0.000000,0.641204,-0.628932,0.615126,-0.616660,0.598253,-0.578311
3.0532,0.016744,0.000000,0.000000,0.001922,1.4915,0.0000,0.0000,0.043554,-0.043554,0.000112,0.001202,-0.000581,2.5492,0.2289,0.9828,-0.013806,0.016874,0.000000,0.641204,-0.628932,0.615126,-0.616660,0.598253,-0.578311
3.0700,0.016751,0.000000,0.000000,0.001927,1.4892,0.0000,0.0000,0.057072,-0.057072,0.000111,0.001196,-0.000579,2.5475,0.2343,0.9898,0.004602,-0.001534,0.000000,0.641204,-0.628932,0.615126,-0.616660,0.598253,-0.578311
3.0867,0.016738,0.000000,0.000000,0.001933,1.4866,0.0000,0.0000,0.070423,-0.070423,0.000056,0.001182,-0.000591,2.5864,0.2677,0.9358,0.019942,-0.016874,0.000000,0.641204,-0.628932,0.615126,-0.616660,0.596719,-0.578311
3.1035,0.016764,0.000000,0.000000,0.001938,1.4837,0.0000,0.0000,0.083599,-0.083599,0.000117,0.001198,-0.000578,2.5436,0.2303,0.9947,0.033748,-0.032214,0.000000,0.641204,-0.628932,0.615126,-0.616660,0.598253,-0.578311
3.1202,0.016739,0.000000,0.000000,0.001943,1.4806,0.0000,0.0000,0.096524,-0.096524,0.000098,0.001142,-0.000566,2.5375,0.2848,1.0443,0.050621,-0.050621,0.000000,0.641204,-0.628932,0.616660,-0.616660,0.598253,-0.578311
3.1370,0.016769,0.000000,0.000000,0.001948,1.4772,0.0000,0.0000,0.109205,-0.109205,0.000098,0.001142,-0.000566,2.5375,0.2848,1.0443,0.069029,-0.069029,0.000000,0.641204,-0.628932,0.615126,-0.616660,0.596719,-0.578311
3.1537,0.016741,0.000000,0.000000,0.001953,1.4735,0.0000,0.0000,0.121562,-0.121562,0.000058,0.001187,-0.000592,2.5874,0.2625,0.9302,0.069029,-0.069029,0.000000,0.641204,-0.628932,0.615126,-0.616660,0.596719,-0.578311
3.1705,0.016746,0.000000,0.000000,0.001957,1.4695,0.0000,0.0000,0.133586,-0.133586,0.000117,0.001198,-0.000578,2.5435,0.2308,0.9953,0.087437,-0.085903,0.000000,0.641204,-0.628932,0.615126,-0.616660,0.598253,-0.578311
3.1872,0.016740,0.000000,0.000000,0.001961,1.4652,0.0000,0.0000,0.145237,-0.145237,0.000098,0.001142,-0.000566,2.5375,0.2848,1.0442,0.101243,-0.098175,0.000000,0.641204,-0.628932,0.616660,-0.616660,0.598253,-0.578311
3.2040,0.016761,0.000000,0.000000,0.001965,1.4607,0.0000,0.0000,0.156500,-0.156500,0.000113,0.001203,-0.000580,2.5487,0.2285,0.9834,0.113515,-0.108913,0.000000,0.641204,-0.628932,0.615126,-0.616660,0.598253,-0.578311
3.2207,0.016738,0.000000,0.000000,0.001969,1.4559,0.0000,0.0000,0.167314,-0.167314,0.000056,0.001181,-0.000591,2.5863,0.2683,0.9365,0.124252,-0.121184,0.000000,0.641204,-0.628932,0.615126,-0.616660,0.596719,-0.578311
3.2375,0.016773,0.000000,0.000000,0.001973,1.4508,0.0000,0.0000,0.177688,-0.177688,0.000056,0.001181,-0.000591,2.5863,0.2683,0.9365,0.124252,-0.121184,0.000000,0.641204,-0.628932,0.615126,-0.616660,0.596719,-0.578311
3.2543,0.016823,0.000000,0.000000,0.001976,1.4454,0.0000,0.0000,0.187596,-0.187596,0.000117,0.001199,-0.000578,2.5436,0.2302,0.9947,0.147262,-0.141126,0.000000,0.641204,-0.628932,0.615126,-0.616660,0.598253,-0.578311
3.2725,0.018199,0.000000,0.000000,0.001980,1.4393,0.0000,0.0000,0.197725,-0.197725,0.000117,0.001199,-0.000578,2.5436,0.2302,0.9947,0.147262,-0.141126,0.000000,0.641204,-0.628932,0.615126,-0.616660,0.598253,-0.578311
3.2892,0.016762,0.000000,0.000000,0.001982,1.4334,0.0000,0.0000,0.206482,-0.206482,0.000117,0.001199,-0.000578,2.5436,0.2302,0.9947,0.147262,-0.141126,0.000000,0.641204,-0.628932,0.615126,-0.616660,0.598253,-0.578311
3.3060,0.016779,0.000000,0.000000,0.001985,1.4272,0.0000,0.0000,0.214675,-0.214675,0.000056,0.001181,-0.000591,2.5868,0.2681,0.9353,0.171806,-0.173340,0.000000,0.641204,-0.628932,0.615126,-0.616660,0.596719,-0.578311
3.3228,0.016750,0.000000,0.000000,0.001988,1.4208,0.0000,0.0000,0.222260,-0.222260,0.000117,0.001198,-0.000578,2.5436,0.2302,0.9948,0.170272,-0.174874,0.000000,0.641204,-0.628932,0.615126,-0.616660,0.598253,-0.578311
3.3395,0.016746,0.000000,0.000000,0.001990,1.4141,0.0000,0.0000,0.229227,-0.229227,0.000111,0.001197,-0.000579,2.5481,0.2342,0.9886,0.165670,-0.174874,0.000000,0.641204,-0.628932,0.615126,-0.616660,0.598253,-0.578311
3.3563,0.016748,0.000000,0.000000,0.001992,1.4071,0.0000,0.0000,0.235561,-0.235561,0.000056,0.001182,-0.000591,2.5863,0.2677,0.9360,0.177942,-0.184078,0.000000,0.641204,-0.628932,0.615126,-0.616660,0.596719,-0.578311
3.3730,0.016760,0.000000,0.000000,0.001994,1.3998,0.0000,0.0000,0.241247,-0.241247,0.000117,0.001198,-0.000578,2.5436,0.2303,0.9947,0.200951,-0.200951,0.000000,0.641204,-0.628932,0.615126,-0.616660,0.598253,-0.578311
3.3898,0.016746,0.000000,0.000000,0.001995,1.3923,0.0000,0.0000,0.246260,-0.246260,0.000098,0.001142,-0.000566,2.5375,0.2848,1.0443,0.228563,-0.219359,0.000000,0.641204,-0.628932,0.616660,-0.616660,0.598253,-0.578311
3.4065,0.016766,0.000000,0.000000,0.001997,1.3846,0.0000,0.0000,0.250596,-0.250596,0.000098,0.001142,-0.000566,2.5375,0.2848,1.0443,0.228563,-0.219359,0.000000,0.641204,-0.628932,0.616660,-0.616660,0.598253,-0.578311
3.4233,0.016750,0.000000,0.000000,0.001998,1.3765,0.0000,0.0000,0.254234,-0.254234,0.000113,0.001203,-0.000580,2.5487,0.2285,0.9834,0.243903,-0.237767,0.000000,0.641204,-0.628932,0.615126,-0.616660,0.598253,-0.578311
3.4400,0.016748,0.000000,0.000000,0.001999,1.3682,0.0000,0.0000,0.257168,-0.257168,0.000111,0.001196,-0.000579,2.5476,0.2344,0.9898,0.242369,-0.243903,0.000000,0.641204,-0.628932,0.615126,-0.616660,0.598253,-0.578311
3.4568,0.016745,0.000000,0.000000,0.001999,1.3597,0.0000,0.0000,0.259390,-0.259390,0.000056,0.001182,-0.000591,2.5864,0.2677,0.9358,0.236233,-0.243903,0.000000,0.641204,-0.628932,0.615126,-0.616660,0.596719,-0.578311
3.4735,0.016747,0.000000,0.000000,0.002000,1.3509,0.0000,0.0000,0.260895,-0.260895,0.000117,0.001198,-0.000578,2.5436,0.2303,0.9947,0.243903,-0.246971,0.000000,0.641204,-0.628932,0.615126,-0.616660,0.598253,-0.578311
3.4903,0.016751,0.000000,0.000000,0.002000,1.3419,0.0000,0.0000,0.261677,-0.261677,0.000111,0.001197,-0.000579,2.5481,0.2342,0.9886,0.259243,-0.257709,0.000000,0.641204,-0.628932,0.615126,-0.616660,0.598253,-0.578311
3.5070,0.016751,0.000000,0.000000,0.002000,1.3326,0.0000,0.0000,0.261735,-0.261735,0.000111,0.001197,-0.000579,2.5481,0.2342,0.9886,0.259243,-0.257709,0.000000,0.641204,-0.628932,0.615126,-0.616660,0.598253,-0.578311
3.5238,0.016751,0.000000,0.000000,0.002000,1.3230,0.0000,0.0000,0.261069,-0.261069,0.000111,0.001197,-0.000579,2.5481,0.2342,0.9886,0.262311,-0.262311,0.000000,0.641204,-0.628932,0.615126,-0.616660,0.598253,-0.578311
3.5405,0.016746,0.000000,0.000000,0.001999,1.3132,0.0000,0.0000,0.259680,-0.259680,0.000111,0.001197,-0.000579,2.5481,0.2342,0.9886,0.257709,-0.260777,0.000000,0.641204,-0.628932,0.615126,-0.616660,0.598253,-0.578311
3.5573,0.016744,0.000000,0.000000,0.001999,1.3032,0.0000,0.0000,0.257573,-0.257573,0.000056,0.001182,-0.000591,2.5863,0.2677,0.9360,0.265379,-0.260777,0.000000,0.641204,-0.628932,0.615126,-0.616660,0.596719,-0.578311
3.5740,0.016742,0.000000,0.000000,0.001998,1.2929,0.0000,0.0000,0.254753,-0.254753,0.000062,0.001183,-0.000590,2.5824,0.2642,0.9414,0.263845,-0.260777,0.000000,0.641204,-0.628932,0.615126,-0.616660,0.596719,-0.578311
3.5910,0.016976,0.000000,0.000000,0.001997,1.2823,0.0000,0.0000,0.251175,-0.251175,0.000116,0.001198,-0.000578,2.5440,0.2307,0.9941,0.256175,-0.260777,0.000000,0.641204,-0.628932,0.615126,-0.616660,0.598253,-0.578311
3.6077,0.016755,0.000000,0.000000,0.001995,1.2715,0.0000,0.0000,0.246943,-0.246943,0.000116,0.001198,-0.000578,2.5440,0.2307,0.9941,0.256175,-0.260777,0.000000,0.641204,-0.628932,0.615126,-0.616660,0.598253,-0.578311
3.6245,0.016751,0.000000,0.000000,0.001994,1.2605,0.0000,0.0000,0.242028,-0.242028,0.000111,0.001197,-0.000579,2.5481,0.2342,0.9886,0.254641,-0.259243,0.000000,0.641204,-0.628932,0.615126,-0.616660,0.598253,-0.578311
3.6413,0.016752,0.000000,0.000000,0.001992,1.2492,0.0000,0.0000,0.236443,-0.236443,0.000111,0.001197,-0.000579,2.5481,0.2342,0.9886,0.254641,-0.259243,0.000000,0.641204,-0.628932,0.615126,-0.616660,0.598253,-0.578311
3.6580,0.016746,0.000000,0.000000,0.001990,1.2378,0.0000,0.0000,0.230205,-0.230205,0.000111,0.001197,-0.000579,2.5481,0.2342,0.9886,0.254641,-0.256175,0.000000,0.641204,-0.628932,0.615126,-0.616660,0.598253,-0.578311
3.6747,0.016716,0.000000,0.000000,0.001988,1.2261,0.0000,0.0000,0.223344,-0.223344,0.000056,0.001182,-0.000591,2.5863,0.2677,0.9360,0.248505,-0.251573,0.000000,0.641204,-0.628932,0.615126,-0.616660,0.596719,-0.578311
3.6919,0.017201,0.000000,0.000000,0.001985,1.2138,0.0000,0.0000,0.215640,-0.215640,0.000105,0.001144,-0.000601,2.5335,0.2787,0.8865,0.242369,-0.243903,0.000000,0.639670,-0.628932,0.615126,-0.616660,0.596719,-0.578311
3.7087,0.016755,0.000000,0.000000,0.001983,1.2016,0.0000,0.0000,0.207531,-0.207531,0.000105,0.001144,-0.000601,2.5335,0.2787,0.8865,0.242369,-0.243903,0.000000,0.639670,-0.628932,0.615126,-0.616660,0.596719,-0.578311
3.7254,0.016746,0.000000,0.000000,0.001980,1.1892,0.0000,0.0000,0.198852,-0.198852,0.000112,0.001202,-0.000577,2.5491,0.2291,0.9999,0.233165,-0.233165,0.000000,0.641204,-0.628932,0.615126,-0.616660,0.598253,-0.578311
3.7422,0.016760,0.000000,0.000000,0.001977,1.1766,0.0000,0.0000,0.189614,-0.189614,0.000111,0.001196,-0.000579,2.5475,0.2343,0.9880,0.233165,-0.233165,0.000000,0.641204,-0.628932,0.615126,-0.616660,0.598253,-0.578311
3.7589,0.016743,0.000000,0.000000,0.001974,1.1638,0.0000,0.0000,0.179861,-0.179861,0.000111,0.001196,-0.000579,2.5475,0.2343,0.9880,0.211689,-0.216291,0.000000,0.641204,-0.628932,0.615126,-0.616660,0.598253,-0.578311
3.7757,0.016743,0.000000,0.000000,0.001970,1.1507,0.0000,0.0000,0.169611,-0.169611,0.000111,0.001196,-0.000579,2.5475,0.2343,0.9880,0.200951,-0.207087,0.000000,0.641204,-0.628932,0.615126,-0.616660,0.598253,-0.578311
3.7925,0.016835,0.000000,0.000000,0.001966,1.1374,0.0000,0.0000,0.158831,-0.158831,0.000056,0.001182,-0.000591,2.5864,0.2677,0.9360,0.187146,-0.196350,0.000000,0.641204,-0.628932,0.615126,-0.616660,0.596719,-0.578311
3.8092,0.016749,0.000000,0.000000,0.001962,1.1239,0.0000,0.0000,0.147665,-0.147665,0.000056,0.001182,-0.000591,2.5864,0.2677,0.9360,0.187146,-0.196350,0.000000,0.641204,-0.628932,0.615126,-0.616660,0.596719,-0.578311
3.8260,0.016752,0.000000,0.000000,0.001958,1.1102,0.0000,0.0000,0.136089,-0.136089,0.000117,0.001198,-0.000578,2.5436,0.2303,0.9947,0.173340,-0.188680,0.000000,0.641204,-0.628932,0.615126,-0.616660,0.598253,-0.578311
3.8427,0.016722,0.000000,0.000000,0.001954,1.0963,0.0000,0.0000,0.124157,-0.124157,0.000111,0.001197,-0.000579,2.5481,0.2342,0.9886,0.161068,-0.176408,0.000000,0.641204,-0.628932,0.615126,-0.616660,0.598253,-0.578311
3.8595,0.016751,0.000000,0.000000,0.001949,1.0822,0.0000,0.0000,0.111861,-0.111861,0.000056,0.001182,-0.000591,2.5863,0.2677,0.9360,0.153398,-0.164136,0.000000,0.641204,-0.628932,0.615126,-0.616660,0.596719,-0.578311
3.8762,0.016743,0.000000,0.000000,0.001944,1.0679,0.0000,0.0000,0.099262,-0.099262,0.000117,0.001198,-0.000578,2.5436,0.2303,0.9947,0.141126,-0.150330,0.000000,0.641204,-0.628932,0.615126,-0.616660,0.598253,-0.578311
3.8934,0.017152,0.000000,0.000000,0.001939,1.0531,0.0000,0.0000,0.086071,-0.086071,0.000111,0.001197,-0.000579,2.5481,0.2342,0.9886,0.125786,-0.133456,0.000000,0.641204,-0.628932,0.615126,-0.616660,0.598253,-0.578311
3.9101,0.016744,0.000000,0.000000,0.001934,1.0383,0.0000,0.0000,0.072952,-0.072952,0.000111,0.001197,-0.000579,2.5481,0.2342,0.9886,0.125786,-0.133456,0.000000,0.641204,-0.628932,0.615126,-0.616660,0.598253,-0.578311
3.9269,0.016743,0.000000,0.000000,0.001928,1.0234,0.0000,0.0000,0.059632,-0.059632,0.000111,0.001197,-0.000579,2.5481,0.2342,0.9886,0.110447,-0.118117,0.000000,0.641204,-0.628932,0.615126,-0.616660,0.598253,-0.578311
3.9436,0.016739,0.000000,0.000000,0.001923,1.0084,0.0000,0.0000,0.046150,-0.046150,0.000056,0.001182,-0.000591,2.5863,0.2677,0.9360,0.093573,-0.102777,0.000000,0.641204,-0.628932,0.615126,-0.616660,0.596719,-0.578311
3.9603,0.016742,0.000000,0.000000,0.001917,0.9931,0.0000,0.0000,0.032538,-0.032538,0.000062,0.001183,-0.000590,2.5824,0.2642,0.9414,0.078233,-0.087437,0.000000,0.641204,-0.628932,0.615126,-0.616660,0.596719,-0.578311
3.9771,0.016741,0.000000,0.000000,0.001911,0.9776,0.0000,0.0000,0.018838,-0.018838,0.000116,0.001198,-0.000578,2.5440,0.2307,0.9941,0.062893,-0.067495,0.000000,0.641204,-0.628932,0.615126,-0.616660,0.598253,-0.578311
3.9938,0.016746,0.000000,0.000000,0.001904,0.9620,0.0000,0.0000,0.005081,-0.005081,0.000116,0.001198,-0.000578,2.5440,0.2307,0.9941,0.044485,-0.047553,0.000000,0.641204,-0.628932,0.615126,-0.616660,0.596719,-0.578311
4.0106,0.016740,0.000000,0.000000,0.001898,0.9461,0.0000,0.0000,-0.008686,0.008686,0.000056,0.001181,-0.000591,2.5868,0.2681,0.9354,0.044485,-0.047553,0.000000,0.641204,-0.628932,0.615126,-0.616660,0.596719,-0.578311
4.0273,0.016744,0.000000,0.000000,0.001891,0.9301,0.0000,0.0000,-0.022431,0.022431,0.000117,0.001198,-0.000578,2.5436,0.2303,0.9948,0.027612,-0.027612,0.000000,0.641204,-0.628932,0.615126,-0.616660,0.598253,-0.578311
4.0440,0.016741,0.000000,0.000000,0.001884,0.9139,0.0000,0.0000,-0.036112,0.036112,0.000056,0.001181,-0.000591,2.5868,0.2681,0.9353,0.010738,-0.010738,0.000000,0.641204,-0.628932,0.615126,-0.616660,0.596719,-0.578311
4.0608,0.016740,0.000000,0.000000,0.001877,0.8976,0.0000,0.0000,-0.049693,0.049693,0.000062,0.001183,-0.000590,2.5823,0.2642,0.9415,-0.004602,0.001534,0.000000,0.641204,-0.628932,0.615126,-0.616660,0.596719,-0.578311
4.0775,0.016739,0.000000,0.000000,0.001870,0.8811,0.0000,0.0000,-0.063135,0.063135,0.000116,0.001198,-0.000578,2.5440,0.2307,0.9941,-0.021476,0.016874,0.000000,0.641204,-0.628932,0.615126,-0.616660,0.598253,-0.578311
4.0943,0.016745,0.000000,0.000000,0.001862,0.8644,0.0000,0.0000,-0.076407,0.076407,0.000098,0.001142,-0.000566,2.5375,0.2848,1.0443,-0.039884,0.036816,0.000000,0.641204,-0.628932,0.616660,-0.616660,0.598253,-0.578311
4.1110,0.016741,0.000000,0.000000,0.001854,0.8476,0.0000,0.0000,-0.089464,0.089464,0.000098,0.001142,-0.000566,2.5375,0.2848,1.0443,-0.039884,0.036816,0.000000,0.641204,-0.628932,0.616660,-0.616660,0.598253,-0.578311
4.1278,0.016746,0.000000,0.000000,0.001846,0.8305,0.0000,0.0000,-0.102279,0.102279,0.000058,0.001187,-0.000592,2.5874,0.2625,0.9302,-0.058291,0.056757,0.000000,0.641204,-0.628932,0.615126,-0.616660,0.596719,-0.578311
4.1445,0.016743,0.000000,0.000000,0.001838,0.8134,0.0000,0.0000,-0.114808,0.114808,0.000117,0.001198,-0.000578,2.5435,0.2308,0.9953,-0.073631,0.072097,0.000000,0.641204,-0.628932,0.615126,-0.616660,0.598253,-0.578311
4.1612,0.016746,0.000000,0.000000,0.001830,0.7961,0.0000,0.0000,-0.127021,0.127021,0.000111,0.001197,-0.000579,2.5481,0.2341,0.9885,-0.082835,0.081301,0.000000,0.641204,-0.628932,0.615126,-0.616660,0.598253,-0.578311
4.1780,0.016743,0.000000,0.000000,0.001821,0.7786,0.0000,0.0000,-0.138881,0.138881,0.000111,0.001197,-0.000579,2.5481,0.2341,0.9885,-0.092039,0.090505,0.000000,0.641204,-0.628932,0.615126,-0.616660,0.598253,-0.578311
4.1947,0.016751,0.000000,0.000000,0.001812,0.7610,0.0000,0.0000,-0.150363,0.150363,0.000111,0.001197,-0.000579,2.5481,0.2341,0.9885,-0.092039,0.090505,0.000000,0.641204,-0.628932,0.615126,-0.616660,0.598253,-0.578311
4.2115,0.016740,0.000000,0.000000,0.001803,0.7432,0.0000,0.0000,-0.161421,0.161421,0.000056,0.001182,-0.000591,2.5863,0.2677,0.9360,-0.111981,0.108913,0.000000,0.641204,-0.628932,0.615126,-0.616660,0.596719,-0.578311
4.2282,0.016750,0.000000,0.000000,0.001794,0.7254,0.0000,0.0000,-0.172038,0.172038,0.000117,0.001198,-0.000578,2.5436,0.2303,0.9947,-0.134990,0.131922,0.000000,0.641204,-0.628932,0.615126,-0.616660,0.598253,-0.578311
4.2450,0.016742,0.000000,0.000000,0.001785,0.7073,0.0000,0.0000,-0.182175,0.182175,0.000056,0.001181,-0.000591,2.5868,0.2681,0.9353,-0.150330,0.148796,0.000000,0.641204,-0.628932,0.615126,-0.616660,0.596719,-0.578311
4.2617,0.016747,0.000000,0.000000,0.001775,0.6892,0.0000,0.0000,-0.191810,0.191810,0.000117,0.001198,-0.000578,2.5436,0.2302,0.9948,-0.164136,0.158000,0.000000,0.641204,-0.628932,0.615126,-0.616660,0.598253,-0.578311
4.2785,0.016741,0.000000,0.000000,0.001765,0.6709,0.0000,0.0000,-0.200912,0.200912,0.000111,0.001197,-0.000579,2.5481,0.2342,0.9886,-0.181010,0.174874,0.000000,0.641204,-0.628932,0.615126,-0.616660,0.598253,-0.578311
4.2953,0.016808,0.000000,0.000000,0.001755,0.6524,0.0000,0.0000,-0.209491,0.209491,0.000111,0.001197,-0.000579,2.5481,0.2342,0.9886,-0.181010,0.174874,0.000000,0.641204,-0.628932,0.615126,-0.616660,0.598253,-0.578311
4.3159,0.020613,0.000000,0.000000,0.001743,0.6296,0.0000,0.0000,-0.219212,0.219212,0.000111,0.001197,-0.000579,2.5481,0.2342,0.9886,-0.181010,0.174874,0.000000,0.641204,-0.628932,0.615126,-0.616660,0.598253,-0.578311
4.3326,0.016749,0.000000,0.000000,0.001732,0.6109,0.0000,0.0000,-0.226437,0.226437,0.000056,0.001182,-0.000591,2.5863,0.2677,0.9360,-0.194816,0.193282,0.000000,0.641204,-0.628932,0.615126,-0.616660,0.596719,-0.578311
4.3494,0.016745,0.000000,0.000000,0.001722,0.5921,0.0000,0.0000,-0.233033,0.233033,0.000062,0.001183,-0.000590,2.5824,0.2642,0.9414,-0.193282,0.191748,0.000000,0.641204,-0.628932,0.615126,-0.616660,0.596719,-0.578311
4.3661,0.016762,0.000000,0.000000,0.001711,0.5732,0.0000,0.0000,-0.238989,0.238989,0.000062,0.001183,-0.000590,2.5824,0.2642,0.9414,-0.193282,0.191748,0.000000,0.641204,-0.628932,0.615126,-0.616660,0.596719,-0.578311
4.3829,0.016745,0.000000,0.000000,0.001700,0.5542,0.0000,0.0000,-0.244279,0.244279,0.000062,0.001183,-0.000590,2.5824,0.2642,0.9414,-0.196350,0.193282,0.000000,0.641204,-0.628932,0.615126,-0.616660,0.596719,-0.578311
4.3996,0.016751,0.000000,0.000000,0.001689,0.5350,0.0000,0.0000,-0.248894,0.248894,0.000116,0.001198,-0.000578,2.5440,0.2307,0.9941,-0.208621,0.207087,0.000000,0.641204,-0.628932,0.615126,-0.616660,0.598253,-0.578311
4.4164,0.016746,0.000000,0.000000,0.001678,0.5158,0.0000,0.0000,-0.252818,0.252818,0.000111,0.001197,-0.000579,2.5481,0.2342,0.9886,-0.228563,0.228563,0.000000,0.641204,-0.628932,0.615126,-0.616660,0.598253,-0.578311
4.4331,0.016752,0.000000,0.000000,0.001666,0.4965,0.0000,0.0000,-0.256045,0.256045,0.000056,0.001182,-0.000591,2.5863,0.2677,0.9360,-0.246971,0.243903,0.000000,0.641204,-0.628932,0.615126,-0.616660,0.596719,-0.578311
4.4499,0.016743,0.000000,0.000000,0.001654,0.4771,0.0000,0.0000,-0.258561,0.258561,0.000062,0.001183,-0.000590,2.5824,0.2642,0.9414,-0.248505,0.248505,0.000000,0.641204,-0.628932,0.615126,-0.616660,0.596719,-0.578311
4.4666,0.016771,0.000000,0.000000,0.001642,0.4576,0.0000,0.0000,-0.260364,0.260364,0.000062,0.001183,-0.000590,2.5824,0.2642,0.9414,-0.248505,0.248505,0.000000,0.641204,-0.628932,0.615126,-0.616660,0.596719,-0.578311
4.4834,0.016741,0.000000,0.000000,0.001630,0.4380,0.0000,0.0000,-0.261443,0.261443,0.000116,0.001198,-0.000578,2.5440,0.2307,0.9941,-0.245437,0.250039,0.000000,0.641204,-0.628932,0.615126,-0.616660,0.598253,-0.578311
4.5001,0.016748,0.000000,0.000000,0.001618,0.4183,0.0000,0.0000,-0.261799,0.261799,0.000111,0.001197,-0.000579,2.5481,0.2342,0.9886,-0.254641,0.257709,0.000000,0.641204,-0.628932,0.615126,-0.616660,0.598253,-0.578311
4.5169,0.016749,0.000000,0.000000,0.001605,0.3986,0.0000,0.0000,-0.261431,0.261431,0.000111,0.001197,-0.000579,2.5481,0.2342,0.9886,-0.262311,0.257709,0.000000,0.641204,-0.628932,0.615126,-0.616660,0.598253,-0.578311
4.5336,0.016754,0.000000,0.000000,0.001593,0.3788,0.0000,0.0000,-0.260339,0.260339,0.000098,0.001142,-0.000566,2.5371,0.2844,1.0449,-0.262311,0.256175,0.000000,0.641204,-0.628932,0.616660,-0.616660,0.598253,-0.578311
4.5504,0.016743,0.000000,0.000000,0.001580,0.3589,0.0000,0.0000,-0.258527,0.258527,0.000045,0.001133,-0.000580,2.5769,0.3131,0.9858,-0.260777,0.262311,0.000000,0.641204,-0.628932,0.616660,-0.616660,0.596719,-0.578311
