t,loop_dt,cmd_x,cmd_y,cmd_z,cmd_roll,cmd_pitch,cmd_yaw,cmd_ant_l,cmd_ant_r,pres_x,pres_y,pres_z,pres_roll,pres_pitch,pres_yaw,pres_ant_l,pres_ant_r,pres_j0,pres_j1,pres_j2,pres_j3,pres_j4,pres_j5,pres_j6
0.0000,0.000001,-0.000043,0.001701,-0.002617,0.6085,0.2844,-0.6784,-0.012272,0.007670,-0.000043,0.001701,-0.002617,0.6085,0.2844,-0.6784,-0.012272,0.007670,0.000000,0.572175,-0.562971,0.549165,-0.590583,0.567573,-0.556835
0.0167,0.016741,-0.000042,0.001673,-0.002573,0.5983,0.2796,-0.6670,-0.012066,0.007541,-0.000003,0.001663,-0.002628,0.5588,0.2999,-0.7312,-0.006136,0.007670,0.000000,0.570641,-0.562971,0.549165,-0.590583,0.567573,-0.556835
0.0335,0.016765,-0.000042,0.001644,-0.002529,0.5881,0.2747,-0.6557,-0.011861,0.007413,-0.000003,0.001663,-0.002628,0.5588,0.2999,-0.7312,-0.006136,0.007670,0.000000,0.570641,-0.562971,0.549165,-0.590583,0.567573,-0.556835
0.0503,0.016748,-0.000041,0.001615,-0.002485,0.5780,0.2699,-0.6443,-0.011655,0.007284,-0.000048,0.001705,-0.002615,0.6143,0.2825,-0.6722,-0.004602,0.007670,0.000000,0.572175,-0.562971,0.549165,-0.590583,0.567573,-0.556835
0.0670,0.016756,-0.000040,0.001587,-0.002441,0.5678,0.2651,-0.6330,-0.011449,0.007156,-0.000043,0.001701,-0.002617,0.6085,0.2844,-0.6784,-0.010738,0.007670,0.000000,0.572175,-0.562971,0.549165,-0.590583,0.567573,-0.556835
0.0838,0.016746,-0.000039,0.001559,-0.002398,0.5576,0.2603,-0.6217,-0.011244,0.007027,0.000025,0.001678,-0.002666,0.5192,0.3689,-0.6781,-0.016874,0.007670,0.000000,0.569107,-0.561437,0.549165,-0.590583,0.567573,-0.555301
0.1005,0.016754,-0.000039,0.001530,-0.002354,0.5475,0.2555,-0.6103,-0.011038,0.006899,0.000248,0.001734,-0.002762,0.5364,0.5132,-0.5723,-0.013806,0.007670,0.000000,0.564505,-0.559903,0.549165,-0.590583,0.567573,-0.549165
0.1173,0.016747,-0.000038,0.001502,-0.002310,0.5373,0.2507,-0.5990,-0.010833,0.006771,0.000265,0.001767,-0.002765,0.5841,0.5159,-0.5301,-0.007670,0.007670,0.000000,0.564505,-0.559903,0.549165,-0.590583,0.567573,-0.547631
0.1340,0.016764,-0.000037,0.001473,-0.002266,0.5271,0.2459,-0.5876,-0.010627,0.006642,0.000265,0.001767,-0.002765,0.5841,0.5159,-0.5301,-0.007670,0.007670,0.000000,0.564505,-0.559903,0.549165,-0.590583,0.567573,-0.547631
0.1508,0.016741,-0.000037,0.001445,-0.002222,0.5170,0.2410,-0.5763,-0.010422,0.006514,0.000344,0.001763,-0.002790,0.5783,0.5489,-0.5348,-0.012272,0.007670,0.000000,0.562971,-0.559903,0.549165,-0.590583,0.567573,-0.546097
0.1675,0.016750,-0.000036,0.001416,-0.002178,0.5068,0.2362,-0.5649,-0.010216,0.006385,0.000335,0.001763,-0.002787,0.5789,0.5455,-0.5343,-0.016874,0.007670,0.000000,0.562971,-0.559903,0.549165,-0.590583,0.567573,-0.546097
0.1843,0.016744,-0.000035,0.001388,-0.002135,0.4966,0.2314,-0.5536,-0.010011,0.006257,0.000335,0.001763,-0.002787,0.5789,0.5455,-0.5343,-0.013806,0.007670,0.000000,0.562971,-0.559903,0.549165,-0.590583,0.567573,-0.546097
0.2010,0.016752,-0.000034,0.001359,-0.002091,0.4864,0.2266,-0.5423,-0.009805,0.006128,0.000335,0.001763,-0.002787,0.5789,0.5455,-0.5343,-0.007670,0.007670,0.000000,0.562971,-0.559903,0.549165,-0.590583,0.567573,-0.546097
0.2178,0.016814,-0.000034,0.001330,-0.002047,0.4762,0.2218,-0.5309,-0.009599,0.005999,0.000295,0.001802,-0.002776,0.6292,0.5302,-0.4809,-0.009204,0.007670,0.000000,0.564505,-0.559903,0.549165,-0.590583,0.567573,-0.546097
0.2346,0.016758,-0.000033,0.001302,-0.002003,0.4661,0.2170,-0.5195,-0.009393,0.005871,0.000295,0.001802,-0.002776,0.6292,0.5302,-0.4809,-0.009204,0.007670,0.000000,0.564505,-0.559903,0.549165,-0.590583,0.567573,-0.546097
0.2513,0.016744,-0.000032,0.001273,-0.001959,0.4559,0.2122,-0.5082,-0.009188,0.005742,0.000300,0.001798,-0.002777,0.6240,0.5318,-0.4865,-0.012272,0.007670,0.000000,0.564505,-0.559903,0.549165,-0.590583,0.567573,-0.546097
0.2681,0.016749,-0.000032,0.001245,-0.001915,0.4457,0.2074,-0.4968,-0.008982,0.005614,0.000300,0.001798,-0.002777,0.6240,0.5318,-0.4865,-0.012272,0.007670,0.000000,0.564505,-0.559903,0.549165,-0.590583,0.567573,-0.546097
0.2848,0.016745,-0.000031,0.001217,-0.001872,0.4355,0.2027,-0.4855,-0.008777,0.005485,0.000340,0.001760,-0.002789,0.5742,0.5472,-0.5393,-0.009204,0.007670,0.000000,0.562971,-0.559903,0.549165,-0.590583,0.567573,-0.546097
0.3016,0.016756,-0.000030,0.001188,-0.001828,0.4253,0.1979,-0.4741,-0.008571,0.005357,0.000336,0.001764,-0.002787,0.5793,0.5456,-0.5338,-0.009204,0.007670,0.000000,0.562971,-0.559903,0.549165,-0.590583,0.567573,-0.546097
0.3184,0.016797,-0.000029,0.001159,-0.001784,0.4151,0.1931,-0.4627,-0.008365,0.005228,0.000295,0.001802,-0.002776,0.6292,0.5302,-0.4810,-0.009204,0.007670,0.000000,0.564505,-0.559903,0.549165,-0.590583,0.567573,-0.546097
0.3351,0.016753,-0.000029,0.001131,-0.001740,0.4049,0.1883,-0.4514,-0.008159,0.005100,0.000295,0.001802,-0.002776,0.6292,0.5302,-0.4810,-0.009204,0.007670,0.000000,0.564505,-0.559903,0.549165,-0.590583,0.567573,-0.546097
0.3519,0.016746,-0.000028,0.001102,-0.001696,0.3948,0.1835,-0.4400,-0.007954,0.004971,0.000300,0.001798,-0.002777,0.6240,0.5318,-0.4865,-0.007670,0.007670,0.000000,0.564505,-0.559903,0.549165,-0.590583,0.567573,-0.546097
0.3686,0.016752,-0.000027,0.001074,-0.001652,0.3846,0.1787,-0.4287,-0.007748,0.004843,0.000300,0.001798,-0.002777,0.6240,0.5318,-0.4865,-0.006136,0.007670,0.000000,0.564505,-0.559903,0.549165,-0.590583,0.567573,-0.546097
0.3854,0.016745,-0.000026,0.001045,-0.001608,0.3744,0.1739,-0.4173,-0.007543,0.004714,0.000300,0.001798,-0.002777,0.6240,0.5318,-0.4865,-0.009204,0.007670,0.000000,0.564505,-0.559903,0.549165,-0.590583,0.567573,-0.546097
0.4021,0.016765,-0.000026,0.001017,-0.001565,0.3642,0.1692,-0.4060,-0.007337,0.004586,0.000340,0.001760,-0.002789,0.5742,0.5472,-0.5393,-0.012272,0.007670,0.000000,0.562971,-0.559903,0.549165,-0.590583,0.567573,-0.546097
0.4192,0.017101,-0.000025,0.000988,-0.001520,0.3538,0.1643,-0.3944,-0.007127,0.004454,0.000295,0.001802,-0.002776,0.6297,0.5300,-0.4804,-0.012272,0.007670,0.000000,0.564505,-0.559903,0.549165,-0.590583,0.567573,-0.546097
0.4360,0.016758,-0.000024,0.000959,-0.001476,0.3436,0.1595,-0.3830,-0.006921,0.004326,0.000295,0.001802,-0.002776,0.6297,0.5300,-0.4804,-0.012272,0.007670,0.000000,0.564505,-0.559903,0.549165,-0.590583,0.567573,-0.546097
0.4527,0.016742,-0.000024,0.000931,-0.001432,0.3334,0.1547,-0.3716,-0.006716,0.004197,0.000300,0.001798,-0.002777,0.6239,0.5318,-0.4865,-0.006136,0.007670,0.000000,0.564505,-0.559903,0.549165,-0.590583,0.567573,-0.546097
0.4695,0.016756,-0.000023,0.000902,-0.001388,0.3232,0.1500,-0.3603,-0.006510,0.004069,0.000300,0.001798,-0.002777,0.6239,0.5318,-0.4865,-0.003068,0.007670,0.000000,0.564505,-0.559903,0.549165,-0.590583,0.567573,-0.546097
0.4862,0.016747,-0.000022,0.000874,-0.001344,0.3130,0.1452,-0.3489,-0.006305,0.003941,0.000300,0.001798,-0.002777,0.6239,0.5318,-0.4865,-0.006136,0.007670,0.000000,0.564505,-0.559903,0.549165,-0.590583,0.567573,-0.546097
0.5030,0.016750,-0.000021,0.000845,-0.001301,0.3029,0.1404,-0.3375,-0.006099,0.003812,0.000300,0.001798,-0.002777,0.6239,0.5318,-0.4865,-0.012272,0.007670,0.000000,0.564505,-0.559903,0.549165,-0.590583,0.567573,-0.546097
0.5199,0.016951,-0.000021,0.000817,-0.001256,0.2925,0.1356,-0.3260,-0.005891,0.003682,0.000300,0.001798,-0.002777,0.6239,0.5318,-0.4865,-0.010738,0.007670,0.000000,0.564505,-0.559903,0.549165,-0.590583,0.567573,-0.546097
0.5367,0.016752,-0.000020,0.000788,-0.001212,0.2823,0.1309,-0.3147,-0.005686,0.003554,0.000300,0.001798,-0.002777,0.6239,0.5318,-0.4865,-0.010738,0.007670,0.000000,0.564505,-0.559903,0.549165,-0.590583,0.567573,-0.546097
0.5534,0.016742,-0.000019,0.000760,-0.001169,0.2722,0.1261,-0.3033,-0.005480,0.003425,0.000300,0.001798,-0.002777,0.6239,0.5318,-0.4865,-0.003068,0.007670,0.000000,0.564505,-0.559903,0.549165,-0.590583,0.567573,-0.546097
0.5702,0.016751,-0.000019,0.000731,-0.001125,0.2620,0.1214,-0.2920,-0.005275,0.003297,0.000300,0.001798,-0.002777,0.6239,0.5318,-0.4865,-0.001534,0.007670,0.000000,0.564505,-0.559903,0.549165,-0.590583,0.567573,-0.546097
0.5869,0.016746,-0.000018,0.000703,-0.001081,0.2518,0.1166,-0.2806,-0.005069,0.003168,0.000340,0.001760,-0.002789,0.5742,0.5472,-0.5393,-0.007670,0.007670,0.000000,0.562971,-0.559903,0.549165,-0.590583,0.567573,-0.546097
0.6037,0.016755,-0.000017,0.000674,-0.001037,0.2416,0.1118,-0.2692,-0.004864,0.003040,0.000295,0.001802,-0.002776,0.6297,0.5300,-0.4804,-0.007670,0.006136,0.000000,0.564505,-0.559903,0.549165,-0.590583,0.567573,-0.546097
0.6205,0.016826,-0.000016,0.000646,-0.000993,0.2313,0.1071,-0.2578,-0.004657,0.002911,0.000300,0.001798,-0.002777,0.6239,0.5318,-0.4865,-0.003068,0.006136,0.000000,0.564505,-0.559903,0.549165,-0.590583,0.567573,-0.546097
0.6373,0.016752,-0.000016,0.000617,-0.000949,0.2211,0.1023,-0.2464,-0.004451,0.002782,0.000300,0.001798,-0.002777,0.6239,0.5318,-0.4865,-0.003068,0.006136,0.000000,0.564505,-0.559903,0.549165,-0.590583,0.567573,-0.546097
0.6540,0.016751,-0.000015,0.000589,-0.000905,0.2109,0.0976,-0.2351,-0.004246,0.002654,0.000300,0.001798,-0.002777,0.6239,0.5318,-0.4865,0.000000,0.006136,0.000000,0.564505,-0.559903,0.549165,-0.590583,0.567573,-0.546097
0.6708,0.016751,-0.000014,0.000560,-0.000862,0.2007,0.0928,-0.2237,-0.004040,0.002525,0.000300,0.001798,-0.002777,0.6239,0.5318,-0.4865,-0.004602,0.006136,0.000000,0.564505,-0.559903,0.549165,-0.590583,0.567573,-0.546097
0.6875,0.016771,-0.000013,0.000531,-0.000818,0.1905,0.0881,-0.2123,-0.003835,0.002397,0.000300,0.001798,-0.002777,0.6239,0.5318,-0.4865,-0.009204,0.006136,0.000000,0.564505,-0.559903,0.549165,-0.590583,0.567573,-0.546097
0.7043,0.016757,-0.000013,0.000503,-0.000774,0.1803,0.0833,-0.2009,-0.003629,0.002268,0.000300,0.001798,-0.002777,0.6239,0.5318,-0.4865,-0.003068,0.006136,0.000000,0.564505,-0.559903,0.549165,-0.590583,0.567573,-0.546097
0.7211,0.016761,-0.000012,0.000474,-0.000730,0.1701,0.0786,-0.1895,-0.003423,0.002139,0.000352,0.001782,-0.002764,0.6632,0.4958,-0.5391,0.003068,0.004602,0.000000,0.564505,-0.561437,0.549165,-0.590583,0.567573,-0.546097
0.7378,0.016763,-0.000011,0.000446,-0.000686,0.1599,0.0739,-0.1782,-0.003217,0.002011,0.000352,0.001782,-0.002764,0.6632,0.4958,-0.5391,0.003068,0.004602,0.000000,0.564505,-0.561437,0.549165,-0.590583,0.567573,-0.546097
0.7546,0.016744,-0.000011,0.000417,-0.000642,0.1497,0.0691,-0.1668,-0.003012,0.001882,0.000347,0.001784,-0.002766,0.6591,0.4996,-0.5336,0.000000,0.004602,0.000000,0.564505,-0.561437,0.549165,-0.590583,0.567573,-0.546097
0.7713,0.016753,-0.000010,0.000389,-0.000598,0.1395,0.0644,-0.1554,-0.002806,0.001754,0.000347,0.001784,-0.002766,0.6591,0.4996,-0.5336,-0.003068,0.001534,0.000000,0.564505,-0.561437,0.549165,-0.590583,0.567573,-0.546097
0.7880,0.016721,-0.000009,0.000361,-0.000555,0.1293,0.0597,-0.1440,-0.002601,0.001626,0.000347,0.001784,-0.002766,0.6591,0.4996,-0.5336,0.003068,0.001534,0.000000,0.564505,-0.561437,0.549165,-0.590583,0.567573,-0.546097
0.8057,0.017644,-0.000008,0.000331,-0.000509,0.1185,0.0547,-0.1321,-0.002385,0.001490,0.000347,0.001784,-0.002766,0.6591,0.4996,-0.5336,0.000000,0.001534,0.000000,0.564505,-0.561437,0.549165,-0.590583,0.567573,-0.546097
0.8224,0.016750,-0.000008,0.000302,-0.000465,0.1083,0.0500,-0.1207,-0.002179,0.001362,0.000347,0.001784,-0.002766,0.6591,0.4996,-0.5336,0.000000,0.001534,0.000000,0.564505,-0.561437,0.549165,-0.590583,0.567573,-0.546097
0.8392,0.016757,-0.000007,0.000274,-0.000421,0.0981,0.0452,-0.1093,-0.001973,0.001233,0.000347,0.001784,-0.002766,0.6591,0.4996,-0.5336,-0.006136,0.001534,0.000000,0.564505,-0.561437,0.549165,-0.590583,0.567573,-0.546097
0.8559,0.016750,-0.000006,0.000245,-0.000377,0.0879,0.0405,-0.0979,-0.001768,0.001105,0.000347,0.001784,-0.002766,0.6591,0.4996,-0.5336,-0.003068,0.001534,0.000000,0.564505,-0.561437,0.549165,-0.590583,0.567573,-0.546097
0.8727,0.016737,-0.000005,0.000217,-0.000333,0.0777,0.0358,-0.0865,-0.001563,0.000977,0.000347,0.001784,-0.002766,0.6591,0.4996,-0.5336,0.003068,0.000000,0.000000,0.564505,-0.561437,0.549165,-0.590583,0.567573,-0.546097
0.8894,0.016741,-0.000005,0.000188,-0.000289,0.0675,0.0311,-0.0752,-0.001357,0.000848,0.000347,0.001784,-0.002766,0.6591,0.4996,-0.5336,0.000000,0.000000,0.000000,0.564505,-0.561437,0.549165,-0.590583,0.567573,-0.546097
0.9062,0.016738,-0.000004,0.000160,-0.000246,0.0573,0.0264,-0.0638,-0.001152,0.000720,0.000347,0.001784,-0.002766,0.6591,0.4996,-0.5336,-0.006136,0.000000,0.000000,0.564505,-0.561437,0.549165,-0.590583,0.567573,-0.546097
0.9229,0.016781,-0.000003,0.000131,-0.000202,0.0470,0.0217,-0.0524,-0.000946,0.000591,0.000347,0.001784,-0.002766,0.6591,0.4996,-0.5336,-0.006136,0.000000,0.000000,0.564505,-0.561437,0.549165,-0.590583,0.567573,-0.546097
0.9398,0.016856,-0.000003,0.000102,-0.000158,0.0367,0.0169,-0.0409,-0.000739,0.000462,0.000347,0.001784,-0.002766,0.6591,0.4996,-0.5336,-0.006136,0.000000,0.000000,0.564505,-0.561437,0.549165,-0.590583,0.567573,-0.546097
0.9573,0.017516,-0.000002,0.000073,-0.000112,0.0260,0.0120,-0.0290,-0.000524,0.000327,0.000347,0.001784,-0.002766,0.6591,0.4996,-0.5336,-0.006136,0.000000,0.000000,0.564505,-0.561437,0.549165,-0.590583,0.567573,-0.546097
0.9741,0.016759,-0.000001,0.000044,-0.000068,0.0158,0.0073,-0.0176,-0.000318,0.000199,0.000347,0.001784,-0.002766,0.6591,0.4996,-0.5336,-0.006136,0.000000,0.000000,0.564505,-0.561437,0.549165,-0.590583,0.567573,-0.546097
0.9913,0.017192,-0.000000,0.000015,-0.000023,0.0053,0.0025,-0.0059,-0.000107,0.000067,0.000347,0.001784,-0.002766,0.6591,0.4996,-0.5336,-0.006136,0.000000,0.000000,0.564505,-0.561437,0.549165,-0.590583,0.567573,-0.546097
1.0080,0.016775,0.000000,0.000000,0.000000,0.0101,0.0000,0.0000,0.006605,-0.006605,0.000347,0.001784,-0.002766,0.6591,0.4996,-0.5336,-0.006136,0.000000,0.000000,0.564505,-0.561437,0.549165,-0.590583,0.567573,-0.546097
1.0248,0.016743,0.000000,0.000000,0.000000,0.0311,0.0000,0.0000,0.020356,-0.020356,0.000347,0.001784,-0.002766,0.6591,0.4996,-0.5336,-0.003068,0.000000,0.000000,0.564505,-0.561437,0.549165,-0.590583,0.567573,-0.546097
1.0415,0.016745,0.000000,0.000000,0.000000,0.0522,0.0000,0.0000,0.034052,-0.034052,0.000347,0.001784,-0.002766,0.6591,0.4996,-0.5336,0.003068,0.000000,0.000000,0.564505,-0.561437,0.549165,-0.590583,0.567573,-0.546097
1.0583,0.016742,0.000000,0.000000,0.000000,0.0732,0.0000,0.0000,0.047651,-0.047651,0.000347,0.001784,-0.002766,0.6591,0.4996,-0.5336,0.001534,0.000000,0.000000,0.564505,-0.561437,0.549165,-0.590583,0.567573,-0.546097
1.0750,0.016749,0.000000,0.000000,0.000000,0.0942,0.0000,0.0000,0.061124,-0.061124,0.000401,0.001768,-0.002753,0.6981,0.4633,-0.5875,0.006136,-0.007670,0.000000,0.564505,-0.562971,0.549165,-0.590583,0.567573,-0.546097
1.0918,0.016754,0.000000,0.000000,0.000000,0.1153,0.0000,0.0000,0.074432,-0.074432,0.000302,0.001747,-0.002753,0.6059,0.4853,-0.5818,0.019942,-0.021476,0.000000,0.564505,-0.561437,0.549165,-0.590583,0.567573,-0.547631
1.1085,0.016748,0.000000,0.000000,0.000000,0.1363,0.0000,0.0000,0.087530,-0.087530,0.000302,0.001747,-0.002753,0.6059,0.4853,-0.5818,0.019942,-0.021476,0.000000,0.564505,-0.561437,0.549165,-0.590583,0.567573,-0.547631
1.1253,0.016750,0.000000,0.000000,0.000000,0.1572,0.0000,0.0000,0.100386,-0.100386,0.000285,0.001734,-0.002716,0.6550,0.4139,-0.6354,0.041417,-0.038350,0.000000,0.566039,-0.562971,0.549165,-0.590583,0.567573,-0.549165
1.1420,0.016749,0.000000,0.000000,0.000000,0.1782,0.0000,0.0000,0.112964,-0.112964,0.000164,0.001774,-0.002683,0.7012,0.3724,-0.5761,0.061359,-0.056757,0.000000,0.569107,-0.562971,0.549165,-0.590583,0.567573,-0.550699
1.1588,0.016742,0.000000,0.000000,0.000000,0.1992,0.0000,0.0000,0.125224,-0.125224,0.000136,0.001808,-0.002674,0.7466,0.3612,-0.5288,0.079767,-0.072097,0.000000,0.570641,-0.562971,0.549165,-0.590583,0.567573,-0.550699
1.1755,0.016741,0.000000,0.000000,0.000000,0.2201,0.0000,0.0000,0.137137,-0.137137,0.000045,0.001860,-0.002676,0.7535,0.3826,-0.4269,0.098175,-0.088971,0.000000,0.572175,-0.561437,0.549165,-0.590583,0.567573,-0.550699
1.1923,0.016756,0.000000,0.000000,0.000000,0.2410,0.0000,0.0000,0.148680,-0.148680,0.000066,0.001877,-0.002652,0.8417,0.3291,-0.4373,0.111981,-0.102777,0.000000,0.573709,-0.562971,0.549165,-0.590583,0.567573,-0.550699
1.2090,0.016738,0.000000,0.000000,0.000000,0.2619,0.0000,0.0000,0.159800,-0.159800,0.000066,0.001877,-0.002652,0.8417,0.3291,-0.4373,0.111981,-0.102777,0.000000,0.573709,-0.562971,0.549165,-0.590583,0.567573,-0.550699
1.2257,0.016748,0.000000,0.000000,0.000000,0.2827,0.0000,0.0000,0.170485,-0.170485,-0.000058,0.001914,-0.002618,0.8834,0.2859,-0.3823,0.130388,-0.121184,0.000000,0.576777,-0.562971,0.549165,-0.590583,0.567573,-0.552233
1.2425,0.016744,0.000000,0.000000,0.000000,0.3035,0.0000,0.0000,0.180696,-0.180696,-0.000085,0.001872,-0.002608,0.8296,0.2726,-0.4413,0.139592,-0.134990,0.000000,0.576777,-0.562971,0.549165,-0.590583,0.567573,-0.553767
1.2593,0.016771,0.000000,0.000000,0.000000,0.3243,0.0000,0.0000,0.190421,-0.190421,-0.000124,0.001915,-0.002597,0.8854,0.2585,-0.3816,0.147262,-0.148796,0.000000,0.578311,-0.562971,0.549165,-0.590583,0.567573,-0.553767
1.2760,0.016766,0.000000,0.000000,0.000000,0.3451,0.0000,0.0000,0.199616,-0.199616,-0.000120,0.001911,-0.002599,0.8796,0.2600,-0.3878,0.158000,-0.164136,0.000000,0.578311,-0.562971,0.549165,-0.590583,0.567573,-0.553767
1.2928,0.016749,0.000000,0.000000,0.000000,0.3658,0.0000,0.0000,0.208249,-0.208249,-0.000241,0.001873,-0.002560,0.8315,0.2087,-0.4401,0.176408,-0.181010,0.000000,0.579845,-0.562971,0.549165,-0.590583,0.567573,-0.556835
1.3095,0.016741,0.000000,0.000000,0.000000,0.3865,0.0000,0.0000,0.216301,-0.216301,-0.000241,0.001873,-0.002560,0.8315,0.2087,-0.4401,0.176408,-0.181010,0.000000,0.579845,-0.562971,0.549165,-0.590583,0.567573,-0.556835
1.3263,0.016744,0.000000,0.000000,0.000000,0.4071,0.0000,0.0000,0.223757,-0.223757,-0.000228,0.001877,-0.002564,0.8366,0.2140,-0.4346,0.196350,-0.193282,0.000000,0.579845,-0.562971,0.549165,-0.590583,0.567573,-0.556835
1.3430,0.016741,0.000000,0.000000,0.000000,0.4277,0.0000,0.0000,0.230592,-0.230592,-0.000230,0.001877,-0.002564,0.8359,0.2133,-0.4354,0.204019,-0.204019,0.000000,0.579845,-0.562971,0.549165,-0.590583,0.567573,-0.556835
1.3599,0.016938,0.000000,0.000000,0.000000,0.4485,0.0000,0.0000,0.236859,-0.236859,-0.000243,0.001932,-0.002553,0.8471,0.2639,-0.4887,0.204019,-0.210155,0.000000,0.579845,-0.562971,0.549165,-0.592117,0.567573,-0.556835
1.3767,0.016750,0.000000,0.000000,0.000000,0.4689,0.0000,0.0000,0.242397,-0.242397,-0.000228,0.001871,-0.002565,0.8349,0.2083,-0.4296,0.208621,-0.214757,0.000000,0.579845,-0.562971,0.549165,-0.590583,0.567573,-0.556835
1.3935,0.016826,0.000000,0.000000,0.000000,0.4895,0.0000,0.0000,0.247284,-0.247284,-0.000230,0.001877,-0.002564,0.8362,0.2141,-0.4357,0.225495,-0.223961,0.000000,0.579845,-0.562971,0.549165,-0.590583,0.567573,-0.556835
1.4102,0.016740,0.000000,0.000000,0.000000,0.5098,0.0000,0.0000,0.251461,-0.251461,-0.000230,0.001877,-0.002564,0.8362,0.2141,-0.4357,0.225495,-0.223961,0.000000,0.579845,-0.562971,0.549165,-0.590583,0.567573,-0.556835
1.4270,0.016743,0.000000,0.000000,0.000000,0.5302,0.0000,0.0000,0.254943,-0.254943,-0.000230,0.001877,-0.002564,0.8362,0.2141,-0.4357,0.242369,-0.237767,0.000000,0.579845,-0.562971,0.549165,-0.590583,0.567573,-0.556835
1.4437,0.016748,0.000000,0.000000,0.000000,0.5504,0.0000,0.0000,0.257720,-0.257720,-0.000230,0.001877,-0.002564,0.8362,0.2141,-0.4357,0.242369,-0.246971,0.000000,0.579845,-0.562971,0.549165,-0.590583,0.567573,-0.556835
1.4605,0.016748,0.000000,0.000000,0.000000,0.5706,0.0000,0.0000,0.259785,-0.259785,-0.000283,0.001893,-0.002577,0.7973,0.2492,-0.3817,0.240835,-0.246971,0.000000,0.579845,-0.561437,0.549165,-0.590583,0.567573,-0.556835
1.4772,0.016718,0.000000,0.000000,0.000000,0.5907,0.0000,0.0000,0.261128,-0.261128,-0.000224,0.001875,-0.002563,0.8402,0.2098,-0.4407,0.254641,-0.250039,0.000000,0.579845,-0.562971,0.549165,-0.590583,0.567573,-0.556835
1.4940,0.016778,0.000000,0.000000,0.000000,0.6108,0.0000,0.0000,0.261753,-0.261753,-0.000224,0.001875,-0.002563,0.8402,0.2098,-0.4407,0.262311,-0.259243,0.000000,0.579845,-0.562971,0.549165,-0.590583,0.567573,-0.556835
1.5107,0.016747,0.000000,0.000000,0.000000,0.6308,0.0000,0.0000,0.261651,-0.261651,-0.000230,0.001877,-0.002564,0.8357,0.2139,-0.4346,0.262311,-0.259243,0.000000,0.579845,-0.562971,0.549165,-0.590583,0.567573,-0.556835
1.5276,0.016890,0.000000,0.000000,0.000000,0.6509,0.0000,0.0000,0.260815,-0.260815,-0.000230,0.001877,-0.002564,0.8357,0.2139,-0.4346,0.262311,-0.262311,0.000000,0.579845,-0.562971,0.549165,-0.590583,0.567573,-0.556835
1.5444,0.016744,0.000000,0.000000,0.000000,0.6708,0.0000,0.0000,0.259261,-0.259261,-0.000243,0.001932,-0.002553,0.8471,0.2639,-0.4888,0.256175,-0.260777,0.000000,0.579845,-0.562971,0.549165,-0.592117,0.567573,-0.556835
1.5611,0.016758,0.000000,0.000000,0.000000,0.6906,0.0000,0.0000,0.256988,-0.256988,-0.000228,0.001871,-0.002565,0.8349,0.2083,-0.4296,0.265379,-0.262311,0.000000,0.579845,-0.562971,0.549165,-0.590583,0.567573,-0.556835
1.5779,0.016763,0.000000,0.000000,0.000000,0.7103,0.0000,0.0000,0.254002,-0.254002,-0.000230,0.001877,-0.002564,0.8362,0.2141,-0.4357,0.263845,-0.262311,0.000000,0.579845,-0.562971,0.549165,-0.590583,0.567573,-0.556835
1.5950,0.017130,0.000000,0.000000,0.000000,0.7304,0.0000,0.0000,0.250223,-0.250223,-0.000230,0.001877,-0.002564,0.8362,0.2141,-0.4357,0.256175,-0.260777,0.000000,0.579845,-0.562971,0.549165,-0.590583,0.567573,-0.556835
1.6118,0.016746,0.000000,0.000000,0.000000,0.7500,0.0000,0.0000,0.245828,-0.245828,-0.000230,0.001877,-0.002564,0.8362,0.2141,-0.4357,0.256175,-0.260777,0.000000,0.579845,-0.562971,0.549165,-0.590583,0.567573,-0.556835
1.6285,0.016751,0.000000,0.000000,0.000000,0.7694,0.0000,0.0000,0.240752,-0.240752,-0.000230,0.001877,-0.002564,0.8362,0.2141,-0.4357,0.257709,-0.259243,0.000000,0.579845,-0.562971,0.549165,-0.590583,0.567573,-0.556835
1.6453,0.016748,0.000000,0.000000,0.000000,0.7888,0.0000,0.0000,0.235010,-0.235010,-0.000230,0.001877,-0.002564,0.8362,0.2141,-0.4357,0.256175,-0.259243,0.000000,0.579845,-0.562971,0.549165,-0.590583,0.567573,-0.556835
1.6620,0.016709,0.000000,0.000000,0.000000,0.8081,0.0000,0.0000,0.228633,-0.228633,-0.000230,0.001877,-0.002564,0.8362,0.2141,-0.4357,0.251573,-0.254641,0.000000,0.579845,-0.562971,0.549165,-0.590583,0.567573,-0.556835
1.6787,0.016748,0.000000,0.000000,0.000000,0.8273,0.0000,0.0000,0.221609,-0.221609,-0.000230,0.001877,-0.002564,0.8362,0.2141,-0.4357,0.246971,-0.250039,0.000000,0.579845,-0.562971,0.549165,-0.590583,0.567573,-0.556835
1.6955,0.016763,0.000000,0.000000,0.000000,0.8464,0.0000,0.0000,0.213965,-0.213965,-0.000230,0.001877,-0.002564,0.8362,0.2141,-0.4357,0.246971,-0.250039,0.000000,0.579845,-0.562971,0.549165,-0.590583,0.567573,-0.556835
1.7122,0.016746,0.000000,0.000000,0.000000,0.8654,0.0000,0.0000,0.205736,-0.205736,-0.000230,0.001877,-0.002564,0.8362,0.2141,-0.4357,0.242369,-0.242369,0.000000,0.579845,-0.562971,0.549165,-0.590583,0.567573,-0.556835
1.7290,0.016756,0.000000,0.000000,0.000000,0.8844,0.0000,0.0000,0.196933,-0.196933,-0.000230,0.001877,-0.002564,0.8362,0.2141,-0.4357,0.236233,-0.233165,0.000000,0.579845,-0.562971,0.549165,-0.590583,0.567573,-0.556835
1.7457,0.016745,0.000000,0.000000,0.000000,0.9032,0.0000,0.0000,0.187590,-0.187590,-0.000230,0.001877,-0.002564,0.8362,0.2141,-0.4357,0.227029,-0.228563,0.000000,0.579845,-0.562971,0.549165,-0.590583,0.567573,-0.556835
1.7626,0.016858,0.000000,0.000000,0.000000,0.9220,0.0000,0.0000,0.177660,-0.177660,-0.000230,0.001877,-0.002564,0.8362,0.2141,-0.4357,0.217825,-0.220893,0.000000,0.579845,-0.562971,0.549165,-0.590583,0.567573,-0.556835
1.7793,0.016744,0.000000,0.000000,0.000000,0.9407,0.0000,0.0000,0.167304,-0.167304,-0.000230,0.001877,-0.002564,0.8362,0.2141,-0.4357,0.205553,-0.210155,0.000000,0.579845,-0.562971,0.549165,-0.590583,0.567573,-0.556835
1.7961,0.016759,0.000000,0.000000,0.000000,0.9592,0.0000,0.0000,0.156475,-0.156475,-0.000230,0.001877,-0.002564,0.8362,0.2141,-0.4357,0.205553,-0.210155,0.000000,0.579845,-0.562971,0.549165,-0.590583,0.567573,-0.556835
1.8128,0.016742,0.000000,0.000000,0.000000,0.9776,0.0000,0.0000,0.145224,-0.145224,-0.000230,0.001877,-0.002564,0.8362,0.2141,-0.4357,0.193282,-0.199418,0.000000,0.579845,-0.562971,0.549165,-0.590583,0.567573,-0.556835
1.8296,0.016754,0.000000,0.000000,0.000000,0.9959,0.0000,0.0000,0.133563,-0.133563,-0.000230,0.001877,-0.002564,0.8362,0.2141,-0.4357,0.181010,-0.190214,0.000000,0.579845,-0.562971,0.549165,-0.590583,0.567573,-0.556835
1.8463,0.016743,0.000000,0.000000,0.000000,1.0141,0.0000,0.0000,0.121540,-0.121540,-0.000230,0.001877,-0.002564,0.8362,0.2141,-0.4357,0.168738,-0.179476,0.000000,0.579845,-0.562971,0.549165,-0.590583,0.567573,-0.556835
1.8631,0.016753,0.000000,0.000000,0.000000,1.0322,0.0000,0.0000,0.109173,-0.109173,-0.000230,0.001877,-0.002564,0.8362,0.2141,-0.4357,0.158000,-0.167204,0.000000,0.579845,-0.562971,0.549165,-0.590583,0.567573,-0.556835
1.8798,0.016744,0.000000,0.000000,0.000000,1.0502,0.0000,0.0000,0.096511,-0.096511,-0.000230,0.001877,-0.002564,0.8362,0.2141,-0.4357,0.144194,-0.151864,0.000000,0.579845,-0.562971,0.549165,-0.590583,0.567573,-0.556835
1.8966,0.016752,0.000000,0.000000,0.000000,1.0680,0.0000,0.0000,0.083576,-0.083576,-0.000230,0.001877,-0.002564,0.8362,0.2141,-0.4357,0.144194,-0.151864,0.000000,0.579845,-0.562971,0.549165,-0.590583,0.567573,-0.556835
1.9133,0.016745,0.000000,0.000000,0.000000,1.0857,0.0000,0.0000,0.070415,-0.070415,-0.000230,0.001877,-0.002564,0.8362,0.2141,-0.4357,0.128854,-0.136524,0.000000,0.579845,-0.562971,0.549165,-0.590583,0.567573,-0.556835
1.9305,0.017215,0.000000,0.000000,0.000000,1.1039,0.0000,0.0000,0.056682,-0.056682,-0.000230,0.001877,-0.002564,0.8362,0.2141,-0.4357,0.113515,-0.121184,0.000000,0.579845,-0.562971,0.549165,-0.590583,0.567573,-0.556835
1.9473,0.016746,0.000000,0.000000,0.000000,1.1213,0.0000,0.0000,0.043164,-0.043164,-0.000230,0.001877,-0.002564,0.8362,0.2141,-0.4357,0.099709,-0.107379,0.000000,0.579845,-0.562971,0.549165,-0.590583,0.567573,-0.556835
1.9646,0.017325,0.000000,0.000000,0.000000,1.1393,0.0000,0.0000,0.029053,-0.029053,-0.000230,0.001877,-0.002564,0.8362,0.2141,-0.4357,0.082835,-0.090505,0.000000,0.579845,-0.562971,0.549165,-0.590583,0.567573,-0.556835
1.9814,0.016748,0.000000,0.000000,0.000000,1.1565,0.0000,0.0000,0.015329,-0.015329,-0.000243,0.001932,-0.002553,0.8470,0.2639,-0.4887,0.064427,-0.069029,0.000000,0.579845,-0.562971,0.549165,-0.592117,0.567573,-0.556835
1.9982,0.016857,0.000000,0.000000,0.000000,1.1737,0.0000,0.0000,0.001473,-0.001473,-0.000243,0.001932,-0.002553,0.8470,0.2639,-0.4887,0.064427,-0.069029,0.000000,0.579845,-0.562971,0.549165,-0.592117,0.567573,-0.556835
2.0162,0.017962,0.000000,0.000000,0.000000,1.1919,0.0000,0.0000,-0.013294,0.013294,-0.000243,0.001932,-0.002553,0.8470,0.2639,-0.4887,0.064427,-0.069029,0.000000,0.579845,-0.562971,0.549165,-0.592117,0.567573,-0.556835
2.0330,0.016780,0.000000,0.000000,0.000000,1.2088,0.0000,0.0000,-0.027052,0.027052,-0.000243,0.001932,-0.002553,0.8470,0.2639,-0.4887,0.064427,-0.069029,0.000000,0.579845,-0.562971,0.549165,-0.592117,0.567573,-0.556835
2.0497,0.016741,0.000000,0.000000,0.000000,1.2255,0.0000,0.0000,-0.040704,0.040704,-0.000269,0.001910,-0.002554,0.8850,0.1928,-0.3759,0.018408,-0.018408,0.000000,0.581379,-0.562971,0.549165,-0.590583,0.567573,-0.556835
2.0664,0.016756,0.000000,0.000000,0.000000,1.2421,0.0000,0.0000,-0.054255,0.054255,-0.000308,0.001951,-0.002542,0.9311,0.1848,-0.3340,0.018408,-0.018408,0.000000,0.582913,-0.562971,0.549165,-0.590583,0.567573,-0.556835
2.0832,0.016744,0.000000,0.000000,0.000000,1.2585,0.0000,0.0000,-0.067646,0.067646,-0.000304,0.001947,-0.002543,0.9263,0.1857,-0.3384,0.016874,-0.016874,0.000000,0.582913,-0.562971,0.549165,-0.590583,0.567573,-0.556835
2.0999,0.016758,0.000000,0.000000,0.000000,1.2748,0.0000,0.0000,-0.080861,0.080861,-0.000304,0.001947,-0.002543,0.9263,0.1857,-0.3384,-0.003068,0.003068,0.000000,0.582913,-0.562971,0.549165,-0.590583,0.567573,-0.556835
2.1169,0.016940,0.000000,0.000000,0.000000,1.2911,0.0000,0.0000,-0.093992,0.093992,-0.000346,0.001986,-0.002532,0.9768,0.1702,-0.2842,-0.036816,0.035282,0.000000,0.584447,-0.562971,0.549165,-0.590583,0.567573,-0.556835
2.1337,0.016771,0.000000,0.000000,0.000000,1.3072,0.0000,0.0000,-0.106729,0.106729,-0.000346,0.001986,-0.002532,0.9768,0.1702,-0.2842,-0.036816,0.035282,0.000000,0.584447,-0.562971,0.549165,-0.590583,0.567573,-0.556835
2.1504,0.016743,0.000000,0.000000,0.000000,1.3230,0.0000,0.0000,-0.119150,0.119150,-0.000329,0.002004,-0.002509,1.0603,0.1207,-0.2897,-0.067495,0.070563,0.000000,0.585981,-0.564505,0.549165,-0.590583,0.567573,-0.556835
2.1672,0.016749,0.000000,0.000000,0.000000,1.3387,0.0000,0.0000,-0.131246,0.131246,-0.000278,0.001986,-0.002499,1.0904,0.0901,-0.3427,-0.088971,0.092039,0.000000,0.585981,-0.566039,0.549165,-0.590583,0.567573,-0.556835
2.1839,0.016741,0.000000,0.000000,0.000000,1.3543,0.0000,0.0000,-0.142972,0.142972,-0.000230,0.001972,-0.002487,1.1260,0.0575,-0.3908,-0.096641,0.093573,0.000000,0.585981,-0.567573,0.549165,-0.590583,0.567573,-0.556835
2.2006,0.016752,0.000000,0.000000,0.000000,1.3697,0.0000,0.0000,-0.154311,0.154311,-0.000128,0.001941,-0.002463,1.1997,-0.0107,-0.4933,-0.102777,0.095107,0.000000,0.585981,-0.570641,0.549165,-0.590583,0.567573,-0.556835
2.2174,0.016739,0.000000,0.000000,0.000000,1.3849,0.0000,0.0000,-0.165214,0.165214,-0.000085,0.001928,-0.002452,1.2305,-0.0394,-0.5365,-0.121184,0.110447,0.000000,0.585981,-0.572175,0.549165,-0.590583,0.567573,-0.556835
2.2341,0.016753,0.000000,0.000000,0.000000,1.4000,0.0000,0.0000,-0.175669,0.175669,-0.000085,0.001928,-0.002452,1.2305,-0.0394,-0.5365,-0.121184,0.110447,0.000000,0.585981,-0.572175,0.549165,-0.590583,0.567573,-0.556835
2.2509,0.016748,0.000000,0.000000,0.000000,1.4150,0.0000,0.0000,-0.185635,0.185635,-0.000036,0.001913,-0.002441,1.2658,-0.0721,-0.5859,-0.144194,0.133456,0.000000,0.585981,-0.573709,0.549165,-0.590583,0.567573,-0.556835
2.2676,0.016756,0.000000,0.000000,0.000000,1.4298,0.0000,0.0000,-0.195091,0.195091,0.000024,0.001920,-0.002405,1.3891,-0.1556,-0.6352,-0.162602,0.159534,0.000000,0.587515,-0.576777,0.549165,-0.590583,0.567573,-0.556835
2.2844,0.016750,0.000000,0.000000,0.000000,1.4444,0.0000,0.0000,-0.204003,0.204003,0.000113,0.001864,-0.002408,1.3644,-0.1673,-0.7377,-0.168738,0.167204,0.000000,0.585981,-0.578311,0.549165,-0.590583,0.567573,-0.556835
2.3011,0.016754,0.000000,0.000000,0.000000,1.4589,0.0000,0.0000,-0.212353,0.212353,0.000090,0.001925,-0.002397,1.3777,-0.1158,-0.7804,-0.170272,0.171806,0.000000,0.585981,-0.578311,0.549165,-0.592117,0.567573,-0.556835
2.3179,0.016785,0.000000,0.000000,0.000000,1.4733,0.0000,0.0000,-0.220129,0.220129,0.000118,0.001886,-0.002385,1.4540,-0.2226,-0.7231,-0.185612,0.185612,0.000000,0.587515,-0.579845,0.549165,-0.590583,0.567573,-0.556835
2.3347,0.016749,0.000000,0.000000,0.000000,1.4874,0.0000,0.0000,-0.227277,0.227277,0.000118,0.001886,-0.002385,1.4540,-0.2226,-0.7231,-0.185612,0.185612,0.000000,0.587515,-0.579845,0.549165,-0.590583,0.567573,-0.556835
2.3514,0.016740,0.000000,0.000000,0.000000,1.5014,0.0000,0.0000,-0.233793,0.233793,0.000210,0.001834,-0.002386,1.4341,-0.2318,-0.8369,-0.208621,0.205553,0.000000,0.585981,-0.581379,0.549165,-0.590583,0.567573,-0.556835
2.3682,0.016753,0.000000,0.000000,0.000000,1.5152,0.0000,0.0000,-0.239667,0.239667,0.000213,0.001862,-0.002362,1.5246,-0.2820,-0.8258,-0.219359,0.216291,0.000000,0.587515,-0.582913,0.549165,-0.590583,0.567573,-0.556835
2.3849,0.016746,0.000000,0.000000,0.000000,1.5289,0.0000,0.0000,-0.244875,0.244875,0.000266,0.001842,-0.002352,1.5532,-0.3125,-0.8813,-0.219359,0.217825,0.000000,0.587515,-0.584447,0.549165,-0.590583,0.567573,-0.556835
2.4017,0.016751,0.000000,0.000000,0.000000,1.5424,0.0000,0.0000,-0.249407,0.249407,0.000356,0.001789,-0.002352,1.5380,-0.3296,-0.9834,-0.219359,0.222427,0.000000,0.585981,-0.585981,0.549165,-0.590583,0.567573,-0.556835
2.4186,0.016906,0.000000,0.000000,0.000000,1.5558,0.0000,0.0000,-0.253281,0.253281,0.000305,0.001833,-0.002341,1.5899,-0.3433,-0.9192,-0.230097,0.234699,0.000000,0.587515,-0.585981,0.549165,-0.590583,0.567573,-0.556835
2.4353,0.016756,0.000000,0.000000,0.000000,1.5689,0.0000,0.0000,-0.256415,0.256415,0.000305,0.001833,-0.002341,1.5899,-0.3433,-0.9192,-0.230097,0.234699,0.000000,0.587515,-0.585981,0.549165,-0.590583,0.567573,-0.556835
2.4521,0.016737,0.000000,0.000000,0.000000,1.5819,0.0000,0.0000,-0.258837,0.258837,0.000352,0.001790,-0.002354,1.5341,-0.3264,-0.9794,-0.251573,0.248505,0.000000,0.585981,-0.585981,0.549165,-0.590583,0.567573,-0.556835
2.4688,0.016752,0.000000,0.000000,0.000000,1.5947,0.0000,0.0000,-0.260545,0.260545,0.000305,0.001833,-0.002340,1.5903,-0.3437,-0.9196,-0.253107,0.248505,0.000000,0.587515,-0.585981,0.549165,-0.590583,0.567573,-0.556835
2.4856,0.016738,0.000000,0.000000,0.000000,1.6073,0.0000,0.0000,-0.261530,0.261530,0.000364,0.001812,-0.002330,1.6224,-0.3776,-0.9803,-0.248505,0.248505,0.000000,0.587515,-0.587515,0.549165,-0.590583,0.567573,-0.556835
2.5023,0.016753,0.000000,0.000000,0.000000,1.6197,0.0000,0.0000,-0.261792,0.261792,0.000412,0.001797,-0.002319,1.6570,-0.4098,-1.0285,-0.254641,0.262311,0.000000,0.587515,-0.589049,0.549165,-0.590583,0.567573,-0.556835
2.5193,0.016998,0.000000,0.000000,0.000000,1.6322,0.0000,0.0000,-0.261318,0.261318,0.000448,0.001760,-0.002332,1.6030,-0.3909,-1.0770,-0.265379,0.262311,0.000000,0.585981,-0.589049,0.549165,-0.590583,0.567573,-0.556835
2.5361,0.016754,0.000000,0.000000,0.000000,1.6443,0.0000,0.0000,-0.260121,0.260121,0.000448,0.001760,-0.002332,1.6030,-0.3909,-1.0770,-0.265379,0.262311,0.000000,0.585981,-0.589049,0.549165,-0.590583,0.567573,-0.556835
2.5528,0.016742,0.000000,0.000000,0.000000,1.6561,0.0000,0.0000,-0.258205,0.258205,0.000444,0.001764,-0.002330,1.6086,-0.3929,-1.0719,-0.263845,0.257709,0.000000,0.585981,-0.589049,0.549165,-0.590583,0.567573,-0.556835
2.5696,0.016756,0.000000,0.000000,0.000000,1.6679,0.0000,0.0000,-0.255573,0.255573,0.000444,0.001764,-0.002330,1.6086,-0.3929,-1.0719,-0.260777,0.262311,0.000000,0.585981,-0.589049,0.549165,-0.590583,0.567573,-0.556835
2.5863,0.016748,0.000000,0.000000,0.000000,1.6794,0.0000,0.0000,-0.252234,0.252234,0.000403,0.001802,-0.002319,1.6584,-0.4082,-1.0190,-0.262311,0.262311,0.000000,0.587515,-0.589049,0.549165,-0.590583,0.567573,-0.556835
2.6031,0.016750,0.000000,0.000000,0.000000,1.6907,0.0000,0.0000,-0.248197,0.248197,0.000408,0.001798,-0.002320,1.6532,-0.4066,-1.0245,-0.260777,0.259243,0.000000,0.587515,-0.589049,0.549165,-0.590583,0.567573,-0.556835
2.6199,0.016883,0.000000,0.000000,0.000000,1.7020,0.0000,0.0000,-0.243432,0.243432,0.000408,0.001798,-0.002320,1.6532,-0.4066,-1.0245,-0.259243,0.257709,0.000000,0.587515,-0.589049,0.549165,-0.590583,0.567573,-0.556835
2.6367,0.016764,0.000000,0.000000,0.000000,1.7129,0.0000,0.0000,-0.238023,0.238023,0.000408,0.001798,-0.002320,1.6532,-0.4066,-1.0245,-0.259243,0.257709,0.000000,0.587515,-0.589049,0.549165,-0.590583,0.567573,-0.556835
2.6534,0.016740,0.000000,0.000000,0.000000,1.7237,0.0000,0.0000,-0.231964,0.231964,0.000408,0.001798,-0.002320,1.6532,-0.4066,-1.0245,-0.259243,0.254641,0.000000,0.587515,-0.589049,0.549165,-0.590583,0.567573,-0.556835
2.6702,0.016754,0.000000,0.000000,0.000000,1.7343,0.0000,0.0000,-0.225257,0.225257,0.000408,0.001798,-0.002320,1.6532,-0.4066,-1.0245,-0.256175,0.254641,0.000000,0.587515,-0.589049,0.549165,-0.590583,0.567573,-0.556835
2.6869,0.016744,0.000000,0.000000,0.000000,1.7447,0.0000,0.0000,-0.217931,0.217931,0.000408,0.001798,-0.002320,1.6532,-0.4066,-1.0245,-0.256175,0.253107,0.000000,0.587515,-0.589049,0.549165,-0.590583,0.567573,-0.556835
2.7037,0.016755,0.000000,0.000000,0.000000,1.7548,0.0000,0.0000,-0.209997,0.209997,0.000408,0.001798,-0.002320,1.6532,-0.4066,-1.0245,-0.254641,0.251573,0.000000,0.587515,-0.589049,0.549165,-0.590583,0.567573,-0.556835
2.7204,0.016743,0.000000,0.000000,0.000000,1.7648,0.0000,0.0000,-0.201487,0.201487,0.000408,0.001798,-0.002320,1.6532,-0.4066,-1.0245,-0.245437,0.246971,0.000000,0.587515,-0.589049,0.549165,-0.590583,0.567573,-0.556835
2.7372,0.016759,0.000000,0.000000,0.000000,1.7747,0.0000,0.0000,-0.192411,0.192411,0.000408,0.001798,-0.002320,1.6532,-0.4066,-1.0245,-0.245437,0.246971,0.000000,0.587515,-0.589049,0.549165,-0.590583,0.567573,-0.556835
2.7539,0.016743,0.000000,0.000000,0.000000,1.7843,0.0000,0.0000,-0.182811,0.182811,0.000408,0.001798,-0.002320,1.6532,-0.4066,-1.0245,-0.233165,0.236233,0.000000,0.587515,-0.589049,0.549165,-0.590583,0.567573,-0.556835
2.7707,0.016752,0.000000,0.000000,0.000000,1.7937,0.0000,0.0000,-0.172700,0.172700,0.000461,0.001782,-0.002308,1.6916,-0.4425,-1.0785,-0.219359,0.225495,0.000000,0.587515,-0.590583,0.549165,-0.590583,0.567573,-0.556835
2.7874,0.016740,0.000000,0.000000,0.000000,1.8029,0.0000,0.0000,-0.162118,0.162118,0.000455,0.001784,-0.002309,1.6876,-0.4387,-1.0729,-0.207087,0.217825,0.000000,0.587515,-0.590583,0.549165,-0.590583,0.567573,-0.556835
2.8042,0.016758,0.000000,0.000000,0.000000,1.8119,0.0000,0.0000,-0.151076,0.151076,0.000510,0.001767,-0.002297,1.7258,-0.4748,-1.1281,-0.194816,0.205553,0.000000,0.587515,-0.592117,0.549165,-0.590583,0.567573,-0.556835
2.8209,0.016747,0.000000,0.000000,0.000000,1.8207,0.0000,0.0000,-0.139623,0.139623,0.000504,0.001769,-0.002298,1.7218,-0.4711,-1.1224,-0.182544,0.191748,0.000000,0.587515,-0.592117,0.549165,-0.590583,0.567573,-0.556835
2.8377,0.016753,0.000000,0.000000,0.000000,1.8293,0.0000,0.0000,-0.127779,0.127779,0.000504,0.001769,-0.002298,1.7218,-0.4711,-1.1224,-0.182544,0.191748,0.000000,0.587515,-0.592117,0.549165,-0.590583,0.567573,-0.556835
2.8544,0.016744,0.000000,0.000000,0.000000,1.8377,0.0000,0.0000,-0.115589,0.115589,0.000504,0.001769,-0.002298,1.7218,-0.4711,-1.1224,-0.171806,0.177942,0.000000,0.587515,-0.592117,0.549165,-0.590583,0.567573,-0.556835
2.8713,0.016822,0.000000,0.000000,0.000000,1.8460,0.0000,0.0000,-0.103019,0.103019,0.000546,0.001730,-0.002310,1.6718,-0.4559,-1.1764,-0.159534,0.162602,0.000000,0.585981,-0.592117,0.549165,-0.590583,0.567573,-0.556835
2.8880,0.016746,0.000000,0.000000,0.000000,1.8540,0.0000,0.0000,-0.090221,0.090221,0.000500,0.001772,-0.002297,1.7275,-0.4731,-1.1173,-0.148796,0.150330,0.000000,0.587515,-0.592117,0.549165,-0.590583,0.567573,-0.556835
2.9048,0.016755,0.000000,0.000000,0.000000,1.8617,0.0000,0.0000,-0.077165,0.077165,0.000505,0.001768,-0.002298,1.7217,-0.4713,-1.1235,-0.134990,0.134990,0.000000,0.587515,-0.592117,0.549165,-0.590583,0.567573,-0.556835
2.9223,0.017585,0.000000,0.000000,0.000000,1.8697,0.0000,0.0000,-0.063234,0.063234,0.000505,0.001768,-0.002298,1.7217,-0.4713,-1.1235,-0.122718,0.122718,0.000000,0.587515,-0.592117,0.549165,-0.590583,0.567573,-0.556835
2.9391,0.016751,0.000000,0.000000,0.000000,1.8771,0.0000,0.0000,-0.049783,0.049783,0.000505,0.001768,-0.002298,1.7217,-0.4713,-1.1235,-0.122718,0.122718,0.000000,0.587515,-0.592117,0.549165,-0.590583,0.567573,-0.556835
2.9558,0.016746,0.000000,0.000000,0.000000,1.8842,0.0000,0.0000,-0.036199,0.036199,0.000546,0.001730,-0.002310,1.6718,-0.4559,-1.1762,-0.104311,0.105845,0.000000,0.585981,-0.592117,0.549165,-0.590583,0.567573,-0.556835
2.9726,0.016752,0.000000,0.000000,0.000000,1.8912,0.0000,0.0000,-0.022510,0.022510,0.000500,0.001772,-0.002297,1.7275,-0.4731,-1.1173,-0.088971,0.088971,0.000000,0.587515,-0.592117,0.549165,-0.590583,0.567573,-0.556835
2.9894,0.016760,0.000000,0.000000,0.000000,1.8979,0.0000,0.0000,-0.008752,0.008752,0.000547,0.001730,-0.002310,1.6712,-0.4557,-1.1769,-0.073631,0.073631,0.000000,0.585981,-0.592117,0.549165,-0.590583,0.567573,-0.556835
3.0061,0.016752,0.000000,0.000000,0.000000,1.9045,0.0000,0.0000,0.005024,-0.005024,0.000487,0.001828,-0.002286,1.7381,-0.4230,-1.1705,-0.058291,0.058291,0.000000,0.587515,-0.592117,0.549165,-0.592117,0.567573,-0.556835
3.0229,0.016747,0.000000,0.000000,0.000000,1.9108,0.0000,0.0000,0.018782,-0.018782,0.000507,0.001762,-0.002299,1.7205,-0.4765,-1.1179,-0.039884,0.041417,0.000000,0.587515,-0.592117,0.549165,-0.590583,0.567573,-0.556835
3.0397,0.016843,0.000000,0.000000,0.000000,1.9169,0.0000,0.0000,0.032566,-0.032566,0.000507,0.001762,-0.002299,1.7205,-0.4765,-1.1179,-0.039884,0.041417,0.000000,0.587515,-0.592117,0.549165,-0.590583,0.567573,-0.556835
3.0565,0.016786,0.000000,0.000000,0.000000,1.9228,0.0000,0.0000,0.046213,-0.046213,0.000507,0.001762,-0.002299,1.7205,-0.4765,-1.1179,-0.039884,0.041417,0.000000,0.587515,-0.592117,0.549165,-0.590583,0.567573,-0.556835
3.0733,0.016859,0.000000,0.000000,0.000000,1.9286,0.0000,0.0000,0.059790,-0.059790,0.000507,0.001762,-0.002299,1.7205,-0.4765,-1.1179,-0.039884,0.041417,0.000000,0.587515,-0.592117,0.549165,-0.590583,0.567573,-0.556835
3.0901,0.016744,0.000000,0.000000,0.000000,1.9340,0.0000,0.0000,0.073109,-0.073109,0.000507,0.001762,-0.002299,1.7205,-0.4765,-1.1179,-0.039884,0.041417,0.000000,0.587515,-0.592117,0.549165,-0.590583,0.567573,-0.556835
3.1068,0.016749,0.000000,0.000000,0.000000,1.9393,0.0000,0.0000,0.086229,-0.086229,0.000546,0.001731,-0.002310,1.6719,-0.4554,-1.1768,0.009204,-0.012272,0.000000,0.585981,-0.592117,0.549165,-0.590583,0.567573,-0.556835
3.1236,0.016750,0.000000,0.000000,0.000000,1.9443,0.0000,0.0000,0.099111,-0.099111,0.000542,0.001734,-0.002309,1.6770,-0.4576,-1.1707,-0.001534,-0.004602,0.000000,0.585981,-0.592117,0.549165,-0.590583,0.567573,-0.556835
3.1403,0.016747,0.000000,0.000000,0.000000,1.9491,0.0000,0.0000,0.111717,-0.111717,0.000542,0.001734,-0.002309,1.6770,-0.4576,-1.1707,0.001534,-0.006136,0.000000,0.585981,-0.592117,0.549165,-0.590583,0.567573,-0.556835
3.1571,0.016811,0.000000,0.000000,0.000000,1.9538,0.0000,0.0000,0.124059,-0.124059,0.000542,0.001734,-0.002309,1.6770,-0.4576,-1.1707,0.027612,-0.026078,0.000000,0.585981,-0.592117,0.549165,-0.590583,0.567573,-0.556835
3.1739,0.016738,0.000000,0.000000,0.000000,1.9582,0.0000,0.0000,0.136005,-0.136005,0.000542,0.001734,-0.002309,1.6770,-0.4576,-1.1707,0.027612,-0.026078,0.000000,0.585981,-0.592117,0.549165,-0.590583,0.567573,-0.556835
3.1906,0.016743,0.000000,0.000000,0.000000,1.9623,0.0000,0.0000,0.147578,-0.147578,0.000529,0.001789,-0.002298,1.6870,-0.4073,-1.2246,0.069029,-0.064427,0.000000,0.585981,-0.592117,0.549165,-0.592117,0.567573,-0.556835
3.2074,0.016745,0.000000,0.000000,0.000000,1.9663,0.0000,0.0000,0.158744,-0.158744,0.000544,0.001728,-0.002310,1.6754,-0.4625,-1.1657,0.110447,-0.102777,0.000000,0.585981,-0.592117,0.549165,-0.590583,0.567573,-0.556835
3.2241,0.016750,0.000000,0.000000,0.000000,1.9700,0.0000,0.0000,0.169474,-0.169474,0.000501,0.001773,-0.002297,1.7271,-0.4724,-1.1184,0.136524,-0.127320,0.000000,0.587515,-0.592117,0.549165,-0.590583,0.567573,-0.556835
3.2409,0.016747,0.000000,0.000000,0.000000,1.9735,0.0000,0.0000,0.179733,-0.179733,0.000505,0.001768,-0.002298,1.7217,-0.4713,-1.1234,0.145728,-0.145728,0.000000,0.587515,-0.592117,0.549165,-0.590583,0.567573,-0.556835
3.2576,0.016750,0.000000,0.000000,0.000000,1.9769,0.0000,0.0000,0.189496,-0.189496,0.000491,0.001824,-0.002287,1.7328,-0.4214,-1.1761,0.148796,-0.161068,0.000000,0.587515,-0.592117,0.549165,-0.592117,0.567573,-0.556835
3.2744,0.016743,0.000000,0.000000,0.000000,1.9799,0.0000,0.0000,0.198731,-0.198731,0.000491,0.001824,-0.002287,1.7328,-0.4214,-1.1761,0.148796,-0.161068,0.000000,0.587515,-0.592117,0.549165,-0.592117,0.567573,-0.556835
3.2911,0.016751,0.000000,0.000000,0.000000,1.9828,0.0000,0.0000,0.207421,-0.207421,0.000506,0.001763,-0.002299,1.7211,-0.4766,-1.1174,0.165670,-0.171806,0.000000,0.587515,-0.592117,0.549165,-0.590583,0.567573,-0.556835
3.3079,0.016752,0.000000,0.000000,0.000000,1.9854,0.0000,0.0000,0.215536,-0.215536,0.000546,0.001731,-0.002310,1.6719,-0.4554,-1.1769,0.182544,-0.179476,0.000000,0.585981,-0.592117,0.549165,-0.590583,0.567573,-0.556835
3.3246,0.016748,0.000000,0.000000,0.000000,1.9879,0.0000,0.0000,0.223053,-0.223053,0.000500,0.001772,-0.002297,1.7275,-0.4731,-1.1173,0.190214,-0.188680,0.000000,0.587515,-0.592117,0.549165,-0.590583,0.567573,-0.556835
3.3414,0.016746,0.000000,0.000000,0.000000,1.9901,0.0000,0.0000,0.229952,-0.229952,0.000505,0.001768,-0.002298,1.7217,-0.4712,-1.1235,0.191748,-0.197884,0.000000,0.587515,-0.592117,0.549165,-0.590583,0.567573,-0.556835
3.3581,0.016754,0.000000,0.000000,0.000000,1.9921,0.0000,0.0000,0.236218,-0.236218,0.000505,0.001768,-0.002298,1.7217,-0.4712,-1.1235,0.202485,-0.210155,0.000000,0.587515,-0.592117,0.549165,-0.590583,0.567573,-0.556835
3.3749,0.016751,0.000000,0.000000,0.000000,1.9938,0.0000,0.0000,0.241828,-0.241828,0.000505,0.001768,-0.002298,1.7217,-0.4712,-1.1235,0.202485,-0.210155,0.000000,0.587515,-0.592117,0.549165,-0.590583,0.567573,-0.556835
3.3916,0.016739,0.000000,0.000000,0.000000,1.9954,0.0000,0.0000,0.246765,-0.246765,0.000505,0.001768,-0.002298,1.7217,-0.4712,-1.1235,0.223961,-0.222427,0.000000,0.587515,-0.592117,0.549165,-0.590583,0.567573,-0.556835
3.4083,0.016744,0.000000,0.000000,0.000000,1.9967,0.0000,0.0000,0.251021,-0.251021,0.000546,0.001730,-0.002310,1.6718,-0.4559,-1.1762,0.233165,-0.231631,0.000000,0.585981,-0.592117,0.549165,-0.590583,0.567573,-0.556835
3.4253,0.016931,0.000000,0.000000,0.000000,1.9978,0.0000,0.0000,0.254619,-0.254619,0.000542,0.001734,-0.002309,1.6770,-0.4575,-1.1708,0.228563,-0.234699,0.000000,0.585981,-0.592117,0.549165,-0.590583,0.567573,-0.556835
3.4420,0.016748,0.000000,0.000000,0.000000,1.9987,0.0000,0.0000,0.257469,-0.257469,0.000501,0.001772,-0.002297,1.7269,-0.4729,-1.1179,0.231631,-0.237767,0.000000,0.587515,-0.592117,0.549165,-0.590583,0.567573,-0.556835
3.4588,0.016769,0.000000,0.000000,0.000000,1.9993,0.0000,0.0000,0.259609,-0.259609,0.000505,0.001768,-0.002298,1.7217,-0.4713,-1.1234,0.246971,-0.245437,0.000000,0.587515,-0.592117,0.549165,-0.590583,0.567573,-0.556835
3.4755,0.016745,0.000000,0.000000,0.000000,1.9998,0.0000,0.0000,0.261027,-0.261027,0.000505,0.001768,-0.002298,1.7217,-0.4713,-1.1234,0.246971,-0.245437,0.000000,0.587515,-0.592117,0.549165,-0.590583,0.567573,-0.556835
3.4923,0.016744,0.000000,0.000000,0.000000,2.0000,0.0000,0.0000,0.261722,-0.261722,0.000505,0.001768,-0.002298,1.7217,-0.4713,-1.1234,0.259243,-0.256175,0.000000,0.587515,-0.592117,0.549165,-0.590583,0.567573,-0.556835
3.5090,0.016744,0.000000,0.000000,0.000000,2.0000,0.0000,0.0000,0.261694,-0.261694,0.000505,0.001768,-0.002298,1.7217,-0.4713,-1.1234,0.257709,-0.259243,0.000000,0.587515,-0.592117,0.549165,-0.590583,0.567573,-0.556835
3.5258,0.016751,0.000000,0.000000,0.000000,1.9997,0.0000,0.0000,0.260941,-0.260941,0.000491,0.001824,-0.002287,1.7328,-0.4214,-1.1761,0.253107,-0.257709,0.000000,0.587515,-0.592117,0.549165,-0.592117,0.567573,-0.556835
3.5425,0.016744,0.000000,0.000000,0.000000,1.9993,0.0000,0.0000,0.259467,-0.259467,0.000548,0.001724,-0.002311,1.6707,-0.4611,-1.1708,0.262311,-0.262311,0.000000,0.585981,-0.592117,0.549165,-0.590583,0.567573,-0.556835
3.5593,0.016752,0.000000,0.000000,0.000000,1.9986,0.0000,0.0000,0.257274,-0.257274,0.000500,0.001773,-0.002296,1.7276,-0.4725,-1.1179,0.265379,-0.263845,0.000000,0.587515,-0.592117,0.549165,-0.590583,0.567573,-0.556835
3.5760,0.016744,0.000000,0.000000,0.000000,1.9977,0.0000,0.0000,0.254370,-0.254370,0.000500,0.001773,-0.002296,1.7276,-0.4725,-1.1179,0.265379,-0.263845,0.000000,0.587515,-0.592117,0.549165,-0.590583,0.567573,-0.556835
3.5928,0.016746,0.000000,0.000000,0.000000,1.9966,0.0000,0.0000,0.250761,-0.250761,0.000505,0.001768,-0.002298,1.7216,-0.4713,-1.1234,0.260777,-0.260777,0.000000,0.587515,-0.592117,0.549165,-0.590583,0.567573,-0.556835
3.6095,0.016740,0.000000,0.000000,0.000000,1.9953,0.0000,0.0000,0.246461,-0.246461,0.000505,0.001768,-0.002298,1.7216,-0.4713,-1.1234,0.259243,-0.262311,0.000000,0.587515,-0.592117,0.549165,-0.590583,0.567573,-0.556835
3.6262,0.016749,0.000000,0.000000,0.000000,1.9937,0.0000,0.0000,0.241476,-0.241476,0.000505,0.001768,-0.002298,1.7216,-0.4713,-1.1234,0.259243,-0.260777,0.000000,0.587515,-0.592117,0.549165,-0.590583,0.567573,-0.556835
3.6430,0.016744,0.000000,0.000000,0.000000,1.9919,0.0000,0.0000,0.235824,-0.235824,0.000505,0.001768,-0.002298,1.7216,-0.4713,-1.1234,0.256175,-0.257709,0.000000,0.587515,-0.592117,0.549165,-0.590583,0.567573,-0.556835
3.6598,0.016775,0.000000,0.000000,0.000000,1.9899,0.0000,0.0000,0.229508,-0.229508,0.000505,0.001768,-0.002298,1.7216,-0.4713,-1.1234,0.256175,-0.257709,0.000000,0.587515,-0.592117,0.549165,-0.590583,0.567573,-0.556835
3.6765,0.016743,0.000000,0.000000,0.000000,1.9877,0.0000,0.0000,0.222568,-0.222568,0.000505,0.001768,-0.002298,1.7216,-0.4713,-1.1234,0.250039,-0.254641,0.000000,0.587515,-0.592117,0.549165,-0.590583,0.567573,-0.556835
3.6933,0.016747,0.000000,0.000000,0.000000,1.9853,0.0000,0.0000,0.215011,-0.215011,0.000505,0.001768,-0.002298,1.7216,-0.4713,-1.1234,0.246971,-0.251573,0.000000,0.587515,-0.592117,0.549165,-0.590583,0.567573,-0.556835
3.7100,0.016741,0.000000,0.000000,0.000000,1.9826,0.0000,0.0000,0.206862,-0.206862,0.000546,0.001730,-0.002310,1.6718,-0.4559,-1.1763,0.242369,-0.245437,0.000000,0.585981,-0.592117,0.549165,-0.590583,0.567573,-0.556835
3.7267,0.016748,0.000000,0.000000,0.000000,1.9797,0.0000,0.0000,0.198137,-0.198137,0.000554,0.001756,-0.002285,1.7652,-0.5088,-1.1721,0.237767,-0.237767,0.000000,0.587515,-0.593651,0.549165,-0.590583,0.567573,-0.556835
3.7435,0.016751,0.000000,0.000000,0.000000,1.9766,0.0000,0.0000,0.188862,-0.188862,0.000553,0.001753,-0.002287,1.7555,-0.5032,-1.1725,0.227029,-0.228563,0.000000,0.587515,-0.593651,0.549165,-0.590583,0.567573,-0.556835
3.7603,0.016770,0.000000,0.000000,0.000000,1.9733,0.0000,0.0000,0.179052,-0.179052,0.000553,0.001753,-0.002287,1.7555,-0.5032,-1.1725,0.227029,-0.228563,0.000000,0.587515,-0.593651,0.549165,-0.590583,0.567573,-0.556835
3.7770,0.016745,0.000000,0.000000,0.000000,1.9698,0.0000,0.0000,0.168762,-0.168762,0.000553,0.001753,-0.002287,1.7555,-0.5032,-1.1725,0.216291,-0.219359,0.000000,0.587515,-0.593651,0.549165,-0.590583,0.567573,-0.556835
3.7938,0.016747,0.000000,0.000000,0.000000,1.9660,0.0000,0.0000,0.158003,-0.158003,0.000500,0.001770,-0.002299,1.7188,-0.4681,-1.1177,0.205553,-0.208621,0.000000,0.587515,-0.592117,0.549165,-0.590583,0.567573,-0.556835
3.8105,0.016785,0.000000,0.000000,0.000000,1.9620,0.0000,0.0000,0.146781,-0.146781,0.000547,0.001730,-0.002310,1.6721,-0.4562,-1.1768,0.193282,-0.199418,0.000000,0.585981,-0.592117,0.549165,-0.590583,0.567573,-0.556835
3.8273,0.016757,0.000000,0.000000,0.000000,1.9579,0.0000,0.0000,0.135171,-0.135171,0.000500,0.001772,-0.002297,1.7274,-0.4730,-1.1173,0.182544,-0.194816,0.000000,0.587515,-0.592117,0.549165,-0.590583,0.567573,-0.556835
3.8441,0.016787,0.000000,0.000000,0.000000,1.9534,0.0000,0.0000,0.123165,-0.123165,0.000505,0.001768,-0.002298,1.7217,-0.4713,-1.1235,0.171806,-0.185612,0.000000,0.587515,-0.592117,0.549165,-0.590583,0.567573,-0.556835
3.8609,0.016766,0.000000,0.000000,0.000000,1.9488,0.0000,0.0000,0.110831,-0.110831,0.000505,0.001768,-0.002298,1.7217,-0.4713,-1.1235,0.171806,-0.185612,0.000000,0.587515,-0.592117,0.549165,-0.590583,0.567573,-0.556835
3.8776,0.016743,0.000000,0.000000,0.000000,1.9440,0.0000,0.0000,0.098208,-0.098208,0.000505,0.001768,-0.002298,1.7217,-0.4713,-1.1235,0.156466,-0.168738,0.000000,0.587515,-0.592117,0.549165,-0.590583,0.567573,-0.556835
3.8944,0.016753,0.000000,0.000000,0.000000,1.9389,0.0000,0.0000,0.085306,-0.085306,0.000546,0.001730,-0.002310,1.6718,-0.4559,-1.1762,0.142660,-0.153398,0.000000,0.585981,-0.592117,0.549165,-0.590583,0.567573,-0.556835
3.9111,0.016749,0.000000,0.000000,0.000000,1.9337,0.0000,0.0000,0.072170,-0.072170,0.000542,0.001734,-0.002309,1.6770,-0.4575,-1.1708,0.115049,-0.124252,0.000000,0.585981,-0.592117,0.549165,-0.590583,0.567573,-0.556835
3.9279,0.016756,0.000000,0.000000,0.000000,1.9282,0.0000,0.0000,0.058829,-0.058829,0.000501,0.001772,-0.002297,1.7269,-0.4729,-1.1179,0.099709,-0.108913,0.000000,0.587515,-0.592117,0.549165,-0.590583,0.567573,-0.556835
3.9446,0.016766,0.000000,0.000000,0.000000,1.9225,0.0000,0.0000,0.045316,-0.045316,0.000505,0.001768,-0.002298,1.7217,-0.4713,-1.1234,0.081301,-0.088971,0.000000,0.587515,-0.592117,0.549165,-0.590583,0.567573,-0.556835
3.9614,0.016759,0.000000,0.000000,0.000000,1.9165,0.0000,0.0000,0.031684,-0.031684,0.000505,0.001768,-0.002298,1.7217,-0.4713,-1.1234,0.081301,-0.088971,0.000000,0.587515,-0.592117,0.549165,-0.590583,0.567573,-0.556835
3.9781,0.016755,0.000000,0.000000,0.000000,1.9104,0.0000,0.0000,0.017967,-0.017967,0.000505,0.001768,-0.002298,1.7217,-0.4713,-1.1234,0.081301,-0.088971,0.000000,0.587515,-0.592117,0.549165,-0.590583,0.567573,-0.556835
3.9952,0.017105,0.000000,0.000000,0.000000,1.9040,0.0000,0.0000,0.003913,-0.003913,0.000505,0.001768,-0.002298,1.7217,-0.4713,-1.1234,0.050621,-0.053689,0.000000,0.587515,-0.592117,0.549165,-0.590583,0.567573,-0.556835
4.0120,0.016763,0.000000,0.000000,0.000000,1.8974,0.0000,0.0000,-0.009872,0.009872,0.000505,0.001768,-0.002298,1.7217,-0.4713,-1.1234,0.038350,-0.038350,0.000000,0.587515,-0.592117,0.549165,-0.590583,0.567573,-0.556835
4.0287,0.016726,0.000000,0.000000,0.000000,1.8906,0.0000,0.0000,-0.023599,0.023599,0.000505,0.001768,-0.002298,1.7217,-0.4713,-1.1234,0.019942,-0.018408,0.000000,0.587515,-0.592117,0.549165,-0.590583,0.567573,-0.556835
4.0455,0.016761,0.000000,0.000000,0.000000,1.8837,0.0000,0.0000,-0.037289,0.037289,0.000505,0.001768,-0.002298,1.7217,-0.4713,-1.1234,0.001534,-0.001534,0.000000,0.585981,-0.592117,0.549165,-0.590583,0.567573,-0.556835
4.0623,0.016759,0.000000,0.000000,0.000000,1.8765,0.0000,0.0000,-0.050875,0.050875,0.000546,0.001730,-0.002310,1.6718,-0.4559,-1.1763,0.001534,-0.001534,0.000000,0.585981,-0.592117,0.549165,-0.590583,0.567573,-0.556835
4.0790,0.016757,0.000000,0.000000,0.000000,1.8691,0.0000,0.0000,-0.064318,0.064318,0.000500,0.001772,-0.002297,1.7275,-0.4731,-1.1173,-0.016874,0.016874,0.000000,0.587515,-0.592117,0.549165,-0.590583,0.567573,-0.556835
4.0958,0.016769,0.000000,0.000000,0.000000,1.8615,0.0000,0.0000,-0.077591,0.077591,0.000559,0.001751,-0.002286,1.7594,-0.5070,-1.1782,-0.033748,0.033748,0.000000,0.587515,-0.593651,0.549165,-0.590583,0.567573,-0.556835
4.1163,0.020490,0.000000,0.000000,0.000000,1.8519,0.0000,0.0000,-0.093515,0.093515,0.000559,0.001751,-0.002286,1.7594,-0.5070,-1.1782,-0.033748,0.033748,0.000000,0.587515,-0.593651,0.549165,-0.590583,0.567573,-0.556835
4.1332,0.016933,0.000000,0.000000,0.000000,1.8438,0.0000,0.0000,-0.106384,0.106384,0.000559,0.001751,-0.002286,1.7594,-0.5070,-1.1782,-0.033748,0.033748,0.000000,0.587515,-0.593651,0.549165,-0.590583,0.567573,-0.556835
4.1500,0.016758,0.000000,0.000000,0.000000,1.8355,0.0000,0.0000,-0.118825,0.118825,0.000541,0.001732,-0.002311,1.6679,-0.4522,-1.1706,-0.058291,0.055223,0.000000,0.585981,-0.592117,0.549165,-0.590583,0.567573,-0.556835
4.1667,0.016761,0.000000,0.000000,0.000000,1.8271,0.0000,0.0000,-0.130938,0.130938,0.000501,0.001772,-0.002296,1.7279,-0.4734,-1.1179,-0.072097,0.069029,0.000000,0.587515,-0.592117,0.549165,-0.590583,0.567573,-0.556835
4.1835,0.016743,0.000000,0.000000,0.000000,1.8184,0.0000,0.0000,-0.142677,0.142677,0.000505,0.001768,-0.002298,1.7216,-0.4712,-1.1234,-0.070563,0.069029,0.000000,0.587515,-0.592117,0.549165,-0.590583,0.567573,-0.556835
4.2002,0.016773,0.000000,0.000000,0.000000,1.8095,0.0000,0.0000,-0.154040,0.154040,0.000505,0.001768,-0.002298,1.7216,-0.4712,-1.1234,-0.070563,0.069029,0.000000,0.587515,-0.592117,0.549165,-0.590583,0.567573,-0.556835
4.2170,0.016747,0.000000,0.000000,0.000000,1.8005,0.0000,0.0000,-0.164959,0.164959,0.000505,0.001768,-0.002298,1.7216,-0.4712,-1.1234,-0.065961,0.065961,0.000000,0.587515,-0.592117,0.549165,-0.590583,0.567573,-0.556835
4.2337,0.016748,0.000000,0.000000,0.000000,1.7912,0.0000,0.0000,-0.175422,0.175422,0.000505,0.001768,-0.002298,1.7216,-0.4712,-1.1234,-0.085903,0.082835,0.000000,0.587515,-0.592117,0.549165,-0.590583,0.567573,-0.556835
4.2505,0.016744,0.000000,0.000000,0.000000,1.7817,0.0000,0.0000,-0.185398,0.185398,0.000505,0.001768,-0.002298,1.7216,-0.4712,-1.1234,-0.122718,0.118117,0.000000,0.587515,-0.592117,0.549165,-0.590583,0.567573,-0.556835
4.2672,0.016764,0.000000,0.000000,0.000000,1.7721,0.0000,0.0000,-0.194871,0.194871,0.000505,0.001768,-0.002298,1.7216,-0.4712,-1.1234,-0.153398,0.154932,0.000000,0.587515,-0.592117,0.549165,-0.590583,0.567573,-0.556835
4.2840,0.016732,0.000000,0.000000,0.000000,1.7622,0.0000,0.0000,-0.203787,0.203787,0.000546,0.001730,-0.002310,1.6718,-0.4559,-1.1763,-0.181010,0.181010,0.000000,0.585981,-0.592117,0.549165,-0.590583,0.567573,-0.556835
4.3007,0.016765,0.000000,0.000000,0.000000,1.7522,0.0000,0.0000,-0.212156,0.212156,0.000546,0.001730,-0.002310,1.6718,-0.4559,-1.1763,-0.181010,0.181010,0.000000,0.585981,-0.592117,0.549165,-0.590583,0.567573,-0.556835
4.3175,0.016742,0.000000,0.000000,0.000000,1.7419,0.0000,0.0000,-0.219927,0.219927,0.000487,0.001828,-0.002286,1.7380,-0.4230,-1.1706,-0.191748,0.185612,0.000000,0.587515,-0.592117,0.549165,-0.592117,0.567573,-0.556835
4.3342,0.016753,0.000000,0.000000,0.000000,1.7315,0.0000,0.0000,-0.227094,0.227094,0.000507,0.001762,-0.002299,1.7205,-0.4765,-1.1179,-0.188680,0.182544,0.000000,0.587515,-0.592117,0.549165,-0.590583,0.567573,-0.556835
4.3510,0.016744,0.000000,0.000000,0.000000,1.7209,0.0000,0.0000,-0.233629,0.233629,0.000505,0.001769,-0.002298,1.7224,-0.4709,-1.1234,-0.207087,0.207087,0.000000,0.587515,-0.592117,0.549165,-0.590583,0.567573,-0.556835
4.3677,0.016757,0.000000,0.000000,0.000000,1.7100,0.0000,0.0000,-0.239521,0.239521,0.000505,0.001769,-0.002298,1.7224,-0.4709,-1.1234,-0.207087,0.207087,0.000000,0.587515,-0.592117,0.549165,-0.590583,0.567573,-0.556835
4.3845,0.016746,0.000000,0.000000,0.000000,1.6990,0.0000,0.0000,-0.244747,0.244747,0.000505,0.001769,-0.002298,1.7224,-0.4709,-1.1234,-0.239301,0.236233,0.000000,0.587515,-0.592117,0.549165,-0.590583,0.567573,-0.556835
4.4012,0.016764,0.000000,0.000000,0.000000,1.6878,0.0000,0.0000,-0.249300,0.249300,0.000505,0.001769,-0.002298,1.7224,-0.4709,-1.1234,-0.239301,0.236233,0.000000,0.587515,-0.592117,0.549165,-0.590583,0.567573,-0.556835
4.4180,0.016740,0.000000,0.000000,0.000000,1.6764,0.0000,0.0000,-0.253157,0.253157,0.000491,0.001824,-0.002287,1.7328,-0.4214,-1.1761,-0.237767,0.236233,0.000000,0.587515,-0.592117,0.549165,-0.592117,0.567573,-0.556835
4.4347,0.016745,0.000000,0.000000,0.000000,1.6649,0.0000,0.0000,-0.256315,0.256315,0.000506,0.001763,-0.002299,1.7211,-0.4766,-1.1174,-0.239301,0.236233,0.000000,0.587515,-0.592117,0.549165,-0.590583,0.567573,-0.556835
4.4515,0.016804,0.000000,0.000000,0.000000,1.6531,0.0000,0.0000,-0.258770,0.258770,0.000505,0.001769,-0.002298,1.7223,-0.4709,-1.1235,-0.251573,0.250039,0.000000,0.587515,-0.592117,0.549165,-0.590583,0.567573,-0.556835
4.4683,0.016758,0.000000,0.000000,0.000000,1.6411,0.0000,0.0000,-0.260501,0.260501,0.000505,0.001769,-0.002298,1.7223,-0.4709,-1.1235,-0.260777,0.259243,0.000000,0.587515,-0.592117,0.549165,-0.590583,0.567573,-0.556835
4.4850,0.016745,0.000000,0.000000,0.000000,1.6290,0.0000,0.0000,-0.261510,0.261510,0.000505,0.001769,-0.002298,1.7223,-0.4709,-1.1235,-0.259243,0.259243,0.000000,0.587515,-0.592117,0.549165,-0.590583,0.567573,-0.556835
4.5018,0.016756,0.000000,0.000000,0.000000,1.6167,0.0000,0.0000,-0.261795,0.261795,0.000505,0.001769,-0.002298,1.7223,-0.4709,-1.1235,-0.259243,0.259243,0.000000,0.587515,-0.592117,0.549165,-0.590583,0.567573,-0.556835
4.5185,0.016747,0.000000,0.000000,0.000000,1.6042,0.0000,0.0000,-0.261355,0.261355,0.000546,0.001730,-0.002310,1.6718,-0.4560,-1.1762,-0.259243,0.256175,0.000000,0.585981,-0.592117,0.549165,-0.590583,0.567573,-0.556835
4.5353,0.016749,0.000000,0.000000,0.000000,1.5916,0.0000,0.0000,-0.260192,0.260192,0.000542,0.001734,-0.002309,1.6770,-0.4575,-1.1708,-0.259243,0.256175,0.000000,0.585981,-0.592117,0.549165,-0.590583,0.567573,-0.556835
