t,loop_dt,cmd_x,cmd_y,cmd_z,cmd_roll,cmd_pitch,cmd_yaw,cmd_ant_l,cmd_ant_r,pres_x,pres_y,pres_z,pres_roll,pres_pitch,pres_yaw,pres_ant_l,pres_ant_r,pres_j0,pres_j1,pres_j2,pres_j3,pres_j4,pres_j5,pres_j6
0.0000,0.000001,-0.000584,0.000904,-0.001630,0.1049,0.9953,0.8254,-0.004602,-0.001534,-0.000584,0.000904,-0.001630,0.1049,0.9953,0.8254,-0.004602,-0.001534,0.000000,0.595185,-0.570641,0.593651,-0.604388,0.590583,-0.578311
0.0167,0.016741,-0.000574,0.000889,-0.001602,0.1030,0.9787,0.8115,-0.004525,-0.001508,-0.000584,0.000904,-0.001630,0.1049,0.9953,0.8254,0.000000,0.000000,0.000000,0.595185,-0.570641,0.593651,-0.604388,0.590583,-0.578311
0.0335,0.016750,-0.000564,0.000873,-0.001575,0.1012,0.9620,0.7977,-0.004448,-0.001483,-0.000624,0.000865,-0.001617,0.0560,0.9781,0.7719,0.003068,-0.001534,0.000000,0.595185,-0.570641,0.593651,-0.604388,0.590583,-0.579845
0.0502,0.016744,-0.000555,0.000858,-0.001548,0.0993,0.9454,0.7839,-0.004371,-0.001457,-0.000579,0.000908,-0.001631,0.1106,0.9973,0.8316,-0.003068,-0.001534,0.000000,0.595185,-0.570641,0.593651,-0.604388,0.590583,-0.578311
0.0670,0.016756,-0.000545,0.000843,-0.001521,0.0974,0.9287,0.7700,-0.004294,-0.001431,-0.000579,0.000908,-0.001631,0.1106,0.9973,0.8316,-0.007670,-0.001534,0.000000,0.593651,-0.569107,0.593651,-0.604388,0.590583,-0.576777
0.0837,0.016751,-0.000535,0.000828,-0.001493,0.0956,0.9121,0.7562,-0.004217,-0.001406,-0.000555,0.000919,-0.001667,0.0655,1.0635,0.8781,-0.007670,-0.001534,0.000000,0.593651,-0.569107,0.593651,-0.604388,0.590583,-0.576777
0.1005,0.016756,-0.000525,0.000813,-0.001466,0.0937,0.8954,0.7424,-0.004139,-0.001380,-0.000311,0.001058,-0.001812,0.0141,1.1578,0.8699,-0.003068,-0.001534,0.000000,0.587515,-0.566039,0.590583,-0.604388,0.590583,-0.570641
0.1172,0.016740,-0.000516,0.000798,-0.001439,0.0919,0.8787,0.7285,-0.004062,-0.001354,-0.000227,0.001027,-0.001822,0.0586,1.2494,0.9782,0.003068,-0.001534,0.000000,0.585981,-0.566039,0.592117,-0.604388,0.590583,-0.567573
0.1341,0.016851,-0.000506,0.000783,-0.001411,0.0900,0.8620,0.7146,-0.003985,-0.001328,-0.000208,0.001124,-0.001822,0.1144,1.3085,0.9666,-0.003068,-0.001534,0.000000,0.585981,-0.566039,0.592117,-0.605922,0.590583,-0.566039
0.1508,0.016747,-0.000496,0.000767,-0.001384,0.0882,0.8453,0.7008,-0.003908,-0.001303,-0.000169,0.001153,-0.001835,0.1584,1.3200,1.0217,-0.007670,-0.001534,0.000000,0.585981,-0.566039,0.592117,-0.605922,0.590583,-0.564505
0.1676,0.016754,-0.000486,0.000752,-0.001357,0.0863,0.8287,0.6869,-0.003831,-0.001277,-0.000169,0.001153,-0.001835,0.1584,1.3200,1.0217,-0.007670,-0.001534,0.000000,0.585981,-0.566039,0.592117,-0.605922,0.590583,-0.564505
0.1843,0.016745,-0.000476,0.000737,-0.001329,0.0845,0.8120,0.6731,-0.003754,-0.001251,-0.000133,0.001189,-0.001847,0.2036,1.3366,1.0699,-0.003068,-0.001534,0.000000,0.585981,-0.566039,0.592117,-0.605922,0.590583,-0.562971
0.2011,0.016743,-0.000467,0.000722,-0.001302,0.0827,0.7954,0.6593,-0.003677,-0.001226,-0.000164,0.001091,-0.001845,0.1384,1.2661,1.0651,0.001534,-0.001534,0.000000,0.585981,-0.566039,0.592117,-0.604388,0.590583,-0.564505
0.2178,0.016743,-0.000457,0.000707,-0.001275,0.0808,0.7787,0.6455,-0.003600,-0.001200,-0.000161,0.001101,-0.001845,0.1452,1.2734,1.0656,-0.001534,-0.001534,0.000000,0.585981,-0.566039,0.592117,-0.604388,0.590583,-0.564505
0.2346,0.016747,-0.000447,0.000692,-0.001247,0.0790,0.7620,0.6316,-0.003522,-0.001174,-0.000149,0.001155,-0.001858,0.1554,1.2220,1.0116,-0.007670,-0.001534,0.000000,0.585981,-0.566039,0.590583,-0.604388,0.590583,-0.564505
0.2515,0.016977,-0.000437,0.000676,-0.001220,0.0772,0.7452,0.6176,-0.003444,-0.001148,-0.000163,0.001205,-0.001845,0.1649,1.2784,0.9631,-0.003068,-0.001534,0.000000,0.585981,-0.566039,0.590583,-0.605922,0.590583,-0.564505
0.2683,0.016743,-0.000427,0.000661,-0.001192,0.0754,0.7285,0.6038,-0.003367,-0.001122,-0.000163,0.001205,-0.001845,0.1649,1.2784,0.9631,-0.003068,-0.001534,0.000000,0.585981,-0.566039,0.590583,-0.605922,0.590583,-0.564505
0.2850,0.016741,-0.000418,0.000646,-0.001165,0.0735,0.7118,0.5900,-0.003290,-0.001097,-0.000161,0.001089,-0.001845,0.1425,1.2722,1.0762,-0.001534,-0.001534,0.000000,0.585981,-0.566039,0.592117,-0.604388,0.590583,-0.564505
0.3018,0.016748,-0.000408,0.000631,-0.001138,0.0717,0.6952,0.5761,-0.003213,-0.001071,-0.000161,0.001101,-0.001845,0.1448,1.2728,1.0645,-0.001534,-0.001534,0.000000,0.585981,-0.566039,0.592117,-0.604388,0.590583,-0.564505
0.3185,0.016747,-0.000398,0.000616,-0.001111,0.0699,0.6785,0.5623,-0.003136,-0.001045,-0.000161,0.001101,-0.001845,0.1448,1.2728,1.0645,-0.004602,-0.001534,0.000000,0.585981,-0.566039,0.592117,-0.604388,0.590583,-0.564505
0.3353,0.016747,-0.000388,0.000601,-0.001083,0.0681,0.6619,0.5485,-0.003059,-0.001020,-0.000161,0.001101,-0.001845,0.1448,1.2728,1.0645,0.003068,-0.001534,0.000000,0.585981,-0.566039,0.592117,-0.604388,0.590583,-0.564505
0.3520,0.016752,-0.000378,0.000586,-0.001056,0.0663,0.6452,0.5346,-0.002982,-0.000994,-0.000161,0.001101,-0.001845,0.1448,1.2728,1.0645,0.000000,-0.001534,0.000000,0.585981,-0.566039,0.592117,-0.604388,0.590583,-0.564505
0.3688,0.016744,-0.000369,0.000570,-0.001029,0.0646,0.6285,0.5208,-0.002905,-0.000968,-0.000161,0.001101,-0.001845,0.1448,1.2728,1.0645,0.000000,-0.001534,0.000000,0.585981,-0.566039,0.592117,-0.604388,0.590583,-0.564505
0.3855,0.016745,-0.000359,0.000555,-0.001001,0.0628,0.6119,0.5070,-0.002828,-0.000943,-0.000161,0.001101,-0.001845,0.1448,1.2728,1.0645,-0.006136,-0.001534,0.000000,0.585981,-0.566039,0.592117,-0.604388,0.590583,-0.564505
0.4023,0.016747,-0.000349,0.000540,-0.000974,0.0610,0.5952,0.4932,-0.002751,-0.000917,-0.000161,0.001101,-0.001845,0.1448,1.2728,1.0645,-0.003068,-0.001534,0.000000,0.585981,-0.566039,0.592117,-0.604388,0.590583,-0.564505
0.4190,0.016743,-0.000339,0.000525,-0.000947,0.0592,0.5785,0.4793,-0.002674,-0.000891,-0.000161,0.001101,-0.001845,0.1448,1.2728,1.0645,0.004602,-0.001534,0.000000,0.585981,-0.566039,0.592117,-0.604388,0.590583,-0.564505
0.4358,0.016748,-0.000330,0.000510,-0.000920,0.0574,0.5619,0.4655,-0.002597,-0.000866,-0.000161,0.001101,-0.001845,0.1448,1.2728,1.0645,0.001534,-0.001534,0.000000,0.585981,-0.566039,0.592117,-0.604388,0.590583,-0.564505
0.4527,0.016933,-0.000320,0.000495,-0.000892,0.0556,0.5450,0.4515,-0.002519,-0.000840,-0.000161,0.001101,-0.001845,0.1448,1.2728,1.0645,-0.006136,-0.001534,0.000000,0.585981,-0.566039,0.592117,-0.604388,0.590583,-0.564505
0.4694,0.016743,-0.000310,0.000480,-0.000865,0.0539,0.5284,0.4377,-0.002442,-0.000814,-0.000161,0.001101,-0.001845,0.1448,1.2728,1.0645,-0.006136,-0.001534,0.000000,0.585981,-0.566039,0.592117,-0.604388,0.590583,-0.564505
0.4864,0.016973,-0.000300,0.000464,-0.000837,0.0521,0.5115,0.4237,-0.002364,-0.000788,-0.000161,0.001101,-0.001845,0.1448,1.2728,1.0645,-0.003068,-0.001534,0.000000,0.585981,-0.566039,0.592117,-0.604388,0.590583,-0.564505
0.5031,0.016742,-0.000290,0.000449,-0.000810,0.0503,0.4948,0.4099,-0.002287,-0.000762,-0.000161,0.001101,-0.001845,0.1448,1.2728,1.0645,-0.003068,-0.001534,0.000000,0.585981,-0.566039,0.592117,-0.604388,0.590583,-0.564505
0.5199,0.016749,-0.000280,0.000434,-0.000782,0.0486,0.4781,0.3961,-0.002209,-0.000736,-0.000161,0.001101,-0.001845,0.1448,1.2728,1.0645,0.003068,-0.001534,0.000000,0.585981,-0.566039,0.592117,-0.604388,0.590583,-0.564505
0.5366,0.016743,-0.000271,0.000419,-0.000755,0.0468,0.4615,0.3823,-0.002132,-0.000711,-0.000161,0.001101,-0.001845,0.1448,1.2728,1.0645,-0.006136,-0.001534,0.000000,0.585981,-0.566039,0.592117,-0.604388,0.590583,-0.564505
0.5534,0.016781,-0.000261,0.000404,-0.000728,0.0451,0.4448,0.3684,-0.002055,-0.000685,-0.000174,0.001155,-0.001833,0.1552,1.3238,1.0116,-0.003068,-0.001534,0.000000,0.585981,-0.566039,0.592117,-0.605922,0.590583,-0.564505
0.5703,0.016846,-0.000251,0.000388,-0.000700,0.0433,0.4280,0.3545,-0.001978,-0.000659,-0.000174,0.001155,-0.001833,0.1552,1.3238,1.0116,-0.003068,-0.001534,0.000000,0.585981,-0.566039,0.592117,-0.605922,0.590583,-0.564505
0.5877,0.017423,-0.000241,0.000373,-0.000672,0.0415,0.4106,0.3401,-0.001897,-0.000632,-0.000174,0.001155,-0.001833,0.1552,1.3238,1.0116,-0.003068,-0.001534,0.000000,0.585981,-0.566039,0.592117,-0.605922,0.590583,-0.564505
0.6044,0.016747,-0.000231,0.000357,-0.000645,0.0398,0.3940,0.3263,-0.001820,-0.000607,-0.000160,0.001094,-0.001846,0.1435,1.2674,1.0712,0.001534,-0.001534,0.000000,0.585981,-0.566039,0.592117,-0.604388,0.590583,-0.564505
0.6212,0.016758,-0.000221,0.000342,-0.000617,0.0381,0.3773,0.3125,-0.001743,-0.000581,-0.000161,0.001100,-0.001845,0.1447,1.2733,1.0650,-0.006136,-0.001534,0.000000,0.585981,-0.566039,0.592117,-0.604388,0.590583,-0.564505
0.6379,0.016746,-0.000211,0.000327,-0.000590,0.0363,0.3606,0.2987,-0.001666,-0.000555,-0.000161,0.001100,-0.001845,0.1447,1.2733,1.0650,-0.006136,-0.001534,0.000000,0.585981,-0.566039,0.592117,-0.604388,0.590583,-0.564505
0.6547,0.016756,-0.000202,0.000312,-0.000563,0.0346,0.3439,0.2848,-0.001589,-0.000530,-0.000161,0.001100,-0.001845,0.1447,1.2733,1.0650,-0.003068,-0.001534,0.000000,0.585981,-0.566039,0.592117,-0.604388,0.590583,-0.564505
0.6714,0.016745,-0.000192,0.000297,-0.000535,0.0329,0.3273,0.2710,-0.001512,-0.000504,-0.000161,0.001100,-0.001845,0.1447,1.2733,1.0650,0.003068,-0.001534,0.000000,0.585981,-0.566039,0.592117,-0.604388,0.590583,-0.564505
0.6883,0.016873,-0.000182,0.000282,-0.000508,0.0312,0.3104,0.2571,-0.001434,-0.000478,-0.000149,0.001155,-0.001858,0.1554,1.2220,1.0117,0.003068,-0.001534,0.000000,0.585981,-0.566039,0.590583,-0.604388,0.590583,-0.564505
0.7051,0.016747,-0.000172,0.000267,-0.000481,0.0295,0.2938,0.2433,-0.001357,-0.000452,-0.000163,0.001094,-0.001844,0.1435,1.2780,1.0712,-0.004602,-0.001534,0.000000,0.585981,-0.566039,0.592117,-0.604388,0.590583,-0.564505
0.7218,0.016772,-0.000162,0.000251,-0.000453,0.0277,0.2771,0.2294,-0.001280,-0.000427,-0.000163,0.001094,-0.001844,0.1435,1.2780,1.0712,-0.004602,-0.001534,0.000000,0.585981,-0.566039,0.592117,-0.604388,0.590583,-0.564505
0.7386,0.016745,-0.000153,0.000236,-0.000426,0.0260,0.2604,0.2156,-0.001203,-0.000401,-0.000161,0.001100,-0.001845,0.1447,1.2722,1.0650,-0.004602,-0.001534,0.000000,0.585981,-0.566039,0.592117,-0.604388,0.590583,-0.564505
0.7553,0.016760,-0.000143,0.000221,-0.000399,0.0243,0.2437,0.2018,-0.001126,-0.000375,-0.000161,0.001100,-0.001845,0.1447,1.2722,1.0650,0.003068,-0.001534,0.000000,0.585981,-0.566039,0.592117,-0.604388,0.590583,-0.564505
0.7721,0.016744,-0.000133,0.000206,-0.000371,0.0227,0.2270,0.1880,-0.001049,-0.000350,-0.000161,0.001100,-0.001845,0.1447,1.2722,1.0650,0.003068,-0.001534,0.000000,0.585981,-0.566039,0.592117,-0.604388,0.590583,-0.564505
0.7888,0.016760,-0.000123,0.000191,-0.000344,0.0210,0.2103,0.1742,-0.000972,-0.000324,-0.000161,0.001100,-0.001845,0.1447,1.2722,1.0650,-0.003068,-0.001534,0.000000,0.585981,-0.566039,0.592117,-0.604388,0.590583,-0.564505
0.8056,0.016747,-0.000114,0.000176,-0.000317,0.0193,0.1937,0.1603,-0.000895,-0.000298,-0.000161,0.001100,-0.001845,0.1447,1.2722,1.0650,-0.003068,-0.001534,0.000000,0.585981,-0.566039,0.592117,-0.604388,0.590583,-0.564505
0.8223,0.016754,-0.000104,0.000161,-0.000290,0.0176,0.1770,0.1465,-0.000818,-0.000273,-0.000161,0.001100,-0.001845,0.1447,1.2722,1.0650,0.001534,-0.001534,0.000000,0.585981,-0.566039,0.590583,-0.604388,0.590583,-0.564505
0.8391,0.016746,-0.000094,0.000145,-0.000262,0.0159,0.1603,0.1327,-0.000741,-0.000247,-0.000149,0.001155,-0.001858,0.1554,1.2221,1.0117,0.001534,-0.001534,0.000000,0.585981,-0.566039,0.590583,-0.604388,0.590583,-0.564505
0.8558,0.016750,-0.000084,0.000130,-0.000235,0.0142,0.1436,0.1189,-0.000663,-0.000221,-0.000163,0.001094,-0.001844,0.1435,1.2780,1.0712,0.003068,-0.001534,0.000000,0.585981,-0.566039,0.592117,-0.604388,0.590583,-0.564505
0.8726,0.016746,-0.000074,0.000115,-0.000208,0.0126,0.1269,0.1051,-0.000586,-0.000195,-0.000161,0.001100,-0.001845,0.1447,1.2722,1.0650,-0.003068,-0.001534,0.000000,0.585981,-0.566039,0.592117,-0.604388,0.590583,-0.564505
0.8894,0.016802,-0.000065,0.000100,-0.000180,0.0109,0.1102,0.0912,-0.000509,-0.000170,-0.000161,0.001100,-0.001845,0.1447,1.2722,1.0650,-0.004602,-0.001534,0.000000,0.585981,-0.566039,0.592117,-0.604388,0.590583,-0.564505
0.9061,0.016747,-0.000055,0.000085,-0.000153,0.0092,0.0935,0.0774,-0.000432,-0.000144,-0.000161,0.001100,-0.001845,0.1447,1.2722,1.0650,0.001534,-0.001534,0.000000,0.585981,-0.566039,0.592117,-0.604388,0.590583,-0.564505
0.9229,0.016752,-0.000045,0.000070,-0.000126,0.0076,0.0768,0.0636,-0.000355,-0.000118,-0.000161,0.001100,-0.001845,0.1447,1.2722,1.0650,0.001534,-0.001534,0.000000,0.585981,-0.566039,0.592117,-0.604388,0.590583,-0.564505
0.9396,0.016744,-0.000035,0.000055,-0.000098,0.0059,0.0601,0.0498,-0.000278,-0.000093,-0.000161,0.001100,-0.001845,0.1447,1.2722,1.0650,0.003068,-0.001534,0.000000,0.585981,-0.566039,0.592117,-0.604388,0.590583,-0.564505
0.9564,0.016750,-0.000025,0.000039,-0.000071,0.0043,0.0435,0.0360,-0.000201,-0.000067,-0.000161,0.001100,-0.001845,0.1447,1.2722,1.0650,-0.003068,-0.001534,0.000000,0.585981,-0.566039,0.592117,-0.604388,0.590583,-0.564505
0.9731,0.016743,-0.000016,0.000024,-0.000044,0.0026,0.0268,0.0222,-0.000124,-0.000041,-0.000161,0.001100,-0.001845,0.1447,1.2722,1.0650,-0.004602,-0.001534,0.000000,0.585981,-0.566039,0.592117,-0.604388,0.590583,-0.564505
0.9899,0.016755,-0.000006,0.000009,-0.000017,0.0010,0.0101,0.0084,-0.000047,-0.000016,-0.000161,0.001100,-0.001845,0.1447,1.2722,1.0650,-0.001534,-0.001534,0.000000,0.585981,-0.566039,0.592117,-0.604388,0.590583,-0.564505
1.0066,0.016748,0.000000,0.000000,0.000010,0.0000,0.0000,0.0000,0.002722,-0.002722,-0.000161,0.001100,-0.001845,0.1447,1.2722,1.0650,0.003068,-0.001534,0.000000,0.585981,-0.566039,0.592117,-0.604388,0.590583,-0.564505
1.0234,0.016748,0.000000,0.000000,0.000037,0.0000,0.0000,0.0000,0.009608,-0.009608,-0.000161,0.001100,-0.001845,0.1447,1.2722,1.0650,0.003068,-0.001534,0.000000,0.585981,-0.566039,0.592117,-0.604388,0.590583,-0.564505
1.0401,0.016744,0.000000,0.000000,0.000063,0.0000,0.0000,0.0000,0.016485,-0.016485,-0.000174,0.001155,-0.001833,0.1552,1.3239,1.0115,-0.001534,-0.001534,0.000000,0.585981,-0.566039,0.592117,-0.605922,0.590583,-0.564505
1.0569,0.016747,0.000000,0.000000,0.000089,0.0000,0.0000,0.0000,0.023351,-0.023351,-0.000160,0.001094,-0.001846,0.1435,1.2674,1.0712,-0.004602,-0.001534,0.000000,0.585981,-0.566039,0.592117,-0.604388,0.590583,-0.564505
1.0736,0.016740,0.000000,0.000000,0.000116,0.0000,0.0000,0.0000,0.030199,-0.030199,-0.000161,0.001100,-0.001845,0.1447,1.2733,1.0650,0.000000,-0.001534,0.000000,0.585981,-0.566039,0.592117,-0.604388,0.590583,-0.564505
1.0904,0.016751,0.000000,0.000000,0.000142,0.0000,0.0000,0.0000,0.037031,-0.037031,-0.000161,0.001100,-0.001845,0.1447,1.2733,1.0650,0.012272,-0.004602,0.000000,0.585981,-0.566039,0.592117,-0.604388,0.590583,-0.564505
1.1071,0.016740,0.000000,0.000000,0.000168,0.0000,0.0000,0.0000,0.043832,-0.043832,-0.000161,0.001100,-0.001845,0.1447,1.2733,1.0650,0.019942,-0.012272,0.000000,0.585981,-0.566039,0.592117,-0.604388,0.590583,-0.564505
1.1238,0.016740,0.000000,0.000000,0.000194,0.0000,0.0000,0.0000,0.050603,-0.050603,-0.000161,0.001100,-0.001845,0.1447,1.2733,1.0650,0.019942,-0.012272,0.000000,0.585981,-0.566039,0.592117,-0.604388,0.590583,-0.564505
1.1406,0.016745,0.000000,0.000000,0.000221,0.0000,0.0000,0.0000,0.057341,-0.057341,-0.000174,0.001155,-0.001833,0.1552,1.3237,1.0115,0.029146,-0.021476,0.000000,0.585981,-0.566039,0.592117,-0.605922,0.590583,-0.564505
1.1573,0.016758,0.000000,0.000000,0.000247,0.0000,0.0000,0.0000,0.064044,-0.064044,-0.000160,0.001094,-0.001846,0.1435,1.2674,1.0712,0.038350,-0.032214,0.000000,0.585981,-0.566039,0.592117,-0.604388,0.590583,-0.564505
1.1741,0.016749,0.000000,0.000000,0.000273,0.0000,0.0000,0.0000,0.070700,-0.070700,-0.000174,0.001156,-0.001833,0.1553,1.3244,1.0108,0.042951,-0.042951,0.000000,0.585981,-0.566039,0.592117,-0.605922,0.590583,-0.564505
1.1914,0.017309,0.000000,0.000000,0.000300,0.0000,0.0000,0.0000,0.077526,-0.077526,-0.000160,0.001094,-0.001846,0.1435,1.2674,1.0713,0.042951,-0.052155,0.000000,0.585981,-0.566039,0.592117,-0.604388,0.590583,-0.564505
1.2081,0.016749,0.000000,0.000000,0.000327,0.0000,0.0000,0.0000,0.084078,-0.084078,-0.000174,0.001156,-0.001833,0.1553,1.3244,1.0108,0.050621,-0.061359,0.000000,0.585981,-0.566039,0.592117,-0.605922,0.590583,-0.564505
1.2249,0.016756,0.000000,0.000000,0.000353,0.0000,0.0000,0.0000,0.090573,-0.090573,-0.000173,0.001149,-0.001834,0.1541,1.3184,1.0171,0.065961,-0.070563,0.000000,0.585981,-0.566039,0.592117,-0.605922,0.590583,-0.564505
1.2417,0.016753,0.000000,0.000000,0.000379,0.0000,0.0000,0.0000,0.097005,-0.097005,-0.000173,0.001149,-0.001834,0.1541,1.3184,1.0171,0.065961,-0.070563,0.000000,0.585981,-0.566039,0.592117,-0.605922,0.590583,-0.564505
1.2584,0.016749,0.000000,0.000000,0.000405,0.0000,0.0000,0.0000,0.103369,-0.103369,-0.000160,0.001095,-0.001846,0.1436,1.2680,1.0706,0.081301,-0.075165,0.000000,0.585981,-0.566039,0.592117,-0.604388,0.590583,-0.564505
1.2751,0.016743,0.000000,0.000000,0.000432,0.0000,0.0000,0.0000,0.109658,-0.109658,-0.000174,0.001156,-0.001833,0.1553,1.3243,1.0109,0.082835,-0.078233,0.000000,0.585981,-0.566039,0.592117,-0.605922,0.590583,-0.564505
1.2919,0.016756,0.000000,0.000000,0.000458,0.0000,0.0000,0.0000,0.115877,-0.115877,-0.000173,0.001149,-0.001834,0.1541,1.3184,1.0171,0.082835,-0.081301,0.000000,0.585981,-0.566039,0.592117,-0.605922,0.590583,-0.564505
1.3087,0.016777,0.000000,0.000000,0.000484,0.0000,0.0000,0.0000,0.122022,-0.122022,-0.000160,0.001095,-0.001846,0.1436,1.2680,1.0706,0.093573,-0.090505,0.000000,0.585981,-0.566039,0.592117,-0.604388,0.590583,-0.564505
1.3256,0.016927,0.000000,0.000000,0.000511,0.0000,0.0000,0.0000,0.128137,-0.128137,-0.000160,0.001095,-0.001846,0.1436,1.2680,1.0706,0.093573,-0.090505,0.000000,0.585981,-0.566039,0.592117,-0.604388,0.590583,-0.564505
1.3423,0.016741,0.000000,0.000000,0.000537,0.0000,0.0000,0.0000,0.134095,-0.134095,-0.000174,0.001156,-0.001833,0.1553,1.3243,1.0109,0.108913,-0.101243,0.000000,0.585981,-0.566039,0.592117,-0.605922,0.590583,-0.564505
1.3591,0.016749,0.000000,0.000000,0.000563,0.0000,0.0000,0.0000,0.139964,-0.139964,-0.000173,0.001149,-0.001834,0.1541,1.3184,1.0171,0.119651,-0.111981,0.000000,0.585981,-0.566039,0.592117,-0.605922,0.590583,-0.564505
1.3758,0.016744,0.000000,0.000000,0.000589,0.0000,0.0000,0.0000,0.145734,-0.145734,-0.000173,0.001149,-0.001834,0.1541,1.3184,1.0171,0.119651,-0.119651,0.000000,0.585981,-0.566039,0.592117,-0.605922,0.590583,-0.564505
1.3926,0.016751,0.000000,0.000000,0.000615,0.0000,0.0000,0.0000,0.151405,-0.151405,-0.000173,0.001149,-0.001834,0.1541,1.3184,1.0171,0.118117,-0.128854,0.000000,0.585981,-0.566039,0.592117,-0.605922,0.590583,-0.564505
1.4093,0.016753,0.000000,0.000000,0.000641,0.0000,0.0000,0.0000,0.156973,-0.156973,-0.000173,0.001149,-0.001834,0.1541,1.3184,1.0171,0.128854,-0.134990,0.000000,0.585981,-0.566039,0.592117,-0.605922,0.590583,-0.564505
1.4261,0.016774,0.000000,0.000000,0.000667,0.0000,0.0000,0.0000,0.162438,-0.162438,-0.000173,0.001149,-0.001834,0.1541,1.3184,1.0171,0.128854,-0.134990,0.000000,0.585981,-0.566039,0.592117,-0.605922,0.590583,-0.564505
1.4429,0.016742,0.000000,0.000000,0.000693,0.0000,0.0000,0.0000,0.167781,-0.167781,-0.000120,0.001135,-0.001821,0.1940,1.2836,0.9635,0.145728,-0.142660,0.000000,0.585981,-0.567573,0.592117,-0.605922,0.590583,-0.564505
1.4597,0.016798,0.000000,0.000000,0.000720,0.0000,0.0000,0.0000,0.173024,-0.173024,-0.000084,0.001066,-0.001797,0.2186,1.3025,0.9701,0.153398,-0.150330,0.000000,0.585981,-0.569107,0.593651,-0.605922,0.590583,-0.564505
1.4764,0.016753,0.000000,0.000000,0.000746,0.0000,0.0000,0.0000,0.178134,-0.178134,-0.000035,0.001057,-0.001786,0.2557,1.2651,0.9163,0.153398,-0.158000,0.000000,0.585981,-0.570641,0.593651,-0.605922,0.590583,-0.564505
1.4932,0.016758,0.000000,0.000000,0.000772,0.0000,0.0000,0.0000,0.183122,-0.183122,-0.000040,0.001058,-0.001788,0.2518,1.2690,0.9219,0.151864,-0.159534,0.000000,0.585981,-0.570641,0.593651,-0.605922,0.590583,-0.564505
1.5099,0.016750,0.000000,0.000000,0.000798,0.0000,0.0000,0.0000,0.187981,-0.187981,-0.000040,0.001058,-0.001788,0.2518,1.2690,0.9219,0.162602,-0.165670,0.000000,0.585981,-0.570641,0.593651,-0.605922,0.590583,-0.564505
1.5266,0.016729,0.000000,0.000000,0.000823,0.0000,0.0000,0.0000,0.192704,-0.192704,-0.000040,0.001058,-0.001788,0.2518,1.2690,0.9219,0.162602,-0.165670,0.000000,0.585981,-0.570641,0.593651,-0.605922,0.590583,-0.564505
1.5434,0.016740,0.000000,0.000000,0.000849,0.0000,0.0000,0.0000,0.197296,-0.197296,-0.000080,0.001019,-0.001774,0.2024,1.2509,0.8674,0.177942,-0.173340,0.000000,0.585981,-0.570641,0.593651,-0.605922,0.590583,-0.566039
1.5601,0.016755,0.000000,0.000000,0.000875,0.0000,0.0000,0.0000,0.201757,-0.201757,-0.000116,0.000984,-0.001763,0.1578,1.2353,0.8192,0.185612,-0.184078,0.000000,0.585981,-0.570641,0.593651,-0.605922,0.590583,-0.567573
1.5769,0.016744,0.000000,0.000000,0.000901,0.0000,0.0000,0.0000,0.206074,-0.206074,-0.000113,0.000988,-0.001764,0.1624,1.2369,0.8242,0.182544,-0.188680,0.000000,0.585981,-0.570641,0.593651,-0.605922,0.590583,-0.567573
1.5937,0.016778,0.000000,0.000000,0.000927,0.0000,0.0000,0.0000,0.210258,-0.210258,-0.000154,0.000949,-0.001751,0.1122,1.2192,0.7697,0.181010,-0.188680,0.000000,0.585981,-0.570641,0.593651,-0.605922,0.590583,-0.569107
1.6105,0.016873,0.000000,0.000000,0.000953,0.0000,0.0000,0.0000,0.214318,-0.214318,-0.000154,0.000949,-0.001751,0.1122,1.2192,0.7697,0.181010,-0.188680,0.000000,0.585981,-0.570641,0.593651,-0.605922,0.590583,-0.569107
1.6273,0.016755,0.000000,0.000000,0.000979,0.0000,0.0000,0.0000,0.218200,-0.218200,-0.000154,0.000949,-0.001751,0.1122,1.2192,0.7697,0.181010,-0.188680,0.000000,0.585981,-0.570641,0.593651,-0.605922,0.590583,-0.569107
1.6443,0.016975,0.000000,0.000000,0.001005,0.0000,0.0000,0.0000,0.221980,-0.221980,-0.000477,0.000954,-0.001654,0.1163,1.0891,0.7769,0.213223,-0.208621,0.000000,0.592117,-0.570641,0.593651,-0.605922,0.590583,-0.575243
1.6610,0.016753,0.000000,0.000000,0.001031,0.0000,0.0000,0.0000,0.225555,-0.225555,-0.000526,0.000954,-0.001640,0.1155,1.0697,0.7765,0.210155,-0.207087,0.000000,0.593651,-0.570641,0.593651,-0.605922,0.590583,-0.576777
1.6778,0.016758,0.000000,0.000000,0.001057,0.0000,0.0000,0.0000,0.228975,-0.228975,-0.000526,0.000954,-0.001640,0.1155,1.0697,0.7765,0.210155,-0.207087,0.000000,0.593651,-0.570641,0.593651,-0.605922,0.590583,-0.576777
1.6945,0.016756,0.000000,0.000000,0.001082,0.0000,0.0000,0.0000,0.232236,-0.232236,-0.000643,0.000915,-0.001604,0.0658,1.0213,0.7228,0.205553,-0.208621,0.000000,0.595185,-0.570641,0.593651,-0.605922,0.590583,-0.579845
1.7113,0.016748,0.000000,0.000000,0.001108,0.0000,0.0000,0.0000,0.235334,-0.235334,-0.000713,0.000920,-0.001584,0.0708,0.9933,0.7288,0.219359,-0.217825,0.000000,0.596719,-0.570641,0.593651,-0.605922,0.590583,-0.581379
1.7280,0.016750,0.000000,0.000000,0.001134,0.0000,0.0000,0.0000,0.238270,-0.238270,-0.000829,0.000959,-0.001551,0.1192,0.9477,0.7831,0.231631,-0.225495,0.000000,0.599786,-0.570641,0.593651,-0.605922,0.590583,-0.582913
1.7448,0.016749,0.000000,0.000000,0.001159,0.0000,0.0000,0.0000,0.241041,-0.241041,-0.000859,0.000994,-0.001543,0.1632,0.9370,0.8320,0.231631,-0.233165,0.000000,0.601320,-0.570641,0.593651,-0.605922,0.590583,-0.582913
1.7616,0.016810,0.000000,0.000000,0.001185,0.0000,0.0000,0.0000,0.243655,-0.243655,-0.000938,0.000991,-0.001520,0.1583,0.9051,0.8273,0.228563,-0.234699,0.000000,0.602854,-0.570641,0.593651,-0.605922,0.590583,-0.584447
1.7783,0.016746,0.000000,0.000000,0.001210,0.0000,0.0000,0.0000,0.246089,-0.246089,-0.000938,0.000991,-0.001520,0.1583,0.9051,0.8273,0.228563,-0.234699,0.000000,0.602854,-0.570641,0.593651,-0.605922,0.590583,-0.584447
1.7951,0.016751,0.000000,0.000000,0.001236,0.0000,0.0000,0.0000,0.248354,-0.248354,-0.001012,0.000992,-0.001498,0.1585,0.8754,0.8282,0.237767,-0.237767,0.000000,0.604388,-0.570641,0.593651,-0.605922,0.590583,-0.585981
1.8118,0.016746,0.000000,0.000000,0.001261,0.0000,0.0000,0.0000,0.250446,-0.250446,-0.001004,0.000992,-0.001501,0.1584,0.8785,0.8281,0.242369,-0.242369,0.000000,0.604388,-0.570641,0.593651,-0.605922,0.590583,-0.585981
1.8286,0.016758,0.000000,0.000000,0.001287,0.0000,0.0000,0.0000,0.252367,-0.252367,-0.001004,0.000992,-0.001501,0.1584,0.8785,0.8281,0.242369,-0.242369,0.000000,0.604388,-0.570641,0.593651,-0.605922,0.590583,-0.585981
1.8453,0.016746,0.000000,0.000000,0.001312,0.0000,0.0000,0.0000,0.254111,-0.254111,-0.000964,0.000952,-0.001511,0.1095,0.8936,0.7735,0.242369,-0.243903,0.000000,0.602854,-0.570641,0.593651,-0.605922,0.590583,-0.585981
1.8621,0.016771,0.000000,0.000000,0.001338,0.0000,0.0000,0.0000,0.255682,-0.255682,-0.000964,0.000952,-0.001511,0.1095,0.8936,0.7735,0.254641,-0.250039,0.000000,0.604388,-0.570641,0.593651,-0.605922,0.590583,-0.585981
1.8788,0.016742,0.000000,0.000000,0.001363,0.0000,0.0000,0.0000,0.257073,-0.257073,-0.001009,0.000996,-0.001499,0.1636,0.8766,0.8338,0.254641,-0.250039,0.000000,0.604388,-0.570641,0.593651,-0.605922,0.590583,-0.585981
1.8956,0.016754,0.000000,0.000000,0.001388,0.0000,0.0000,0.0000,0.258287,-0.258287,-0.001017,0.001047,-0.001489,0.1692,0.9293,0.7733,0.256175,-0.254641,0.000000,0.604388,-0.570641,0.593651,-0.607456,0.590583,-0.585981
1.9124,0.016757,0.000000,0.000000,0.001414,0.0000,0.0000,0.0000,0.259323,-0.259323,-0.001030,0.001097,-0.001478,0.1799,0.9747,0.7254,0.250039,-0.254641,0.000000,0.604388,-0.570641,0.593651,-0.608990,0.590583,-0.585981
1.9291,0.016775,0.000000,0.000000,0.001439,0.0000,0.0000,0.0000,0.260179,-0.260179,-0.001028,0.001092,-0.001479,0.1788,0.9699,0.7304,0.253107,-0.254641,0.000000,0.604388,-0.570641,0.593651,-0.608990,0.590583,-0.585981
1.9459,0.016748,0.000000,0.000000,0.001464,0.0000,0.0000,0.0000,0.260854,-0.260854,-0.000987,0.001053,-0.001490,0.1299,0.9859,0.6752,0.260777,-0.257709,0.000000,0.602854,-0.570641,0.593651,-0.608990,0.590583,-0.585981
1.9627,0.016788,0.000000,0.000000,0.001489,0.0000,0.0000,0.0000,0.261349,-0.261349,-0.000987,0.001053,-0.001490,0.1299,0.9859,0.6752,0.260777,-0.257709,0.000000,0.602854,-0.570641,0.593651,-0.608990,0.590583,-0.585981
1.9794,0.016749,0.000000,0.000000,0.001514,0.0000,0.0000,0.0000,0.261663,-0.261663,-0.001059,0.001208,-0.001455,0.2067,1.0704,0.6271,0.259243,-0.260777,0.000000,0.604388,-0.570641,0.593651,-0.612058,0.590583,-0.585981
1.9962,0.016749,0.000000,0.000000,0.001539,0.0000,0.0000,0.0000,0.261795,-0.261795,-0.001064,0.001247,-0.001447,0.2100,1.1122,0.5779,0.256175,-0.260777,0.000000,0.604388,-0.570641,0.593651,-0.613592,0.590583,-0.585981
2.0129,0.016748,0.000000,0.000000,0.001564,0.0000,0.0000,0.0000,0.261746,-0.261746,-0.001052,0.001267,-0.001424,0.2985,1.0572,0.5845,0.263845,-0.260777,0.000000,0.605922,-0.572175,0.593651,-0.613592,0.590583,-0.585981
2.0297,0.016767,0.000000,0.000000,0.001589,0.0000,0.0000,0.0000,0.261515,-0.261515,-0.000893,0.001218,-0.001386,0.4082,0.9572,0.4239,0.262311,-0.260777,0.000000,0.605922,-0.576777,0.593651,-0.613592,0.590583,-0.585981
2.0464,0.016752,0.000000,0.000000,0.001614,0.0000,0.0000,0.0000,0.261103,-0.261103,-0.000790,0.001215,-0.001339,0.5641,0.8465,0.3348,0.257709,-0.260777,0.000000,0.607456,-0.581379,0.593651,-0.613592,0.590583,-0.585981
2.0632,0.016771,0.000000,0.000000,0.001639,0.0000,0.0000,0.0000,0.260510,-0.260510,-0.000586,0.001183,-0.001292,0.6261,0.7185,0.2366,0.262311,-0.260777,0.000000,0.607456,-0.585981,0.593651,-0.613592,0.592117,-0.585981
2.0799,0.016743,0.000000,0.000000,0.001664,0.0000,0.0000,0.0000,0.259738,-0.259738,-0.000586,0.001183,-0.001292,0.6261,0.7185,0.2366,0.262311,-0.260777,0.000000,0.607456,-0.585981,0.593651,-0.613592,0.592117,-0.585981
2.0967,0.016741,0.000000,0.000000,0.001689,0.0000,0.0000,0.0000,0.258786,-0.258786,-0.000434,0.001193,-0.001234,0.7466,0.5769,0.1933,0.260777,-0.260777,0.000000,0.608990,-0.590583,0.593651,-0.613592,0.593651,-0.585981
2.1134,0.016743,0.000000,0.000000,0.001714,0.0000,0.0000,0.0000,0.257655,-0.257655,-0.000222,0.001182,-0.001165,0.8996,0.4015,0.0896,0.259243,-0.260777,0.000000,0.610524,-0.596719,0.593651,-0.613592,0.595185,-0.585981
2.1302,0.016749,0.000000,0.000000,0.001738,0.0000,0.0000,0.0000,0.256345,-0.256345,-0.000096,0.001301,-0.001088,1.0313,0.3656,-0.0625,0.260777,-0.260777,0.000000,0.612058,-0.601320,0.593651,-0.616660,0.596719,-0.585981
2.1469,0.016745,0.000000,0.000000,0.001763,0.0000,0.0000,0.0000,0.254858,-0.254858,0.000053,0.001351,-0.001023,1.1538,0.2644,-0.1560,0.257709,-0.259243,0.000000,0.613592,-0.605922,0.593651,-0.618194,0.598253,-0.585981
2.1637,0.016770,0.000000,0.000000,0.001787,0.0000,0.0000,0.0000,0.253192,-0.253192,0.000053,0.001351,-0.001023,1.1538,0.2644,-0.1560,0.256175,-0.259243,0.000000,0.613592,-0.607456,0.593651,-0.619728,0.601320,-0.585981
2.1804,0.016742,0.000000,0.000000,0.001812,0.0000,0.0000,0.0000,0.251354,-0.251354,0.000187,0.001416,-0.000982,1.1114,0.2220,-0.1475,0.256175,-0.259243,0.000000,0.613592,-0.607456,0.593651,-0.619728,0.601320,-0.585981
2.1972,0.016744,0.000000,0.000000,0.001837,0.0000,0.0000,0.0000,0.249342,-0.249342,0.000268,0.001544,-0.000916,1.2240,0.2069,-0.2578,0.256175,-0.259243,0.000000,0.615126,-0.610524,0.593651,-0.622796,0.602854,-0.585981
2.2139,0.016747,0.000000,0.000000,0.001861,0.0000,0.0000,0.0000,0.247156,-0.247156,0.000355,0.001586,-0.000887,1.2216,0.1891,-0.3014,0.254641,-0.259243,0.000000,0.615126,-0.612058,0.593651,-0.624330,0.604388,-0.585981
2.2307,0.016750,0.000000,0.000000,0.001885,0.0000,0.0000,0.0000,0.244800,-0.244800,0.000400,0.001676,-0.000843,1.2809,0.1566,-0.2976,0.254641,-0.256175,0.000000,0.616660,-0.613592,0.593651,-0.625864,0.605922,-0.585981
2.2474,0.016741,0.000000,0.000000,0.001910,0.0000,0.0000,0.0000,0.242275,-0.242275,0.000339,0.001762,-0.000825,1.3351,0.1950,-0.2977,0.254641,-0.254641,0.000000,0.618194,-0.613592,0.593651,-0.627398,0.605922,-0.585981
2.2642,0.016756,0.000000,0.000000,0.001934,0.0000,0.0000,0.0000,0.239580,-0.239580,0.000339,0.001762,-0.000825,1.3351,0.1950,-0.2977,0.254641,-0.254641,0.000000,0.618194,-0.613592,0.593651,-0.627398,0.605922,-0.585981
2.2809,0.016747,0.000000,0.000000,0.001958,0.0000,0.0000,0.0000,0.236721,-0.236721,0.000442,0.001841,-0.000792,1.2616,0.1735,-0.2442,0.254641,-0.254641,0.000000,0.618194,-0.613592,0.593651,-0.628932,0.608990,-0.585981
2.2977,0.016743,0.000000,0.000000,0.001982,0.0000,0.0000,0.0000,0.233699,-0.233699,0.000431,0.001833,-0.000796,1.2693,0.1757,-0.2498,0.253107,-0.254641,0.000000,0.618194,-0.613592,0.593651,-0.628932,0.608990,-0.585981
2.3144,0.016736,0.000000,0.000000,0.002006,0.0000,0.0000,0.0000,0.230516,-0.230516,0.000487,0.001849,-0.000783,1.2294,0.1418,-0.1952,0.251573,-0.253107,0.000000,0.618194,-0.613592,0.593651,-0.628932,0.610524,-0.585981
2.3311,0.016745,0.000000,0.000000,0.002031,0.0000,0.0000,0.0000,0.227173,-0.227173,0.000510,0.001865,-0.000748,1.1949,0.2132,-0.1466,0.246971,-0.248505,0.000000,0.618194,-0.613592,0.595185,-0.630466,0.612058,-0.585981
2.3481,0.016965,0.000000,0.000000,0.002055,0.0000,0.0000,0.0000,0.223625,-0.223625,0.000483,0.001787,-0.000688,1.1004,0.3074,-0.0970,0.240835,-0.242369,0.000000,0.618194,-0.613592,0.598253,-0.632000,0.613592,-0.587515
2.3649,0.016747,0.000000,0.000000,0.002079,0.0000,0.0000,0.0000,0.219967,-0.219967,0.000483,0.001787,-0.000688,1.1004,0.3074,-0.0970,0.240835,-0.242369,0.000000,0.618194,-0.613592,0.598253,-0.632000,0.613592,-0.587515
2.3816,0.016743,0.000000,0.000000,0.002103,0.0000,0.0000,0.0000,0.216158,-0.216158,0.000419,0.001647,-0.000654,1.0406,0.3828,-0.0471,0.234699,-0.234699,0.000000,0.618194,-0.613592,0.601320,-0.632000,0.613592,-0.589049
2.3984,0.016749,0.000000,0.000000,0.002127,0.0000,0.0000,0.0000,0.212198,-0.212198,0.000319,0.001474,-0.000605,0.9277,0.4427,-0.0515,0.227029,-0.230097,0.000000,0.618194,-0.613592,0.604388,-0.632000,0.613592,-0.592117
2.4151,0.016742,0.000000,0.000000,0.002150,0.0000,0.0000,0.0000,0.208092,-0.208092,0.000196,0.001305,-0.000533,0.8206,0.6054,-0.0503,0.222427,-0.227029,0.000000,0.618194,-0.613592,0.608990,-0.633534,0.613592,-0.595185
2.4318,0.016748,0.000000,0.000000,0.002174,0.0000,0.0000,0.0000,0.203842,-0.203842,0.000088,0.001190,-0.000477,0.7232,0.7063,-0.1046,0.220893,-0.225495,0.000000,0.618194,-0.613592,0.612058,-0.635068,0.613592,-0.598253
2.4487,0.016810,0.000000,0.000000,0.002198,0.0000,0.0000,0.0000,0.199433,-0.199433,-0.000009,0.001013,-0.000431,0.6140,0.7637,-0.0986,0.217825,-0.223961,0.000000,0.618194,-0.613592,0.615126,-0.635068,0.613592,-0.601320
2.4654,0.016759,0.000000,0.000000,0.002221,0.0000,0.0000,0.0000,0.194900,-0.194900,-0.000009,0.001013,-0.000431,0.6140,0.7637,-0.0986,0.217825,-0.223961,0.000000,0.618194,-0.613592,0.615126,-0.635068,0.613592,-0.601320
2.4822,0.016745,0.000000,0.000000,0.002245,0.0000,0.0000,0.0000,0.190235,-0.190235,-0.000094,0.000897,-0.000397,0.5165,0.7748,-0.1537,0.211689,-0.216291,0.000000,0.618194,-0.613592,0.616660,-0.635068,0.613592,-0.604388
2.4989,0.016751,0.000000,0.000000,0.002268,0.0000,0.0000,0.0000,0.185438,-0.185438,-0.000126,0.000870,-0.000388,0.4777,0.7569,-0.2027,0.204019,-0.207087,0.000000,0.618194,-0.613592,0.616660,-0.635068,0.613592,-0.605922
2.5156,0.016742,0.000000,0.000000,0.002292,0.0000,0.0000,0.0000,0.180514,-0.180514,-0.000164,0.000833,-0.000377,0.4327,0.7421,-0.2523,0.197884,-0.202485,0.000000,0.618194,-0.613592,0.616660,-0.635068,0.613592,-0.607456
2.5324,0.016747,0.000000,0.000000,0.002315,0.0000,0.0000,0.0000,0.175464,-0.175464,-0.000201,0.000798,-0.000365,0.3884,0.7270,-0.3019,0.196350,-0.200951,0.000000,0.618194,-0.613592,0.616660,-0.635068,0.613592,-0.608990
2.5492,0.016811,0.000000,0.000000,0.002339,0.0000,0.0000,0.0000,0.170273,-0.170273,-0.000197,0.000801,-0.000367,0.3931,0.7286,-0.2967,0.191748,-0.199418,0.000000,0.618194,-0.613592,0.616660,-0.635068,0.613592,-0.608990
2.5659,0.016742,0.000000,0.000000,0.002362,0.0000,0.0000,0.0000,0.164985,-0.164985,-0.000197,0.000801,-0.000367,0.3931,0.7286,-0.2967,0.191748,-0.199418,0.000000,0.618194,-0.613592,0.616660,-0.635068,0.613592,-0.608990
2.5827,0.016742,0.000000,0.000000,0.002385,0.0000,0.0000,0.0000,0.159583,-0.159583,-0.000294,0.000857,-0.000331,0.4040,0.7461,-0.3519,0.187146,-0.199418,0.000000,0.619728,-0.613592,0.616660,-0.636602,0.613592,-0.610524
2.5994,0.016748,0.000000,0.000000,0.002408,0.0000,0.0000,0.0000,0.154069,-0.154069,-0.000409,0.000891,-0.000299,0.4526,0.6963,-0.2911,0.179476,-0.197884,0.000000,0.622796,-0.613592,0.616660,-0.636602,0.613592,-0.612058
2.6162,0.016749,0.000000,0.000000,0.002431,0.0000,0.0000,0.0000,0.148447,-0.148447,-0.000481,0.000967,-0.000279,0.5460,0.6704,-0.1874,0.170272,-0.190214,0.000000,0.625864,-0.613592,0.616660,-0.636602,0.613592,-0.612058
2.6329,0.016748,0.000000,0.000000,0.002454,0.0000,0.0000,0.0000,0.142723,-0.142723,-0.000460,0.000903,-0.000292,0.5250,0.6232,-0.1435,0.167204,-0.179476,0.000000,0.625864,-0.613592,0.616660,-0.635068,0.613592,-0.612058
2.6499,0.016929,0.000000,0.000000,0.002477,0.0000,0.0000,0.0000,0.136837,-0.136837,-0.000460,0.000903,-0.000292,0.5250,0.6232,-0.1435,0.167204,-0.179476,0.000000,0.625864,-0.613592,0.616660,-0.635068,0.613592,-0.612058
2.6666,0.016764,0.000000,0.000000,0.002500,0.0000,0.0000,0.0000,0.130913,-0.130913,-0.000460,0.000903,-0.000292,0.5250,0.6232,-0.1435,0.167204,-0.179476,0.000000,0.625864,-0.613592,0.616660,-0.635068,0.613592,-0.612058
2.6834,0.016746,0.000000,0.000000,0.002523,0.0000,0.0000,0.0000,0.124905,-0.124905,-0.000644,0.001125,-0.000233,0.7349,0.6163,0.0175,0.148796,-0.148796,0.000000,0.632000,-0.613592,0.616660,-0.636602,0.613592,-0.612058
2.7001,0.016753,0.000000,0.000000,0.002545,0.0000,0.0000,0.0000,0.118808,-0.118808,-0.000667,0.001142,-0.000228,0.7619,0.6019,0.0558,0.144194,-0.148796,0.000000,0.633534,-0.613592,0.616660,-0.636602,0.613592,-0.612058
2.7169,0.016749,0.000000,0.000000,0.002568,0.0000,0.0000,0.0000,0.112630,-0.112630,-0.000667,0.001142,-0.000228,0.7619,0.6019,0.0558,0.144194,-0.148796,0.000000,0.633534,-0.613592,0.616660,-0.636602,0.613592,-0.612058
2.7336,0.016749,0.000000,0.000000,0.002591,0.0000,0.0000,0.0000,0.106374,-0.106374,-0.000731,0.000990,-0.000191,0.6881,0.6879,0.1067,0.141126,-0.147262,0.000000,0.633534,-0.613592,0.619728,-0.636602,0.613592,-0.613592
2.7504,0.016744,0.000000,0.000000,0.002613,0.0000,0.0000,0.0000,0.100046,-0.100046,-0.000779,0.000911,-0.000170,0.6357,0.7126,0.1014,0.134990,-0.141126,0.000000,0.633534,-0.613592,0.621262,-0.636602,0.613592,-0.615126
2.7671,0.016753,0.000000,0.000000,0.002635,0.0000,0.0000,0.0000,0.093646,-0.093646,-0.000800,0.000808,-0.000147,0.6188,0.8113,0.2118,0.121184,-0.130388,0.000000,0.633534,-0.613592,0.624330,-0.636602,0.613592,-0.615126
2.7839,0.016746,0.000000,0.000000,0.002658,0.0000,0.0000,0.0000,0.087183,-0.087183,-0.000827,0.000914,-0.000150,0.6806,0.7350,0.2006,0.110447,-0.116583,0.000000,0.635068,-0.613592,0.622796,-0.636602,0.613592,-0.615126
2.8006,0.016755,0.000000,0.000000,0.002680,0.0000,0.0000,0.0000,0.080657,-0.080657,-0.000827,0.000914,-0.000150,0.6806,0.7350,0.2006,0.110447,-0.116583,0.000000,0.635068,-0.613592,0.622796,-0.636602,0.613592,-0.615126
2.8174,0.016744,0.000000,0.000000,0.002702,0.0000,0.0000,0.0000,0.074079,-0.074079,-0.000866,0.000943,-0.000139,0.7230,0.7276,0.2570,0.098175,-0.104311,0.000000,0.636602,-0.613592,0.622796,-0.636602,0.613592,-0.615126
2.8341,0.016742,0.000000,0.000000,0.002724,0.0000,0.0000,0.0000,0.067450,-0.067450,-0.000862,0.000940,-0.000140,0.7185,0.7284,0.2511,0.090505,-0.095107,0.000000,0.636602,-0.613592,0.622796,-0.636602,0.613592,-0.615126
2.8509,0.016743,0.000000,0.000000,0.002746,0.0000,0.0000,0.0000,0.060775,-0.060775,-0.000918,0.000925,-0.000116,0.7565,0.7636,0.3620,0.084369,-0.085903,0.000000,0.638136,-0.613592,0.624330,-0.636602,0.613592,-0.615126
2.8676,0.016749,0.000000,0.000000,0.002768,0.0000,0.0000,0.0000,0.054055,-0.054055,-0.001009,0.001095,-0.000085,0.7867,0.7774,0.1864,0.084369,-0.078233,0.000000,0.639670,-0.613592,0.622796,-0.639670,0.613592,-0.616660
2.8843,0.016749,0.000000,0.000000,0.002790,0.0000,0.0000,0.0000,0.047298,-0.047298,-0.000919,0.001093,-0.000026,0.7439,0.6413,0.2587,0.075165,-0.067495,0.000000,0.641204,-0.615126,0.622796,-0.639670,0.616660,-0.618194
2.9011,0.016740,0.000000,0.000000,0.002812,0.0000,0.0000,0.0000,0.040512,-0.040512,-0.000919,0.001093,-0.000026,0.7439,0.6413,0.2587,0.075165,-0.067495,0.000000,0.641204,-0.615126,0.622796,-0.639670,0.616660,-0.618194
2.9178,0.016740,0.000000,0.000000,0.002834,0.0000,0.0000,0.0000,0.033698,-0.033698,-0.000845,0.001158,0.000053,0.5940,0.6881,0.3041,0.062893,-0.059825,0.000000,0.641204,-0.615126,0.624330,-0.642738,0.621262,-0.619728
2.9346,0.016741,0.000000,0.000000,0.002855,0.0000,0.0000,0.0000,0.026859,-0.026859,-0.000757,0.001240,0.000118,0.5444,0.6638,0.1886,0.053689,-0.055223,0.000000,0.641204,-0.616660,0.624330,-0.645806,0.624330,-0.621262
2.9513,0.016744,0.000000,0.000000,0.002877,0.0000,0.0000,0.0000,0.020002,-0.020002,-0.000740,0.001376,0.000158,0.4943,0.5664,0.1999,0.044485,-0.047553,0.000000,0.642738,-0.616660,0.622796,-0.647340,0.627398,-0.622796
2.9681,0.016741,0.000000,0.000000,0.002898,0.0000,0.0000,0.0000,0.013131,-0.013131,-0.000591,0.001547,0.000237,0.4929,0.5258,0.2530,0.038350,-0.039884,0.000000,0.644272,-0.618194,0.622796,-0.650408,0.632000,-0.622796
2.9848,0.016758,0.000000,0.000000,0.002920,0.0000,0.0000,0.0000,0.006245,-0.006245,-0.000591,0.001547,0.000237,0.4929,0.5258,0.2530,0.030680,-0.029146,0.000000,0.644272,-0.619728,0.622796,-0.653476,0.633534,-0.622796
3.0016,0.016749,0.000000,0.000000,0.002941,0.0000,0.0000,0.0000,-0.000643,0.000643,-0.000524,0.001642,0.000276,0.5151,0.5611,0.1371,0.030680,-0.029146,0.000000,0.644272,-0.619728,0.622796,-0.653476,0.633534,-0.622796
3.0183,0.016756,0.000000,0.000000,0.002962,0.0000,0.0000,0.0000,-0.007532,0.007532,-0.000434,0.001689,0.000308,0.5234,0.5384,0.0940,0.019942,-0.016874,0.000000,0.644272,-0.621262,0.622796,-0.655010,0.635068,-0.622796
3.0351,0.016741,0.000000,0.000000,0.002983,0.0000,0.0000,0.0000,-0.014410,0.014410,-0.000402,0.001757,0.000328,0.4949,0.5570,0.0980,0.010738,-0.012272,0.000000,0.644272,-0.621262,0.622796,-0.656544,0.636602,-0.622796
3.0518,0.016750,0.000000,0.000000,0.003004,0.0000,0.0000,0.0000,-0.021282,0.021282,-0.000419,0.001807,0.000373,0.5084,0.6075,0.2073,0.000000,-0.010738,0.000000,0.645806,-0.621262,0.624330,-0.658078,0.638136,-0.622796
3.0688,0.016953,0.000000,0.000000,0.003026,0.0000,0.0000,0.0000,-0.028222,0.028222,-0.000350,0.001809,0.000405,0.6324,0.5169,0.1420,-0.007670,-0.001534,0.000000,0.647340,-0.624330,0.624330,-0.658078,0.638136,-0.622796
3.0855,0.016759,0.000000,0.000000,0.003047,0.0000,0.0000,0.0000,-0.035063,0.035063,-0.000350,0.001809,0.000405,0.6324,0.5169,0.1420,-0.007670,-0.001534,0.000000,0.647340,-0.624330,0.624330,-0.658078,0.638136,-0.622796
3.1023,0.016743,0.000000,0.000000,0.003067,0.0000,0.0000,0.0000,-0.041874,0.041874,-0.000358,0.001777,0.000438,0.6957,0.5270,0.2045,-0.012272,0.012272,0.000000,0.648874,-0.625864,0.625864,-0.658078,0.638136,-0.622796
3.1190,0.016746,0.000000,0.000000,0.003088,0.0000,0.0000,0.0000,-0.048656,0.048656,-0.000274,0.001636,0.000487,0.7437,0.5565,0.1985,-0.021476,0.024544,0.000000,0.648874,-0.628932,0.628932,-0.658078,0.638136,-0.622796
3.1359,0.016857,0.000000,0.000000,0.003109,0.0000,0.0000,0.0000,-0.055450,0.055450,-0.000296,0.001595,0.000495,0.7278,0.6040,0.2543,-0.029146,0.026078,0.000000,0.648874,-0.628932,0.630466,-0.658078,0.638136,-0.622796
3.1526,0.016760,0.000000,0.000000,0.003129,0.0000,0.0000,0.0000,-0.062166,0.062166,-0.000293,0.001599,0.000494,0.7295,0.5991,0.2484,-0.033748,0.027612,0.000000,0.648874,-0.628932,0.630466,-0.658078,0.638136,-0.622796
3.1694,0.016748,0.000000,0.000000,0.003150,0.0000,0.0000,0.0000,-0.068834,0.068834,-0.000307,0.001543,0.000507,0.7184,0.6501,0.3043,-0.041417,0.039884,0.000000,0.648874,-0.628932,0.632000,-0.658078,0.638136,-0.622796
3.1861,0.016765,0.000000,0.000000,0.003170,0.0000,0.0000,0.0000,-0.075461,0.075461,-0.000307,0.001543,0.000507,0.7184,0.6501,0.3043,-0.041417,0.039884,0.000000,0.648874,-0.628932,0.632000,-0.658078,0.638136,-0.622796
3.2029,0.016743,0.000000,0.000000,0.003191,0.0000,0.0000,0.0000,-0.082027,0.082027,-0.000276,0.001454,0.000543,0.6592,0.7121,0.4636,-0.055223,0.056757,0.000000,0.648874,-0.628932,0.635068,-0.658078,0.639670,-0.622796
3.2196,0.016752,0.000000,0.000000,0.003211,0.0000,0.0000,0.0000,-0.088541,0.088541,-0.000250,0.001367,0.000577,0.6051,0.7726,0.6122,-0.067495,0.064427,0.000000,0.648874,-0.628932,0.638136,-0.658078,0.641204,-0.622796
3.2364,0.016741,0.000000,0.000000,0.003231,0.0000,0.0000,0.0000,-0.094988,0.094988,-0.000252,0.001376,0.000574,0.6107,0.7662,0.5967,-0.067495,0.065961,0.000000,0.648874,-0.628932,0.638136,-0.658078,0.641204,-0.622796
3.2531,0.016762,0.000000,0.000000,0.003251,0.0000,0.0000,0.0000,-0.101378,0.101378,-0.000252,0.001375,0.000574,0.6100,0.7671,0.5989,-0.064427,0.065961,0.000000,0.648874,-0.628932,0.638136,-0.658078,0.641204,-0.622796
3.2699,0.016745,0.000000,0.000000,0.003271,0.0000,0.0000,0.0000,-0.107691,0.107691,-0.000252,0.001375,0.000574,0.6100,0.7671,0.5989,-0.075165,0.075165,0.000000,0.648874,-0.628932,0.638136,-0.658078,0.641204,-0.622796
3.2866,0.016758,0.000000,0.000000,0.003291,0.0000,0.0000,0.0000,-0.113934,0.113934,-0.000252,0.001375,0.000574,0.6100,0.7671,0.5989,-0.075165,0.075165,0.000000,0.648874,-0.628932,0.638136,-0.658078,0.641204,-0.622796
3.3034,0.016743,0.000000,0.000000,0.003311,0.0000,0.0000,0.0000,-0.120093,0.120093,-0.000252,0.001375,0.000574,0.6100,0.7671,0.5989,-0.093573,0.092039,0.000000,0.648874,-0.628932,0.638136,-0.658078,0.641204,-0.622796
3.3201,0.016752,0.000000,0.000000,0.003330,0.0000,0.0000,0.0000,-0.126172,0.126172,-0.000266,0.001432,0.000585,0.6212,0.8166,0.5429,-0.105845,0.101243,0.000000,0.648874,-0.628932,0.638136,-0.659612,0.641204,-0.622796
3.3369,0.016743,0.000000,0.000000,0.003350,0.0000,0.0000,0.0000,-0.132160,0.132160,-0.000222,0.001499,0.000607,0.5926,0.8278,0.5481,-0.105845,0.101243,0.000000,0.648874,-0.628932,0.638136,-0.661146,0.642738,-0.622796
3.3536,0.016748,0.000000,0.000000,0.003369,0.0000,0.0000,0.0000,-0.138059,0.138059,-0.000282,0.001476,0.000593,0.6340,0.8600,0.4929,-0.108913,0.105845,0.000000,0.648874,-0.628932,0.638136,-0.661146,0.641204,-0.622796
3.3704,0.016748,0.000000,0.000000,0.003389,0.0000,0.0000,0.0000,-0.143863,0.143863,-0.000221,0.001462,0.000607,0.6681,0.8215,0.4438,-0.119651,0.121184,0.000000,0.648874,-0.630466,0.638136,-0.661146,0.641204,-0.622796
3.3871,0.016759,0.000000,0.000000,0.003408,0.0000,0.0000,0.0000,-0.149570,0.149570,-0.000221,0.001462,0.000607,0.6681,0.8215,0.4438,-0.119651,0.121184,0.000000,0.648874,-0.630466,0.638136,-0.661146,0.641204,-0.622796
3.4039,0.016745,0.000000,0.000000,0.003427,0.0000,0.0000,0.0000,-0.155169,0.155169,-0.000186,0.001505,0.000629,0.7137,0.8399,0.3388,-0.134990,0.133456,0.000000,0.648874,-0.632000,0.638136,-0.662680,0.641204,-0.622796
3.4206,0.016751,0.000000,0.000000,0.003446,0.0000,0.0000,0.0000,-0.160663,0.160663,-0.000148,0.001541,0.000651,0.7581,0.8524,0.2395,-0.141126,0.136524,0.000000,0.648874,-0.633534,0.638136,-0.664214,0.641204,-0.622796
3.4374,0.016746,0.000000,0.000000,0.003465,0.0000,0.0000,0.0000,-0.166044,0.166044,-0.000111,0.001578,0.000672,0.8025,0.8653,0.1396,-0.139592,0.138058,0.000000,0.648874,-0.635068,0.638136,-0.665748,0.641204,-0.622796
3.4541,0.016755,0.000000,0.000000,0.003484,0.0000,0.0000,0.0000,-0.171313,0.171313,-0.000103,0.001598,0.000694,0.8849,0.8141,0.1506,-0.144194,0.148796,0.000000,0.650408,-0.636602,0.638136,-0.665748,0.641204,-0.622796
3.4709,0.016750,0.000000,0.000000,0.003503,0.0000,0.0000,0.0000,-0.176462,0.176462,-0.000049,0.001692,0.000738,0.9355,0.7857,0.1493,-0.159534,0.162602,0.000000,0.651942,-0.638136,0.638136,-0.667282,0.642738,-0.622796
3.4876,0.016761,0.000000,0.000000,0.003522,0.0000,0.0000,0.0000,-0.181492,0.181492,-0.000049,0.001692,0.000738,0.9355,0.7857,0.1493,-0.159534,0.162602,0.000000,0.651942,-0.638136,0.638136,-0.667282,0.642738,-0.622796
3.5044,0.016746,0.000000,0.000000,0.003540,0.0000,0.0000,0.0000,-0.186392,0.186392,-0.000055,0.001650,0.000734,1.0067,0.7868,0.0397,-0.171806,0.164136,0.000000,0.651942,-0.639670,0.638136,-0.667282,0.641204,-0.622796
3.5211,0.016759,0.000000,0.000000,0.003559,0.0000,0.0000,0.0000,-0.191166,0.191166,-0.000044,0.001759,0.000792,1.1839,0.7365,-0.0034,-0.173340,0.164136,0.000000,0.655010,-0.642738,0.638136,-0.668816,0.641204,-0.622796
3.5379,0.016762,0.000000,0.000000,0.003577,0.0000,0.0000,0.0000,-0.195809,0.195809,-0.000076,0.001812,0.000821,1.3010,0.6777,0.0571,-0.171806,0.177942,0.000000,0.658078,-0.644272,0.638136,-0.668816,0.641204,-0.622796
3.5547,0.016764,0.000000,0.000000,0.003596,0.0000,0.0000,0.0000,-0.200317,0.200317,-0.000049,0.001854,0.000865,1.4619,0.5846,0.0513,-0.181010,0.181010,0.000000,0.661146,-0.647340,0.638136,-0.668816,0.641204,-0.622796
3.5714,0.016770,0.000000,0.000000,0.003614,0.0000,0.0000,0.0000,-0.204687,0.204687,0.000057,0.001929,0.000919,1.5414,0.5254,-0.0043,-0.196350,0.194816,0.000000,0.662680,-0.650408,0.638136,-0.670350,0.642738,-0.622796
3.5882,0.016803,0.000000,0.000000,0.003632,0.0000,0.0000,0.0000,-0.208923,0.208923,0.000057,0.001929,0.000919,1.5414,0.5254,-0.0043,-0.196350,0.194816,0.000000,0.662680,-0.650408,0.638136,-0.670350,0.642738,-0.622796
3.6050,0.016761,0.000000,0.000000,0.003650,0.0000,0.0000,0.0000,-0.213004,0.213004,0.000046,0.001921,0.000913,1.5331,0.5316,0.0015,-0.196350,0.194816,0.000000,0.662680,-0.650408,0.638136,-0.670350,0.642738,-0.622796
3.6218,0.016750,0.000000,0.000000,0.003668,0.0000,0.0000,0.0000,-0.216934,0.216934,-0.000108,0.002044,0.000934,1.6816,0.5852,0.0028,-0.204019,0.200951,0.000000,0.665748,-0.650408,0.638136,-0.671884,0.641204,-0.622796
3.6385,0.016753,0.000000,0.000000,0.003686,0.0000,0.0000,0.0000,-0.220716,0.220716,-0.000136,0.002072,0.000943,1.7150,0.5656,0.0584,-0.211689,0.207087,0.000000,0.667282,-0.650408,0.638136,-0.671884,0.641204,-0.622796
3.6552,0.016724,0.000000,0.000000,0.003704,0.0000,0.0000,0.0000,-0.224338,0.224338,-0.000091,0.002142,0.000965,1.6838,0.5836,0.0519,-0.216291,0.214757,0.000000,0.667282,-0.650408,0.638136,-0.673418,0.642738,-0.622796
3.6720,0.016770,0.000000,0.000000,0.003721,0.0000,0.0000,0.0000,-0.227815,0.227815,-0.000091,0.002142,0.000965,1.6838,0.5836,0.0519,-0.219359,0.217825,0.000000,0.668816,-0.650408,0.638136,-0.673418,0.641204,-0.622796
3.6888,0.016782,0.000000,0.000000,0.003739,0.0000,0.0000,0.0000,-0.231135,0.231135,-0.000194,0.002160,0.000961,1.7748,0.6009,0.0540,-0.219359,0.217825,0.000000,0.668816,-0.650408,0.638136,-0.673418,0.641204,-0.622796
3.7056,0.016779,0.000000,0.000000,0.003756,0.0000,0.0000,0.0000,-0.234295,0.234295,-0.000194,0.002160,0.000961,1.7748,0.6009,0.0540,-0.219359,0.217825,0.000000,0.668816,-0.650408,0.638136,-0.673418,0.641204,-0.622796
3.7224,0.016787,0.000000,0.000000,0.003774,0.0000,0.0000,0.0000,-0.237293,0.237293,-0.000194,0.002160,0.000961,1.7748,0.6009,0.0540,-0.219359,0.217825,0.000000,0.668816,-0.650408,0.638136,-0.673418,0.641204,-0.622796
3.7391,0.016754,0.000000,0.000000,0.003791,0.0000,0.0000,0.0000,-0.240121,0.240121,-0.000194,0.002160,0.000961,1.7748,0.6009,0.0540,-0.219359,0.217825,0.000000,0.668816,-0.650408,0.638136,-0.673418,0.641204,-0.622796
3.7559,0.016748,0.000000,0.000000,0.003808,0.0000,0.0000,0.0000,-0.242782,0.242782,-0.000194,0.002160,0.000961,1.7748,0.6009,0.0540,-0.227029,0.227029,0.000000,0.670350,-0.650408,0.638136,-0.673418,0.641204,-0.622796
3.7726,0.016746,0.000000,0.000000,0.003825,0.0000,0.0000,0.0000,-0.245275,0.245275,-0.000227,0.002198,0.000972,1.8141,0.5852,0.1096,-0.227029,0.227029,0.000000,0.670350,-0.650408,0.638136,-0.673418,0.641204,-0.622796
3.7894,0.016755,0.000000,0.000000,0.003842,0.0000,0.0000,0.0000,-0.247599,0.247599,-0.000224,0.002194,0.000971,1.8100,0.5868,0.1038,-0.227029,0.227029,0.000000,0.670350,-0.650408,0.638136,-0.673418,0.641204,-0.622796
3.8061,0.016742,0.000000,0.000000,0.003859,0.0000,0.0000,0.0000,-0.249749,0.249749,-0.000224,0.002194,0.000971,1.8100,0.5868,0.1038,-0.231631,0.228563,0.000000,0.670350,-0.650408,0.638136,-0.673418,0.641204,-0.622796
3.8228,0.016746,0.000000,0.000000,0.003875,0.0000,0.0000,0.0000,-0.251728,0.251728,-0.000224,0.002194,0.000971,1.8100,0.5868,0.1038,-0.239301,0.234699,0.000000,0.670350,-0.650408,0.638136,-0.673418,0.641204,-0.622796
3.8396,0.016746,0.000000,0.000000,0.003892,0.0000,0.0000,0.0000,-0.253533,0.253533,-0.000224,0.002194,0.000971,1.8100,0.5868,0.1038,-0.251573,0.248505,0.000000,0.670350,-0.650408,0.638136,-0.673418,0.641204,-0.622796
3.8566,0.016998,0.000000,0.000000,0.003909,0.0000,0.0000,0.0000,-0.255185,0.255185,-0.000224,0.002194,0.000971,1.8100,0.5868,0.1038,-0.253107,0.253107,0.000000,0.670350,-0.650408,0.638136,-0.673418,0.641204,-0.622796
3.8733,0.016749,0.000000,0.000000,0.003925,0.0000,0.0000,0.0000,-0.256635,0.256635,-0.000224,0.002194,0.000971,1.8100,0.5868,0.1038,-0.253107,0.253107,0.000000,0.670350,-0.650408,0.638136,-0.673418,0.641204,-0.622796
3.8901,0.016746,0.000000,0.000000,0.003941,0.0000,0.0000,0.0000,-0.257907,0.257907,-0.000224,0.002194,0.000971,1.8100,0.5868,0.1038,-0.250039,0.250039,0.000000,0.670350,-0.650408,0.638136,-0.673418,0.641204,-0.622796
3.9068,0.016744,0.000000,0.000000,0.003957,0.0000,0.0000,0.0000,-0.259001,0.259001,-0.000238,0.002252,0.000982,1.8217,0.6358,0.0493,-0.254641,0.254641,0.000000,0.670350,-0.650408,0.638136,-0.674952,0.641204,-0.622796
3.9236,0.016742,0.000000,0.000000,0.003973,0.0000,0.0000,0.0000,-0.259915,0.259915,-0.000250,0.002304,0.000991,1.8318,0.6797,-0.0002,-0.259243,0.257709,0.000000,0.670350,-0.650408,0.638136,-0.676486,0.641204,-0.622796
3.9403,0.016753,0.000000,0.000000,0.003989,0.0000,0.0000,0.0000,-0.260650,0.260650,-0.000262,0.002357,0.001000,1.8420,0.7241,-0.0502,-0.257709,0.256175,0.000000,0.670350,-0.650408,0.638136,-0.678020,0.641204,-0.622796
3.9572,0.016829,0.000000,0.000000,0.004005,0.0000,0.0000,0.0000,-0.261207,0.261207,-0.000275,0.002409,0.001010,1.8523,0.7684,-0.1002,-0.257709,0.259243,0.000000,0.670350,-0.650408,0.638136,-0.679553,0.641204,-0.622796
3.9739,0.016741,0.000000,0.000000,0.004021,0.0000,0.0000,0.0000,-0.261579,0.261579,-0.000275,0.002409,0.001010,1.8523,0.7684,-0.1002,-0.257709,0.259243,0.000000,0.670350,-0.650408,0.638136,-0.679553,0.641204,-0.622796
3.9906,0.016746,0.000000,0.000000,0.004036,0.0000,0.0000,0.0000,-0.261771,0.261771,-0.000287,0.002462,0.001019,1.8626,0.8127,-0.1503,-0.262311,0.259243,0.000000,0.670350,-0.650408,0.638136,-0.681087,0.641204,-0.622796
4.0074,0.016748,0.000000,0.000000,0.004052,0.0000,0.0000,0.0000,-0.261782,0.261782,-0.000243,0.002416,0.001044,1.8117,0.8258,-0.0348,-0.260777,0.257709,0.000000,0.670350,-0.650408,0.639670,-0.681087,0.642738,-0.622796
4.0244,0.017000,0.000000,0.000000,0.004067,0.0000,0.0000,0.0000,-0.261607,0.261607,-0.000382,0.002346,0.001115,1.7210,0.9880,-0.1566,-0.260777,0.259243,0.000000,0.670350,-0.650408,0.642738,-0.684155,0.642738,-0.625864
4.0414,0.017022,0.000000,0.000000,0.004083,0.0000,0.0000,0.0000,-0.261246,0.261246,-0.000461,0.002205,0.001171,1.6609,1.1540,-0.0870,-0.260777,0.259243,0.000000,0.670350,-0.650408,0.647340,-0.685689,0.642738,-0.627398
4.0583,0.016890,0.000000,0.000000,0.004098,0.0000,0.0000,0.0000,-0.260702,0.260702,-0.000641,0.002047,0.001265,1.5119,1.3329,-0.2043,-0.260777,0.259243,0.000000,0.670350,-0.650408,0.651942,-0.688757,0.642738,-0.632000
4.0750,0.016739,0.000000,0.000000,0.004113,0.0000,0.0000,0.0000,-0.259983,0.259983,-0.000641,0.002047,0.001265,1.5119,1.3329,-0.2043,-0.260777,0.259243,0.000000,0.670350,-0.650408,0.651942,-0.688757,0.642738,-0.632000
4.0918,0.016754,0.000000,0.000000,0.004128,0.0000,0.0000,0.0000,-0.259083,0.259083,-0.000675,0.001887,0.001356,1.3679,1.3501,0.0295,-0.260777,0.259243,0.000000,0.671884,-0.650408,0.656544,-0.688757,0.645806,-0.635068
4.1085,0.016742,0.000000,0.000000,0.004143,0.0000,0.0000,0.0000,-0.258004,0.258004,-0.000783,0.001906,0.001429,1.3819,1.4183,0.1729,-0.260777,0.259243,0.000000,0.674952,-0.650408,0.659612,-0.690291,0.647340,-0.636602
4.1253,0.016753,0.000000,0.000000,0.004158,0.0000,0.0000,0.0000,-0.256746,0.256746,-0.000839,0.001899,0.001529,1.2550,1.4938,0.2123,-0.260777,0.259243,0.000000,0.676486,-0.650408,0.662680,-0.693359,0.650408,-0.639670
4.1420,0.016743,0.000000,0.000000,0.004172,0.0000,0.0000,0.0000,-0.255311,0.255311,-0.000931,0.001877,0.001626,1.1797,1.5054,0.3749,-0.260777,0.257709,0.000000,0.679553,-0.650408,0.665748,-0.694893,0.653476,-0.642738
4.1588,0.016788,0.000000,0.000000,0.004187,0.0000,0.0000,0.0000,-0.253695,0.253695,-0.000908,0.001855,0.001677,1.0985,1.4565,0.5240,-0.259243,0.257709,0.000000,0.681087,-0.650408,0.667282,-0.694893,0.656544,-0.644272
4.1756,0.016738,0.000000,0.000000,0.004201,0.0000,0.0000,0.0000,-0.251908,0.251908,-0.000908,0.001855,0.001677,1.0985,1.4565,0.5240,-0.259243,0.257709,0.000000,0.681087,-0.650408,0.667282,-0.694893,0.656544,-0.644272
4.1923,0.016749,0.000000,0.000000,0.004215,0.0000,0.0000,0.0000,-0.249946,0.249946,-0.000983,0.001914,0.001717,1.1165,1.3833,0.6204,-0.259243,0.257709,0.000000,0.684155,-0.650408,0.667282,-0.694893,0.658078,-0.645806
4.2090,0.016742,0.000000,0.000000,0.004229,0.0000,0.0000,0.0000,-0.247812,0.247812,-0.000907,0.001981,0.001748,1.0857,1.3114,0.7767,-0.257709,0.256175,0.000000,0.685689,-0.650408,0.667282,-0.694893,0.661146,-0.645806
4.2260,0.016923,0.000000,0.000000,0.004243,0.0000,0.0000,0.0000,-0.245480,0.245480,-0.000915,0.001974,0.001745,1.0889,1.3189,0.7604,-0.257709,0.254641,0.000000,0.685689,-0.650408,0.667282,-0.694893,0.661146,-0.645806
4.2427,0.016742,0.000000,0.000000,0.004257,0.0000,0.0000,0.0000,-0.243003,0.243003,-0.000802,0.002006,0.001770,1.0118,1.2524,0.8719,-0.256175,0.254641,0.000000,0.685689,-0.650408,0.667282,-0.694893,0.664214,-0.645806
4.2596,0.016897,0.000000,0.000000,0.004271,0.0000,0.0000,0.0000,-0.240332,0.240332,-0.000814,0.002002,0.001767,1.0199,1.2593,0.8603,-0.256175,0.254641,0.000000,0.685689,-0.650408,0.667282,-0.694893,0.664214,-0.645806
4.2763,0.016743,0.000000,0.000000,0.004285,0.0000,0.0000,0.0000,-0.237518,0.237518,-0.000814,0.002002,0.001767,1.0199,1.2593,0.8603,-0.256175,0.254641,0.000000,0.685689,-0.650408,0.667282,-0.694893,0.664214,-0.645806
4.2931,0.016755,0.000000,0.000000,0.004298,0.0000,0.0000,0.0000,-0.234539,0.234539,-0.000771,0.002043,0.001754,1.0675,1.2762,0.9174,-0.256175,0.254641,0.000000,0.685689,-0.650408,0.667282,-0.694893,0.664214,-0.644272
4.3099,0.016747,0.000000,0.000000,0.004312,0.0000,0.0000,0.0000,-0.231398,0.231398,-0.000817,0.001999,0.001769,1.0141,1.2568,0.8555,-0.256175,0.254641,0.000000,0.685689,-0.650408,0.667282,-0.694893,0.664214,-0.645806
4.3267,0.016810,0.000000,0.000000,0.004325,0.0000,0.0000,0.0000,-0.228084,0.228084,-0.000812,0.002003,0.001767,1.0197,1.2589,0.8620,-0.256175,0.254641,0.000000,0.685689,-0.650408,0.667282,-0.694893,0.664214,-0.645806
4.3434,0.016749,0.000000,0.000000,0.004338,0.0000,0.0000,0.0000,-0.224625,0.224625,-0.000812,0.002003,0.001767,1.0197,1.2589,0.8620,-0.254641,0.251573,0.000000,0.685689,-0.650408,0.667282,-0.694893,0.664214,-0.645806
4.3602,0.016780,0.000000,0.000000,0.004351,0.0000,0.0000,0.0000,-0.221003,0.221003,-0.000812,0.002003,0.001767,1.0197,1.2589,0.8620,-0.246971,0.246971,0.000000,0.685689,-0.650408,0.667282,-0.694893,0.664214,-0.645806
4.3769,0.016745,0.000000,0.000000,0.004364,0.0000,0.0000,0.0000,-0.217235,0.217235,-0.000812,0.002003,0.001767,1.0197,1.2589,0.8620,-0.246971,0.246971,0.000000,0.685689,-0.650408,0.667282,-0.694893,0.664214,-0.645806
4.3937,0.016754,0.000000,0.000000,0.004377,0.0000,0.0000,0.0000,-0.213315,0.213315,-0.000812,0.002003,0.001767,1.0197,1.2589,0.8620,-0.236233,0.240835,0.000000,0.685689,-0.650408,0.667282,-0.694893,0.664214,-0.645806
4.4104,0.016744,0.000000,0.000000,0.004389,0.0000,0.0000,0.0000,-0.209250,0.209250,-0.000812,0.002003,0.001767,1.0197,1.2589,0.8620,-0.227029,0.233165,0.000000,0.685689,-0.650408,0.667282,-0.694893,0.664214,-0.645806
4.4272,0.016770,0.000000,0.000000,0.004402,0.0000,0.0000,0.0000,-0.205033,0.205033,-0.000812,0.002003,0.001767,1.0197,1.2589,0.8620,-0.220893,0.228563,0.000000,0.685689,-0.650408,0.667282,-0.694893,0.664214,-0.645806
4.4439,0.016746,0.000000,0.000000,0.004414,0.0000,0.0000,0.0000,-0.200681,0.200681,-0.000812,0.002003,0.001767,1.0197,1.2589,0.8620,-0.214757,0.227029,0.000000,0.685689,-0.650408,0.667282,-0.694893,0.664214,-0.645806
4.4607,0.016781,0.000000,0.000000,0.004427,0.0000,0.0000,0.0000,-0.196180,0.196180,-0.000771,0.002043,0.001754,1.0675,1.2762,0.9172,-0.211689,0.225495,0.000000,0.685689,-0.650408,0.667282,-0.694893,0.664214,-0.644272
4.4775,0.016802,0.000000,0.000000,0.004439,0.0000,0.0000,0.0000,-0.191537,0.191537,-0.000771,0.002043,0.001754,1.0675,1.2762,0.9172,-0.211689,0.225495,0.000000,0.685689,-0.650408,0.667282,-0.694893,0.664214,-0.644272
4.4943,0.016755,0.000000,0.000000,0.004451,0.0000,0.0000,0.0000,-0.186774,0.186774,-0.000817,0.001999,0.001769,1.0141,1.2568,0.8556,-0.207087,0.222427,0.000000,0.685689,-0.650408,0.667282,-0.694893,0.664214,-0.645806
4.5110,0.016751,0.000000,0.000000,0.004463,0.0000,0.0000,0.0000,-0.181883,0.181883,-0.000757,0.002019,0.001779,0.9814,1.2260,0.9170,-0.202485,0.214757,0.000000,0.685689,-0.650408,0.667282,-0.694893,0.665748,-0.645806
4.5278,0.016765,0.000000,0.000000,0.004475,0.0000,0.0000,0.0000,-0.176861,0.176861,-0.000819,0.002001,0.001766,1.0230,1.2621,0.8556,-0.200951,0.207087,0.000000,0.685689,-0.650408,0.667282,-0.694893,0.664214,-0.645806
4.5445,0.016744,0.000000,0.000000,0.004486,0.0000,0.0000,0.0000,-0.171724,0.171724,-0.000771,0.002043,0.001754,1.0672,1.2759,0.9179,-0.199418,0.199418,0.000000,0.685689,-0.650408,0.667282,-0.694893,0.664214,-0.644272
