t,loop_dt,cmd_x,cmd_y,cmd_z,cmd_roll,cmd_pitch,cmd_yaw,cmd_ant_l,cmd_ant_r,pres_x,pres_y,pres_z,pres_roll,pres_pitch,pres_yaw,pres_ant_l,pres_ant_r,pres_j0,pres_j1,pres_j2,pres_j3,pres_j4,pres_j5,pres_j6
0.0000,0.000001,0.000513,0.000427,-0.002130,0.4812,0.5188,0.9700,-0.176408,0.173340,0.000513,0.000427,-0.002130,0.4812,0.5188,0.9700,-0.176408,0.173340,0.000000,0.578311,-0.576777,0.585981,-0.582913,0.582913,-0.556835
0.0168,0.016787,0.000504,0.000420,-0.002094,0.4731,0.5101,0.9537,-0.173446,0.170430,0.000513,0.000427,-0.002130,0.4812,0.5188,0.9700,-0.176408,0.173340,0.000000,0.578311,-0.576777,0.585981,-0.582913,0.582913,-0.556835
0.0335,0.016752,0.000496,0.000413,-0.002059,0.4649,0.5015,0.9374,-0.170491,0.167526,0.000513,0.000427,-0.002130,0.4812,0.5188,0.9700,-0.176408,0.173340,0.000000,0.578311,-0.576777,0.585981,-0.582913,0.582913,-0.556835
0.0503,0.016751,0.000487,0.000406,-0.002023,0.4568,0.4929,0.9211,-0.167536,0.164622,0.000513,0.000427,-0.002130,0.4812,0.5188,0.9700,-0.176408,0.173340,0.000000,0.578311,-0.576777,0.585981,-0.582913,0.582913,-0.556835
0.0670,0.016755,0.000479,0.000399,-0.001987,0.4487,0.4842,0.9048,-0.164580,0.161718,0.000513,0.000427,-0.002130,0.4812,0.5188,0.9700,-0.176408,0.173340,0.000000,0.578311,-0.576777,0.585981,-0.582913,0.582913,-0.556835
0.0838,0.016741,0.000470,0.000391,-0.001952,0.4406,0.4756,0.8886,-0.161627,0.158816,0.000580,0.000482,-0.002181,0.4924,0.6046,1.0772,-0.176408,0.173340,0.000000,0.576777,-0.575243,0.585981,-0.582913,0.582913,-0.553767
0.1007,0.016885,0.000461,0.000384,-0.001916,0.4324,0.4669,0.8722,-0.158648,0.155889,0.000656,0.000491,-0.002289,0.4532,0.7996,1.1182,-0.176408,0.171806,0.000000,0.572175,-0.572175,0.585981,-0.582913,0.581379,-0.549165
0.1174,0.016740,0.000453,0.000377,-0.001880,0.4243,0.4583,0.8559,-0.155695,0.152988,0.000717,0.000467,-0.002328,0.3689,0.8633,1.1131,-0.174874,0.171806,0.000000,0.569107,-0.570641,0.585981,-0.582913,0.581379,-0.547631
0.1342,0.016749,0.000444,0.000370,-0.001844,0.4161,0.4497,0.8396,-0.152741,0.150084,0.000751,0.000539,-0.002338,0.3502,0.8748,1.2736,-0.174874,0.171806,0.000000,0.569107,-0.569107,0.585981,-0.582913,0.582913,-0.546097
0.1509,0.016746,0.000435,0.000363,-0.001809,0.4080,0.4410,0.8234,-0.149786,0.147182,0.000751,0.000539,-0.002338,0.3502,0.8748,1.2736,-0.174874,0.171806,0.000000,0.569107,-0.569107,0.585981,-0.582913,0.582913,-0.546097
0.1677,0.016745,0.000427,0.000356,-0.001773,0.3999,0.4324,0.8071,-0.146833,0.144279,0.000748,0.000531,-0.002337,0.3521,0.8737,1.2569,-0.174874,0.171806,0.000000,0.569107,-0.569107,0.585981,-0.582913,0.582913,-0.546097
0.1845,0.016809,0.000418,0.000348,-0.001737,0.3918,0.4237,0.7908,-0.143867,0.141365,0.000748,0.000532,-0.002337,0.3519,0.8738,1.2592,-0.171806,0.170272,0.000000,0.569107,-0.569107,0.585981,-0.582913,0.582913,-0.546097
0.2018,0.017370,0.000409,0.000341,-0.001700,0.3834,0.4147,0.7739,-0.140803,0.138354,0.000748,0.000532,-0.002337,0.3519,0.8738,1.2592,-0.171806,0.170272,0.000000,0.569107,-0.569107,0.585981,-0.582913,0.582913,-0.546097
0.2205,0.018657,0.000400,0.000333,-0.001661,0.3744,0.4051,0.7558,-0.137512,0.135120,0.000748,0.000532,-0.002337,0.3519,0.8738,1.2592,-0.171806,0.170272,0.000000,0.569107,-0.569107,0.585981,-0.582913,0.582913,-0.546097
0.2372,0.016749,0.000391,0.000326,-0.001625,0.3663,0.3965,0.7395,-0.134557,0.132217,0.000748,0.000532,-0.002337,0.3519,0.8738,1.2592,-0.150330,0.153398,0.000000,0.569107,-0.569107,0.585981,-0.582913,0.582913,-0.546097
0.2540,0.016743,0.000383,0.000319,-0.001589,0.3582,0.3878,0.7233,-0.131604,0.129315,0.000748,0.000532,-0.002337,0.3519,0.8738,1.2592,-0.150330,0.145728,0.000000,0.569107,-0.569107,0.585981,-0.582913,0.582913,-0.546097
0.2707,0.016766,0.000374,0.000312,-0.001553,0.3501,0.3792,0.7070,-0.128646,0.126409,0.000748,0.000532,-0.002337,0.3519,0.8738,1.2592,-0.150330,0.145728,0.000000,0.569107,-0.569107,0.585981,-0.582913,0.582913,-0.546097
0.2875,0.016741,0.000365,0.000304,-0.001518,0.3420,0.3705,0.6907,-0.125693,0.123507,0.000801,0.000516,-0.002324,0.3915,0.8384,1.2051,-0.150330,0.144194,0.000000,0.569107,-0.570641,0.585981,-0.582913,0.582913,-0.546097
0.3042,0.016749,0.000357,0.000297,-0.001482,0.3339,0.3618,0.6745,-0.122738,0.120604,0.000742,0.000534,-0.002338,0.3479,0.8774,1.2640,-0.147262,0.144194,0.000000,0.569107,-0.569107,0.585981,-0.582913,0.582913,-0.546097
0.3210,0.016747,0.000348,0.000290,-0.001446,0.3258,0.3532,0.6582,-0.119784,0.117701,0.000749,0.000532,-0.002337,0.3524,0.8734,1.2579,-0.142660,0.142660,0.000000,0.569107,-0.569107,0.585981,-0.582913,0.582913,-0.546097
0.3377,0.016754,0.000340,0.000283,-0.001411,0.3177,0.3445,0.6419,-0.116828,0.114796,0.000747,0.000501,-0.002336,0.4299,0.8730,1.1519,-0.134990,0.138058,0.000000,0.569107,-0.570641,0.585981,-0.582913,0.581379,-0.546097
0.3545,0.016741,0.000331,0.000276,-0.001375,0.3096,0.3358,0.6257,-0.113875,0.111895,0.000694,0.000520,-0.002349,0.3823,0.9083,1.2162,-0.127320,0.130388,0.000000,0.569107,-0.569107,0.585981,-0.582913,0.581379,-0.546097
0.3712,0.016769,0.000322,0.000269,-0.001339,0.3015,0.3272,0.6094,-0.110917,0.108988,0.000694,0.000520,-0.002349,0.3823,0.9083,1.2162,-0.127320,0.130388,0.000000,0.569107,-0.569107,0.585981,-0.582913,0.581379,-0.546097
0.3880,0.016741,0.000314,0.000261,-0.001304,0.2935,0.3185,0.5932,-0.107963,0.106086,0.000807,0.000518,-0.002323,0.3883,0.8348,1.2096,-0.122718,0.122718,0.000000,0.569107,-0.570641,0.585981,-0.582913,0.582913,-0.546097
0.4047,0.016749,0.000305,0.000254,-0.001268,0.2854,0.3098,0.5769,-0.105009,0.103183,0.000742,0.000534,-0.002338,0.3482,0.8778,1.2635,-0.121184,0.116583,0.000000,0.569107,-0.569107,0.585981,-0.582913,0.582913,-0.546097
0.4215,0.016740,0.000297,0.000247,-0.001232,0.2773,0.3012,0.5607,-0.102056,0.100281,0.000749,0.000532,-0.002337,0.3524,0.8733,1.2579,-0.121184,0.113515,0.000000,0.569107,-0.569107,0.585981,-0.582913,0.582913,-0.546097
0.4382,0.016766,0.000288,0.000240,-0.001197,0.2693,0.2925,0.5444,-0.099098,0.097375,0.000801,0.000516,-0.002325,0.3915,0.8385,1.2052,-0.121184,0.111981,0.000000,0.569107,-0.570641,0.585981,-0.582913,0.582913,-0.546097
0.4550,0.016757,0.000280,0.000233,-0.001161,0.2612,0.2838,0.5281,-0.096142,0.094470,0.000742,0.000534,-0.002338,0.3479,0.8774,1.2640,-0.119651,0.108913,0.000000,0.569107,-0.569107,0.585981,-0.582913,0.582913,-0.546097
0.4718,0.016761,0.000271,0.000226,-0.001125,0.2531,0.2751,0.5119,-0.093185,0.091565,0.000742,0.000534,-0.002338,0.3479,0.8774,1.2640,-0.119651,0.108913,0.000000,0.569107,-0.569107,0.585981,-0.582913,0.582913,-0.546097
0.4885,0.016742,0.000262,0.000219,-0.001090,0.2451,0.2664,0.4956,-0.090232,0.088662,0.000749,0.000532,-0.002337,0.3524,0.8734,1.2579,-0.115049,0.102777,0.000000,0.569107,-0.569107,0.585981,-0.582913,0.582913,-0.546097
0.5053,0.016749,0.000254,0.000211,-0.001054,0.2370,0.2577,0.4794,-0.087277,0.085759,0.000749,0.000532,-0.002337,0.3524,0.8734,1.2579,-0.107379,0.098175,0.000000,0.569107,-0.569107,0.585981,-0.582913,0.582913,-0.546097
0.5220,0.016746,0.000245,0.000204,-0.001018,0.2289,0.2490,0.4632,-0.084323,0.082856,0.000749,0.000532,-0.002337,0.3524,0.8734,1.2579,-0.099709,0.093573,0.000000,0.569107,-0.569107,0.585981,-0.582913,0.582913,-0.546097
0.5388,0.016753,0.000237,0.000197,-0.000983,0.2209,0.2403,0.4469,-0.081368,0.079953,0.000801,0.000516,-0.002325,0.3915,0.8385,1.2052,-0.093573,0.090505,0.000000,0.569107,-0.570641,0.585981,-0.582913,0.582913,-0.546097
0.5559,0.017111,0.000228,0.000190,-0.000946,0.2126,0.2315,0.4303,-0.078349,0.076987,0.000689,0.000518,-0.002350,0.3863,0.9119,1.2106,-0.090505,0.088971,0.000000,0.569107,-0.569107,0.585981,-0.582913,0.581379,-0.546097
0.5726,0.016768,0.000219,0.000183,-0.000910,0.2046,0.2227,0.4140,-0.075391,0.074080,0.000689,0.000518,-0.002350,0.3863,0.9119,1.2106,-0.090505,0.088971,0.000000,0.569107,-0.569107,0.585981,-0.582913,0.581379,-0.546097
0.5894,0.016745,0.000211,0.000175,-0.000875,0.1965,0.2140,0.3978,-0.072437,0.071178,0.000700,0.000518,-0.002347,0.3868,0.9043,1.2101,-0.085903,0.088971,0.000000,0.569107,-0.569107,0.585981,-0.582913,0.581379,-0.546097
0.6061,0.016750,0.000202,0.000168,-0.000839,0.1885,0.2053,0.3816,-0.069482,0.068274,0.000700,0.000518,-0.002347,0.3868,0.9043,1.2101,-0.079767,0.087437,0.000000,0.569107,-0.569107,0.585981,-0.582913,0.581379,-0.546097
0.6229,0.016740,0.000193,0.000161,-0.000803,0.1805,0.1966,0.3653,-0.066529,0.065372,0.000753,0.000534,-0.002336,0.3483,0.8706,1.2635,-0.079767,0.085903,0.000000,0.569107,-0.569107,0.585981,-0.582913,0.582913,-0.546097
0.6396,0.016757,0.000185,0.000154,-0.000768,0.1724,0.1879,0.3491,-0.063573,0.062468,0.000747,0.000532,-0.002337,0.3523,0.8741,1.2579,-0.079767,0.081301,0.000000,0.569107,-0.569107,0.585981,-0.582913,0.582913,-0.546097
0.6564,0.016742,0.000176,0.000147,-0.000732,0.1644,0.1792,0.3329,-0.060620,0.059566,0.000747,0.000532,-0.002337,0.3523,0.8741,1.2579,-0.078233,0.075165,0.000000,0.569107,-0.569107,0.585981,-0.582913,0.582913,-0.546097
0.6731,0.016759,0.000168,0.000140,-0.000696,0.1563,0.1705,0.3166,-0.057664,0.056661,0.000747,0.000532,-0.002337,0.3523,0.8741,1.2579,-0.078233,0.075165,0.000000,0.569107,-0.569107,0.585981,-0.582913,0.582913,-0.546097
0.6899,0.016740,0.000159,0.000133,-0.000661,0.1483,0.1618,0.3004,-0.054711,0.053759,0.000747,0.000532,-0.002337,0.3523,0.8741,1.2579,-0.073631,0.065961,0.000000,0.569107,-0.569107,0.585981,-0.582913,0.582913,-0.546097
0.7066,0.016749,0.000150,0.000125,-0.000625,0.1403,0.1531,0.2842,-0.051756,0.050856,0.000801,0.000516,-0.002324,0.3915,0.8384,1.2052,-0.069029,0.061359,0.000000,0.569107,-0.570641,0.585981,-0.582913,0.582913,-0.546097
0.7234,0.016741,0.000142,0.000118,-0.000589,0.1323,0.1444,0.2679,-0.048803,0.047954,0.000796,0.000518,-0.002326,0.3874,0.8421,1.2107,-0.065961,0.061359,0.000000,0.569107,-0.570641,0.585981,-0.582913,0.582913,-0.546097
0.7401,0.016753,0.000133,0.000111,-0.000554,0.1242,0.1356,0.2517,-0.045847,0.045050,0.000796,0.000518,-0.002326,0.3874,0.8421,1.2107,-0.061359,0.061359,0.000000,0.569107,-0.570641,0.585981,-0.582913,0.582913,-0.546097
0.7569,0.016745,0.000125,0.000104,-0.000518,0.1162,0.1269,0.2355,-0.042893,0.042147,0.000689,0.000518,-0.002350,0.3867,0.9115,1.2101,-0.053689,0.059825,0.000000,0.569107,-0.569107,0.585981,-0.582913,0.581379,-0.546097
0.7736,0.016757,0.000116,0.000097,-0.000482,0.1082,0.1182,0.2192,-0.039937,0.039243,0.000689,0.000518,-0.002350,0.3867,0.9115,1.2101,-0.053689,0.059825,0.000000,0.569107,-0.569107,0.585981,-0.582913,0.581379,-0.546097
0.7903,0.016741,0.000108,0.000090,-0.000447,0.1002,0.1095,0.2030,-0.036984,0.036341,0.000700,0.000518,-0.002347,0.3868,0.9043,1.2101,-0.047553,0.056757,0.000000,0.569107,-0.569107,0.585981,-0.582913,0.581379,-0.546097
0.8071,0.016752,0.000099,0.000082,-0.000411,0.0921,0.1007,0.1868,-0.034029,0.033437,0.000700,0.000518,-0.002347,0.3868,0.9043,1.2101,-0.047553,0.050621,0.000000,0.569107,-0.569107,0.585981,-0.582913,0.581379,-0.546097
0.8238,0.016739,0.000090,0.000075,-0.000375,0.0841,0.0920,0.1706,-0.031076,0.030535,0.000806,0.000518,-0.002323,0.3879,0.8352,1.2102,-0.046019,0.046019,0.000000,0.569107,-0.570641,0.585981,-0.582913,0.582913,-0.546097
0.8408,0.016973,0.000082,0.000068,-0.000339,0.0760,0.0831,0.1541,-0.028082,0.027593,0.000741,0.000502,-0.002338,0.4262,0.8769,1.1569,-0.044485,0.041417,0.000000,0.569107,-0.570641,0.585981,-0.582913,0.581379,-0.546097
0.8576,0.016764,0.000073,0.000061,-0.000303,0.0680,0.0744,0.1379,-0.025125,0.024688,0.000761,0.000558,-0.002312,0.4334,0.8225,1.2695,-0.039884,0.036816,0.000000,0.570641,-0.570641,0.585981,-0.582913,0.582913,-0.546097
0.8744,0.016774,0.000064,0.000054,-0.000268,0.0600,0.0656,0.1217,-0.022166,0.021780,0.000761,0.000558,-0.002312,0.4334,0.8225,1.2695,-0.039884,0.036816,0.000000,0.570641,-0.570641,0.585981,-0.582913,0.582913,-0.546097
0.8911,0.016748,0.000056,0.000047,-0.000232,0.0520,0.0569,0.1054,-0.019211,0.018877,0.000693,0.000514,-0.002351,0.3819,0.9136,1.2039,-0.038350,0.033748,0.000000,0.569107,-0.569107,0.585981,-0.582913,0.581379,-0.546097
0.9079,0.016752,0.000047,0.000039,-0.000196,0.0440,0.0482,0.0892,-0.016256,0.015973,0.000766,0.000557,-0.002311,0.4380,0.8187,1.2646,-0.035282,0.032214,0.000000,0.570641,-0.570641,0.585981,-0.582913,0.582913,-0.546097
0.9246,0.016744,0.000039,0.000032,-0.000161,0.0360,0.0394,0.0730,-0.013302,0.013071,0.000705,0.000568,-0.002327,0.3926,0.8640,1.3115,-0.021476,0.026078,0.000000,0.570641,-0.569107,0.585981,-0.582913,0.582913,-0.546097
0.9413,0.016749,0.000030,0.000025,-0.000125,0.0280,0.0307,0.0568,-0.010347,0.010167,0.000765,0.000551,-0.002313,0.4369,0.8239,1.2534,-0.019942,0.021476,0.000000,0.570641,-0.570641,0.585981,-0.582913,0.582913,-0.546097
0.9582,0.016869,0.000021,0.000018,-0.000089,0.0199,0.0218,0.0404,-0.007371,0.007243,0.000705,0.000569,-0.002327,0.3927,0.8634,1.3127,-0.016874,0.013806,0.000000,0.570641,-0.569107,0.585981,-0.582913,0.582913,-0.546097
0.9750,0.016760,0.000013,0.000011,-0.000053,0.0119,0.0131,0.0242,-0.004415,0.004338,0.000705,0.000569,-0.002327,0.3927,0.8634,1.3127,-0.016874,0.013806,0.000000,0.570641,-0.569107,0.585981,-0.582913,0.582913,-0.546097
0.9917,0.016744,0.000004,0.000004,-0.000018,0.0039,0.0043,0.0080,-0.001461,0.001436,0.000765,0.000551,-0.002313,0.4369,0.8240,1.2532,-0.013806,0.009204,0.000000,0.570641,-0.570641,0.585981,-0.582913,0.582913,-0.546097
1.0085,0.016751,0.000000,0.000000,0.000000,0.0000,0.0000,0.0000,0.000000,0.000000,0.000759,0.000553,-0.002315,0.4323,0.8281,1.2595,-0.013806,0.009204,0.000000,0.570641,-0.570641,0.585981,-0.582913,0.582913,-0.546097
1.0252,0.016742,0.000000,0.000000,0.000000,0.0000,0.0000,0.0000,0.000000,0.000000,0.000759,0.000553,-0.002315,0.4323,0.8281,1.2595,-0.010738,0.006136,0.000000,0.570641,-0.570641,0.585981,-0.582913,0.582913,-0.546097
1.0420,0.016752,0.000000,0.000000,0.000000,0.0000,0.0000,0.0000,0.000000,0.000000,0.000652,0.000553,-0.002339,0.4316,0.8974,1.2588,-0.003068,0.004602,0.000000,0.570641,-0.569107,0.585981,-0.582913,0.581379,-0.546097
1.0587,0.016753,0.000000,0.000000,0.000000,0.0000,0.0000,0.0000,0.000000,0.000000,0.000770,0.000553,-0.002312,0.4328,0.8204,1.2589,0.003068,0.003068,0.000000,0.570641,-0.570641,0.585981,-0.582913,0.582913,-0.546097
1.0755,0.016761,0.000000,0.000000,0.000000,0.0000,0.0000,0.0000,0.000000,0.000000,0.000770,0.000553,-0.002312,0.4328,0.8204,1.2589,0.003068,0.003068,0.000000,0.570641,-0.570641,0.585981,-0.582913,0.582913,-0.546097
1.0922,0.016739,0.000000,0.000000,0.000000,0.0000,0.0000,0.0000,0.000000,0.000000,0.000718,0.000515,-0.002301,0.3822,0.8110,1.2056,0.001534,0.000000,0.000000,0.570641,-0.570641,0.585981,-0.582913,0.582913,-0.547631
1.1090,0.016752,0.000000,0.000000,0.000000,0.0000,0.0000,0.0000,0.000000,0.000000,0.000683,0.000480,-0.002289,0.3370,0.7946,1.1578,-0.003068,0.000000,0.000000,0.570641,-0.570641,0.585981,-0.582913,0.582913,-0.549165
1.1257,0.016746,0.000000,0.000000,0.000000,0.0000,0.0000,0.0000,0.000000,0.000000,0.000647,0.000445,-0.002277,0.2913,0.7789,1.1094,-0.001534,0.000000,0.000000,0.570641,-0.570641,0.585981,-0.582913,0.582913,-0.550699
1.1425,0.016755,0.000000,0.000000,0.000000,0.0000,0.0000,0.0000,0.000000,0.000000,0.000569,0.000449,-0.002253,0.2953,0.7475,1.1149,0.003068,0.000000,0.000000,0.572175,-0.570641,0.585981,-0.582913,0.582913,-0.552233
1.1592,0.016752,0.000000,0.000000,0.000000,0.0000,0.0000,0.0000,0.000000,0.000000,0.000569,0.000449,-0.002253,0.2953,0.7475,1.1149,0.001534,0.000000,0.000000,0.570641,-0.570641,0.585981,-0.582913,0.582913,-0.553767
1.1760,0.016749,0.000000,0.000000,0.000000,0.0000,0.0000,0.0000,0.000000,0.000000,0.000578,0.000371,-0.002255,0.1950,0.7492,1.0072,0.001534,0.000000,0.000000,0.570641,-0.570641,0.585981,-0.582913,0.582913,-0.553767
1.1927,0.016746,0.000000,0.000000,0.000000,0.0000,0.0000,0.0000,0.000000,0.000000,0.000455,0.000341,-0.002216,0.1545,0.6988,0.9653,-0.001534,0.000000,0.000000,0.572175,-0.570641,0.585981,-0.582913,0.582913,-0.556835
1.2095,0.016747,0.000000,0.000000,0.000000,0.0000,0.0000,0.0000,0.000000,0.000000,0.000468,0.000267,-0.002219,0.0589,0.7028,0.8624,-0.003068,0.000000,0.000000,0.570641,-0.570641,0.585981,-0.582913,0.582913,-0.558369
1.2262,0.016744,0.000000,0.000000,0.000000,0.0000,0.0000,0.0000,0.000000,0.000000,0.000427,0.000236,-0.002206,0.0187,0.6854,0.8197,-0.001534,0.000000,0.000000,0.570641,-0.570641,0.585981,-0.582913,0.582913,-0.559903
1.2430,0.016801,0.000000,0.000000,0.000000,0.0000,0.0000,0.0000,0.000000,0.000000,0.000427,0.000236,-0.002206,0.0187,0.6854,0.8197,-0.001534,0.000000,0.000000,0.570641,-0.570641,0.585981,-0.582913,0.582913,-0.559903
1.2598,0.016821,0.000000,0.000000,0.000000,0.0000,0.0000,0.0000,0.000000,0.000000,0.000427,0.000236,-0.002206,0.0187,0.6854,0.8197,-0.001534,0.000000,0.000000,0.570641,-0.570641,0.585981,-0.582913,0.582913,-0.559903
1.2766,0.016747,0.000000,0.000000,0.000000,0.0000,0.0000,0.0000,0.000000,0.000000,0.000427,0.000236,-0.002206,0.0187,0.6854,0.8197,-0.001534,0.000000,0.000000,0.570641,-0.570641,0.585981,-0.582913,0.582913,-0.559903
1.2933,0.016744,0.000000,0.000000,0.000000,0.0000,0.0000,0.0000,0.000000,0.000000,0.000431,0.000239,-0.002207,0.0229,0.6872,0.8241,-0.001534,0.000000,0.000000,0.570641,-0.570641,0.585981,-0.582913,0.582913,-0.559903
1.3101,0.016746,0.000000,0.000000,0.000000,0.0000,0.0000,0.0000,0.000000,0.000000,0.000431,0.000239,-0.002207,0.0229,0.6872,0.8241,-0.001534,0.000000,0.000000,0.570641,-0.570641,0.585981,-0.582913,0.582913,-0.559903
1.3268,0.016746,0.000000,0.000000,0.000000,0.0000,0.0000,0.0000,0.000000,0.000000,0.000377,0.000223,-0.002219,0.0611,0.7216,0.7702,-0.001534,0.000000,0.000000,0.570641,-0.570641,0.585981,-0.582913,0.581379,-0.559903
1.3436,0.016740,0.000000,0.000000,0.000000,0.0000,0.0000,0.0000,0.000000,0.000000,0.000377,0.000223,-0.002219,0.0611,0.7216,0.7702,-0.001534,0.000000,0.000000,0.570641,-0.570641,0.585981,-0.582913,0.581379,-0.559903
1.3603,0.016744,0.000000,0.000000,0.000000,0.0000,0.0000,0.0000,0.000000,0.000000,0.000436,0.000241,-0.002206,0.0184,0.6834,0.8293,0.000000,0.000000,0.000000,0.570641,-0.570641,0.585981,-0.582913,0.582913,-0.559903
1.3770,0.016748,0.000000,0.000000,0.000000,0.0000,0.0000,0.0000,0.000000,0.000000,0.000389,0.000278,-0.002195,0.0725,0.6714,0.8769,0.001534,0.000000,0.000000,0.572175,-0.570641,0.585981,-0.582913,0.582913,-0.559903
1.3938,0.016742,0.000000,0.000000,0.000000,0.0000,0.0000,0.0000,0.000000,0.000000,0.000435,0.000235,-0.002208,0.0173,0.6886,0.8182,0.000000,0.000000,0.000000,0.570641,-0.570641,0.585981,-0.582913,0.582913,-0.559903
1.4105,0.016747,0.000000,0.000000,0.000000,0.0000,0.0000,0.0000,0.000000,0.000000,0.000430,0.000239,-0.002207,0.0230,0.6869,0.8243,-0.001534,0.000000,0.000000,0.570641,-0.570641,0.585981,-0.582913,0.582913,-0.559903
1.4273,0.016782,0.000000,0.000000,0.000000,0.0000,0.0000,0.0000,0.000000,0.000000,0.000430,0.000239,-0.002207,0.0230,0.6869,0.8243,-0.001534,0.000000,0.000000,0.570641,-0.570641,0.585981,-0.582913,0.582913,-0.559903
1.4441,0.016745,0.000000,0.000000,0.000000,0.0000,0.0000,0.0000,0.000000,0.000000,0.000430,0.000239,-0.002207,0.0230,0.6869,0.8243,-0.001534,0.000000,0.000000,0.570641,-0.570641,0.585981,-0.582913,0.582913,-0.559903
1.4608,0.016747,0.000000,0.000000,0.000000,0.0000,0.0000,0.0000,0.000000,0.000000,0.000430,0.000239,-0.002207,0.0230,0.6869,0.8243,-0.001534,0.000000,0.000000,0.570641,-0.570641,0.585981,-0.582913,0.582913,-0.559903
1.4776,0.016745,0.000000,0.000000,0.000000,0.0000,0.0000,0.0000,0.000000,0.000000,0.000430,0.000239,-0.002207,0.0230,0.6869,0.8243,-0.001534,0.000000,0.000000,0.570641,-0.570641,0.585981,-0.582913,0.582913,-0.559903
1.4943,0.016744,0.000000,0.000000,0.000000,0.0000,0.0000,0.0000,0.000000,0.000000,0.000390,0.000278,-0.002195,0.0720,0.6710,0.8774,-0.001534,0.000000,0.000000,0.572175,-0.570641,0.585981,-0.582913,0.582913,-0.559903
1.5110,0.016745,0.000000,0.000000,0.000000,0.0000,0.0000,0.0000,0.000000,0.000000,0.000435,0.000235,-0.002208,0.0173,0.6887,0.8181,-0.001534,0.000000,0.000000,0.570641,-0.570641,0.585981,-0.582913,0.582913,-0.559903
1.5282,0.017147,0.000000,0.000000,0.000000,0.0000,0.0000,0.0000,0.000000,0.000000,0.000435,0.000235,-0.002208,0.0173,0.6887,0.8181,-0.001534,0.000000,0.000000,0.570641,-0.570641,0.585981,-0.582913,0.582913,-0.559903
1.5449,0.016740,0.000000,0.000000,0.000000,0.0000,0.0000,0.0000,0.000000,0.000000,0.000430,0.000239,-0.002207,0.0230,0.6868,0.8243,-0.001534,0.000000,0.000000,0.570641,-0.570641,0.585981,-0.582913,0.582913,-0.559903
1.5617,0.016746,0.000000,0.000000,0.000000,0.0000,0.0000,0.0000,0.000000,0.000000,0.000430,0.000239,-0.002207,0.0230,0.6868,0.8243,-0.001534,0.000000,0.000000,0.570641,-0.570641,0.585981,-0.582913,0.582913,-0.559903
1.5784,0.016743,0.000000,0.000000,0.000000,0.0000,0.0000,0.0000,0.000000,0.000000,0.000430,0.000239,-0.002207,0.0230,0.6868,0.8243,-0.001534,0.000000,0.000000,0.570641,-0.570641,0.585981,-0.582913,0.582913,-0.559903
1.5952,0.016745,0.000000,0.000000,0.000000,0.0000,0.0000,0.0000,0.000000,0.000000,0.000430,0.000239,-0.002207,0.0230,0.6868,0.8243,-0.001534,0.000000,0.000000,0.570641,-0.570641,0.585981,-0.582913,0.582913,-0.559903
1.6119,0.016741,0.000000,0.000000,0.000000,0.0000,0.0000,0.0000,0.000000,0.000000,0.000430,0.000239,-0.002207,0.0230,0.6868,0.8243,-0.001534,0.000000,0.000000,0.570641,-0.570641,0.585981,-0.582913,0.582913,-0.559903
1.6289,0.017021,0.000000,0.000000,0.000000,0.0000,0.0000,0.0000,0.000000,0.000000,0.000430,0.000239,-0.002207,0.0230,0.6868,0.8243,-0.001534,0.000000,0.000000,0.570641,-0.570641,0.585981,-0.582913,0.582913,-0.559903
1.6457,0.016739,0.000000,0.000000,0.000000,0.0000,0.0000,0.0000,0.000000,0.000000,0.000430,0.000239,-0.002207,0.0230,0.6868,0.8243,-0.001534,0.000000,0.000000,0.570641,-0.570641,0.585981,-0.582913,0.582913,-0.559903
1.6624,0.016744,0.000000,0.000000,0.000000,0.0000,0.0000,0.0000,0.000000,0.000000,0.000390,0.000278,-0.002195,0.0720,0.6710,0.8774,-0.001534,0.000000,0.000000,0.572175,-0.570641,0.585981,-0.582913,0.582913,-0.559903
1.6791,0.016741,0.000000,0.000000,0.000000,0.0000,0.0000,0.0000,0.000000,0.000000,0.000435,0.000235,-0.002208,0.0173,0.6887,0.8181,-0.001534,0.000000,0.000000,0.570641,-0.570641,0.585981,-0.582913,0.582913,-0.559903
1.6959,0.016748,0.000000,0.000000,0.000000,0.0000,0.0000,0.0000,0.000000,0.000000,0.000430,0.000239,-0.002207,0.0230,0.6868,0.8243,-0.001534,0.000000,0.000000,0.570641,-0.570641,0.585981,-0.582913,0.582913,-0.559903
1.7126,0.016742,0.000000,0.000000,0.000000,0.0000,0.0000,0.0000,0.000000,0.000000,0.000430,0.000239,-0.002207,0.0230,0.6868,0.8243,-0.001534,0.000000,0.000000,0.570641,-0.570641,0.585981,-0.582913,0.582913,-0.559903
1.7294,0.016752,0.000000,0.000000,0.000000,0.0000,0.0000,0.0000,0.000000,0.000000,0.000430,0.000239,-0.002207,0.0230,0.6868,0.8243,-0.001534,0.000000,0.000000,0.570641,-0.570641,0.585981,-0.582913,0.582913,-0.559903
1.7461,0.016738,0.000000,0.000000,0.000000,0.0000,0.0000,0.0000,0.000000,0.000000,0.000430,0.000239,-0.002207,0.0230,0.6868,0.8243,-0.001534,0.000000,0.000000,0.570641,-0.570641,0.585981,-0.582913,0.582913,-0.559903
1.7629,0.016747,0.000000,0.000000,0.000000,0.0000,0.0000,0.0000,0.000000,0.000000,0.000430,0.000239,-0.002207,0.0230,0.6868,0.8243,-0.001534,0.000000,0.000000,0.570641,-0.570641,0.585981,-0.582913,0.582913,-0.559903
1.7796,0.016742,0.000000,0.000000,0.000000,0.0000,0.0000,0.0000,0.000000,0.000000,0.000430,0.000239,-0.002207,0.0230,0.6868,0.8243,-0.001534,0.000000,0.000000,0.570641,-0.570641,0.585981,-0.582913,0.582913,-0.559903
1.7964,0.016747,0.000000,0.000000,0.000000,0.0000,0.0000,0.0000,0.000000,0.000000,0.000430,0.000239,-0.002207,0.0230,0.6868,0.8243,-0.001534,0.000000,0.000000,0.570641,-0.570641,0.585981,-0.582913,0.582913,-0.559903
1.8131,0.016745,0.000000,0.000000,0.000000,0.0000,0.0000,0.0000,0.000000,0.000000,0.000390,0.000278,-0.002195,0.0720,0.6710,0.8774,-0.001534,0.000000,0.000000,0.572175,-0.570641,0.585981,-0.582913,0.582913,-0.559903
1.8301,0.016982,0.000000,0.000000,0.000000,0.0000,0.0000,0.0000,0.000000,0.000000,0.000435,0.000235,-0.002208,0.0173,0.6887,0.8181,-0.001534,0.000000,0.000000,0.570641,-0.570641,0.585981,-0.582913,0.582913,-0.559903
1.8468,0.016743,0.000000,0.000000,0.000000,0.0000,0.0000,0.0000,0.000000,0.000000,0.000435,0.000235,-0.002208,0.0173,0.6887,0.8181,-0.001534,0.000000,0.000000,0.570641,-0.570641,0.585981,-0.582913,0.582913,-0.559903
1.8636,0.016747,0.000000,0.000000,0.000000,0.0000,0.0000,0.0000,0.000000,0.000000,0.000430,0.000239,-0.002207,0.0230,0.6868,0.8243,-0.001534,0.000000,0.000000,0.570641,-0.570641,0.585981,-0.582913,0.582913,-0.559903
1.8803,0.016745,0.000000,0.000000,0.000000,0.0000,0.0000,0.0000,0.000000,0.000000,0.000390,0.000278,-0.002195,0.0720,0.6710,0.8774,-0.001534,0.000000,0.000000,0.572175,-0.570641,0.585981,-0.582913,0.582913,-0.559903
1.8971,0.016770,0.000000,0.000000,0.000000,0.0000,0.0000,0.0000,0.000000,0.000000,0.000435,0.000235,-0.002208,0.0173,0.6887,0.8181,-0.001534,0.000000,0.000000,0.570641,-0.570641,0.585981,-0.582913,0.582913,-0.559903
1.9138,0.016747,0.000000,0.000000,0.000000,0.0000,0.0000,0.0000,0.000000,0.000000,0.000430,0.000239,-0.002207,0.0230,0.6868,0.8243,-0.001534,0.000000,0.000000,0.570641,-0.570641,0.585981,-0.582913,0.582913,-0.559903
1.9309,0.017070,0.000000,0.000000,0.000000,0.0000,0.0000,0.0000,0.000000,0.000000,0.000390,0.000278,-0.002195,0.0720,0.6710,0.8774,-0.001534,0.000000,0.000000,0.572175,-0.570641,0.585981,-0.582913,0.582913,-0.559903
1.9477,0.016744,0.000000,0.000000,0.000000,0.0000,0.0000,0.0000,0.000000,0.000000,0.000390,0.000278,-0.002195,0.0720,0.6710,0.8774,-0.001534,0.000000,0.000000,0.572175,-0.570641,0.585981,-0.582913,0.582913,-0.559903
1.9644,0.016756,0.000000,0.000000,0.000000,0.0000,0.0000,0.0000,0.000000,0.000000,0.000435,0.000235,-0.002208,0.0173,0.6887,0.8181,-0.001534,0.000000,0.000000,0.570641,-0.570641,0.585981,-0.582913,0.582913,-0.559903
1.9812,0.016741,0.000000,0.000000,0.000000,0.0000,0.0000,0.0000,0.000000,0.000000,0.000430,0.000239,-0.002207,0.0230,0.6868,0.8243,-0.001534,0.000000,0.000000,0.570641,-0.570641,0.585981,-0.582913,0.582913,-0.559903
1.9981,0.016949,0.000000,0.000000,0.000000,0.0000,0.0000,0.0000,0.000000,0.000000,0.000430,0.000239,-0.002207,0.0230,0.6868,0.8243,-0.001534,0.000000,0.000000,0.570641,-0.570641,0.585981,-0.582913,0.582913,-0.559903
2.0149,0.016750,0.000000,0.000000,0.000000,0.0000,0.0000,0.0000,0.000000,0.000000,0.000430,0.000239,-0.002207,0.0230,0.6868,0.8243,-0.001534,0.000000,0.000000,0.570641,-0.570641,0.585981,-0.582913,0.582913,-0.559903
2.0316,0.016779,0.000000,0.000000,0.000000,0.0000,0.0000,0.0000,0.000000,0.000000,0.000430,0.000239,-0.002207,0.0230,0.6868,0.8243,-0.001534,0.000000,0.000000,0.570641,-0.570641,0.585981,-0.582913,0.582913,-0.559903
2.0484,0.016746,0.000000,0.000000,0.000000,0.0000,0.0000,0.0000,0.000000,0.000000,0.000430,0.000239,-0.002207,0.0230,0.6868,0.8243,-0.001534,0.000000,0.000000,0.570641,-0.570641,0.585981,-0.582913,0.582913,-0.559903
2.0651,0.016764,0.000000,0.000000,0.000000,0.0000,0.0000,0.0000,0.000000,0.000000,0.000430,0.000239,-0.002207,0.0230,0.6868,0.8243,-0.001534,0.000000,0.000000,0.570641,-0.570641,0.585981,-0.582913,0.582913,-0.559903
2.0819,0.016775,0.000000,0.000000,0.000000,0.0000,0.0000,0.0000,0.000000,0.000000,0.000377,0.000223,-0.002219,0.0611,0.7216,0.7702,-0.001534,0.000000,0.000000,0.570641,-0.570641,0.585981,-0.582913,0.581379,-0.559903
2.0989,0.016954,0.000000,0.000000,0.000000,0.0000,0.0000,0.0000,0.000000,0.000000,0.000436,0.000241,-0.002206,0.0184,0.6834,0.8293,-0.001534,0.000000,0.000000,0.570641,-0.570641,0.585981,-0.582913,0.582913,-0.559903
2.1156,0.016762,0.000000,0.000000,0.000000,0.0000,0.0000,0.0000,0.000000,0.000000,0.000430,0.000239,-0.002207,0.0229,0.6874,0.8231,-0.001534,0.000000,0.000000,0.570641,-0.570641,0.585981,-0.582913,0.582913,-0.559903
2.1324,0.016765,0.000000,0.000000,0.000000,0.0000,0.0000,0.0000,0.000000,0.000000,0.000430,0.000239,-0.002207,0.0229,0.6874,0.8231,-0.001534,0.000000,0.000000,0.570641,-0.570641,0.585981,-0.582913,0.582913,-0.559903
2.1492,0.016759,0.000000,0.000000,0.000000,0.0000,0.0000,0.0000,0.000000,0.000000,0.000430,0.000239,-0.002207,0.0229,0.6874,0.8231,-0.001534,0.000000,0.000000,0.570641,-0.570641,0.585981,-0.582913,0.582913,-0.559903
2.1660,0.016860,0.000000,0.000000,0.000000,0.0000,0.0000,0.0000,0.000000,0.000000,0.000430,0.000239,-0.002207,0.0229,0.6874,0.8231,-0.001534,0.000000,0.000000,0.570641,-0.570641,0.585981,-0.582913,0.582913,-0.559903
2.1828,0.016751,0.000000,0.000000,0.000000,0.0000,0.0000,0.0000,0.000000,0.000000,0.000430,0.000239,-0.002207,0.0229,0.6874,0.8231,-0.001534,0.000000,0.000000,0.570641,-0.570641,0.585981,-0.582913,0.582913,-0.559903
2.1995,0.016771,0.000000,0.000000,0.000000,0.0000,0.0000,0.0000,0.000000,0.000000,0.000430,0.000239,-0.002207,0.0229,0.6874,0.8231,-0.001534,0.000000,0.000000,0.570641,-0.570641,0.585981,-0.582913,0.582913,-0.559903
2.2163,0.016754,0.000000,0.000000,0.000000,0.0000,0.0000,0.0000,0.000000,0.000000,0.000430,0.000239,-0.002207,0.0229,0.6874,0.8231,-0.001534,0.000000,0.000000,0.570641,-0.570641,0.585981,-0.582913,0.582913,-0.559903
2.2330,0.016745,0.000000,0.000000,0.000000,0.0000,0.0000,0.0000,0.000000,0.000000,0.000430,0.000239,-0.002207,0.0229,0.6874,0.8231,-0.001534,0.000000,0.000000,0.570641,-0.570641,0.585981,-0.582913,0.582913,-0.559903
2.2498,0.016752,0.000000,0.000000,0.000000,0.0000,0.0000,0.0000,0.000000,0.000000,0.000430,0.000239,-0.002207,0.0229,0.6874,0.8231,-0.001534,0.000000,0.000000,0.570641,-0.570641,0.585981,-0.582913,0.582913,-0.559903
2.2666,0.016762,0.000000,0.000000,0.000000,0.0000,0.0000,0.0000,0.000000,0.000000,0.000430,0.000239,-0.002207,0.0229,0.6874,0.8231,-0.001534,0.000000,0.000000,0.570641,-0.570641,0.585981,-0.582913,0.582913,-0.559903
2.2835,0.016925,0.000000,0.000000,0.000000,0.0000,0.0000,0.0000,0.000000,0.000000,0.000430,0.000239,-0.002207,0.0229,0.6874,0.8231,-0.001534,0.000000,0.000000,0.570641,-0.570641,0.585981,-0.582913,0.582913,-0.559903
2.3031,0.019651,0.000000,0.000000,0.000000,0.0000,0.0000,0.0000,0.000000,0.000000,0.000430,0.000239,-0.002207,0.0229,0.6874,0.8231,-0.001534,0.000000,0.000000,0.570641,-0.570641,0.585981,-0.582913,0.582913,-0.559903
2.3205,0.017420,0.000000,0.000000,0.000000,0.0000,0.0000,0.0000,0.000000,0.000000,0.000430,0.000239,-0.002207,0.0229,0.6874,0.8231,-0.001534,0.000000,0.000000,0.570641,-0.570641,0.585981,-0.582913,0.582913,-0.559903
2.3373,0.016750,0.000000,0.000000,0.000000,0.0000,0.0000,0.0000,0.000000,0.000000,0.000390,0.000278,-0.002195,0.0720,0.6710,0.8775,-0.001534,0.000000,0.000000,0.572175,-0.570641,0.585981,-0.582913,0.582913,-0.559903
2.3540,0.016752,0.000000,0.000000,0.000000,0.0000,0.0000,0.0000,0.000000,0.000000,0.000435,0.000235,-0.002208,0.0173,0.6887,0.8181,-0.001534,0.000000,0.000000,0.570641,-0.570641,0.585981,-0.582913,0.582913,-0.559903
2.3708,0.016762,0.000000,0.000000,0.000000,0.0000,0.0000,0.0000,0.000000,0.000000,0.000435,0.000235,-0.002208,0.0173,0.6887,0.8181,-0.001534,0.000000,0.000000,0.570641,-0.570641,0.585981,-0.582913,0.582913,-0.559903
2.3876,0.016751,0.000000,0.000000,0.000000,0.0000,0.0000,0.0000,0.000000,0.000000,0.000430,0.000239,-0.002207,0.0230,0.6868,0.8243,-0.001534,0.000000,0.000000,0.570641,-0.570641,0.585981,-0.582913,0.582913,-0.559903
2.4043,0.016749,0.000000,0.000000,0.000000,0.0000,0.0000,0.0000,0.000000,0.000000,0.000430,0.000239,-0.002207,0.0230,0.6868,0.8243,-0.001534,0.000000,0.000000,0.570641,-0.570641,0.585981,-0.582913,0.582913,-0.559903
2.4211,0.016745,0.000000,0.000000,0.000000,0.0000,0.0000,0.0000,0.000000,0.000000,0.000430,0.000239,-0.002207,0.0230,0.6868,0.8243,-0.001534,0.000000,0.000000,0.570641,-0.570641,0.585981,-0.582913,0.582913,-0.559903
2.4378,0.016754,0.000000,0.000000,0.000000,0.0000,0.0000,0.0000,0.000000,0.000000,0.000430,0.000239,-0.002207,0.0230,0.6868,0.8243,-0.001534,0.000000,0.000000,0.570641,-0.570641,0.585981,-0.582913,0.582913,-0.559903
2.4552,0.017341,0.000000,0.000000,0.000000,0.0000,0.0000,0.0000,0.000000,0.000000,0.000390,0.000278,-0.002195,0.0720,0.6710,0.8774,-0.001534,0.000000,0.000000,0.572175,-0.570641,0.585981,-0.582913,0.582913,-0.559903
2.4719,0.016758,0.000000,0.000000,0.000000,0.0000,0.0000,0.0000,0.000000,0.000000,0.000390,0.000278,-0.002195,0.0720,0.6710,0.8774,-0.001534,0.000000,0.000000,0.572175,-0.570641,0.585981,-0.582913,0.582913,-0.559903
2.4887,0.016827,0.000000,0.000000,0.000000,0.0000,0.0000,0.0000,0.000000,0.000000,0.000435,0.000235,-0.002208,0.0173,0.6887,0.8181,-0.001534,0.000000,0.000000,0.570641,-0.570641,0.585981,-0.582913,0.582913,-0.559903
2.5055,0.016750,0.000000,0.000000,0.000000,0.0000,0.0000,0.0000,0.000000,0.000000,0.000335,0.000263,-0.002207,0.1113,0.7054,0.8246,-0.001534,0.000000,0.000000,0.572175,-0.570641,0.585981,-0.582913,0.581379,-0.559903
2.5222,0.016745,0.000000,0.000000,0.000000,0.0000,0.0000,0.0000,0.000000,0.000000,0.000400,0.000275,-0.002195,0.0628,0.6691,0.8774,-0.001534,0.000000,0.000000,0.572175,-0.570641,0.585981,-0.582913,0.582913,-0.559903
2.5390,0.016752,0.000000,0.000000,0.000000,0.0000,0.0000,0.0000,0.000000,0.000000,0.000434,0.000235,-0.002208,0.0183,0.6889,0.8181,-0.001534,0.000000,0.000000,0.570641,-0.570641,0.585981,-0.582913,0.582913,-0.559903
2.5557,0.016756,0.000000,0.000000,0.000000,0.0000,0.0000,0.0000,0.000000,0.000000,0.000434,0.000235,-0.002208,0.0183,0.6889,0.8181,-0.001534,0.000000,0.000000,0.570641,-0.570641,0.585981,-0.582913,0.582913,-0.559903
2.5725,0.016762,0.000000,0.000000,0.000000,0.0000,0.0000,0.0000,0.000000,0.000000,0.000430,0.000239,-0.002207,0.0229,0.6868,0.8243,-0.001534,0.000000,0.000000,0.570641,-0.570641,0.585981,-0.582913,0.582913,-0.559903
2.5892,0.016748,0.000000,0.000000,0.000000,0.0000,0.0000,0.0000,0.000000,0.000000,0.000430,0.000239,-0.002207,0.0229,0.6868,0.8243,-0.001534,0.000000,0.000000,0.570641,-0.570641,0.585981,-0.582913,0.582913,-0.559903
2.6060,0.016746,0.000000,0.000000,0.000000,0.0000,0.0000,0.0000,0.000000,0.000000,0.000390,0.000278,-0.002195,0.0720,0.6711,0.8774,-0.001534,0.000000,0.000000,0.572175,-0.570641,0.585981,-0.582913,0.582913,-0.559903
2.6227,0.016745,0.000000,0.000000,0.000000,0.0000,0.0000,0.0000,0.000000,0.000000,0.000435,0.000235,-0.002208,0.0173,0.6887,0.8181,-0.001534,0.000000,0.000000,0.570641,-0.570641,0.585981,-0.582913,0.582913,-0.559903
2.6395,0.016778,0.000000,0.000000,0.000000,0.0000,0.0000,0.0000,0.000000,0.000000,0.000430,0.000239,-0.002207,0.0230,0.6868,0.8243,-0.001534,0.000000,0.000000,0.570641,-0.570641,0.585981,-0.582913,0.582913,-0.559903
2.6564,0.016875,0.000000,0.000000,0.000000,0.0000,0.0000,0.0000,0.000000,0.000000,0.000377,0.000223,-0.002219,0.0611,0.7216,0.7702,-0.001534,0.000000,0.000000,0.570641,-0.570641,0.585981,-0.582913,0.581379,-0.559903
2.6731,0.016754,0.000000,0.000000,0.000000,0.0000,0.0000,0.0000,0.000000,0.000000,0.000377,0.000223,-0.002219,0.0611,0.7216,0.7702,-0.001534,0.000000,0.000000,0.570641,-0.570641,0.585981,-0.582913,0.581379,-0.559903
2.6899,0.016749,0.000000,0.000000,0.000000,0.0000,0.0000,0.0000,0.000000,0.000000,0.000395,0.000280,-0.002194,0.0680,0.6674,0.8831,-0.001534,0.000000,0.000000,0.572175,-0.570641,0.585981,-0.582913,0.582913,-0.559903
2.7066,0.016750,0.000000,0.000000,0.000000,0.0000,0.0000,0.0000,0.000000,0.000000,0.000434,0.000235,-0.002209,0.0177,0.6890,0.8175,-0.001534,0.000000,0.000000,0.570641,-0.570641,0.585981,-0.582913,0.582913,-0.559903
2.7234,0.016742,0.000000,0.000000,0.000000,0.0000,0.0000,0.0000,0.000000,0.000000,0.000430,0.000239,-0.002207,0.0230,0.6868,0.8244,-0.001534,0.000000,0.000000,0.570641,-0.570641,0.585981,-0.582913,0.582913,-0.559903
2.7401,0.016757,0.000000,0.000000,0.000000,0.0000,0.0000,0.0000,0.000000,0.000000,0.000390,0.000278,-0.002195,0.0720,0.6711,0.8774,-0.001534,0.000000,0.000000,0.572175,-0.570641,0.585981,-0.582913,0.582913,-0.559903
2.7571,0.016907,0.000000,0.000000,0.000000,0.0000,0.0000,0.0000,0.000000,0.000000,0.000435,0.000235,-0.002208,0.0173,0.6887,0.8181,-0.001534,0.000000,0.000000,0.570641,-0.570641,0.585981,-0.582913,0.582913,-0.559903
2.7738,0.016752,0.000000,0.000000,0.000000,0.0000,0.0000,0.0000,0.000000,0.000000,0.000435,0.000235,-0.002208,0.0173,0.6887,0.8181,-0.001534,0.000000,0.000000,0.570641,-0.570641,0.585981,-0.582913,0.582913,-0.559903
2.7906,0.016750,0.000000,0.000000,0.000000,0.0000,0.0000,0.0000,0.000000,0.000000,0.000430,0.000239,-0.002207,0.0230,0.6868,0.8243,-0.001534,0.000000,0.000000,0.570641,-0.570641,0.585981,-0.582913,0.582913,-0.559903
2.8073,0.016749,0.000000,0.000000,0.000000,0.0000,0.0000,0.0000,0.000000,0.000000,0.000430,0.000239,-0.002207,0.0230,0.6868,0.8243,-0.001534,0.000000,0.000000,0.570641,-0.570641,0.585981,-0.582913,0.582913,-0.559903
2.8240,0.016743,0.000000,0.000000,0.000000,0.0000,0.0000,0.0000,0.000000,0.000000,0.000430,0.000239,-0.002207,0.0230,0.6868,0.8243,-0.001534,0.000000,0.000000,0.570641,-0.570641,0.585981,-0.582913,0.582913,-0.559903
2.8408,0.016753,0.000000,0.000000,0.000000,0.0000,0.0000,0.0000,0.000000,0.000000,0.000430,0.000239,-0.002207,0.0230,0.6868,0.8243,-0.001534,0.000000,0.000000,0.570641,-0.570641,0.585981,-0.582913,0.582913,-0.559903
2.8576,0.016808,0.000000,0.000000,0.000000,0.0000,0.0000,0.0000,0.000000,0.000000,0.000390,0.000278,-0.002195,0.0720,0.6710,0.8774,-0.001534,0.000000,0.000000,0.572175,-0.570641,0.585981,-0.582913,0.582913,-0.559903
2.8744,0.016757,0.000000,0.000000,0.000000,0.0000,0.0000,0.0000,0.000000,0.000000,0.000390,0.000278,-0.002195,0.0720,0.6710,0.8774,-0.001534,0.000000,0.000000,0.572175,-0.570641,0.585981,-0.582913,0.582913,-0.559903
2.8911,0.016751,0.000000,0.000000,0.000000,0.0000,0.0000,0.0000,0.000000,0.000000,0.000394,0.000274,-0.002196,0.0669,0.6727,0.8719,-0.001534,0.000000,0.000000,0.572175,-0.570641,0.585981,-0.582913,0.582913,-0.559903
2.9079,0.016750,0.000000,0.000000,0.000000,0.0000,0.0000,0.0000,0.000000,0.000000,0.000434,0.000235,-0.002208,0.0178,0.6885,0.8187,-0.001534,0.000000,0.000000,0.570641,-0.570641,0.585981,-0.582913,0.582913,-0.559903
2.9246,0.016747,0.000000,0.000000,0.000000,0.0000,0.0000,0.0000,0.000000,0.000000,0.000430,0.000239,-0.002207,0.0229,0.6869,0.8242,-0.001534,0.000000,0.000000,0.570641,-0.570641,0.585981,-0.582913,0.582913,-0.559903
2.9414,0.016763,0.000000,0.000000,0.000000,0.0000,0.0000,0.0000,0.000000,0.000000,0.000430,0.000239,-0.002207,0.0229,0.6869,0.8242,-0.001534,0.000000,0.000000,0.570641,-0.570641,0.585981,-0.582913,0.582913,-0.559903
2.9585,0.017161,0.000000,0.000000,0.000000,0.0000,0.0000,0.0000,0.000000,0.000000,0.000430,0.000239,-0.002207,0.0229,0.6869,0.8242,-0.001534,0.000000,0.000000,0.570641,-0.570641,0.585981,-0.582913,0.582913,-0.559903
2.9753,0.016743,0.000000,0.000000,0.000000,0.0000,0.0000,0.0000,0.000000,0.000000,0.000430,0.000239,-0.002207,0.0229,0.6869,0.8242,-0.001534,0.000000,0.000000,0.570641,-0.570641,0.585981,-0.582913,0.582913,-0.559903
2.9920,0.016751,0.000000,0.000000,0.000000,0.0000,0.0000,0.0000,0.000000,0.000000,0.000377,0.000223,-0.002219,0.0611,0.7216,0.7702,-0.001534,0.000000,0.000000,0.570641,-0.570641,0.585981,-0.582913,0.581379,-0.559903
3.0088,0.016749,0.000000,0.000000,0.000000,0.0000,0.0000,0.0000,0.000000,0.000000,0.000382,0.000225,-0.002218,0.0571,0.7180,0.7758,-0.001534,0.000000,0.000000,0.570641,-0.570641,0.585981,-0.582913,0.581379,-0.559903
3.0255,0.016743,0.000000,0.000000,0.000000,0.0000,0.0000,0.0000,0.000000,0.000000,0.000435,0.000241,-0.002206,0.0188,0.6838,0.8287,-0.001534,0.000000,0.000000,0.570641,-0.570641,0.585981,-0.582913,0.582913,-0.559903
3.0423,0.016747,0.000000,0.000000,0.000000,0.0000,0.0000,0.0000,0.000000,0.000000,0.000430,0.000239,-0.002207,0.0228,0.6874,0.8232,-0.001534,0.000000,0.000000,0.570641,-0.570641,0.585981,-0.582913,0.582913,-0.559903
3.0590,0.016754,0.000000,0.000000,0.000000,0.0000,0.0000,0.0000,0.000000,0.000000,0.000430,0.000239,-0.002207,0.0228,0.6874,0.8232,-0.001534,0.000000,0.000000,0.570641,-0.570641,0.585981,-0.582913,0.582913,-0.559903
3.0758,0.016750,0.000000,0.000000,0.000000,0.0000,0.0000,0.0000,0.000000,0.000000,0.000430,0.000239,-0.002207,0.0228,0.6874,0.8232,-0.001534,0.000000,0.000000,0.570641,-0.570641,0.585981,-0.582913,0.582913,-0.559903
3.0925,0.016749,0.000000,0.000000,0.000000,0.0000,0.0000,0.0000,0.000000,0.000000,0.000430,0.000239,-0.002207,0.0228,0.6874,0.8232,-0.001534,0.000000,0.000000,0.570641,-0.570641,0.585981,-0.582913,0.582913,-0.559903
3.1093,0.016752,0.000000,0.000000,0.000000,0.0000,0.0000,0.0000,0.000000,0.000000,0.000390,0.000278,-0.002195,0.0720,0.6710,0.8775,-0.001534,0.000000,0.000000,0.572175,-0.570641,0.585981,-0.582913,0.582913,-0.559903
3.1260,0.016752,0.000000,0.000000,0.000000,0.0000,0.0000,0.0000,0.000000,0.000000,0.000435,0.000235,-0.002208,0.0173,0.6887,0.8181,-0.001534,0.000000,0.000000,0.570641,-0.570641,0.585981,-0.582913,0.582913,-0.559903
3.1428,0.016750,0.000000,0.000000,0.000000,0.0000,0.0000,0.0000,0.000000,0.000000,0.000389,0.000278,-0.002195,0.0726,0.6709,0.8781,-0.001534,0.000000,0.000000,0.572175,-0.570641,0.585981,-0.582913,0.582913,-0.559903
3.1598,0.016985,0.000000,0.000000,0.000000,0.0000,0.0000,0.0000,0.000000,0.000000,0.000435,0.000235,-0.002208,0.0173,0.6887,0.8181,-0.001534,0.000000,0.000000,0.570641,-0.570641,0.585981,-0.582913,0.582913,-0.559903
3.1765,0.016745,0.000000,0.000000,0.000000,0.0000,0.0000,0.0000,0.000000,0.000000,0.000435,0.000235,-0.002208,0.0173,0.6887,0.8181,-0.001534,0.000000,0.000000,0.570641,-0.570641,0.585981,-0.582913,0.582913,-0.559903
3.1933,0.016754,0.000000,0.000000,0.000000,0.0000,0.0000,0.0000,0.000000,0.000000,0.000430,0.000239,-0.002207,0.0230,0.6868,0.8243,-0.001534,0.000000,0.000000,0.570641,-0.570641,0.585981,-0.582913,0.582913,-0.559903
3.2100,0.016744,0.000000,0.000000,0.000000,0.0000,0.0000,0.0000,0.000000,0.000000,0.000430,0.000239,-0.002207,0.0230,0.6868,0.8243,-0.001534,0.000000,0.000000,0.570641,-0.570641,0.585981,-0.582913,0.582913,-0.559903
3.2267,0.016747,0.000000,0.000000,0.000000,0.0000,0.0000,0.0000,0.000000,0.000000,0.000430,0.000239,-0.002207,0.0230,0.6868,0.8243,-0.001534,0.000000,0.000000,0.570641,-0.570641,0.585981,-0.582913,0.582913,-0.559903
3.2435,0.016744,0.000000,0.000000,0.000000,0.0000,0.0000,0.0000,0.000000,0.000000,0.000430,0.000239,-0.002207,0.0230,0.6868,0.8243,-0.001534,0.000000,0.000000,0.570641,-0.570641,0.585981,-0.582913,0.582913,-0.559903
3.2602,0.016747,0.000000,0.000000,0.000000,0.0000,0.0000,0.0000,0.000000,0.000000,0.000430,0.000239,-0.002207,0.0230,0.6868,0.8243,-0.001534,0.000000,0.000000,0.570641,-0.570641,0.585981,-0.582913,0.582913,-0.559903
3.2770,0.016741,0.000000,0.000000,0.000000,0.0000,0.0000,0.0000,0.000000,0.000000,0.000430,0.000239,-0.002207,0.0230,0.6868,0.8243,-0.001534,0.000000,0.000000,0.570641,-0.570641,0.585981,-0.582913,0.582913,-0.559903
3.2937,0.016742,0.000000,0.000000,0.000000,0.0000,0.0000,0.0000,0.000000,0.000000,0.000430,0.000239,-0.002207,0.0230,0.6868,0.8243,-0.001534,0.000000,0.000000,0.570641,-0.570641,0.585981,-0.582913,0.582913,-0.559903
3.3105,0.016743,0.000000,0.000000,0.000000,0.0000,0.0000,0.0000,0.000000,0.000000,0.000430,0.000239,-0.002207,0.0230,0.6868,0.8243,-0.001534,0.000000,0.000000,0.570641,-0.570641,0.585981,-0.582913,0.582913,-0.559903
3.3273,0.016847,0.000000,0.000000,0.000000,0.0000,0.0000,0.0000,0.000000,0.000000,0.000430,0.000239,-0.002207,0.0230,0.6868,0.8243,-0.001534,0.000000,0.000000,0.570641,-0.570641,0.585981,-0.582913,0.582913,-0.559903
3.3441,0.016797,0.000000,0.000000,0.000000,0.0000,0.0000,0.0000,0.000000,0.000000,0.000430,0.000239,-0.002207,0.0230,0.6868,0.8243,-0.001534,0.000000,0.000000,0.570641,-0.570641,0.585981,-0.582913,0.582913,-0.559903
3.3609,0.016819,0.000000,0.000000,0.000000,0.0000,0.0000,0.0000,0.000000,0.000000,0.000430,0.000239,-0.002207,0.0230,0.6868,0.8243,-0.001534,0.000000,0.000000,0.570641,-0.570641,0.585981,-0.582913,0.582913,-0.559903
3.3778,0.016823,0.000000,0.000000,0.000000,0.0000,0.0000,0.0000,0.000000,0.000000,0.000430,0.000239,-0.002207,0.0230,0.6868,0.8243,-0.001534,0.000000,0.000000,0.570641,-0.570641,0.585981,-0.582913,0.582913,-0.559903
3.3945,0.016726,0.000000,0.000000,0.000000,0.0000,0.0000,0.0000,0.000000,0.000000,0.000430,0.000239,-0.002207,0.0230,0.6868,0.8243,-0.001534,0.000000,0.000000,0.570641,-0.570641,0.585981,-0.582913,0.582913,-0.559903
3.4112,0.016749,0.000000,0.000000,0.000000,0.0000,0.0000,0.0000,0.000000,0.000000,0.000430,0.000239,-0.002207,0.0230,0.6868,0.8243,-0.001534,0.000000,0.000000,0.570641,-0.570641,0.585981,-0.582913,0.582913,-0.559903
3.4280,0.016755,0.000000,0.000000,0.000000,0.0000,0.0000,0.0000,0.000000,0.000000,0.000430,0.000239,-0.002207,0.0230,0.6868,0.8243,-0.001534,0.000000,0.000000,0.570641,-0.570641,0.585981,-0.582913,0.582913,-0.559903
3.4447,0.016745,0.000000,0.000000,0.000000,0.0000,0.0000,0.0000,0.000000,0.000000,0.000430,0.000239,-0.002207,0.0230,0.6868,0.8243,-0.001534,0.000000,0.000000,0.570641,-0.570641,0.585981,-0.582913,0.582913,-0.559903
3.4618,0.017048,0.000000,0.000000,0.000000,0.0000,0.0000,0.0000,0.000000,0.000000,0.000430,0.000239,-0.002207,0.0230,0.6868,0.8243,-0.001534,0.000000,0.000000,0.570641,-0.570641,0.585981,-0.582913,0.582913,-0.559903
3.4785,0.016743,0.000000,0.000000,0.000000,0.0000,0.0000,0.0000,0.000000,0.000000,0.000430,0.000239,-0.002207,0.0230,0.6868,0.8243,-0.001534,0.000000,0.000000,0.570641,-0.570641,0.585981,-0.582913,0.582913,-0.559903
3.4953,0.016802,0.000000,0.000000,0.000000,0.0000,0.0000,0.0000,0.000000,0.000000,0.000390,0.000278,-0.002195,0.0720,0.6710,0.8774,-0.001534,0.000000,0.000000,0.572175,-0.570641,0.585981,-0.582913,0.582913,-0.559903
3.5121,0.016744,0.000000,0.000000,0.000000,0.0000,0.0000,0.0000,0.000000,0.000000,0.000435,0.000235,-0.002208,0.0173,0.6887,0.8181,-0.001534,0.000000,0.000000,0.570641,-0.570641,0.585981,-0.582913,0.582913,-0.559903
3.5288,0.016749,0.000000,0.000000,0.000000,0.0000,0.0000,0.0000,0.000000,0.000000,0.000435,0.000235,-0.002208,0.0173,0.6887,0.8181,-0.001534,0.000000,0.000000,0.570641,-0.570641,0.585981,-0.582913,0.582913,-0.559903
3.5456,0.016741,0.000000,0.000000,0.000000,0.0000,0.0000,0.0000,0.000000,0.000000,0.000430,0.000239,-0.002207,0.0230,0.6868,0.8243,-0.001534,0.000000,0.000000,0.570641,-0.570641,0.585981,-0.582913,0.582913,-0.559903
3.5623,0.016756,0.000000,0.000000,0.000000,0.0000,0.0000,0.0000,0.000000,0.000000,0.000430,0.000239,-0.002207,0.0230,0.6868,0.8243,-0.001534,0.000000,0.000000,0.570641,-0.570641,0.585981,-0.582913,0.582913,-0.559903
3.5791,0.016742,0.000000,0.000000,0.000000,0.0000,0.0000,0.0000,0.000000,0.000000,0.000430,0.000239,-0.002207,0.0230,0.6868,0.8243,-0.001534,0.000000,0.000000,0.570641,-0.570641,0.585981,-0.582913,0.582913,-0.559903
3.5958,0.016745,0.000000,0.000000,0.000000,0.0000,0.0000,0.0000,0.000000,0.000000,0.000430,0.000239,-0.002207,0.0230,0.6868,0.8243,-0.001534,0.000000,0.000000,0.570641,-0.570641,0.585981,-0.582913,0.582913,-0.559903
3.6125,0.016742,0.000000,0.000000,0.000000,0.0000,0.0000,0.0000,0.000000,0.000000,0.000430,0.000239,-0.002207,0.0230,0.6868,0.8243,-0.001534,0.000000,0.000000,0.570641,-0.570641,0.585981,-0.582913,0.582913,-0.559903
3.6293,0.016751,0.000000,0.000000,0.000000,0.0000,0.0000,0.0000,0.000000,0.000000,0.000430,0.000239,-0.002207,0.0230,0.6868,0.8243,-0.001534,0.000000,0.000000,0.570641,-0.570641,0.585981,-0.582913,0.582913,-0.559903
3.6460,0.016741,0.000000,0.000000,0.000000,0.0000,0.0000,0.0000,0.000000,0.000000,0.000430,0.000239,-0.002207,0.0230,0.6868,0.8243,-0.001534,0.000000,0.000000,0.570641,-0.570641,0.585981,-0.582913,0.582913,-0.559903
3.6628,0.016749,0.000000,0.000000,0.000000,0.0000,0.0000,0.0000,0.000000,0.000000,0.000430,0.000239,-0.002207,0.0230,0.6868,0.8243,-0.001534,0.000000,0.000000,0.570641,-0.570641,0.585981,-0.582913,0.582913,-0.559903
3.6795,0.016740,0.000000,0.000000,0.000000,0.0000,0.0000,0.0000,0.000000,0.000000,0.000377,0.000223,-0.002219,0.0611,0.7216,0.7702,-0.001534,0.000000,0.000000,0.570641,-0.570641,0.585981,-0.582913,0.581379,-0.559903
3.6963,0.016749,0.000000,0.000000,0.000000,0.0000,0.0000,0.0000,0.000000,0.000000,0.000436,0.000241,-0.002206,0.0184,0.6834,0.8293,-0.001534,0.000000,0.000000,0.570641,-0.570641,0.585981,-0.582913,0.582913,-0.559903
3.7130,0.016745,0.000000,0.000000,0.000000,0.0000,0.0000,0.0000,0.000000,0.000000,0.000389,0.000278,-0.002195,0.0725,0.6714,0.8769,-0.001534,0.000000,0.000000,0.572175,-0.570641,0.585981,-0.582913,0.582913,-0.559903
3.7298,0.016744,0.000000,0.000000,0.000000,0.0000,0.0000,0.0000,0.000000,0.000000,0.000389,0.000278,-0.002195,0.0725,0.6714,0.8769,-0.001534,0.000000,0.000000,0.572175,-0.570641,0.585981,-0.582913,0.582913,-0.559903
3.7465,0.016743,0.000000,0.000000,0.000000,0.0000,0.0000,0.0000,0.000000,0.000000,0.000435,0.000235,-0.002208,0.0173,0.6886,0.8182,-0.001534,0.000000,0.000000,0.570641,-0.570641,0.585981,-0.582913,0.582913,-0.559903
3.7633,0.016749,0.000000,0.000000,0.000000,0.0000,0.0000,0.0000,0.000000,0.000000,0.000376,0.000224,-0.002219,0.0617,0.7214,0.7708,-0.001534,0.000000,0.000000,0.570641,-0.570641,0.585981,-0.582913,0.581379,-0.559903
3.7800,0.016744,0.000000,0.000000,0.000000,0.0000,0.0000,0.0000,0.000000,0.000000,0.000395,0.000279,-0.002194,0.0680,0.6674,0.8830,-0.001534,0.000000,0.000000,0.572175,-0.570641,0.585981,-0.582913,0.582913,-0.559903
3.7967,0.016748,0.000000,0.000000,0.000000,0.0000,0.0000,0.0000,0.000000,0.000000,0.000434,0.000235,-0.002209,0.0177,0.6890,0.8175,-0.001534,0.000000,0.000000,0.570641,-0.570641,0.585981,-0.582913,0.582913,-0.559903
3.8135,0.016746,0.000000,0.000000,0.000000,0.0000,0.0000,0.0000,0.000000,0.000000,0.000430,0.000239,-0.002207,0.0230,0.6868,0.8244,-0.001534,0.000000,0.000000,0.570641,-0.570641,0.585981,-0.582913,0.582913,-0.559903
3.8302,0.016760,0.000000,0.000000,0.000000,0.0000,0.0000,0.0000,0.000000,0.000000,0.000430,0.000239,-0.002207,0.0230,0.6868,0.8244,-0.001534,0.000000,0.000000,0.570641,-0.570641,0.585981,-0.582913,0.582913,-0.559903
3.8470,0.016745,0.000000,0.000000,0.000000,0.0000,0.0000,0.0000,0.000000,0.000000,0.000430,0.000239,-0.002207,0.0230,0.6868,0.8244,-0.001534,0.000000,0.000000,0.570641,-0.570641,0.585981,-0.582913,0.582913,-0.559903
3.8638,0.016822,0.000000,0.000000,0.000000,0.0000,0.0000,0.0000,0.000000,0.000000,0.000430,0.000239,-0.002207,0.0230,0.6868,0.8244,-0.001534,0.000000,0.000000,0.570641,-0.570641,0.585981,-0.582913,0.582913,-0.559903
3.8806,0.016756,0.000000,0.000000,0.000000,0.0000,0.0000,0.0000,0.000000,0.000000,0.000390,0.000278,-0.002195,0.0720,0.6711,0.8774,-0.001534,0.000000,0.000000,0.572175,-0.570641,0.585981,-0.582913,0.582913,-0.559903
3.8978,0.017230,0.000000,0.000000,0.000000,0.0000,0.0000,0.0000,0.000000,0.000000,0.000435,0.000235,-0.002208,0.0173,0.6887,0.8181,-0.001534,0.000000,0.000000,0.570641,-0.570641,0.585981,-0.582913,0.582913,-0.559903
3.9145,0.016743,0.000000,0.000000,0.000000,0.0000,0.0000,0.0000,0.000000,0.000000,0.000430,0.000239,-0.002207,0.0230,0.6868,0.8243,-0.001534,0.000000,0.000000,0.570641,-0.570641,0.585981,-0.582913,0.582913,-0.559903
3.9313,0.016756,0.000000,0.000000,0.000000,0.0000,0.0000,0.0000,0.000000,0.000000,0.000430,0.000239,-0.002207,0.0230,0.6868,0.8243,-0.001534,0.000000,0.000000,0.570641,-0.570641,0.585981,-0.582913,0.582913,-0.559903
3.9481,0.016754,0.000000,0.000000,0.000000,0.0000,0.0000,0.0000,0.000000,0.000000,0.000430,0.000239,-0.002207,0.0230,0.6868,0.8243,-0.001534,0.000000,0.000000,0.570641,-0.570641,0.585981,-0.582913,0.582913,-0.559903
3.9652,0.017177,0.000000,0.000000,0.000000,0.0000,0.0000,0.0000,0.000000,0.000000,0.000430,0.000239,-0.002207,0.0230,0.6868,0.8243,-0.001534,0.000000,0.000000,0.570641,-0.570641,0.585981,-0.582913,0.582913,-0.559903
3.9820,0.016740,0.000000,0.000000,0.000000,0.0000,0.0000,0.0000,0.000000,0.000000,0.000430,0.000239,-0.002207,0.0230,0.6868,0.8243,-0.001534,0.000000,0.000000,0.570641,-0.570641,0.585981,-0.582913,0.582913,-0.559903
3.9987,0.016754,0.000000,0.000000,0.000000,0.0000,0.0000,0.0000,0.000000,0.000000,0.000430,0.000239,-0.002207,0.0230,0.6868,0.8243,-0.001534,0.000000,0.000000,0.570641,-0.570641,0.585981,-0.582913,0.582913,-0.559903
4.0155,0.016749,0.000000,0.000000,0.000000,0.0000,0.0000,0.0000,0.000000,0.000000,0.000430,0.000239,-0.002207,0.0230,0.6868,0.8243,-0.001534,0.000000,0.000000,0.570641,-0.570641,0.585981,-0.582913,0.582913,-0.559903
4.0322,0.016756,0.000000,0.000000,0.000000,0.0000,0.0000,0.0000,0.000000,0.000000,0.000430,0.000239,-0.002207,0.0230,0.6868,0.8243,-0.001534,0.000000,0.000000,0.570641,-0.570641,0.585981,-0.582913,0.582913,-0.559903
4.0490,0.016749,0.000000,0.000000,0.000000,0.0000,0.0000,0.0000,0.000000,0.000000,0.000377,0.000223,-0.002219,0.0611,0.7216,0.7702,-0.001534,0.000000,0.000000,0.570641,-0.570641,0.585981,-0.582913,0.581379,-0.559903
4.0657,0.016750,0.000000,0.000000,0.000000,0.0000,0.0000,0.0000,0.000000,0.000000,0.000436,0.000241,-0.002206,0.0184,0.6834,0.8293,-0.001534,0.000000,0.000000,0.570641,-0.570641,0.585981,-0.582913,0.582913,-0.559903
4.0825,0.016743,0.000000,0.000000,0.000000,0.0000,0.0000,0.0000,0.000000,0.000000,0.000389,0.000278,-0.002195,0.0725,0.6714,0.8769,-0.001534,0.000000,0.000000,0.572175,-0.570641,0.585981,-0.582913,0.582913,-0.559903
4.0992,0.016752,0.000000,0.000000,0.000000,0.0000,0.0000,0.0000,0.000000,0.000000,0.000435,0.000235,-0.002208,0.0173,0.6886,0.8182,-0.001534,0.000000,0.000000,0.570641,-0.570641,0.585981,-0.582913,0.582913,-0.559903
4.1160,0.016744,0.000000,0.000000,0.000000,0.0000,0.0000,0.0000,0.000000,0.000000,0.000430,0.000239,-0.002207,0.0230,0.6869,0.8243,-0.001534,0.000000,0.000000,0.570641,-0.570641,0.585981,-0.582913,0.582913,-0.559903
4.1329,0.016898,0.000000,0.000000,0.000000,0.0000,0.0000,0.0000,0.000000,0.000000,0.000430,0.000239,-0.002207,0.0230,0.6869,0.8243,-0.001534,0.000000,0.000000,0.570641,-0.570641,0.585981,-0.582913,0.582913,-0.559903
4.1496,0.016750,0.000000,0.000000,0.000000,0.0000,0.0000,0.0000,0.000000,0.000000,0.000430,0.000239,-0.002207,0.0230,0.6869,0.8243,-0.001534,0.000000,0.000000,0.570641,-0.570641,0.585981,-0.582913,0.582913,-0.559903
4.1664,0.016753,0.000000,0.000000,0.000000,0.0000,0.0000,0.0000,0.000000,0.000000,0.000430,0.000239,-0.002207,0.0230,0.6869,0.8243,-0.001534,0.000000,0.000000,0.570641,-0.570641,0.585981,-0.582913,0.582913,-0.559903
4.1831,0.016745,0.000000,0.000000,0.000000,0.0000,0.0000,0.0000,0.000000,0.000000,0.000430,0.000239,-0.002207,0.0230,0.6869,0.8243,-0.001534,0.000000,0.000000,0.570641,-0.570641,0.585981,-0.582913,0.582913,-0.559903
4.1999,0.016752,0.000000,0.000000,0.000000,0.0000,0.0000,0.0000,0.000000,0.000000,0.000430,0.000239,-0.002207,0.0230,0.6869,0.8243,-0.001534,0.000000,0.000000,0.570641,-0.570641,0.585981,-0.582913,0.582913,-0.559903
4.2166,0.016751,0.000000,0.000000,0.000000,0.0000,0.0000,0.0000,0.000000,0.000000,0.000390,0.000278,-0.002195,0.0720,0.6710,0.8774,-0.001534,0.000000,0.000000,0.572175,-0.570641,0.585981,-0.582913,0.582913,-0.559903
4.2334,0.016751,0.000000,0.000000,0.000000,0.0000,0.0000,0.0000,0.000000,0.000000,0.000390,0.000278,-0.002195,0.0720,0.6710,0.8774,-0.001534,0.000000,0.000000,0.572175,-0.570641,0.585981,-0.582913,0.582913,-0.559903
4.2501,0.016743,0.000000,0.000000,0.000000,0.0000,0.0000,0.0000,0.000000,0.000000,0.000435,0.000235,-0.002208,0.0173,0.6887,0.8181,-0.001534,0.000000,0.000000,0.570641,-0.570641,0.585981,-0.582913,0.582913,-0.559903
4.2669,0.016759,0.000000,0.000000,0.000000,0.0000,0.0000,0.0000,0.000000,0.000000,0.000389,0.000278,-0.002195,0.0726,0.6709,0.8781,-0.001534,0.000000,0.000000,0.572175,-0.570641,0.585981,-0.582913,0.582913,-0.559903
4.2836,0.016741,0.000000,0.000000,0.000000,0.0000,0.0000,0.0000,0.000000,0.000000,0.000435,0.000235,-0.002208,0.0173,0.6887,0.8181,-0.001534,0.000000,0.000000,0.570641,-0.570641,0.585981,-0.582913,0.582913,-0.559903
4.3004,0.016752,0.000000,0.000000,0.000000,0.0000,0.0000,0.0000,0.000000,0.000000,0.000389,0.000278,-0.002195,0.0726,0.6709,0.8781,-0.001534,0.000000,0.000000,0.572175,-0.570641,0.585981,-0.582913,0.582913,-0.559903
4.3171,0.016746,0.000000,0.000000,0.000000,0.0000,0.0000,0.0000,0.000000,0.000000,0.000394,0.000274,-0.002196,0.0668,0.6727,0.8718,-0.001534,0.000000,0.000000,0.572175,-0.570641,0.585981,-0.582913,0.582913,-0.559903
4.3339,0.016761,0.000000,0.000000,0.000000,0.0000,0.0000,0.0000,0.000000,0.000000,0.000394,0.000274,-0.002196,0.0668,0.6727,0.8718,-0.001534,0.000000,0.000000,0.572175,-0.570641,0.585981,-0.582913,0.582913,-0.559903
4.3506,0.016743,0.000000,0.000000,0.000000,0.0000,0.0000,0.0000,0.000000,0.000000,0.000434,0.000235,-0.002208,0.0178,0.6885,0.8187,-0.001534,0.000000,0.000000,0.570641,-0.570641,0.585981,-0.582913,0.582913,-0.559903
4.3674,0.016745,0.000000,0.000000,0.000000,0.0000,0.0000,0.0000,0.000000,0.000000,0.000430,0.000239,-0.002207,0.0229,0.6869,0.8242,-0.001534,0.000000,0.000000,0.570641,-0.570641,0.585981,-0.582913,0.582913,-0.559903
4.3841,0.016742,0.000000,0.000000,0.000000,0.0000,0.0000,0.0000,0.000000,0.000000,0.000390,0.000278,-0.002195,0.0720,0.6710,0.8774,-0.001534,0.000000,0.000000,0.572175,-0.570641,0.585981,-0.582913,0.582913,-0.559903
4.4009,0.016749,0.000000,0.000000,0.000000,0.0000,0.0000,0.0000,0.000000,0.000000,0.000435,0.000235,-0.002208,0.0173,0.6887,0.8181,-0.001534,0.000000,0.000000,0.570641,-0.570641,0.585981,-0.582913,0.582913,-0.559903
4.4177,0.016887,0.000000,0.000000,0.000000,0.0000,0.0000,0.0000,0.000000,0.000000,0.000435,0.000235,-0.002208,0.0173,0.6887,0.8181,-0.001534,0.000000,0.000000,0.570641,-0.570641,0.585981,-0.582913,0.582913,-0.559903
4.4346,0.016878,0.000000,0.000000,0.000000,0.0000,0.0000,0.0000,0.000000,0.000000,0.000435,0.000235,-0.002208,0.0173,0.6887,0.8181,-0.001534,0.000000,0.000000,0.570641,-0.570641,0.585981,-0.582913,0.582913,-0.559903
4.4515,0.016881,0.000000,0.000000,0.000000,0.0000,0.0000,0.0000,0.000000,0.000000,0.000435,0.000235,-0.002208,0.0173,0.6887,0.8181,-0.001534,0.000000,0.000000,0.570641,-0.570641,0.585981,-0.582913,0.582913,-0.559903
4.4682,0.016747,0.000000,0.000000,0.000000,0.0000,0.0000,0.0000,0.000000,0.000000,0.000430,0.000239,-0.002207,0.0230,0.6868,0.8243,-0.001534,0.000000,0.000000,0.570641,-0.570641,0.585981,-0.582913,0.582913,-0.559903
4.4850,0.016744,0.000000,0.000000,0.000000,0.0000,0.0000,0.0000,0.000000,0.000000,0.000390,0.000278,-0.002195,0.0720,0.6710,0.8774,-0.001534,0.000000,0.000000,0.572175,-0.570641,0.585981,-0.582913,0.582913,-0.559903
4.5017,0.016755,0.000000,0.000000,0.000000,0.0000,0.0000,0.0000,0.000000,0.000000,0.000435,0.000235,-0.002208,0.0173,0.6887,0.8181,-0.001534,0.000000,0.000000,0.570641,-0.570641,0.585981,-0.582913,0.582913,-0.559903
4.5185,0.016745,0.000000,0.000000,0.000000,0.0000,0.0000,0.0000,0.000000,0.000000,0.000389,0.000278,-0.002195,0.0726,0.6709,0.8781,-0.001534,0.000000,0.000000,0.572175,-0.570641,0.585981,-0.582913,0.582913,-0.559903
4.5352,0.016751,0.000000,0.000000,0.000000,0.0000,0.0000,0.0000,0.000000,0.000000,0.000389,0.000278,-0.002195,0.0726,0.6709,0.8781,-0.001534,0.000000,0.000000,0.570641,-0.570641,0.585981,-0.582913,0.582913,-0.559903
4.5520,0.016744,0.000000,0.000000,0.000000,0.0000,0.0000,0.0000,0.000000,0.000000,0.000435,0.000235,-0.002208,0.0173,0.6887,0.8181,-0.001534,0.000000,0.000000,0.570641,-0.570641,0.585981,-0.582913,0.582913,-0.559903
4.5687,0.016749,0.000000,0.000000,0.000000,0.0000,0.0000,0.0000,0.000000,0.000000,0.000430,0.000239,-0.002207,0.0230,0.6868,0.8243,-0.001534,0.000000,0.000000,0.570641,-0.570641,0.585981,-0.582913,0.582913,-0.559903
4.5855,0.016750,0.000000,0.000000,0.000000,0.0000,0.0000,0.0000,0.000000,0.000000,0.000430,0.000239,-0.002207,0.0230,0.6868,0.8243,-0.001534,0.000000,0.000000,0.570641,-0.570641,0.585981,-0.582913,0.582913,-0.559903
4.6028,0.017351,0.000000,0.000000,0.000000,0.0000,0.0000,0.0000,0.000000,0.000000,0.000430,0.000239,-0.002207,0.0230,0.6868,0.8243,-0.001534,0.000000,0.000000,0.570641,-0.570641,0.585981,-0.582913,0.582913,-0.559903
