t,loop_dt,cmd_x,cmd_y,cmd_z,cmd_roll,cmd_pitch,cmd_yaw,cmd_ant_l,cmd_ant_r,pres_x,pres_y,pres_z,pres_roll,pres_pitch,pres_yaw,pres_ant_l,pres_ant_r,pres_j0,pres_j1,pres_j2,pres_j3,pres_j4,pres_j5,pres_j6
0.0000,0.000001,0.000398,0.000490,-0.002018,0.7212,0.3218,0.9711,0.001534,0.000000,0.000398,0.000490,-0.002018,0.7212,0.3218,0.9711,0.003068,0.000000,0.000000,0.585981,-0.581379,0.585981,-0.582913,0.582913,-0.559903
0.0168,0.016754,0.000391,0.000482,-0.001984,0.7091,0.3165,0.9548,-0.001416,0.002924,0.000398,0.000490,-0.002018,0.7212,0.3218,0.9711,0.003068,0.000000,0.000000,0.585981,-0.581379,0.585981,-0.582913,0.582913,-0.559903
0.0335,0.016743,0.000385,0.000473,-0.001950,0.6970,0.3112,0.9385,-0.004364,0.005847,0.000398,0.000490,-0.002018,0.7212,0.3218,0.9711,-0.003068,0.000000,0.000000,0.585981,-0.581379,0.585981,-0.582913,0.582913,-0.559903
0.0502,0.016745,0.000378,0.000465,-0.001917,0.6849,0.3059,0.9222,-0.007312,0.008769,0.000398,0.000490,-0.002018,0.7212,0.3218,0.9711,-0.004602,0.000000,0.000000,0.585981,-0.581379,0.585981,-0.582913,0.582913,-0.559903
0.0670,0.016743,0.000371,0.000457,-0.001883,0.6727,0.3006,0.9060,-0.010260,0.011691,0.000398,0.000490,-0.002018,0.7212,0.3218,0.9711,0.001534,0.000000,0.000000,0.585981,-0.581379,0.585981,-0.582913,0.582913,-0.559903
0.0837,0.016756,0.000365,0.000449,-0.001849,0.6606,0.2953,0.8897,-0.013210,0.014616,0.000386,0.000467,-0.002042,0.6320,0.3721,0.9717,0.004602,0.001534,0.000000,0.584447,-0.579845,0.585981,-0.582913,0.582913,-0.559903
0.1005,0.016740,0.000358,0.000441,-0.001815,0.6485,0.2900,0.8734,-0.016158,0.017538,0.000386,0.000467,-0.002042,0.6320,0.3721,0.9717,0.004602,0.001534,0.000000,0.584447,-0.579845,0.585981,-0.582913,0.582913,-0.559903
0.1172,0.016750,0.000351,0.000432,-0.001781,0.6364,0.2847,0.8571,-0.019107,0.020461,0.000552,0.000485,-0.002178,0.6042,0.6035,1.0239,-0.001534,0.007670,0.000000,0.578311,-0.576777,0.585981,-0.582913,0.581379,-0.553767
0.1340,0.016740,0.000345,0.000424,-0.001748,0.6243,0.2794,0.8408,-0.022054,0.023383,0.000710,0.000537,-0.002191,0.6197,0.5953,1.1247,-0.007670,0.010738,0.000000,0.576777,-0.576777,0.585981,-0.582913,0.582913,-0.550699
0.1507,0.016760,0.000338,0.000416,-0.001714,0.6122,0.2741,0.8245,-0.025005,0.026308,0.000694,0.000531,-0.002189,0.6181,0.5962,1.1142,-0.015340,0.010738,0.000000,0.576777,-0.576777,0.585981,-0.582913,0.582913,-0.550699
0.1675,0.016741,0.000331,0.000408,-0.001680,0.6001,0.2688,0.8082,-0.027953,0.029230,0.000735,0.000570,-0.002203,0.6687,0.6135,1.1686,-0.021476,0.015340,0.000000,0.576777,-0.576777,0.585981,-0.582913,0.582913,-0.549165
0.1845,0.017021,0.000325,0.000399,-0.001646,0.5878,0.2634,0.7917,-0.030950,0.032201,0.000731,0.000566,-0.002201,0.6634,0.6117,1.1629,-0.021476,0.023010,0.000000,0.576777,-0.576777,0.585981,-0.582913,0.582913,-0.549165
0.2012,0.016740,0.000318,0.000391,-0.001612,0.5757,0.2580,0.7754,-0.033897,0.035122,0.000731,0.000566,-0.002201,0.6634,0.6117,1.1629,-0.021476,0.023010,0.000000,0.576777,-0.576777,0.585981,-0.582913,0.582913,-0.549165
0.2180,0.016752,0.000311,0.000383,-0.001578,0.5636,0.2527,0.7591,-0.036847,0.038046,0.000731,0.000566,-0.002201,0.6634,0.6117,1.1629,-0.021476,0.024544,0.000000,0.576777,-0.576777,0.585981,-0.582913,0.582913,-0.549165
0.2347,0.016738,0.000305,0.000375,-0.001544,0.5515,0.2474,0.7428,-0.039794,0.040967,0.000691,0.000528,-0.002188,0.6135,0.5945,1.1102,-0.026078,0.024544,0.000000,0.576777,-0.576777,0.585981,-0.582913,0.582913,-0.550699
0.2515,0.016744,0.000298,0.000367,-0.001511,0.5394,0.2421,0.7266,-0.042742,0.043890,0.000696,0.000532,-0.002189,0.6187,0.5963,1.1157,-0.030680,0.027612,0.000000,0.576777,-0.576777,0.585981,-0.582913,0.582913,-0.550699
0.2682,0.016742,0.000291,0.000358,-0.001477,0.5273,0.2367,0.7103,-0.045689,0.046812,0.000735,0.000570,-0.002203,0.6686,0.6135,1.1685,-0.035282,0.036816,0.000000,0.576777,-0.576777,0.585981,-0.582913,0.582913,-0.549165
0.2850,0.016767,0.000285,0.000350,-0.001443,0.5152,0.2314,0.6940,-0.048641,0.049738,0.000731,0.000566,-0.002201,0.6634,0.6117,1.1630,-0.039884,0.041417,0.000000,0.576777,-0.576777,0.585981,-0.582913,0.582913,-0.549165
0.3017,0.016741,0.000278,0.000342,-0.001409,0.5031,0.2260,0.6777,-0.051589,0.052660,0.000731,0.000566,-0.002201,0.6634,0.6117,1.1630,-0.039884,0.041417,0.000000,0.576777,-0.576777,0.585981,-0.582913,0.582913,-0.549165
0.3185,0.016747,0.000271,0.000334,-0.001375,0.4910,0.2207,0.6614,-0.054538,0.055583,0.000731,0.000566,-0.002201,0.6634,0.6117,1.1630,-0.044485,0.039884,0.000000,0.576777,-0.576777,0.585981,-0.582913,0.582913,-0.549165
0.3352,0.016741,0.000265,0.000326,-0.001342,0.4789,0.2153,0.6452,-0.057485,0.058505,0.000731,0.000566,-0.002201,0.6634,0.6117,1.1630,-0.046019,0.039884,0.000000,0.576777,-0.576777,0.585981,-0.582913,0.582913,-0.549165
0.3520,0.016764,0.000258,0.000317,-0.001308,0.4668,0.2100,0.6289,-0.060437,0.061431,0.000731,0.000566,-0.002201,0.6634,0.6117,1.1630,-0.042951,0.047553,0.000000,0.576777,-0.576777,0.585981,-0.582913,0.582913,-0.549165
0.3687,0.016741,0.000251,0.000309,-0.001274,0.4547,0.2046,0.6126,-0.063384,0.064353,0.000731,0.000566,-0.002201,0.6634,0.6117,1.1630,-0.047553,0.050621,0.000000,0.576777,-0.576777,0.585981,-0.582913,0.582913,-0.549165
0.3855,0.016773,0.000245,0.000301,-0.001240,0.4426,0.1992,0.5963,-0.066338,0.067280,0.000731,0.000566,-0.002201,0.6634,0.6117,1.1630,-0.053689,0.052155,0.000000,0.576777,-0.576777,0.585981,-0.582913,0.582913,-0.549165
0.4022,0.016745,0.000238,0.000293,-0.001206,0.4305,0.1939,0.5801,-0.069286,0.070203,0.000731,0.000566,-0.002201,0.6634,0.6117,1.1630,-0.053689,0.052155,0.000000,0.576777,-0.576777,0.585981,-0.582913,0.582913,-0.549165
0.4190,0.016752,0.000231,0.000285,-0.001173,0.4184,0.1885,0.5638,-0.072235,0.073126,0.000731,0.000566,-0.002201,0.6634,0.6117,1.1630,-0.061359,0.061359,0.000000,0.576777,-0.576777,0.585981,-0.582913,0.582913,-0.549165
0.4357,0.016743,0.000225,0.000276,-0.001139,0.4063,0.1831,0.5475,-0.075183,0.076049,0.000731,0.000566,-0.002201,0.6634,0.6117,1.1630,-0.065961,0.064427,0.000000,0.576777,-0.576777,0.585981,-0.582913,0.582913,-0.549165
0.4525,0.016766,0.000218,0.000268,-0.001105,0.3942,0.1777,0.5312,-0.078135,0.078975,0.000731,0.000566,-0.002201,0.6634,0.6117,1.1630,-0.064427,0.064427,0.000000,0.576777,-0.576777,0.585981,-0.582913,0.582913,-0.549165
0.4692,0.016742,0.000211,0.000260,-0.001071,0.3821,0.1724,0.5150,-0.081083,0.081897,0.000677,0.000551,-0.002213,0.7024,0.6464,1.1102,-0.065961,0.064427,0.000000,0.576777,-0.576777,0.585981,-0.582913,0.581379,-0.549165
0.4860,0.016781,0.000205,0.000252,-0.001037,0.3700,0.1670,0.4987,-0.084037,0.084826,0.000677,0.000551,-0.002213,0.7024,0.6464,1.1102,-0.081301,0.076699,0.000000,0.576777,-0.576777,0.585981,-0.582913,0.582913,-0.549165
0.5028,0.016746,0.000198,0.000244,-0.001003,0.3580,0.1616,0.4824,-0.086986,0.087748,0.000737,0.000568,-0.002200,0.6599,0.6083,1.1690,-0.081301,0.076699,0.000000,0.576777,-0.576777,0.585981,-0.582913,0.582913,-0.549165
0.5195,0.016748,0.000191,0.000235,-0.000970,0.3459,0.1562,0.4661,-0.089935,0.090672,0.000731,0.000566,-0.002202,0.6644,0.6123,1.1629,-0.079767,0.076699,0.000000,0.576777,-0.576777,0.585981,-0.582913,0.582913,-0.549165
0.5363,0.016741,0.000185,0.000227,-0.000936,0.3338,0.1508,0.4499,-0.092882,0.093593,0.000731,0.000566,-0.002202,0.6644,0.6123,1.1629,-0.078233,0.079767,0.000000,0.576777,-0.576777,0.585981,-0.582913,0.582913,-0.549165
0.5530,0.016745,0.000178,0.000219,-0.000902,0.3217,0.1454,0.4336,-0.095830,0.096516,0.000731,0.000566,-0.002202,0.6644,0.6123,1.1629,-0.081301,0.087437,0.000000,0.576777,-0.576777,0.585981,-0.582913,0.582913,-0.549165
0.5697,0.016746,0.000171,0.000211,-0.000868,0.3097,0.1400,0.4174,-0.098779,0.099439,0.000731,0.000566,-0.002202,0.6644,0.6123,1.1629,-0.087437,0.093573,0.000000,0.576777,-0.576777,0.585981,-0.582913,0.582913,-0.549165
0.5865,0.016776,0.000165,0.000203,-0.000834,0.2976,0.1346,0.4011,-0.101733,0.102367,0.000731,0.000566,-0.002202,0.6644,0.6123,1.1629,-0.087437,0.093573,0.000000,0.576777,-0.576777,0.585981,-0.582913,0.582913,-0.549165
0.6033,0.016744,0.000158,0.000194,-0.000801,0.2855,0.1292,0.3848,-0.104681,0.105289,0.000731,0.000566,-0.002202,0.6644,0.6123,1.1629,-0.095107,0.095107,0.000000,0.576777,-0.576777,0.585981,-0.582913,0.582913,-0.549165
0.6200,0.016752,0.000151,0.000186,-0.000767,0.2734,0.1238,0.3686,-0.107630,0.108213,0.000731,0.000566,-0.002202,0.6644,0.6123,1.1629,-0.099709,0.093573,0.000000,0.576777,-0.576777,0.585981,-0.582913,0.582913,-0.549165
0.6368,0.016747,0.000145,0.000178,-0.000733,0.2614,0.1183,0.3523,-0.110579,0.111136,0.000731,0.000566,-0.002202,0.6644,0.6123,1.1629,-0.101243,0.101243,0.000000,0.576777,-0.576777,0.585981,-0.582913,0.582913,-0.549165
0.6535,0.016765,0.000138,0.000170,-0.000699,0.2493,0.1129,0.3360,-0.113530,0.114062,0.000731,0.000566,-0.002202,0.6644,0.6123,1.1629,-0.105845,0.107379,0.000000,0.576777,-0.576777,0.585981,-0.582913,0.582913,-0.549165
0.6703,0.016746,0.000131,0.000162,-0.000665,0.2372,0.1075,0.3198,-0.116479,0.116985,0.000731,0.000566,-0.002202,0.6644,0.6123,1.1629,-0.113515,0.108913,0.000000,0.576777,-0.576777,0.585981,-0.582913,0.582913,-0.549165
0.6870,0.016763,0.000125,0.000153,-0.000632,0.2251,0.1021,0.3035,-0.119430,0.119910,0.000731,0.000566,-0.002202,0.6644,0.6123,1.1629,-0.113515,0.108913,0.000000,0.576777,-0.576777,0.585981,-0.582913,0.582913,-0.549165
0.7038,0.016741,0.000118,0.000145,-0.000598,0.2131,0.0966,0.2873,-0.122378,0.122832,0.000731,0.000566,-0.002202,0.6644,0.6123,1.1629,-0.115049,0.110447,0.000000,0.576777,-0.576777,0.585981,-0.582913,0.582913,-0.549165
0.7205,0.016751,0.000111,0.000137,-0.000564,0.2010,0.0912,0.2710,-0.125327,0.125756,0.000731,0.000566,-0.002202,0.6644,0.6123,1.1629,-0.115049,0.115049,0.000000,0.576777,-0.576777,0.585981,-0.582913,0.582913,-0.549165
0.7373,0.016749,0.000105,0.000129,-0.000530,0.1890,0.0858,0.2548,-0.128276,0.128679,0.000731,0.000566,-0.002202,0.6644,0.6123,1.1629,-0.119651,0.119651,0.000000,0.576777,-0.576777,0.585981,-0.582913,0.582913,-0.549165
0.7540,0.016760,0.000098,0.000120,-0.000496,0.1769,0.0803,0.2385,-0.131227,0.131604,0.000677,0.000551,-0.002213,0.7023,0.6463,1.1102,-0.127320,0.122718,0.000000,0.576777,-0.576777,0.585981,-0.582913,0.581379,-0.549165
0.7708,0.016743,0.000091,0.000112,-0.000463,0.1648,0.0749,0.2223,-0.134175,0.134526,0.000737,0.000568,-0.002200,0.6599,0.6083,1.1690,-0.130388,0.124252,0.000000,0.576777,-0.576777,0.585981,-0.582913,0.582913,-0.549165
0.7875,0.016760,0.000085,0.000104,-0.000429,0.1528,0.0694,0.2060,-0.137126,0.137452,0.000737,0.000568,-0.002200,0.6599,0.6083,1.1690,-0.130388,0.124252,0.000000,0.576777,-0.576777,0.585981,-0.582913,0.582913,-0.549165
0.8043,0.016751,0.000078,0.000096,-0.000395,0.1407,0.0640,0.1898,-0.140075,0.140375,0.000731,0.000566,-0.002202,0.6643,0.6123,1.1629,-0.128854,0.125786,0.000000,0.576777,-0.576777,0.585981,-0.582913,0.582913,-0.549165
0.8210,0.016751,0.000071,0.000088,-0.000361,0.1287,0.0585,0.1735,-0.143024,0.143299,0.000677,0.000551,-0.002213,0.7023,0.6463,1.1102,-0.131922,0.130388,0.000000,0.576777,-0.576777,0.585981,-0.582913,0.581379,-0.549165
0.8378,0.016744,0.000065,0.000079,-0.000327,0.1166,0.0530,0.1573,-0.145972,0.146221,0.000737,0.000568,-0.002200,0.6599,0.6083,1.1690,-0.138058,0.133456,0.000000,0.576777,-0.576777,0.585981,-0.582913,0.582913,-0.549165
0.8545,0.016754,0.000058,0.000071,-0.000294,0.1046,0.0476,0.1410,-0.148922,0.149145,0.000731,0.000566,-0.002202,0.6643,0.6123,1.1629,-0.142660,0.138058,0.000000,0.576777,-0.576777,0.585981,-0.582913,0.582913,-0.549165
0.8713,0.016752,0.000051,0.000063,-0.000260,0.0925,0.0421,0.1248,-0.151872,0.152069,0.000731,0.000566,-0.002202,0.6643,0.6123,1.1629,-0.147262,0.145728,0.000000,0.576777,-0.576777,0.585981,-0.582913,0.582913,-0.549165
0.8881,0.016760,0.000045,0.000055,-0.000226,0.0805,0.0366,0.1085,-0.154823,0.154994,0.000731,0.000566,-0.002202,0.6643,0.6123,1.1629,-0.147262,0.145728,0.000000,0.576777,-0.576777,0.585981,-0.582913,0.582913,-0.549165
0.9048,0.016746,0.000038,0.000047,-0.000192,0.0684,0.0312,0.0923,-0.157771,0.157917,0.000731,0.000566,-0.002202,0.6643,0.6123,1.1629,-0.148796,0.148796,0.000000,0.576777,-0.576777,0.585981,-0.582913,0.582913,-0.549165
0.9216,0.016755,0.000031,0.000038,-0.000158,0.0564,0.0257,0.0760,-0.160721,0.160841,0.000691,0.000528,-0.002188,0.6134,0.5944,1.1102,-0.150330,0.147262,0.000000,0.576777,-0.576777,0.585981,-0.582913,0.582913,-0.550699
0.9385,0.016907,0.000024,0.000030,-0.000124,0.0442,0.0202,0.0597,-0.163698,0.163792,0.000736,0.000571,-0.002203,0.6692,0.6137,1.1690,-0.158000,0.153398,0.000000,0.576777,-0.576777,0.585981,-0.582913,0.582913,-0.549165
0.9553,0.016815,0.000018,0.000022,-0.000090,0.0321,0.0147,0.0434,-0.166658,0.166727,0.000736,0.000571,-0.002203,0.6692,0.6137,1.1690,-0.158000,0.153398,0.000000,0.576777,-0.576777,0.585981,-0.582913,0.582913,-0.549165
0.9721,0.016812,0.000011,0.000014,-0.000056,0.0201,0.0092,0.0271,-0.169618,0.169661,0.000736,0.000571,-0.002203,0.6692,0.6137,1.1690,-0.158000,0.153398,0.000000,0.576777,-0.576777,0.585981,-0.582913,0.582913,-0.549165
0.9889,0.016821,0.000004,0.000005,-0.000022,0.0080,0.0036,0.0108,-0.172580,0.172597,0.000736,0.000571,-0.002203,0.6692,0.6137,1.1690,-0.158000,0.153398,0.000000,0.576777,-0.576777,0.585981,-0.582913,0.582913,-0.549165
1.0057,0.016744,0.000000,0.000000,0.000000,0.0000,0.0000,0.0000,-0.174533,0.174533,0.000736,0.000571,-0.002203,0.6692,0.6137,1.1690,-0.158000,0.153398,0.000000,0.576777,-0.576777,0.585981,-0.582913,0.582913,-0.549165
1.0225,0.016833,0.000000,0.000000,0.000000,0.0000,0.0000,0.0000,-0.174533,0.174533,0.000736,0.000571,-0.002203,0.6692,0.6137,1.1690,-0.162602,0.159534,0.000000,0.576777,-0.576777,0.585981,-0.582913,0.582913,-0.549165
1.0396,0.017077,0.000000,0.000000,0.000000,0.0000,0.0000,0.0000,-0.174533,0.174533,0.000731,0.000566,-0.002201,0.6634,0.6117,1.1629,-0.161068,0.159534,0.000000,0.576777,-0.576777,0.585981,-0.582913,0.582913,-0.549165
1.0563,0.016749,0.000000,0.000000,0.000000,0.0000,0.0000,0.0000,-0.174533,0.174533,0.000731,0.000566,-0.002201,0.6634,0.6117,1.1629,-0.161068,0.159534,0.000000,0.576777,-0.576777,0.585981,-0.582913,0.582913,-0.549165
1.0731,0.016747,0.000000,0.000000,0.000000,0.0000,0.0000,0.0000,-0.174533,0.174533,0.000637,0.000513,-0.002200,0.6520,0.6289,1.0569,-0.162602,0.159534,0.000000,0.576777,-0.576777,0.585981,-0.582913,0.581379,-0.550699
1.0898,0.016744,0.000000,0.000000,0.000000,0.0000,0.0000,0.0000,-0.174533,0.174533,0.000701,0.000534,-0.002188,0.6147,0.5927,1.1213,-0.164136,0.161068,0.000000,0.576777,-0.576777,0.585981,-0.582913,0.582913,-0.550699
1.1065,0.016746,0.000000,0.000000,0.000000,0.0000,0.0000,0.0000,-0.174533,0.174533,0.000735,0.000570,-0.002203,0.6691,0.6139,1.1679,-0.170272,0.170272,0.000000,0.576777,-0.576777,0.585981,-0.582913,0.582913,-0.549165
1.1233,0.016746,0.000000,0.000000,0.000000,0.0000,0.0000,0.0000,-0.174533,0.174533,0.000691,0.000528,-0.002188,0.6129,0.5942,1.1097,-0.177942,0.177942,0.000000,0.576777,-0.576777,0.585981,-0.582913,0.582913,-0.550699
1.1402,0.016938,0.000000,0.000000,0.000000,0.0000,0.0000,0.0000,-0.174533,0.174533,0.000642,0.000517,-0.002201,0.6573,0.6308,1.0624,-0.177942,0.176408,0.000000,0.576777,-0.576777,0.585981,-0.582913,0.581379,-0.550699
1.1570,0.016746,0.000000,0.000000,0.000000,0.0000,0.0000,0.0000,-0.174533,0.174533,0.000642,0.000517,-0.002201,0.6573,0.6308,1.0624,-0.177942,0.176408,0.000000,0.576777,-0.576777,0.585981,-0.582913,0.581379,-0.550699
1.1737,0.016747,0.000000,0.000000,0.000000,0.0000,0.0000,0.0000,-0.174533,0.174533,0.000660,0.000572,-0.002176,0.6637,0.5770,1.1745,-0.174874,0.171806,0.000000,0.578311,-0.576777,0.585981,-0.582913,0.582913,-0.550699
1.1905,0.016747,0.000000,0.000000,0.000000,0.0000,0.0000,0.0000,-0.174533,0.174533,0.000658,0.000566,-0.002179,0.6631,0.5826,1.1628,-0.176408,0.173340,0.000000,0.578311,-0.576777,0.585981,-0.582913,0.582913,-0.550699
1.2072,0.016744,0.000000,0.000000,0.000000,0.0000,0.0000,0.0000,-0.174533,0.174533,0.000658,0.000566,-0.002179,0.6631,0.5826,1.1628,-0.176408,0.173340,0.000000,0.578311,-0.576777,0.585981,-0.582913,0.582913,-0.550699
1.2240,0.016744,0.000000,0.000000,0.000000,0.0000,0.0000,0.0000,-0.174533,0.174533,0.000658,0.000566,-0.002179,0.6631,0.5826,1.1628,-0.176408,0.173340,0.000000,0.578311,-0.576777,0.585981,-0.582913,0.582913,-0.550699
1.2409,0.016910,0.000000,0.000000,0.000000,0.0000,0.0000,0.0000,-0.174533,0.174533,0.000658,0.000566,-0.002179,0.6631,0.5826,1.1628,-0.177942,0.173340,0.000000,0.578311,-0.576777,0.585981,-0.582913,0.582913,-0.552233
1.2576,0.016742,0.000000,0.000000,0.000000,0.0000,0.0000,0.0000,-0.174533,0.174533,0.000618,0.000528,-0.002165,0.6127,0.5645,1.1107,-0.177942,0.173340,0.000000,0.578311,-0.576777,0.585981,-0.582913,0.582913,-0.552233
1.2744,0.016743,0.000000,0.000000,0.000000,0.0000,0.0000,0.0000,-0.174533,0.174533,0.000582,0.000494,-0.002153,0.5676,0.5490,1.0628,-0.176408,0.173340,0.000000,0.578311,-0.576777,0.585981,-0.582913,0.582913,-0.553767
1.2911,0.016741,0.000000,0.000000,0.000000,0.0000,0.0000,0.0000,-0.174533,0.174533,0.000639,0.000482,-0.002142,0.6117,0.5154,1.0141,-0.176408,0.173340,0.000000,0.578311,-0.578311,0.585981,-0.582913,0.582913,-0.553767
1.3078,0.016740,0.000000,0.000000,0.000000,0.0000,0.0000,0.0000,-0.174533,0.174533,0.000580,0.000499,-0.002156,0.5678,0.5542,1.0728,-0.176408,0.173340,0.000000,0.578311,-0.576777,0.585981,-0.582913,0.582913,-0.553767
1.3246,0.016742,0.000000,0.000000,0.000000,0.0000,0.0000,0.0000,-0.174533,0.174533,0.000586,0.000497,-0.002154,0.5723,0.5501,1.0667,-0.177942,0.173340,0.000000,0.578311,-0.576777,0.585981,-0.582913,0.582913,-0.553767
1.3415,0.016877,0.000000,0.000000,0.000000,0.0000,0.0000,0.0000,-0.174533,0.174533,0.000586,0.000497,-0.002154,0.5723,0.5501,1.0667,-0.176408,0.173340,0.000000,0.578311,-0.576777,0.585981,-0.582913,0.582913,-0.553767
1.3582,0.016738,0.000000,0.000000,0.000000,0.0000,0.0000,0.0000,-0.174533,0.174533,0.000586,0.000497,-0.002154,0.5723,0.5501,1.0667,-0.176408,0.173340,0.000000,0.578311,-0.576777,0.585981,-0.582913,0.582913,-0.553767
1.3749,0.016741,0.000000,0.000000,0.000000,0.0000,0.0000,0.0000,-0.174533,0.174533,0.000586,0.000497,-0.002154,0.5723,0.5501,1.0667,-0.176408,0.173340,0.000000,0.578311,-0.576777,0.585981,-0.582913,0.582913,-0.553767
1.3917,0.016745,0.000000,0.000000,0.000000,0.0000,0.0000,0.0000,-0.174533,0.174533,0.000586,0.000497,-0.002154,0.5723,0.5501,1.0667,-0.176408,0.174874,0.000000,0.578311,-0.576777,0.585981,-0.582913,0.582913,-0.553767
1.4085,0.016854,0.000000,0.000000,0.000000,0.0000,0.0000,0.0000,-0.174533,0.174533,0.000586,0.000497,-0.002154,0.5723,0.5501,1.0667,-0.176408,0.173340,0.000000,0.578311,-0.576777,0.585981,-0.582913,0.582913,-0.553767
1.4254,0.016828,0.000000,0.000000,0.000000,0.0000,0.0000,0.0000,-0.174533,0.174533,0.000586,0.000497,-0.002154,0.5723,0.5501,1.0667,-0.176408,0.173340,0.000000,0.578311,-0.576777,0.585981,-0.582913,0.582913,-0.553767
1.4421,0.016761,0.000000,0.000000,0.000000,0.0000,0.0000,0.0000,-0.174533,0.174533,0.000586,0.000497,-0.002154,0.5723,0.5501,1.0667,-0.176408,0.173340,0.000000,0.578311,-0.576777,0.585981,-0.582913,0.582913,-0.553767
1.4589,0.016738,0.000000,0.000000,0.000000,0.0000,0.0000,0.0000,-0.174533,0.174533,0.000586,0.000497,-0.002154,0.5723,0.5501,1.0667,-0.176408,0.173340,0.000000,0.578311,-0.576777,0.585981,-0.582913,0.582913,-0.553767
1.4756,0.016748,0.000000,0.000000,0.000000,0.0000,0.0000,0.0000,-0.174533,0.174533,0.000625,0.000536,-0.002168,0.6222,0.5679,1.1207,-0.176408,0.173340,0.000000,0.578311,-0.576777,0.585981,-0.582913,0.582913,-0.552233
1.4924,0.016747,0.000000,0.000000,0.000000,0.0000,0.0000,0.0000,-0.174533,0.174533,0.000581,0.000493,-0.002153,0.5666,0.5487,1.0617,-0.176408,0.173340,0.000000,0.578311,-0.576777,0.585981,-0.582913,0.582913,-0.553767
1.5091,0.016750,0.000000,0.000000,0.000000,0.0000,0.0000,0.0000,-0.174533,0.174533,0.000586,0.000498,-0.002154,0.5724,0.5507,1.0679,-0.176408,0.173340,0.000000,0.578311,-0.576777,0.585981,-0.582913,0.582913,-0.553767
1.5258,0.016744,0.000000,0.000000,0.000000,0.0000,0.0000,0.0000,-0.174533,0.174533,0.000586,0.000498,-0.002154,0.5724,0.5507,1.0679,-0.176408,0.173340,0.000000,0.578311,-0.576777,0.585981,-0.582913,0.582913,-0.553767
1.5426,0.016705,0.000000,0.000000,0.000000,0.0000,0.0000,0.0000,-0.174533,0.174533,0.000586,0.000498,-0.002154,0.5724,0.5507,1.0679,-0.176408,0.173340,0.000000,0.578311,-0.576777,0.585981,-0.582913,0.582913,-0.553767
1.5593,0.016740,0.000000,0.000000,0.000000,0.0000,0.0000,0.0000,-0.174533,0.174533,0.000586,0.000498,-0.002154,0.5724,0.5507,1.0679,-0.176408,0.173340,0.000000,0.578311,-0.576777,0.585981,-0.582913,0.582913,-0.553767
1.5760,0.016744,0.000000,0.000000,0.000000,0.0000,0.0000,0.0000,-0.174533,0.174533,0.000586,0.000498,-0.002154,0.5724,0.5507,1.0679,-0.176408,0.173340,0.000000,0.578311,-0.576777,0.585981,-0.582913,0.582913,-0.553767
1.5928,0.016750,0.000000,0.000000,0.000000,0.0000,0.0000,0.0000,-0.174533,0.174533,0.000639,0.000481,-0.002142,0.6112,0.5153,1.0136,-0.176408,0.173340,0.000000,0.578311,-0.578311,0.585981,-0.582913,0.582913,-0.553767
1.6095,0.016752,0.000000,0.000000,0.000000,0.0000,0.0000,0.0000,-0.174533,0.174533,0.000580,0.000499,-0.002156,0.5678,0.5542,1.0729,-0.176408,0.173340,0.000000,0.578311,-0.576777,0.585981,-0.582913,0.582913,-0.553767
1.6263,0.016742,0.000000,0.000000,0.000000,0.0000,0.0000,0.0000,-0.174533,0.174533,0.000586,0.000497,-0.002154,0.5723,0.5501,1.0667,-0.176408,0.173340,0.000000,0.578311,-0.576777,0.585981,-0.582913,0.582913,-0.553767
1.6430,0.016746,0.000000,0.000000,0.000000,0.0000,0.0000,0.0000,-0.174533,0.174533,0.000586,0.000497,-0.002154,0.5723,0.5501,1.0667,-0.176408,0.173340,0.000000,0.578311,-0.576777,0.585981,-0.582913,0.582913,-0.553767
1.6598,0.016761,0.000000,0.000000,0.000000,0.0000,0.0000,0.0000,-0.174533,0.174533,0.000586,0.000497,-0.002154,0.5723,0.5501,1.0667,-0.176408,0.173340,0.000000,0.578311,-0.576777,0.585981,-0.582913,0.582913,-0.553767
1.6765,0.016754,0.000000,0.000000,0.000000,0.0000,0.0000,0.0000,-0.174533,0.174533,0.000586,0.000497,-0.002154,0.5723,0.5501,1.0667,-0.176408,0.173340,0.000000,0.578311,-0.576777,0.585981,-0.582913,0.582913,-0.553767
1.6933,0.016742,0.000000,0.000000,0.000000,0.0000,0.0000,0.0000,-0.174533,0.174533,0.000586,0.000497,-0.002154,0.5723,0.5501,1.0667,-0.176408,0.173340,0.000000,0.578311,-0.576777,0.585981,-0.582913,0.582913,-0.553767
1.7100,0.016744,0.000000,0.000000,0.000000,0.0000,0.0000,0.0000,-0.174533,0.174533,0.000586,0.000497,-0.002154,0.5723,0.5501,1.0667,-0.176408,0.173340,0.000000,0.578311,-0.576777,0.585981,-0.582913,0.582913,-0.553767
1.7268,0.016751,0.000000,0.000000,0.000000,0.0000,0.0000,0.0000,-0.174533,0.174533,0.000586,0.000497,-0.002154,0.5723,0.5501,1.0667,-0.176408,0.173340,0.000000,0.578311,-0.576777,0.585981,-0.582913,0.582913,-0.553767
1.7435,0.016745,0.000000,0.000000,0.000000,0.0000,0.0000,0.0000,-0.174533,0.174533,0.000586,0.000497,-0.002154,0.5723,0.5501,1.0667,-0.176408,0.173340,0.000000,0.578311,-0.576777,0.585981,-0.582913,0.582913,-0.553767
1.7603,0.016742,0.000000,0.000000,0.000000,0.0000,0.0000,0.0000,-0.174533,0.174533,0.000586,0.000497,-0.002154,0.5723,0.5501,1.0667,-0.176408,0.174874,0.000000,0.578311,-0.576777,0.585981,-0.582913,0.582913,-0.553767
1.7770,0.016750,0.000000,0.000000,0.000000,0.0000,0.0000,0.0000,-0.174533,0.174533,0.000586,0.000497,-0.002154,0.5723,0.5501,1.0667,-0.176408,0.173340,0.000000,0.578311,-0.576777,0.585981,-0.582913,0.582913,-0.553767
1.7939,0.016877,0.000000,0.000000,0.000000,0.0000,0.0000,0.0000,-0.174533,0.174533,0.000586,0.000497,-0.002154,0.5723,0.5501,1.0667,-0.176408,0.173340,0.000000,0.578311,-0.576777,0.585981,-0.582913,0.582913,-0.553767
1.8120,0.018112,0.000000,0.000000,0.000000,0.0000,0.0000,0.0000,-0.174533,0.174533,0.000586,0.000497,-0.002154,0.5723,0.5501,1.0667,-0.176408,0.173340,0.000000,0.578311,-0.576777,0.585981,-0.582913,0.582913,-0.553767
1.8288,0.016741,0.000000,0.000000,0.000000,0.0000,0.0000,0.0000,-0.174533,0.174533,0.000586,0.000497,-0.002154,0.5723,0.5501,1.0667,-0.176408,0.173340,0.000000,0.578311,-0.576777,0.585981,-0.582913,0.582913,-0.553767
1.8455,0.016749,0.000000,0.000000,0.000000,0.0000,0.0000,0.0000,-0.174533,0.174533,0.000586,0.000497,-0.002154,0.5723,0.5501,1.0667,-0.176408,0.173340,0.000000,0.578311,-0.576777,0.585981,-0.582913,0.582913,-0.553767
1.8622,0.016744,0.000000,0.000000,0.000000,0.0000,0.0000,0.0000,-0.174533,0.174533,0.000586,0.000497,-0.002154,0.5723,0.5501,1.0667,-0.176408,0.173340,0.000000,0.578311,-0.576777,0.585981,-0.582913,0.582913,-0.553767
1.8790,0.016757,0.000000,0.000000,0.000000,0.0000,0.0000,0.0000,-0.174533,0.174533,0.000586,0.000497,-0.002154,0.5723,0.5501,1.0667,-0.176408,0.173340,0.000000,0.578311,-0.576777,0.585981,-0.582913,0.582913,-0.553767
1.8957,0.016746,0.000000,0.000000,0.000000,0.0000,0.0000,0.0000,-0.174533,0.174533,0.000586,0.000497,-0.002154,0.5723,0.5501,1.0667,-0.176408,0.173340,0.000000,0.578311,-0.576777,0.585981,-0.582913,0.582913,-0.553767
1.9125,0.016759,0.000000,0.000000,0.000000,0.0000,0.0000,0.0000,-0.174533,0.174533,0.000586,0.000497,-0.002154,0.5723,0.5501,1.0667,-0.176408,0.173340,0.000000,0.578311,-0.576777,0.585981,-0.582913,0.582913,-0.553767
1.9292,0.016743,0.000000,0.000000,0.000000,0.0000,0.0000,0.0000,-0.174533,0.174533,0.000586,0.000497,-0.002154,0.5723,0.5501,1.0667,-0.177942,0.173340,0.000000,0.578311,-0.576777,0.585981,-0.582913,0.582913,-0.553767
1.9460,0.016748,0.000000,0.000000,0.000000,0.0000,0.0000,0.0000,-0.174533,0.174533,0.000586,0.000497,-0.002154,0.5723,0.5501,1.0667,-0.177942,0.173340,0.000000,0.578311,-0.576777,0.585981,-0.582913,0.582913,-0.553767
1.9627,0.016746,0.000000,0.000000,0.000000,0.0000,0.0000,0.0000,-0.174533,0.174533,0.000586,0.000497,-0.002154,0.5723,0.5501,1.0667,-0.176408,0.173340,0.000000,0.578311,-0.576777,0.585981,-0.582913,0.582913,-0.553767
1.9795,0.016757,0.000000,0.000000,0.000000,0.0000,0.0000,0.0000,-0.174533,0.174533,0.000586,0.000497,-0.002154,0.5723,0.5501,1.0667,-0.176408,0.173340,0.000000,0.578311,-0.576777,0.585981,-0.582913,0.582913,-0.553767
1.9962,0.016747,0.000000,0.000000,0.000000,0.0000,0.0000,0.0000,-0.174533,0.174533,0.000586,0.000497,-0.002154,0.5723,0.5501,1.0667,-0.176408,0.173340,0.000000,0.578311,-0.576777,0.585981,-0.582913,0.582913,-0.553767
2.0130,0.016754,0.000000,0.000000,0.000000,0.0000,0.0000,0.0000,-0.174533,0.174533,0.000586,0.000497,-0.002154,0.5723,0.5501,1.0667,-0.176408,0.173340,0.000000,0.578311,-0.576777,0.585981,-0.582913,0.582913,-0.553767
2.0299,0.016878,0.000000,0.000000,0.000000,0.0000,0.0000,0.0000,-0.174533,0.174533,0.000586,0.000497,-0.002154,0.5723,0.5501,1.0667,-0.176408,0.173340,0.000000,0.578311,-0.576777,0.585981,-0.582913,0.582913,-0.553767
2.0467,0.016777,0.000000,0.000000,0.000000,0.0000,0.0000,0.0000,-0.174533,0.174533,0.000586,0.000497,-0.002154,0.5723,0.5501,1.0667,-0.176408,0.173340,0.000000,0.578311,-0.576777,0.585981,-0.582913,0.582913,-0.553767
2.0634,0.016744,0.000000,0.000000,0.000000,0.0000,0.0000,0.0000,-0.174533,0.174533,0.000586,0.000497,-0.002154,0.5723,0.5501,1.0667,-0.176408,0.173340,0.000000,0.578311,-0.576777,0.585981,-0.582913,0.582913,-0.553767
2.0801,0.016743,0.000000,0.000000,0.000000,0.0000,0.0000,0.0000,-0.174533,0.174533,0.000586,0.000497,-0.002154,0.5723,0.5501,1.0667,-0.176408,0.173340,0.000000,0.578311,-0.576777,0.585981,-0.582913,0.582913,-0.553767
2.0969,0.016756,0.000000,0.000000,0.000000,0.0000,0.0000,0.0000,-0.174533,0.174533,0.000586,0.000497,-0.002154,0.5723,0.5501,1.0667,-0.176408,0.173340,0.000000,0.578311,-0.576777,0.585981,-0.582913,0.582913,-0.553767
2.1136,0.016744,0.000000,0.000000,0.000000,0.0000,0.0000,0.0000,-0.174533,0.174533,0.000586,0.000497,-0.002154,0.5723,0.5501,1.0667,-0.176408,0.173340,0.000000,0.578311,-0.576777,0.585981,-0.582913,0.582913,-0.553767
2.1304,0.016714,0.000000,0.000000,0.000000,0.0000,0.0000,0.0000,-0.174533,0.174533,0.000586,0.000497,-0.002154,0.5723,0.5501,1.0667,-0.176408,0.173340,0.000000,0.578311,-0.576777,0.585981,-0.582913,0.582913,-0.553767
2.1471,0.016756,0.000000,0.000000,0.000000,0.0000,0.0000,0.0000,-0.174533,0.174533,0.000505,0.000420,-0.002128,0.4712,0.5158,0.9605,-0.176408,0.173340,0.000000,0.578311,-0.576777,0.585981,-0.582913,0.582913,-0.556835
2.1639,0.016750,0.000000,0.000000,0.000000,0.0000,0.0000,0.0000,-0.174533,0.174533,0.000513,0.000428,-0.002131,0.4818,0.5195,0.9716,-0.176408,0.173340,0.000000,0.578311,-0.576777,0.585981,-0.582913,0.582913,-0.556835
2.1806,0.016767,0.000000,0.000000,0.000000,0.0000,0.0000,0.0000,-0.174533,0.174533,0.000566,0.000411,-0.002118,0.5200,0.4839,0.9169,-0.176408,0.173340,0.000000,0.578311,-0.578311,0.585981,-0.582913,0.582913,-0.556835
2.1974,0.016747,0.000000,0.000000,0.000000,0.0000,0.0000,0.0000,-0.174533,0.174533,0.000507,0.000429,-0.002132,0.4767,0.5228,0.9762,-0.176408,0.173340,0.000000,0.578311,-0.576777,0.585981,-0.582913,0.582913,-0.556835
2.2141,0.016747,0.000000,0.000000,0.000000,0.0000,0.0000,0.0000,-0.174533,0.174533,0.000513,0.000427,-0.002130,0.4812,0.5188,0.9700,-0.176408,0.173340,0.000000,0.578311,-0.576777,0.585981,-0.582913,0.582913,-0.556835
2.2309,0.016750,0.000000,0.000000,0.000000,0.0000,0.0000,0.0000,-0.174533,0.174533,0.000513,0.000427,-0.002130,0.4812,0.5188,0.9700,-0.176408,0.173340,0.000000,0.578311,-0.576777,0.585981,-0.582913,0.582913,-0.556835
2.2476,0.016751,0.000000,0.000000,0.000000,0.0000,0.0000,0.0000,-0.174533,0.174533,0.000513,0.000427,-0.002130,0.4812,0.5188,0.9700,-0.176408,0.173340,0.000000,0.578311,-0.576777,0.585981,-0.582913,0.582913,-0.556835
2.2644,0.016742,0.000000,0.000000,0.000000,0.0000,0.0000,0.0000,-0.174533,0.174533,0.000513,0.000427,-0.002130,0.4812,0.5188,0.9700,-0.176408,0.173340,0.000000,0.578311,-0.576777,0.585981,-0.582913,0.582913,-0.556835
2.2811,0.016748,0.000000,0.000000,0.000000,0.0000,0.0000,0.0000,-0.174533,0.174533,0.000513,0.000427,-0.002130,0.4812,0.5188,0.9700,-0.176408,0.173340,0.000000,0.578311,-0.576777,0.585981,-0.582913,0.582913,-0.556835
2.2979,0.016749,0.000000,0.000000,0.000000,0.0000,0.0000,0.0000,-0.174533,0.174533,0.000513,0.000427,-0.002130,0.4812,0.5188,0.9700,-0.176408,0.173340,0.000000,0.578311,-0.576777,0.585981,-0.582913,0.582913,-0.556835
2.3150,0.017142,0.000000,0.000000,0.000000,0.0000,0.0000,0.0000,-0.174533,0.174533,0.000513,0.000427,-0.002130,0.4812,0.5188,0.9700,-0.176408,0.173340,0.000000,0.578311,-0.576777,0.585981,-0.582913,0.582913,-0.556835
2.3317,0.016742,0.000000,0.000000,0.000000,0.0000,0.0000,0.0000,-0.174533,0.174533,0.000513,0.000427,-0.002130,0.4812,0.5188,0.9700,-0.176408,0.173340,0.000000,0.578311,-0.576777,0.585981,-0.582913,0.582913,-0.556835
2.3485,0.016750,0.000000,0.000000,0.000000,0.0000,0.0000,0.0000,-0.174533,0.174533,0.000513,0.000427,-0.002130,0.4812,0.5188,0.9700,-0.176408,0.173340,0.000000,0.578311,-0.576777,0.585981,-0.582913,0.582913,-0.556835
2.3652,0.016744,0.000000,0.000000,0.000000,0.0000,0.0000,0.0000,-0.174533,0.174533,0.000513,0.000427,-0.002130,0.4812,0.5188,0.9700,-0.176408,0.173340,0.000000,0.578311,-0.576777,0.585981,-0.582913,0.582913,-0.556835
2.3820,0.016743,0.000000,0.000000,0.000000,0.0000,0.0000,0.0000,-0.174533,0.174533,0.000513,0.000427,-0.002130,0.4812,0.5188,0.9700,-0.176408,0.173340,0.000000,0.578311,-0.576777,0.585981,-0.582913,0.582913,-0.556835
2.3987,0.016743,0.000000,0.000000,0.000000,0.0000,0.0000,0.0000,-0.174533,0.174533,0.000513,0.000427,-0.002130,0.4812,0.5188,0.9700,-0.176408,0.173340,0.000000,0.578311,-0.576777,0.585981,-0.582913,0.582913,-0.556835
2.4155,0.016757,0.000000,0.000000,0.000000,0.0000,0.0000,0.0000,-0.174533,0.174533,0.000513,0.000427,-0.002130,0.4812,0.5188,0.9700,-0.176408,0.173340,0.000000,0.578311,-0.576777,0.585981,-0.582913,0.582913,-0.556835
2.4322,0.016745,0.000000,0.000000,0.000000,0.0000,0.0000,0.0000,-0.174533,0.174533,0.000513,0.000427,-0.002130,0.4812,0.5188,0.9700,-0.176408,0.173340,0.000000,0.578311,-0.576777,0.585981,-0.582913,0.582913,-0.556835
2.4490,0.016753,0.000000,0.000000,0.000000,0.0000,0.0000,0.0000,-0.174533,0.174533,0.000513,0.000427,-0.002130,0.4812,0.5188,0.9700,-0.176408,0.173340,0.000000,0.578311,-0.576777,0.585981,-0.582913,0.582913,-0.556835
2.4657,0.016748,0.000000,0.000000,0.000000,0.0000,0.0000,0.0000,-0.174533,0.174533,0.000513,0.000427,-0.002130,0.4812,0.5188,0.9700,-0.176408,0.173340,0.000000,0.578311,-0.576777,0.585981,-0.582913,0.582913,-0.556835
2.4826,0.016897,0.000000,0.000000,0.000000,0.0000,0.0000,0.0000,-0.174533,0.174533,0.000513,0.000427,-0.002130,0.4812,0.5188,0.9700,-0.176408,0.173340,0.000000,0.578311,-0.576777,0.585981,-0.582913,0.582913,-0.556835
2.4994,0.016744,0.000000,0.000000,0.000000,0.0000,0.0000,0.0000,-0.174533,0.174533,0.000513,0.000427,-0.002130,0.4812,0.5188,0.9700,-0.176408,0.173340,0.000000,0.578311,-0.576777,0.585981,-0.582913,0.582913,-0.556835
2.5161,0.016782,0.000000,0.000000,0.000000,0.0000,0.0000,0.0000,-0.174533,0.174533,0.000513,0.000427,-0.002130,0.4812,0.5188,0.9700,-0.176408,0.173340,0.000000,0.578311,-0.576777,0.585981,-0.582913,0.582913,-0.556835
2.5329,0.016740,0.000000,0.000000,0.000000,0.0000,0.0000,0.0000,-0.174533,0.174533,0.000513,0.000427,-0.002130,0.4812,0.5188,0.9700,-0.176408,0.173340,0.000000,0.578311,-0.576777,0.585981,-0.582913,0.582913,-0.556835
2.5496,0.016701,0.000000,0.000000,0.000000,0.0000,0.0000,0.0000,-0.174533,0.174533,0.000513,0.000427,-0.002130,0.4812,0.5188,0.9700,-0.176408,0.173340,0.000000,0.578311,-0.576777,0.585981,-0.582913,0.582913,-0.556835
2.5663,0.016746,0.000000,0.000000,0.000000,0.0000,0.0000,0.0000,-0.174533,0.174533,0.000513,0.000427,-0.002130,0.4812,0.5188,0.9700,-0.176408,0.173340,0.000000,0.578311,-0.576777,0.585981,-0.582913,0.582913,-0.556835
2.5831,0.016757,0.000000,0.000000,0.000000,0.0000,0.0000,0.0000,-0.174533,0.174533,0.000513,0.000427,-0.002130,0.4812,0.5188,0.9700,-0.176408,0.173340,0.000000,0.578311,-0.576777,0.585981,-0.582913,0.582913,-0.556835
2.5998,0.016743,0.000000,0.000000,0.000000,0.0000,0.0000,0.0000,-0.174533,0.174533,0.000513,0.000427,-0.002130,0.4812,0.5188,0.9700,-0.176408,0.173340,0.000000,0.578311,-0.576777,0.585981,-0.582913,0.582913,-0.556835
2.6167,0.016815,0.000000,0.000000,0.000000,0.0000,0.0000,0.0000,-0.174533,0.174533,0.000513,0.000427,-0.002130,0.4812,0.5188,0.9700,-0.176408,0.173340,0.000000,0.578311,-0.576777,0.585981,-0.582913,0.582913,-0.556835
2.6334,0.016741,0.000000,0.000000,0.000000,0.0000,0.0000,0.0000,-0.174533,0.174533,0.000513,0.000427,-0.002130,0.4812,0.5188,0.9700,-0.176408,0.173340,0.000000,0.578311,-0.576777,0.585981,-0.582913,0.582913,-0.556835
2.6501,0.016755,0.000000,0.000000,0.000000,0.0000,0.0000,0.0000,-0.174533,0.174533,0.000513,0.000427,-0.002130,0.4812,0.5188,0.9700,-0.176408,0.173340,0.000000,0.578311,-0.576777,0.585981,-0.582913,0.582913,-0.556835
2.6669,0.016747,0.000000,0.000000,0.000000,0.0000,0.0000,0.0000,-0.174533,0.174533,0.000513,0.000427,-0.002130,0.4812,0.5188,0.9700,-0.176408,0.173340,0.000000,0.578311,-0.576777,0.585981,-0.582913,0.582913,-0.556835
2.6837,0.016790,0.000000,0.000000,0.000000,0.0000,0.0000,0.0000,-0.174533,0.174533,0.000513,0.000427,-0.002130,0.4812,0.5188,0.9700,-0.176408,0.173340,0.000000,0.578311,-0.576777,0.585981,-0.582913,0.582913,-0.556835
2.7004,0.016744,0.000000,0.000000,0.000000,0.0000,0.0000,0.0000,-0.174533,0.174533,0.000513,0.000427,-0.002130,0.4812,0.5188,0.9700,-0.176408,0.173340,0.000000,0.578311,-0.576777,0.585981,-0.582913,0.582913,-0.556835
2.7172,0.016770,0.000000,0.000000,0.000000,0.0000,0.0000,0.0000,-0.174533,0.174533,0.000513,0.000427,-0.002130,0.4812,0.5188,0.9700,-0.176408,0.173340,0.000000,0.578311,-0.576777,0.585981,-0.582913,0.582913,-0.556835
2.7339,0.016739,0.000000,0.000000,0.000000,0.0000,0.0000,0.0000,-0.174533,0.174533,0.000513,0.000427,-0.002130,0.4812,0.5188,0.9700,-0.176408,0.173340,0.000000,0.578311,-0.576777,0.585981,-0.582913,0.582913,-0.556835
2.7507,0.016756,0.000000,0.000000,0.000000,0.0000,0.0000,0.0000,-0.174533,0.174533,0.000513,0.000427,-0.002130,0.4812,0.5188,0.9700,-0.176408,0.173340,0.000000,0.578311,-0.576777,0.585981,-0.582913,0.582913,-0.556835
2.7674,0.016740,0.000000,0.000000,0.000000,0.0000,0.0000,0.0000,-0.174533,0.174533,0.000513,0.000427,-0.002130,0.4812,0.5188,0.9700,-0.176408,0.173340,0.000000,0.578311,-0.576777,0.585981,-0.582913,0.582913,-0.556835
2.7842,0.016765,0.000000,0.000000,0.000000,0.0000,0.0000,0.0000,-0.174533,0.174533,0.000513,0.000427,-0.002130,0.4812,0.5188,0.9700,-0.176408,0.173340,0.000000,0.578311,-0.576777,0.585981,-0.582913,0.582913,-0.556835
2.8009,0.016744,0.000000,0.000000,0.000000,0.0000,0.0000,0.0000,-0.174533,0.174533,0.000513,0.000427,-0.002130,0.4812,0.5188,0.9700,-0.176408,0.173340,0.000000,0.578311,-0.576777,0.585981,-0.582913,0.582913,-0.556835
2.8177,0.016756,0.000000,0.000000,0.000000,0.0000,0.0000,0.0000,-0.174533,0.174533,0.000513,0.000427,-0.002130,0.4812,0.5188,0.9700,-0.176408,0.173340,0.000000,0.578311,-0.576777,0.585981,-0.582913,0.582913,-0.556835
2.8344,0.016740,0.000000,0.000000,0.000000,0.0000,0.0000,0.0000,-0.174533,0.174533,0.000513,0.000427,-0.002130,0.4812,0.5188,0.9700,-0.176408,0.173340,0.000000,0.578311,-0.576777,0.585981,-0.582913,0.582913,-0.556835
2.8512,0.016752,0.000000,0.000000,0.000000,0.0000,0.0000,0.0000,-0.174533,0.174533,0.000513,0.000427,-0.002130,0.4812,0.5188,0.9700,-0.176408,0.173340,0.000000,0.578311,-0.576777,0.585981,-0.582913,0.582913,-0.556835
2.8679,0.016741,0.000000,0.000000,0.000000,0.0000,0.0000,0.0000,-0.174533,0.174533,0.000513,0.000427,-0.002130,0.4812,0.5188,0.9700,-0.176408,0.173340,0.000000,0.578311,-0.576777,0.585981,-0.582913,0.582913,-0.556835
2.8847,0.016767,0.000000,0.000000,0.000000,0.0000,0.0000,0.0000,-0.174533,0.174533,0.000513,0.000427,-0.002130,0.4812,0.5188,0.9700,-0.176408,0.173340,0.000000,0.578311,-0.576777,0.585981,-0.582913,0.582913,-0.556835
2.9014,0.016745,0.000000,0.000000,0.000000,0.0000,0.0000,0.0000,-0.174533,0.174533,0.000513,0.000427,-0.002130,0.4812,0.5188,0.9700,-0.176408,0.173340,0.000000,0.578311,-0.576777,0.585981,-0.582913,0.582913,-0.556835
2.9182,0.016764,0.000000,0.000000,0.000000,0.0000,0.0000,0.0000,-0.174533,0.174533,0.000513,0.000427,-0.002130,0.4812,0.5188,0.9700,-0.176408,0.173340,0.000000,0.578311,-0.576777,0.585981,-0.582913,0.582913,-0.556835
2.9349,0.016742,0.000000,0.000000,0.000000,0.0000,0.0000,0.0000,-0.174533,0.174533,0.000513,0.000427,-0.002130,0.4812,0.5188,0.9700,-0.176408,0.173340,0.000000,0.578311,-0.576777,0.585981,-0.582913,0.582913,-0.556835
2.9517,0.016745,0.000000,0.000000,0.000000,0.0000,0.0000,0.0000,-0.174533,0.174533,0.000513,0.000427,-0.002130,0.4812,0.5188,0.9700,-0.176408,0.173340,0.000000,0.578311,-0.576777,0.585981,-0.582913,0.582913,-0.556835
2.9684,0.016755,0.000000,0.000000,0.000000,0.0000,0.0000,0.0000,-0.174533,0.174533,0.000513,0.000427,-0.002130,0.4812,0.5188,0.9700,-0.176408,0.173340,0.000000,0.578311,-0.576777,0.585981,-0.582913,0.582913,-0.556835
2.9852,0.016758,0.000000,0.000000,0.000000,0.0000,0.0000,0.0000,-0.174533,0.174533,0.000513,0.000427,-0.002130,0.4812,0.5188,0.9700,-0.176408,0.173340,0.000000,0.578311,-0.576777,0.585981,-0.582913,0.582913,-0.556835
3.0021,0.016870,0.000000,0.000000,0.000000,0.0000,0.0000,0.0000,-0.174533,0.174533,0.000513,0.000427,-0.002130,0.4812,0.5188,0.9700,-0.176408,0.173340,0.000000,0.578311,-0.576777,0.585981,-0.582913,0.582913,-0.556835
3.0188,0.016754,0.000000,0.000000,0.000000,0.0000,0.0000,0.0000,-0.174533,0.174533,0.000513,0.000427,-0.002130,0.4812,0.5188,0.9700,-0.176408,0.173340,0.000000,0.578311,-0.576777,0.585981,-0.582913,0.582913,-0.556835
3.0356,0.016745,0.000000,0.000000,0.000000,0.0000,0.0000,0.0000,-0.174533,0.174533,0.000566,0.000412,-0.002118,0.5201,0.4840,0.9170,-0.176408,0.173340,0.000000,0.578311,-0.578311,0.585981,-0.582913,0.582913,-0.556835
3.0523,0.016749,0.000000,0.000000,0.000000,0.0000,0.0000,0.0000,-0.174533,0.174533,0.000507,0.000429,-0.002132,0.4767,0.5228,0.9762,-0.176408,0.173340,0.000000,0.578311,-0.576777,0.585981,-0.582913,0.582913,-0.556835
3.0691,0.016797,0.000000,0.000000,0.000000,0.0000,0.0000,0.0000,-0.174533,0.174533,0.000513,0.000427,-0.002130,0.4812,0.5188,0.9700,-0.176408,0.173340,0.000000,0.578311,-0.576777,0.585981,-0.582913,0.582913,-0.556835
3.0859,0.016816,0.000000,0.000000,0.000000,0.0000,0.0000,0.0000,-0.174533,0.174533,0.000513,0.000427,-0.002130,0.4812,0.5188,0.9700,-0.176408,0.173340,0.000000,0.578311,-0.576777,0.585981,-0.582913,0.582913,-0.556835
3.1070,0.021082,0.000000,0.000000,0.000000,0.0000,0.0000,0.0000,-0.174533,0.174533,0.000513,0.000427,-0.002130,0.4812,0.5188,0.9700,-0.176408,0.173340,0.000000,0.578311,-0.576777,0.585981,-0.582913,0.582913,-0.556835
3.1238,0.016772,0.000000,0.000000,0.000000,0.0000,0.0000,0.0000,-0.174533,0.174533,0.000513,0.000427,-0.002130,0.4812,0.5188,0.9700,-0.176408,0.173340,0.000000,0.578311,-0.576777,0.585981,-0.582913,0.582913,-0.556835
3.1405,0.016745,0.000000,0.000000,0.000000,0.0000,0.0000,0.0000,-0.174533,0.174533,0.000513,0.000427,-0.002130,0.4812,0.5188,0.9700,-0.176408,0.173340,0.000000,0.578311,-0.576777,0.585981,-0.582913,0.582913,-0.556835
3.1573,0.016743,0.000000,0.000000,0.000000,0.0000,0.0000,0.0000,-0.174533,0.174533,0.000513,0.000427,-0.002130,0.4812,0.5188,0.9700,-0.176408,0.173340,0.000000,0.578311,-0.576777,0.585981,-0.582913,0.582913,-0.556835
3.1740,0.016746,0.000000,0.000000,0.000000,0.0000,0.0000,0.0000,-0.174533,0.174533,0.000566,0.000412,-0.002118,0.5201,0.4840,0.9170,-0.176408,0.173340,0.000000,0.578311,-0.578311,0.585981,-0.582913,0.582913,-0.556835
3.1908,0.016742,0.000000,0.000000,0.000000,0.0000,0.0000,0.0000,-0.174533,0.174533,0.000507,0.000429,-0.002132,0.4767,0.5228,0.9762,-0.176408,0.173340,0.000000,0.578311,-0.576777,0.585981,-0.582913,0.582913,-0.556835
3.2077,0.016953,0.000000,0.000000,0.000000,0.0000,0.0000,0.0000,-0.174533,0.174533,0.000513,0.000427,-0.002130,0.4812,0.5188,0.9700,-0.176408,0.173340,0.000000,0.578311,-0.576777,0.585981,-0.582913,0.582913,-0.556835
3.2245,0.016742,0.000000,0.000000,0.000000,0.0000,0.0000,0.0000,-0.174533,0.174533,0.000513,0.000427,-0.002130,0.4812,0.5188,0.9700,-0.176408,0.173340,0.000000,0.578311,-0.576777,0.585981,-0.582913,0.582913,-0.556835
3.2416,0.017101,0.000000,0.000000,0.000000,0.0000,0.0000,0.0000,-0.174533,0.174533,0.000513,0.000427,-0.002130,0.4812,0.5188,0.9700,-0.176408,0.173340,0.000000,0.578311,-0.576777,0.585981,-0.582913,0.582913,-0.556835
3.2583,0.016743,0.000000,0.000000,0.000000,0.0000,0.0000,0.0000,-0.174533,0.174533,0.000513,0.000427,-0.002130,0.4812,0.5188,0.9700,-0.176408,0.173340,0.000000,0.578311,-0.576777,0.585981,-0.582913,0.582913,-0.556835
3.2751,0.016752,0.000000,0.000000,0.000000,0.0000,0.0000,0.0000,-0.174533,0.174533,0.000513,0.000427,-0.002130,0.4812,0.5188,0.9700,-0.176408,0.173340,0.000000,0.578311,-0.576777,0.585981,-0.582913,0.582913,-0.556835
3.2918,0.016742,0.000000,0.000000,0.000000,0.0000,0.0000,0.0000,-0.174533,0.174533,0.000513,0.000427,-0.002130,0.4812,0.5188,0.9700,-0.176408,0.173340,0.000000,0.578311,-0.576777,0.585981,-0.582913,0.582913,-0.556835
3.3088,0.017028,0.000000,0.000000,0.000000,0.0000,0.0000,0.0000,-0.174533,0.174533,0.000566,0.000412,-0.002118,0.5201,0.4840,0.9170,-0.176408,0.173340,0.000000,0.578311,-0.578311,0.585981,-0.582913,0.582913,-0.556835
3.3256,0.016748,0.000000,0.000000,0.000000,0.0000,0.0000,0.0000,-0.174533,0.174533,0.000566,0.000412,-0.002118,0.5201,0.4840,0.9170,-0.176408,0.173340,0.000000,0.578311,-0.578311,0.585981,-0.582913,0.582913,-0.556835
3.3424,0.016807,0.000000,0.000000,0.000000,0.0000,0.0000,0.0000,-0.174533,0.174533,0.000507,0.000429,-0.002132,0.4767,0.5228,0.9762,-0.176408,0.173340,0.000000,0.578311,-0.576777,0.585981,-0.582913,0.582913,-0.556835
3.3591,0.016742,0.000000,0.000000,0.000000,0.0000,0.0000,0.0000,-0.174533,0.174533,0.000513,0.000427,-0.002130,0.4812,0.5188,0.9700,-0.176408,0.173340,0.000000,0.578311,-0.576777,0.585981,-0.582913,0.582913,-0.556835
3.3761,0.016981,0.000000,0.000000,0.000000,0.0000,0.0000,0.0000,-0.174533,0.174533,0.000513,0.000427,-0.002130,0.4812,0.5188,0.9700,-0.176408,0.173340,0.000000,0.578311,-0.576777,0.585981,-0.582913,0.582913,-0.556835
3.3929,0.016747,0.000000,0.000000,0.000000,0.0000,0.0000,0.0000,-0.174533,0.174533,0.000513,0.000427,-0.002130,0.4812,0.5188,0.9700,-0.176408,0.173340,0.000000,0.578311,-0.576777,0.585981,-0.582913,0.582913,-0.556835
3.4098,0.016987,0.000000,0.000000,0.000000,0.0000,0.0000,0.0000,-0.174533,0.174533,0.000513,0.000427,-0.002130,0.4812,0.5188,0.9700,-0.176408,0.173340,0.000000,0.578311,-0.576777,0.585981,-0.582913,0.582913,-0.556835
3.4266,0.016748,0.000000,0.000000,0.000000,0.0000,0.0000,0.0000,-0.174533,0.174533,0.000513,0.000427,-0.002130,0.4812,0.5188,0.9700,-0.176408,0.173340,0.000000,0.578311,-0.576777,0.585981,-0.582913,0.582913,-0.556835
3.4433,0.016758,0.000000,0.000000,0.000000,0.0000,0.0000,0.0000,-0.174533,0.174533,0.000513,0.000427,-0.002130,0.4812,0.5188,0.9700,-0.176408,0.173340,0.000000,0.578311,-0.576777,0.585981,-0.582913,0.582913,-0.556835
3.4601,0.016745,0.000000,0.000000,0.000000,0.0000,0.0000,0.0000,-0.174533,0.174533,0.000513,0.000427,-0.002130,0.4812,0.5188,0.9700,-0.176408,0.173340,0.000000,0.578311,-0.576777,0.585981,-0.582913,0.582913,-0.556835
3.4768,0.016753,0.000000,0.000000,0.000000,0.0000,0.0000,0.0000,-0.174533,0.174533,0.000513,0.000427,-0.002130,0.4812,0.5188,0.9700,-0.176408,0.173340,0.000000,0.578311,-0.576777,0.585981,-0.582913,0.582913,-0.556835
3.4936,0.016756,0.000000,0.000000,0.000000,0.0000,0.0000,0.0000,-0.174533,0.174533,0.000513,0.000427,-0.002130,0.4812,0.5188,0.9700,-0.176408,0.173340,0.000000,0.578311,-0.576777,0.585981,-0.582913,0.582913,-0.556835
3.5104,0.016764,0.000000,0.000000,0.000000,0.0000,0.0000,0.0000,-0.174533,0.174533,0.000513,0.000427,-0.002130,0.4812,0.5188,0.9700,-0.176408,0.173340,0.000000,0.578311,-0.576777,0.585981,-0.582913,0.582913,-0.556835
3.5271,0.016741,0.000000,0.000000,0.000000,0.0000,0.0000,0.0000,-0.174533,0.174533,0.000513,0.000427,-0.002130,0.4812,0.5188,0.9700,-0.176408,0.173340,0.000000,0.578311,-0.576777,0.585981,-0.582913,0.582913,-0.556835
3.5439,0.016757,0.000000,0.000000,0.000000,0.0000,0.0000,0.0000,-0.174533,0.174533,0.000513,0.000427,-0.002130,0.4812,0.5188,0.9700,-0.176408,0.173340,0.000000,0.578311,-0.576777,0.585981,-0.582913,0.582913,-0.556835
3.5606,0.016760,0.000000,0.000000,0.000000,0.0000,0.0000,0.0000,-0.174533,0.174533,0.000513,0.000427,-0.002130,0.4812,0.5188,0.9700,-0.176408,0.173340,0.000000,0.578311,-0.576777,0.585981,-0.582913,0.582913,-0.556835
3.5774,0.016758,0.000000,0.000000,0.000000,0.0000,0.0000,0.0000,-0.174533,0.174533,0.000513,0.000427,-0.002130,0.4812,0.5188,0.9700,-0.176408,0.173340,0.000000,0.578311,-0.576777,0.585981,-0.582913,0.582913,-0.556835
3.5941,0.016749,0.000000,0.000000,0.000000,0.0000,0.0000,0.0000,-0.174533,0.174533,0.000513,0.000427,-0.002130,0.4812,0.5188,0.9700,-0.176408,0.173340,0.000000,0.578311,-0.576777,0.585981,-0.582913,0.582913,-0.556835
3.6109,0.016766,0.000000,0.000000,0.000000,0.0000,0.0000,0.0000,-0.174533,0.174533,0.000513,0.000427,-0.002130,0.4812,0.5188,0.9700,-0.176408,0.173340,0.000000,0.578311,-0.576777,0.585981,-0.582913,0.582913,-0.556835
3.6276,0.016744,0.000000,0.000000,0.000000,0.0000,0.0000,0.0000,-0.174533,0.174533,0.000513,0.000427,-0.002130,0.4812,0.5188,0.9700,-0.176408,0.173340,0.000000,0.578311,-0.576777,0.585981,-0.582913,0.582913,-0.556835
3.6444,0.016760,0.000000,0.000000,0.000000,0.0000,0.0000,0.0000,-0.174533,0.174533,0.000513,0.000427,-0.002130,0.4812,0.5188,0.9700,-0.176408,0.173340,0.000000,0.578311,-0.576777,0.585981,-0.582913,0.582913,-0.556835
3.6611,0.016752,0.000000,0.000000,0.000000,0.0000,0.0000,0.0000,-0.174533,0.174533,0.000513,0.000427,-0.002130,0.4812,0.5188,0.9700,-0.176408,0.173340,0.000000,0.578311,-0.576777,0.585981,-0.582913,0.582913,-0.556835
3.6779,0.016757,0.000000,0.000000,0.000000,0.0000,0.0000,0.0000,-0.174533,0.174533,0.000513,0.000427,-0.002130,0.4812,0.5188,0.9700,-0.176408,0.173340,0.000000,0.578311,-0.576777,0.585981,-0.582913,0.582913,-0.556835
3.6946,0.016743,0.000000,0.000000,0.000000,0.0000,0.0000,0.0000,-0.174533,0.174533,0.000513,0.000427,-0.002130,0.4812,0.5188,0.9700,-0.176408,0.173340,0.000000,0.578311,-0.576777,0.585981,-0.582913,0.582913,-0.556835
3.7114,0.016770,0.000000,0.000000,0.000000,0.0000,0.0000,0.0000,-0.174533,0.174533,0.000513,0.000427,-0.002130,0.4812,0.5188,0.9700,-0.176408,0.173340,0.000000,0.578311,-0.576777,0.585981,-0.582913,0.582913,-0.556835
3.7282,0.016746,0.000000,0.000000,0.000000,0.0000,0.0000,0.0000,-0.174533,0.174533,0.000513,0.000427,-0.002130,0.4812,0.5188,0.9700,-0.176408,0.173340,0.000000,0.578311,-0.576777,0.585981,-0.582913,0.582913,-0.556835
3.7449,0.016753,0.000000,0.000000,0.000000,0.0000,0.0000,0.0000,-0.174533,0.174533,0.000513,0.000427,-0.002130,0.4812,0.5188,0.9700,-0.176408,0.173340,0.000000,0.578311,-0.576777,0.585981,-0.582913,0.582913,-0.556835
3.7617,0.016742,0.000000,0.000000,0.000000,0.0000,0.0000,0.0000,-0.174533,0.174533,0.000513,0.000427,-0.002130,0.4812,0.5188,0.9700,-0.176408,0.173340,0.000000,0.578311,-0.576777,0.585981,-0.582913,0.582913,-0.556835
3.7784,0.016753,0.000000,0.000000,0.000000,0.0000,0.0000,0.0000,-0.174533,0.174533,0.000513,0.000427,-0.002130,0.4812,0.5188,0.9700,-0.176408,0.173340,0.000000,0.578311,-0.576777,0.585981,-0.582913,0.582913,-0.556835
3.7952,0.016742,0.000000,0.000000,0.000000,0.0000,0.0000,0.0000,-0.174533,0.174533,0.000513,0.000427,-0.002130,0.4812,0.5188,0.9700,-0.176408,0.173340,0.000000,0.578311,-0.576777,0.585981,-0.582913,0.582913,-0.556835
3.8119,0.016760,0.000000,0.000000,0.000000,0.0000,0.0000,0.0000,-0.174533,0.174533,0.000513,0.000427,-0.002130,0.4812,0.5188,0.9700,-0.176408,0.173340,0.000000,0.578311,-0.576777,0.585981,-0.582913,0.582913,-0.556835
3.8287,0.016743,0.000000,0.000000,0.000000,0.0000,0.0000,0.0000,-0.174533,0.174533,0.000513,0.000427,-0.002130,0.4812,0.5188,0.9700,-0.176408,0.173340,0.000000,0.578311,-0.576777,0.585981,-0.582913,0.582913,-0.556835
3.8454,0.016755,0.000000,0.000000,0.000000,0.0000,0.0000,0.0000,-0.174533,0.174533,0.000513,0.000427,-0.002130,0.4812,0.5188,0.9700,-0.176408,0.173340,0.000000,0.578311,-0.576777,0.585981,-0.582913,0.582913,-0.556835
3.8622,0.016741,0.000000,0.000000,0.000000,0.0000,0.0000,0.0000,-0.174533,0.174533,0.000513,0.000427,-0.002130,0.4812,0.5188,0.9700,-0.176408,0.173340,0.000000,0.578311,-0.576777,0.585981,-0.582913,0.582913,-0.556835
3.8789,0.016757,0.000000,0.000000,0.000000,0.0000,0.0000,0.0000,-0.174533,0.174533,0.000513,0.000427,-0.002130,0.4812,0.5188,0.9700,-0.176408,0.173340,0.000000,0.578311,-0.576777,0.585981,-0.582913,0.582913,-0.556835
3.8957,0.016743,0.000000,0.000000,0.000000,0.0000,0.0000,0.0000,-0.174533,0.174533,0.000513,0.000427,-0.002130,0.4812,0.5188,0.9700,-0.176408,0.173340,0.000000,0.578311,-0.576777,0.585981,-0.582913,0.582913,-0.556835
3.9124,0.016753,0.000000,0.000000,0.000000,0.0000,0.0000,0.0000,-0.174533,0.174533,0.000513,0.000427,-0.002130,0.4812,0.5188,0.9700,-0.176408,0.173340,0.000000,0.578311,-0.576777,0.585981,-0.582913,0.582913,-0.556835
3.9292,0.016743,0.000000,0.000000,0.000000,0.0000,0.0000,0.0000,-0.174533,0.174533,0.000513,0.000427,-0.002130,0.4812,0.5188,0.9700,-0.176408,0.173340,0.000000,0.578311,-0.576777,0.585981,-0.582913,0.582913,-0.556835
3.9459,0.016748,0.000000,0.000000,0.000000,0.0000,0.0000,0.0000,-0.174533,0.174533,0.000513,0.000427,-0.002130,0.4812,0.5188,0.9700,-0.176408,0.173340,0.000000,0.578311,-0.576777,0.585981,-0.582913,0.582913,-0.556835
3.9626,0.016743,0.000000,0.000000,0.000000,0.0000,0.0000,0.0000,-0.174533,0.174533,0.000513,0.000427,-0.002130,0.4812,0.5188,0.9700,-0.176408,0.173340,0.000000,0.578311,-0.576777,0.585981,-0.582913,0.582913,-0.556835
3.9794,0.016750,0.000000,0.000000,0.000000,0.0000,0.0000,0.0000,-0.174533,0.174533,0.000513,0.000427,-0.002130,0.4812,0.5188,0.9700,-0.176408,0.173340,0.000000,0.578311,-0.576777,0.585981,-0.582913,0.582913,-0.556835
3.9961,0.016743,0.000000,0.000000,0.000000,0.0000,0.0000,0.0000,-0.174533,0.174533,0.000513,0.000427,-0.002130,0.4812,0.5188,0.9700,-0.176408,0.173340,0.000000,0.578311,-0.576777,0.585981,-0.582913,0.582913,-0.556835
4.0129,0.016749,0.000000,0.000000,0.000000,0.0000,0.0000,0.0000,-0.174533,0.174533,0.000513,0.000427,-0.002130,0.4812,0.5188,0.9700,-0.176408,0.173340,0.000000,0.578311,-0.576777,0.585981,-0.582913,0.582913,-0.556835
4.0296,0.016746,0.000000,0.000000,0.000000,0.0000,0.0000,0.0000,-0.174533,0.174533,0.000513,0.000427,-0.002130,0.4812,0.5188,0.9700,-0.176408,0.173340,0.000000,0.578311,-0.576777,0.585981,-0.582913,0.582913,-0.556835
4.0464,0.016755,0.000000,0.000000,0.000000,0.0000,0.0000,0.0000,-0.174533,0.174533,0.000513,0.000427,-0.002130,0.4812,0.5188,0.9700,-0.176408,0.173340,0.000000,0.578311,-0.576777,0.585981,-0.582913,0.582913,-0.556835
4.0631,0.016746,0.000000,0.000000,0.000000,0.0000,0.0000,0.0000,-0.174533,0.174533,0.000513,0.000427,-0.002130,0.4812,0.5188,0.9700,-0.176408,0.173340,0.000000,0.578311,-0.576777,0.585981,-0.582913,0.582913,-0.556835
4.0799,0.016748,0.000000,0.000000,0.000000,0.0000,0.0000,0.0000,-0.174533,0.174533,0.000513,0.000427,-0.002130,0.4812,0.5188,0.9700,-0.176408,0.173340,0.000000,0.578311,-0.576777,0.585981,-0.582913,0.582913,-0.556835
4.0966,0.016732,0.000000,0.000000,0.000000,0.0000,0.0000,0.0000,-0.174533,0.174533,0.000513,0.000427,-0.002130,0.4812,0.5188,0.9700,-0.176408,0.173340,0.000000,0.578311,-0.576777,0.585981,-0.582913,0.582913,-0.556835
4.1134,0.016755,0.000000,0.000000,0.000000,0.0000,0.0000,0.0000,-0.174533,0.174533,0.000513,0.000427,-0.002130,0.4812,0.5188,0.9700,-0.176408,0.173340,0.000000,0.578311,-0.576777,0.585981,-0.582913,0.582913,-0.556835
4.1302,0.016843,0.000000,0.000000,0.000000,0.0000,0.0000,0.0000,-0.174533,0.174533,0.000513,0.000427,-0.002130,0.4812,0.5188,0.9700,-0.176408,0.173340,0.000000,0.578311,-0.576777,0.585981,-0.582913,0.582913,-0.556835
4.1470,0.016802,0.000000,0.000000,0.000000,0.0000,0.0000,0.0000,-0.174533,0.174533,0.000513,0.000427,-0.002130,0.4812,0.5188,0.9700,-0.176408,0.173340,0.000000,0.578311,-0.576777,0.585981,-0.582913,0.582913,-0.556835
4.1638,0.016740,0.000000,0.000000,0.000000,0.0000,0.0000,0.0000,-0.174533,0.174533,0.000513,0.000427,-0.002130,0.4812,0.5188,0.9700,-0.176408,0.173340,0.000000,0.578311,-0.576777,0.585981,-0.582913,0.582913,-0.556835
4.1807,0.016915,0.000000,0.000000,0.000000,0.0000,0.0000,0.0000,-0.174533,0.174533,0.000513,0.000427,-0.002130,0.4812,0.5188,0.9700,-0.176408,0.173340,0.000000,0.578311,-0.576777,0.585981,-0.582913,0.582913,-0.556835
4.1974,0.016748,0.000000,0.000000,0.000000,0.0000,0.0000,0.0000,-0.174533,0.174533,0.000513,0.000427,-0.002130,0.4812,0.5188,0.9700,-0.176408,0.173340,0.000000,0.578311,-0.576777,0.585981,-0.582913,0.582913,-0.556835
4.2142,0.016760,0.000000,0.000000,0.000000,0.0000,0.0000,0.0000,-0.174533,0.174533,0.000513,0.000427,-0.002130,0.4812,0.5188,0.9700,-0.176408,0.173340,0.000000,0.578311,-0.576777,0.585981,-0.582913,0.582913,-0.556835
4.2309,0.016743,0.000000,0.000000,0.000000,0.0000,0.0000,0.0000,-0.174533,0.174533,0.000513,0.000427,-0.002130,0.4812,0.5188,0.9700,-0.176408,0.173340,0.000000,0.578311,-0.576777,0.585981,-0.582913,0.582913,-0.556835
4.2477,0.016749,0.000000,0.000000,0.000000,0.0000,0.0000,0.0000,-0.174533,0.174533,0.000513,0.000427,-0.002130,0.4812,0.5188,0.9700,-0.176408,0.173340,0.000000,0.578311,-0.576777,0.585981,-0.582913,0.582913,-0.556835
4.2644,0.016742,0.000000,0.000000,0.000000,0.0000,0.0000,0.0000,-0.174533,0.174533,0.000513,0.000427,-0.002130,0.4812,0.5188,0.9700,-0.176408,0.173340,0.000000,0.578311,-0.576777,0.585981,-0.582913,0.582913,-0.556835
4.2812,0.016758,0.000000,0.000000,0.000000,0.0000,0.0000,0.0000,-0.174533,0.174533,0.000513,0.000427,-0.002130,0.4812,0.5188,0.9700,-0.176408,0.173340,0.000000,0.578311,-0.576777,0.585981,-0.582913,0.582913,-0.556835
4.2979,0.016742,0.000000,0.000000,0.000000,0.0000,0.0000,0.0000,-0.174533,0.174533,0.000513,0.000427,-0.002130,0.4812,0.5188,0.9700,-0.176408,0.173340,0.000000,0.578311,-0.576777,0.585981,-0.582913,0.582913,-0.556835
4.3147,0.016754,0.000000,0.000000,0.000000,0.0000,0.0000,0.0000,-0.174533,0.174533,0.000513,0.000427,-0.002130,0.4812,0.5188,0.9700,-0.176408,0.173340,0.000000,0.578311,-0.576777,0.585981,-0.582913,0.582913,-0.556835
4.3314,0.016746,0.000000,0.000000,0.000000,0.0000,0.0000,0.0000,-0.174533,0.174533,0.000513,0.000427,-0.002130,0.4812,0.5188,0.9700,-0.176408,0.173340,0.000000,0.578311,-0.576777,0.585981,-0.582913,0.582913,-0.556835
4.3482,0.016750,0.000000,0.000000,0.000000,0.0000,0.0000,0.0000,-0.174533,0.174533,0.000513,0.000427,-0.002130,0.4812,0.5188,0.9700,-0.176408,0.173340,0.000000,0.578311,-0.576777,0.585981,-0.582913,0.582913,-0.556835
4.3649,0.016740,0.000000,0.000000,0.000000,0.0000,0.0000,0.0000,-0.174533,0.174533,0.000513,0.000427,-0.002130,0.4812,0.5188,0.9700,-0.176408,0.173340,0.000000,0.578311,-0.576777,0.585981,-0.582913,0.582913,-0.556835
4.3816,0.016746,0.000000,0.000000,0.000000,0.0000,0.0000,0.0000,-0.174533,0.174533,0.000513,0.000427,-0.002130,0.4812,0.5188,0.9700,-0.176408,0.173340,0.000000,0.578311,-0.576777,0.585981,-0.582913,0.582913,-0.556835
4.3984,0.016747,0.000000,0.000000,0.000000,0.0000,0.0000,0.0000,-0.174533,0.174533,0.000513,0.000427,-0.002130,0.4812,0.5188,0.9700,-0.176408,0.173340,0.000000,0.578311,-0.576777,0.585981,-0.582913,0.582913,-0.556835
4.4151,0.016753,0.000000,0.000000,0.000000,0.0000,0.0000,0.0000,-0.174533,0.174533,0.000513,0.000427,-0.002130,0.4812,0.5188,0.9700,-0.176408,0.173340,0.000000,0.578311,-0.576777,0.585981,-0.582913,0.582913,-0.556835
4.4319,0.016742,0.000000,0.000000,0.000000,0.0000,0.0000,0.0000,-0.174533,0.174533,0.000513,0.000427,-0.002130,0.4812,0.5188,0.9700,-0.176408,0.173340,0.000000,0.578311,-0.576777,0.585981,-0.582913,0.582913,-0.556835
4.4486,0.016747,0.000000,0.000000,0.000000,0.0000,0.0000,0.0000,-0.174533,0.174533,0.000513,0.000427,-0.002130,0.4812,0.5188,0.9700,-0.176408,0.173340,0.000000,0.578311,-0.576777,0.585981,-0.582913,0.582913,-0.556835
4.4654,0.016740,0.000000,0.000000,0.000000,0.0000,0.0000,0.0000,-0.174533,0.174533,0.000513,0.000427,-0.002130,0.4812,0.5188,0.9700,-0.176408,0.173340,0.000000,0.578311,-0.576777,0.585981,-0.582913,0.582913,-0.556835
4.4821,0.016753,0.000000,0.000000,0.000000,0.0000,0.0000,0.0000,-0.174533,0.174533,0.000513,0.000427,-0.002130,0.4812,0.5188,0.9700,-0.176408,0.173340,0.000000,0.578311,-0.576777,0.585981,-0.582913,0.582913,-0.556835
4.4989,0.016742,0.000000,0.000000,0.000000,0.0000,0.0000,0.0000,-0.174533,0.174533,0.000513,0.000427,-0.002130,0.4812,0.5188,0.9700,-0.176408,0.173340,0.000000,0.578311,-0.576777,0.585981,-0.582913,0.582913,-0.556835
4.5156,0.016749,0.000000,0.000000,0.000000,0.0000,0.0000,0.0000,-0.174533,0.174533,0.000513,0.000427,-0.002130,0.4812,0.5188,0.9700,-0.176408,0.173340,0.000000,0.578311,-0.576777,0.585981,-0.582913,0.582913,-0.556835
4.5324,0.016739,0.000000,0.000000,0.000000,0.0000,0.0000,0.0000,-0.174533,0.174533,0.000513,0.000427,-0.002130,0.4812,0.5188,0.9700,-0.176408,0.174874,0.000000,0.578311,-0.576777,0.585981,-0.582913,0.582913,-0.556835
4.5491,0.016752,0.000000,0.000000,0.000000,0.0000,0.0000,0.0000,-0.174533,0.174533,0.000513,0.000427,-0.002130,0.4812,0.5188,0.9700,-0.176408,0.173340,0.000000,0.578311,-0.576777,0.585981,-0.582913,0.582913,-0.556835
4.5658,0.016741,0.000000,0.000000,0.000000,0.0000,0.0000,0.0000,-0.174533,0.174533,0.000513,0.000427,-0.002130,0.4812,0.5188,0.9700,-0.176408,0.173340,0.000000,0.578311,-0.576777,0.585981,-0.582913,0.582913,-0.556835
4.5826,0.016754,0.000000,0.000000,0.000000,0.0000,0.0000,0.0000,-0.174533,0.174533,0.000513,0.000427,-0.002130,0.4812,0.5188,0.9700,-0.176408,0.173340,0.000000,0.578311,-0.576777,0.585981,-0.582913,0.582913,-0.556835
