t,loop_dt,cmd_x,cmd_y,cmd_z,cmd_roll,cmd_pitch,cmd_yaw,cmd_ant_l,cmd_ant_r,pres_x,pres_y,pres_z,pres_roll,pres_pitch,pres_yaw,pres_ant_l,pres_ant_r,pres_j0,pres_j1,pres_j2,pres_j3,pres_j4,pres_j5,pres_j6
0.0000,0.000001,0.000351,0.000420,-0.001993,0.8951,0.3478,0.0006,-0.006136,0.000000,0.000351,0.000420,-0.001993,0.8951,0.3478,0.0006,-0.006136,0.000000,0.000000,0.582913,-0.589049,0.582913,-0.587515,0.575243,-0.564505
0.0167,0.016747,0.000345,0.000413,-0.001960,0.8801,0.3420,0.0006,-0.006033,0.000000,0.000351,0.000420,-0.001993,0.8951,0.3478,0.0006,-0.003068,0.000000,0.000000,0.582913,-0.589049,0.582913,-0.587515,0.575243,-0.564505
0.0335,0.016786,0.000339,0.000406,-0.001926,0.8651,0.3362,0.0005,-0.005930,0.000000,0.000351,0.000420,-0.001993,0.8951,0.3478,0.0006,0.004602,0.000000,0.000000,0.582913,-0.589049,0.582913,-0.587515,0.575243,-0.564505
0.0503,0.016753,0.000333,0.000399,-0.001893,0.8501,0.3303,0.0004,-0.005827,0.000000,0.000351,0.000420,-0.001993,0.8951,0.3478,0.0006,0.004602,0.000000,0.000000,0.582913,-0.589049,0.582913,-0.587515,0.575243,-0.564505
0.0670,0.016744,0.000327,0.000392,-0.001860,0.8351,0.3245,0.0004,-0.005725,0.000000,0.000351,0.000420,-0.001993,0.8951,0.3478,0.0006,0.003068,0.000000,0.000000,0.582913,-0.589049,0.582913,-0.587515,0.575243,-0.564505
0.0838,0.016749,0.000322,0.000385,-0.001826,0.8201,0.3187,0.0003,-0.005622,0.000000,0.000432,0.000419,-0.002018,0.8946,0.3805,-0.0002,-0.004602,0.000000,0.000000,0.581379,-0.589049,0.582913,-0.587515,0.575243,-0.562971
0.1005,0.016745,0.000316,0.000378,-0.001793,0.8051,0.3129,0.0003,-0.005519,0.000000,0.000654,0.000474,-0.002116,0.9062,0.5279,0.1067,-0.009204,0.000000,0.000000,0.576777,-0.587515,0.582913,-0.587515,0.575243,-0.556835
0.1173,0.016746,0.000310,0.000371,-0.001759,0.7901,0.3070,0.0003,-0.005416,0.000000,0.000794,0.000468,-0.002157,0.9053,0.5785,0.0951,0.000000,0.000000,0.000000,0.573709,-0.587515,0.582913,-0.587515,0.575243,-0.553767
0.1340,0.016761,0.000304,0.000363,-0.001726,0.7751,0.3012,0.0002,-0.005314,0.000000,0.000779,0.000468,-0.002153,0.9054,0.5732,0.0963,0.000000,0.000000,0.000000,0.573709,-0.587515,0.582913,-0.587515,0.575243,-0.553767
0.1508,0.016755,0.000298,0.000356,-0.001693,0.7601,0.2954,0.0002,-0.005211,0.000000,0.000779,0.000468,-0.002153,0.9054,0.5732,0.0963,0.000000,0.000000,0.000000,0.573709,-0.587515,0.582913,-0.587515,0.575243,-0.553767
0.1675,0.016747,0.000292,0.000349,-0.001659,0.7451,0.2896,0.0001,-0.005108,0.000000,0.000781,0.000468,-0.002154,0.9054,0.5739,0.0962,-0.010738,0.000000,0.000000,0.573709,-0.587515,0.582913,-0.587515,0.575243,-0.553767
0.1843,0.016745,0.000286,0.000342,-0.001626,0.7301,0.2837,0.0001,-0.005005,0.000000,0.000781,0.000468,-0.002154,0.9054,0.5739,0.0962,-0.004602,0.000000,0.000000,0.573709,-0.587515,0.582913,-0.587515,0.575243,-0.553767
0.2011,0.016788,0.000280,0.000335,-0.001592,0.7151,0.2779,0.0001,-0.004902,0.000000,0.000739,0.000507,-0.002141,0.9553,0.5577,0.1499,0.001534,0.000000,0.000000,0.575243,-0.587515,0.582913,-0.587515,0.575243,-0.553767
0.2178,0.016752,0.000275,0.000328,-0.001559,0.7001,0.2721,0.0000,-0.004799,0.000000,0.000744,0.000503,-0.002142,0.9501,0.5594,0.1443,-0.001534,0.000000,0.000000,0.575243,-0.587515,0.582913,-0.587515,0.575243,-0.553767
0.2346,0.016748,0.000269,0.000321,-0.001526,0.6851,0.2662,-0.0000,-0.004697,0.000000,0.000744,0.000503,-0.002142,0.9501,0.5594,0.1443,-0.009204,0.000000,0.000000,0.575243,-0.587515,0.582913,-0.587515,0.575243,-0.553767
0.2513,0.016742,0.000263,0.000314,-0.001492,0.6702,0.2604,-0.0001,-0.004594,0.000000,0.000744,0.000503,-0.002142,0.9501,0.5594,0.1443,-0.009204,0.000000,0.000000,0.575243,-0.587515,0.582913,-0.587515,0.575243,-0.553767
0.2680,0.016741,0.000257,0.000307,-0.001459,0.6552,0.2546,-0.0001,-0.004491,0.000000,0.000784,0.000465,-0.002155,0.9007,0.5752,0.0912,-0.007670,0.000000,0.000000,0.573709,-0.587515,0.582913,-0.587515,0.575243,-0.553767
0.2848,0.016743,0.000251,0.000300,-0.001426,0.6402,0.2488,-0.0001,-0.004388,0.000000,0.000780,0.000469,-0.002153,0.9059,0.5735,0.0967,0.000000,0.000000,0.000000,0.573709,-0.587515,0.582913,-0.587515,0.575243,-0.553767
0.3016,0.016764,0.000245,0.000293,-0.001392,0.6252,0.2430,-0.0001,-0.004286,0.000000,0.000780,0.000469,-0.002153,0.9059,0.5735,0.0967,-0.001534,0.000000,0.000000,0.573709,-0.587515,0.582913,-0.587515,0.575243,-0.553767
0.3183,0.016775,0.000239,0.000286,-0.001359,0.6102,0.2371,-0.0002,-0.004183,0.000000,0.000780,0.000469,-0.002153,0.9059,0.5735,0.0967,-0.009204,0.000000,0.000000,0.573709,-0.587515,0.582913,-0.587515,0.575243,-0.553767
0.3351,0.016765,0.000233,0.000279,-0.001325,0.5952,0.2313,-0.0002,-0.004080,0.000000,0.000780,0.000469,-0.002153,0.9059,0.5735,0.0967,-0.009204,0.000000,0.000000,0.573709,-0.587515,0.582913,-0.587515,0.575243,-0.553767
0.3520,0.016893,0.000227,0.000272,-0.001292,0.5800,0.2254,-0.0002,-0.003976,0.000000,0.000780,0.000469,-0.002153,0.9059,0.5735,0.0967,-0.004602,0.000000,0.000000,0.573709,-0.587515,0.582913,-0.587515,0.575243,-0.553767
0.3687,0.016752,0.000222,0.000265,-0.001258,0.5650,0.2196,-0.0002,-0.003873,0.000000,0.000780,0.000469,-0.002153,0.9059,0.5735,0.0967,0.003068,0.000000,0.000000,0.573709,-0.587515,0.582913,-0.587515,0.575243,-0.553767
0.3855,0.016772,0.000216,0.000258,-0.001225,0.5500,0.2138,-0.0003,-0.003770,0.000000,0.000780,0.000469,-0.002153,0.9059,0.5735,0.0967,0.000000,0.000000,0.000000,0.573709,-0.587515,0.582913,-0.587515,0.575243,-0.553767
0.4023,0.016764,0.000210,0.000251,-0.001191,0.5350,0.2079,-0.0003,-0.003668,0.000000,0.000780,0.000469,-0.002153,0.9059,0.5735,0.0967,-0.009204,0.000000,0.000000,0.573709,-0.587515,0.582913,-0.587515,0.575243,-0.553767
0.4190,0.016754,0.000204,0.000244,-0.001158,0.5200,0.2021,-0.0003,-0.003565,0.000000,0.000780,0.000469,-0.002153,0.9059,0.5735,0.0967,-0.004602,0.000000,0.000000,0.573709,-0.587515,0.582913,-0.587515,0.575243,-0.553767
0.4358,0.016756,0.000198,0.000237,-0.001125,0.5050,0.1963,-0.0003,-0.003462,0.000000,0.000780,0.000469,-0.002153,0.9059,0.5735,0.0967,-0.004602,0.000000,0.000000,0.573709,-0.587515,0.582913,-0.587515,0.575243,-0.553767
0.4525,0.016755,0.000192,0.000230,-0.001091,0.4900,0.1904,-0.0003,-0.003359,0.000000,0.000780,0.000469,-0.002153,0.9059,0.5735,0.0967,0.003068,0.000000,0.000000,0.573709,-0.587515,0.582913,-0.587515,0.575243,-0.553767
0.4694,0.016863,0.000186,0.000223,-0.001058,0.4749,0.1846,-0.0003,-0.003256,0.000000,0.000780,0.000469,-0.002153,0.9059,0.5735,0.0967,0.001534,0.000000,0.000000,0.573709,-0.587515,0.582913,-0.587515,0.575243,-0.553767
0.4862,0.016811,0.000180,0.000216,-0.001024,0.4599,0.1787,-0.0004,-0.003153,0.000000,0.000780,0.000469,-0.002153,0.9059,0.5735,0.0967,0.001534,0.000000,0.000000,0.573709,-0.587515,0.582913,-0.587515,0.575243,-0.553767
0.5030,0.016749,0.000174,0.000209,-0.000991,0.4449,0.1729,-0.0004,-0.003050,0.000000,0.000780,0.000469,-0.002153,0.9059,0.5735,0.0967,0.001534,0.000000,0.000000,0.573709,-0.587515,0.582913,-0.587515,0.575243,-0.553767
0.5197,0.016775,0.000169,0.000202,-0.000957,0.4299,0.1671,-0.0004,-0.002947,0.000000,0.000780,0.000469,-0.002153,0.9059,0.5735,0.0967,0.001534,0.000000,0.000000,0.573709,-0.587515,0.582913,-0.587515,0.575243,-0.553767
0.5365,0.016753,0.000163,0.000195,-0.000924,0.4149,0.1612,-0.0004,-0.002844,0.000000,0.000780,0.000469,-0.002153,0.9059,0.5735,0.0967,0.003068,0.000000,0.000000,0.573709,-0.587515,0.582913,-0.587515,0.575243,-0.553767
0.5532,0.016739,0.000157,0.000188,-0.000890,0.3999,0.1554,-0.0004,-0.002741,0.000000,0.000739,0.000507,-0.002141,0.9553,0.5578,0.1498,0.000000,0.000000,0.000000,0.575243,-0.587515,0.582913,-0.587515,0.575243,-0.553767
0.5700,0.016743,0.000151,0.000181,-0.000857,0.3849,0.1496,-0.0004,-0.002639,0.000000,0.000785,0.000464,-0.002155,0.9002,0.5753,0.0906,-0.006136,0.000000,0.000000,0.573709,-0.587515,0.582913,-0.587515,0.575243,-0.553767
0.5867,0.016743,0.000145,0.000173,-0.000824,0.3699,0.1438,-0.0004,-0.002536,0.000000,0.000780,0.000469,-0.002153,0.9059,0.5735,0.0968,-0.003068,0.000000,0.000000,0.573709,-0.587515,0.582913,-0.587515,0.575243,-0.553767
0.6035,0.016745,0.000139,0.000166,-0.000790,0.3550,0.1379,-0.0004,-0.002433,0.000000,0.000739,0.000507,-0.002141,0.9553,0.5578,0.1498,0.004602,0.000000,0.000000,0.575243,-0.587515,0.582913,-0.587515,0.575243,-0.553767
0.6202,0.016757,0.000133,0.000159,-0.000757,0.3400,0.1321,-0.0004,-0.002330,0.000000,0.000785,0.000464,-0.002155,0.9002,0.5753,0.0906,0.001534,0.000000,0.000000,0.573709,-0.587515,0.582913,-0.587515,0.575243,-0.553767
0.6370,0.016742,0.000127,0.000152,-0.000724,0.3250,0.1263,-0.0004,-0.002228,0.000000,0.000785,0.000464,-0.002155,0.9002,0.5753,0.0906,0.001534,0.000000,0.000000,0.573709,-0.587515,0.582913,-0.587515,0.575243,-0.553767
0.6537,0.016742,0.000122,0.000145,-0.000690,0.3100,0.1205,-0.0004,-0.002125,0.000000,0.000780,0.000469,-0.002153,0.9059,0.5735,0.0968,-0.006136,0.000000,0.000000,0.573709,-0.587515,0.582913,-0.587515,0.575243,-0.553767
0.6704,0.016745,0.000116,0.000138,-0.000657,0.2950,0.1146,-0.0004,-0.002022,0.000000,0.000780,0.000469,-0.002153,0.9059,0.5735,0.0968,-0.003068,0.000000,0.000000,0.573709,-0.587515,0.582913,-0.587515,0.575243,-0.553767
0.6872,0.016744,0.000110,0.000131,-0.000623,0.2800,0.1088,-0.0004,-0.001919,0.000000,0.000739,0.000507,-0.002141,0.9553,0.5578,0.1498,0.004602,0.000000,0.000000,0.575243,-0.587515,0.582913,-0.587515,0.575243,-0.553767
0.7039,0.016745,0.000104,0.000124,-0.000590,0.2650,0.1030,-0.0004,-0.001817,0.000000,0.000745,0.000426,-0.002142,0.8501,0.5583,0.0372,0.001534,0.000000,0.000000,0.573709,-0.587515,0.582913,-0.587515,0.575243,-0.555301
0.7208,0.016852,0.000098,0.000117,-0.000557,0.2499,0.0971,-0.0004,-0.001713,0.000000,0.000743,0.000511,-0.002142,0.9611,0.5593,0.1560,-0.006136,0.000000,0.000000,0.575243,-0.587515,0.582913,-0.587515,0.575243,-0.553767
0.7375,0.016751,0.000092,0.000110,-0.000523,0.2349,0.0913,-0.0004,-0.001610,0.000000,0.000743,0.000511,-0.002142,0.9611,0.5593,0.1560,-0.006136,0.000000,0.000000,0.575243,-0.587515,0.582913,-0.587515,0.575243,-0.553767
0.7543,0.016743,0.000086,0.000103,-0.000490,0.2199,0.0855,-0.0004,-0.001508,0.000000,0.000744,0.000425,-0.002142,0.8495,0.5582,0.0366,-0.003068,0.000000,0.000000,0.573709,-0.587515,0.582913,-0.587515,0.575243,-0.555301
0.7710,0.016747,0.000080,0.000096,-0.000456,0.2050,0.0797,-0.0003,-0.001405,0.000000,0.000703,0.000473,-0.002129,0.9111,0.5424,0.1027,0.004602,0.000000,0.000000,0.575243,-0.587515,0.582913,-0.587515,0.575243,-0.555301
0.7878,0.016740,0.000074,0.000089,-0.000423,0.1900,0.0738,-0.0003,-0.001302,0.000000,0.000707,0.000468,-0.002131,0.9046,0.5440,0.0958,0.003068,0.000000,0.000000,0.575243,-0.587515,0.582913,-0.587515,0.575243,-0.555301
0.8045,0.016749,0.000069,0.000082,-0.000390,0.1750,0.0680,-0.0003,-0.001199,0.000000,0.000667,0.000430,-0.002117,0.8553,0.5269,0.0430,-0.006136,0.000000,0.000000,0.575243,-0.587515,0.582913,-0.587515,0.575243,-0.556835
0.8213,0.016755,0.000063,0.000075,-0.000356,0.1600,0.0622,-0.0003,-0.001097,0.000000,0.000671,0.000434,-0.002119,0.8604,0.5287,0.0485,-0.003068,0.000000,0.000000,0.575243,-0.587515,0.582913,-0.587515,0.575243,-0.556835
0.8380,0.016743,0.000057,0.000068,-0.000323,0.1450,0.0564,-0.0003,-0.000994,0.000000,0.000671,0.000434,-0.002119,0.8604,0.5287,0.0485,-0.003068,0.000000,0.000000,0.575243,-0.587515,0.582913,-0.587515,0.575243,-0.556835
0.8548,0.016744,0.000051,0.000061,-0.000289,0.1300,0.0505,-0.0002,-0.000891,0.000000,0.000671,0.000434,-0.002119,0.8604,0.5287,0.0485,0.004602,0.000000,0.000000,0.575243,-0.587515,0.582913,-0.587515,0.575243,-0.556835
0.8715,0.016749,0.000045,0.000054,-0.000256,0.1150,0.0447,-0.0002,-0.000788,0.000000,0.000671,0.000434,-0.002119,0.8604,0.5287,0.0485,0.001534,0.000000,0.000000,0.575243,-0.587515,0.582913,-0.587515,0.575243,-0.556835
0.8883,0.016742,0.000039,0.000047,-0.000223,0.1000,0.0389,-0.0002,-0.000686,0.000000,0.000671,0.000434,-0.002119,0.8604,0.5287,0.0485,-0.006136,0.000000,0.000000,0.575243,-0.587515,0.582913,-0.587515,0.575243,-0.556835
0.9052,0.016908,0.000033,0.000040,-0.000189,0.0849,0.0330,-0.0002,-0.000582,0.000000,0.000671,0.000434,-0.002119,0.8604,0.5287,0.0485,-0.003068,0.000000,0.000000,0.575243,-0.587515,0.582913,-0.587515,0.575243,-0.556835
0.9219,0.016765,0.000027,0.000033,-0.000156,0.0699,0.0272,-0.0001,-0.000479,0.000000,0.000671,0.000434,-0.002119,0.8604,0.5287,0.0485,0.003068,0.000000,0.000000,0.575243,-0.587515,0.582913,-0.587515,0.575243,-0.556835
0.9387,0.016811,0.000022,0.000026,-0.000122,0.0548,0.0213,-0.0001,-0.000376,0.000000,0.000671,0.000434,-0.002119,0.8604,0.5287,0.0485,0.003068,0.000000,0.000000,0.575243,-0.587515,0.582913,-0.587515,0.575243,-0.556835
0.9555,0.016742,0.000016,0.000019,-0.000089,0.0399,0.0155,-0.0001,-0.000273,0.000000,0.000671,0.000434,-0.002119,0.8604,0.5287,0.0485,0.003068,0.000000,0.000000,0.575243,-0.587515,0.582913,-0.587515,0.575243,-0.556835
0.9722,0.016758,0.000010,0.000012,-0.000055,0.0249,0.0097,-0.0001,-0.000170,0.000000,0.000671,0.000434,-0.002119,0.8604,0.5287,0.0485,-0.004602,0.000000,0.000000,0.575243,-0.587515,0.582913,-0.587515,0.575243,-0.556835
0.9890,0.016748,0.000004,0.000005,-0.000022,0.0099,0.0038,-0.0000,-0.000068,0.000000,0.000671,0.000434,-0.002119,0.8604,0.5287,0.0485,-0.004602,0.000000,0.000000,0.575243,-0.587515,0.582913,-0.587515,0.575243,-0.556835
1.0058,0.016791,0.000000,0.000000,0.000000,0.0000,0.0000,0.0000,0.000000,-0.000000,0.000671,0.000434,-0.002119,0.8604,0.5287,0.0485,0.001534,0.000000,0.000000,0.575243,-0.587515,0.582913,-0.587515,0.575243,-0.556835
1.0225,0.016763,0.000000,0.000000,0.000000,0.0000,0.0000,0.0000,0.000000,-0.000000,0.000671,0.000434,-0.002119,0.8604,0.5287,0.0485,0.003068,0.000000,0.000000,0.575243,-0.587515,0.582913,-0.587515,0.575243,-0.556835
1.0393,0.016753,0.000000,0.000000,0.000000,0.0000,0.0000,0.0000,0.000000,-0.000000,0.000671,0.000434,-0.002119,0.8604,0.5287,0.0485,0.003068,0.000000,0.000000,0.575243,-0.587515,0.582913,-0.587515,0.575243,-0.556835
1.0560,0.016748,0.000000,0.000000,0.000000,0.0000,0.0000,0.0000,0.000000,-0.000000,0.000671,0.000434,-0.002119,0.8604,0.5287,0.0485,-0.003068,0.000000,0.000000,0.575243,-0.587515,0.582913,-0.587515,0.575243,-0.556835
1.0728,0.016755,0.000000,0.000000,0.000000,0.0000,0.0000,0.0000,0.000000,-0.000000,0.000671,0.000434,-0.002119,0.8604,0.5287,0.0485,-0.003068,0.000000,0.000000,0.575243,-0.587515,0.582913,-0.587515,0.575243,-0.556835
1.0895,0.016747,0.000000,0.000000,0.000000,0.0000,0.0000,0.0000,0.000000,-0.000000,0.000671,0.000434,-0.002119,0.8604,0.5287,0.0485,0.004602,0.000000,0.000000,0.575243,-0.587515,0.582913,-0.587515,0.575243,-0.556835
1.1063,0.016751,0.000000,0.000000,0.000000,0.0000,0.0000,0.0000,0.000000,-0.000000,0.000671,0.000434,-0.002119,0.8604,0.5287,0.0485,0.004602,0.000000,0.000000,0.575243,-0.587515,0.582913,-0.587515,0.575243,-0.556835
1.1230,0.016749,0.000000,0.000000,0.000000,0.0000,0.0000,0.0000,0.000000,-0.000000,0.000671,0.000434,-0.002119,0.8604,0.5287,0.0485,-0.004602,0.000000,0.000000,0.575243,-0.587515,0.582913,-0.587515,0.575243,-0.556835
1.1398,0.016756,0.000000,0.000000,0.000000,0.0000,0.0000,0.0000,0.000000,-0.000000,0.000671,0.000434,-0.002119,0.8604,0.5287,0.0485,-0.004602,0.000000,0.000000,0.575243,-0.587515,0.582913,-0.587515,0.575243,-0.556835
1.1565,0.016748,0.000000,0.000000,0.000000,0.0000,0.0000,0.0000,0.000000,-0.000000,0.000671,0.000434,-0.002119,0.8604,0.5287,0.0485,-0.003068,0.000000,0.000000,0.575243,-0.587515,0.582913,-0.587515,0.575243,-0.556835
1.1733,0.016750,0.000000,0.000000,0.000000,0.0000,0.0000,0.0000,0.000000,-0.000000,0.000671,0.000434,-0.002119,0.8604,0.5287,0.0485,0.006136,0.000000,0.000000,0.575243,-0.587515,0.582913,-0.587515,0.575243,-0.556835
1.1900,0.016745,0.000000,0.000000,0.000000,0.0000,0.0000,0.0000,0.000000,-0.000000,0.000671,0.000434,-0.002119,0.8604,0.5287,0.0485,0.003068,0.000000,0.000000,0.575243,-0.587515,0.582913,-0.587515,0.575243,-0.556835
1.2068,0.016753,0.000000,0.000000,0.000000,0.0000,0.0000,0.0000,0.000000,-0.000000,0.000671,0.000434,-0.002119,0.8604,0.5287,0.0485,-0.004602,0.000000,0.000000,0.575243,-0.587515,0.582913,-0.587515,0.575243,-0.556835
1.2236,0.016759,0.000000,0.000000,0.000000,0.0000,0.0000,0.0000,0.000000,-0.000000,0.000671,0.000434,-0.002119,0.8604,0.5287,0.0485,-0.001534,0.000000,0.000000,0.575243,-0.587515,0.582913,-0.587515,0.575243,-0.556835
1.2403,0.016749,0.000000,0.000000,0.000000,0.0000,0.0000,0.0000,0.000000,-0.000000,0.000671,0.000434,-0.002119,0.8604,0.5287,0.0485,-0.001534,0.000000,0.000000,0.575243,-0.587515,0.582913,-0.587515,0.575243,-0.556835
1.2570,0.016744,0.000000,0.000000,0.000000,0.0000,0.0000,0.0000,0.000000,-0.000000,0.000670,0.000435,-0.002119,0.8604,0.5287,0.1364,0.004602,0.000000,0.001534,0.575243,-0.587515,0.582913,-0.587515,0.575243,-0.556835
1.2738,0.016745,0.000000,0.000000,0.000000,0.0000,0.0000,0.0000,0.000000,-0.000000,0.000671,0.000434,-0.002119,0.8604,0.5287,0.0485,0.003068,0.000000,0.000000,0.575243,-0.587515,0.582913,-0.587515,0.575243,-0.556835
1.2905,0.016755,0.000000,0.000000,0.000000,0.0000,0.0000,0.0000,0.000000,-0.000000,0.000671,0.000434,-0.002119,0.8604,0.5287,0.0485,-0.004602,0.000000,0.000000,0.575243,-0.587515,0.582913,-0.587515,0.575243,-0.556835
1.3073,0.016753,0.000000,0.000000,0.000000,0.0000,0.0000,0.0000,0.000000,-0.000000,0.000671,0.000434,-0.002119,0.8604,0.5287,0.0485,-0.001534,0.000000,0.000000,0.575243,-0.587515,0.582913,-0.587515,0.575243,-0.556835
1.3240,0.016750,0.000000,0.000000,0.000000,0.0000,0.0000,0.0000,0.000000,-0.000000,0.000671,0.000434,-0.002119,0.8604,0.5287,0.0485,-0.001534,0.000000,0.000000,0.575243,-0.587515,0.582913,-0.587515,0.575243,-0.556835
1.3408,0.016798,0.000000,0.000000,0.000000,0.0000,0.0000,0.0000,0.000000,-0.000000,0.000671,0.000434,-0.002119,0.8604,0.5287,0.0485,0.004602,0.000000,0.000000,0.575243,-0.587515,0.582913,-0.587515,0.575243,-0.556835
1.3576,0.016748,0.000000,0.000000,0.000000,0.0000,0.0000,0.0000,0.000000,-0.000000,0.000671,0.000434,-0.002119,0.8604,0.5287,0.0485,0.003068,0.000000,0.000000,0.575243,-0.587515,0.582913,-0.587515,0.575243,-0.556835
1.3744,0.016757,0.000000,0.000000,0.000000,0.0000,0.0000,0.0000,0.000000,-0.000000,0.000671,0.000434,-0.002119,0.8604,0.5287,0.0485,-0.004602,0.000000,0.000000,0.575243,-0.587515,0.582913,-0.587515,0.575243,-0.556835
1.3911,0.016747,0.000000,0.000000,0.000000,0.0000,0.0000,0.0000,0.000000,-0.000000,0.000671,0.000434,-0.002119,0.8604,0.5287,0.0485,0.000000,0.000000,0.000000,0.575243,-0.587515,0.582913,-0.587515,0.575243,-0.556835
1.4083,0.017236,0.000000,0.000000,0.000000,0.0000,0.0000,0.0000,0.000000,-0.000000,0.000671,0.000434,-0.002119,0.8604,0.5287,0.0485,0.004602,0.000000,0.000000,0.575243,-0.587515,0.582913,-0.587515,0.575243,-0.556835
1.4251,0.016742,0.000000,0.000000,0.000000,0.0000,0.0000,0.0000,0.000000,-0.000000,0.000671,0.000434,-0.002119,0.8604,0.5287,0.0485,0.004602,0.000000,0.000000,0.575243,-0.587515,0.582913,-0.587515,0.575243,-0.556835
1.4418,0.016750,0.000000,0.000000,0.000000,0.0000,0.0000,0.0000,0.000000,-0.000000,0.000671,0.000434,-0.002119,0.8604,0.5287,0.0485,0.001534,0.000000,0.000000,0.575243,-0.587515,0.582913,-0.587515,0.575243,-0.556835
1.4586,0.016742,0.000000,0.000000,0.000000,0.0000,0.0000,0.0000,0.000000,-0.000000,0.000671,0.000434,-0.002119,0.8604,0.5287,0.0485,-0.004602,0.000000,0.000000,0.575243,-0.587515,0.582913,-0.587515,0.575243,-0.556835
1.4753,0.016756,0.000000,0.000000,0.000000,0.0000,0.0000,0.0000,0.000000,-0.000000,0.000671,0.000434,-0.002119,0.8604,0.5287,0.0485,0.000000,0.000000,0.000000,0.575243,-0.587515,0.582913,-0.587515,0.575243,-0.556835
1.4921,0.016740,0.000000,0.000000,0.000000,0.0000,0.0000,0.0000,0.000000,-0.000000,0.000671,0.000434,-0.002119,0.8604,0.5287,0.0485,0.004602,0.000000,0.000000,0.575243,-0.587515,0.582913,-0.587515,0.575243,-0.556835
1.5088,0.016760,0.000000,0.000000,0.000000,0.0000,0.0000,0.0000,0.000000,-0.000000,0.000671,0.000434,-0.002119,0.8604,0.5287,0.0485,0.000000,0.000000,0.000000,0.575243,-0.587515,0.582913,-0.587515,0.575243,-0.556835
1.5257,0.016846,0.000000,0.000000,0.000000,0.0000,0.0000,0.0000,0.000000,-0.000000,0.000671,0.000434,-0.002119,0.8604,0.5287,0.0485,0.000000,0.000000,0.000000,0.575243,-0.587515,0.582913,-0.587515,0.575243,-0.556835
1.5425,0.016823,0.000000,0.000000,0.000000,0.0000,0.0000,0.0000,0.000000,-0.000000,0.000671,0.000434,-0.002119,0.8604,0.5287,0.0485,0.000000,0.000000,0.000000,0.575243,-0.587515,0.582913,-0.587515,0.575243,-0.556835
1.5592,0.016750,0.000000,0.000000,0.000000,0.0000,0.0000,0.0000,0.000000,-0.000000,0.000671,0.000434,-0.002119,0.8604,0.5287,0.0485,0.004602,0.000000,0.000000,0.575243,-0.587515,0.582913,-0.587515,0.575243,-0.556835
1.5760,0.016756,0.000000,0.000000,0.000000,0.0000,0.0000,0.0000,0.000000,-0.000000,0.000671,0.000434,-0.002119,0.8604,0.5287,0.0485,0.004602,0.000000,0.000000,0.575243,-0.587515,0.582913,-0.587515,0.575243,-0.556835
1.5927,0.016742,0.000000,0.000000,0.000000,0.0000,0.0000,0.0000,0.000000,-0.000000,0.000671,0.000434,-0.002119,0.8604,0.5287,0.0485,0.000000,0.000000,0.000000,0.575243,-0.587515,0.582913,-0.587515,0.575243,-0.556835
1.6095,0.016746,0.000000,0.000000,0.000000,0.0000,0.0000,0.0000,0.000000,-0.000000,0.000671,0.000434,-0.002119,0.8604,0.5287,0.0485,-0.003068,0.000000,0.000000,0.575243,-0.587515,0.582913,-0.587515,0.575243,-0.556835
1.6262,0.016745,0.000000,0.000000,0.000000,0.0000,0.0000,0.0000,0.000000,-0.000000,0.000671,0.000434,-0.002119,0.8604,0.5287,0.0485,0.000000,0.000000,0.000000,0.575243,-0.587515,0.582913,-0.587515,0.575243,-0.556835
1.6430,0.016753,0.000000,0.000000,0.000000,0.0000,0.0000,0.0000,0.000000,-0.000000,0.000671,0.000434,-0.002119,0.8604,0.5287,0.0485,0.004602,0.000000,0.000000,0.575243,-0.587515,0.582913,-0.587515,0.575243,-0.556835
1.6597,0.016763,0.000000,0.000000,0.000000,0.0000,0.0000,0.0000,0.000000,-0.000000,0.000671,0.000434,-0.002119,0.8604,0.5287,0.0485,-0.001534,0.000000,0.000000,0.575243,-0.587515,0.582913,-0.587515,0.575243,-0.556835
1.6765,0.016760,0.000000,0.000000,0.000000,0.0000,0.0000,0.0000,0.000000,-0.000000,0.000671,0.000434,-0.002119,0.8604,0.5287,0.0485,-0.001534,0.000000,0.000000,0.575243,-0.587515,0.582913,-0.587515,0.575243,-0.556835
1.6933,0.016744,0.000000,0.000000,0.000000,0.0000,0.0000,0.0000,0.000000,-0.000000,0.000671,0.000434,-0.002119,0.8604,0.5287,0.0485,-0.003068,0.000000,0.000000,0.575243,-0.587515,0.582913,-0.587515,0.575243,-0.556835
1.7100,0.016749,0.000000,0.000000,0.000000,0.0000,0.0000,0.0000,0.000000,-0.000000,0.000671,0.000434,-0.002119,0.8604,0.5287,0.0485,0.001534,0.000000,0.000000,0.575243,-0.587515,0.582913,-0.587515,0.575243,-0.556835
1.7267,0.016740,0.000000,0.000000,0.000000,0.0000,0.0000,0.0000,0.000000,-0.000000,0.000671,0.000434,-0.002119,0.8604,0.5287,0.0485,0.004602,0.000000,0.000000,0.575243,-0.587515,0.582913,-0.587515,0.575243,-0.556835
1.7435,0.016771,0.000000,0.000000,0.000000,0.0000,0.0000,0.0000,0.000000,-0.000000,0.000671,0.000434,-0.002119,0.8604,0.5287,0.0485,-0.001534,0.000000,0.000000,0.575243,-0.587515,0.582913,-0.587515,0.575243,-0.556835
1.7603,0.016738,0.000000,0.000000,0.000000,0.0000,0.0000,0.0000,0.000000,-0.000000,0.000671,0.000434,-0.002119,0.8604,0.5287,0.0485,-0.001534,0.000000,0.000000,0.575243,-0.587515,0.582913,-0.587515,0.575243,-0.556835
1.7770,0.016758,0.000000,0.000000,0.000000,0.0000,0.0000,0.0000,0.000000,-0.000000,0.000671,0.000434,-0.002119,0.8604,0.5287,0.0485,-0.003068,0.000000,0.000000,0.575243,-0.587515,0.582913,-0.587515,0.575243,-0.556835
1.7938,0.016742,0.000000,0.000000,0.000000,0.0000,0.0000,0.0000,0.000000,-0.000000,0.000671,0.000434,-0.002119,0.8604,0.5287,0.0485,0.001534,0.000000,0.000000,0.575243,-0.587515,0.582913,-0.587515,0.575243,-0.556835
1.8105,0.016746,0.000000,0.000000,0.000000,0.0000,0.0000,0.0000,0.000000,-0.000000,0.000671,0.000434,-0.002119,0.8604,0.5287,0.0485,0.004602,0.000000,0.000000,0.575243,-0.587515,0.582913,-0.587515,0.575243,-0.556835
1.8272,0.016739,0.000000,0.000000,0.000000,0.0000,0.0000,0.0000,0.000000,-0.000000,0.000671,0.000434,-0.002119,0.8604,0.5287,0.0485,-0.003068,0.000000,0.000000,0.575243,-0.587515,0.582913,-0.587515,0.575243,-0.556835
1.8440,0.016760,0.000000,0.000000,0.000000,0.0000,0.0000,0.0000,0.000000,-0.000000,0.000724,0.000417,-0.002107,0.8986,0.4934,-0.0060,-0.003068,0.000000,0.000000,0.575243,-0.589049,0.582913,-0.587515,0.575243,-0.556835
1.8607,0.016738,0.000000,0.000000,0.000000,0.0000,0.0000,0.0000,0.000000,-0.000000,0.000724,0.000417,-0.002107,0.8986,0.4934,-0.0060,-0.003068,0.000000,0.000000,0.575243,-0.589049,0.582913,-0.587515,0.575243,-0.556835
1.8775,0.016756,0.000000,0.000000,0.000000,0.0000,0.0000,0.0000,0.000000,-0.000000,0.000665,0.000435,-0.002120,0.8559,0.5322,0.0536,0.004602,0.000000,0.000000,0.575243,-0.587515,0.582913,-0.587515,0.575243,-0.556835
1.8942,0.016738,0.000000,0.000000,0.000000,0.0000,0.0000,0.0000,0.000000,-0.000000,0.000671,0.000433,-0.002118,0.8603,0.5281,0.0474,0.004602,0.000000,0.000000,0.575243,-0.587515,0.582913,-0.587515,0.575243,-0.556835
1.9110,0.016760,0.000000,0.000000,0.000000,0.0000,0.0000,0.0000,0.000000,-0.000000,0.000671,0.000433,-0.002118,0.8603,0.5281,0.0474,-0.003068,0.000000,0.000000,0.575243,-0.587515,0.582913,-0.587515,0.575243,-0.556835
1.9277,0.016751,0.000000,0.000000,0.000000,0.0000,0.0000,0.0000,0.000000,-0.000000,0.000671,0.000433,-0.002118,0.8603,0.5281,0.0474,-0.003068,0.000000,0.000000,0.575243,-0.587515,0.582913,-0.587515,0.575243,-0.556835
1.9445,0.016766,0.000000,0.000000,0.000000,0.0000,0.0000,0.0000,0.000000,-0.000000,0.000671,0.000433,-0.002118,0.8603,0.5281,0.0474,0.004602,0.000000,0.000000,0.575243,-0.587515,0.582913,-0.587515,0.575243,-0.556835
1.9612,0.016736,0.000000,0.000000,0.000000,0.0000,0.0000,0.0000,0.000000,-0.000000,0.000671,0.000433,-0.002118,0.8603,0.5281,0.0474,0.004602,0.000000,0.000000,0.575243,-0.587515,0.582913,-0.587515,0.575243,-0.556835
1.9780,0.016753,0.000000,0.000000,0.000000,0.0000,0.0000,0.0000,0.000000,-0.000000,0.000671,0.000433,-0.002118,0.8603,0.5281,0.0474,0.004602,0.000000,0.000000,0.575243,-0.587515,0.582913,-0.587515,0.575243,-0.556835
1.9947,0.016741,0.000000,0.000000,0.000000,0.0000,0.0000,0.0000,0.000000,-0.000000,0.000671,0.000433,-0.002118,0.8603,0.5281,0.0474,-0.004602,0.000000,0.000000,0.575243,-0.587515,0.582913,-0.587515,0.575243,-0.556835
2.0115,0.016761,0.000000,0.000000,0.000000,0.0000,0.0000,0.0000,0.000000,-0.000000,0.000671,0.000433,-0.002118,0.8603,0.5281,0.0474,-0.001534,0.000000,0.000000,0.575243,-0.587515,0.582913,-0.587515,0.575243,-0.556835
2.0282,0.016738,0.000000,0.000000,0.000000,0.0000,0.0000,0.0000,0.000000,-0.000000,0.000671,0.000433,-0.002118,0.8603,0.5281,0.0474,0.004602,0.000000,0.000000,0.575243,-0.587515,0.582913,-0.587515,0.575243,-0.556835
2.0451,0.016825,0.000000,0.000000,0.000000,0.0000,0.0000,0.0000,0.000000,-0.000000,0.000671,0.000433,-0.002118,0.8603,0.5281,0.0474,0.003068,0.000000,0.000000,0.575243,-0.587515,0.582913,-0.587515,0.575243,-0.556835
2.0618,0.016747,0.000000,0.000000,0.000000,0.0000,0.0000,0.0000,0.000000,-0.000000,0.000671,0.000433,-0.002118,0.8603,0.5281,0.0474,0.003068,0.000000,0.000000,0.575243,-0.587515,0.582913,-0.587515,0.575243,-0.556835
2.0785,0.016741,0.000000,0.000000,0.000000,0.0000,0.0000,0.0000,0.000000,-0.000000,0.000671,0.000433,-0.002118,0.8603,0.5281,0.0474,-0.004602,0.000000,0.000000,0.575243,-0.587515,0.582913,-0.587515,0.575243,-0.556835
2.0953,0.016745,0.000000,0.000000,0.000000,0.0000,0.0000,0.0000,0.000000,-0.000000,0.000671,0.000433,-0.002118,0.8603,0.5281,0.0474,-0.001534,0.000000,0.000000,0.575243,-0.587515,0.582913,-0.587515,0.575243,-0.556835
2.1120,0.016756,0.000000,0.000000,0.000000,0.0000,0.0000,0.0000,0.000000,-0.000000,0.000671,0.000433,-0.002118,0.8603,0.5281,0.0474,0.004602,0.000000,0.000000,0.575243,-0.587515,0.582913,-0.587515,0.575243,-0.556835
2.1288,0.016745,0.000000,0.000000,0.000000,0.0000,0.0000,0.0000,0.000000,-0.000000,0.000671,0.000433,-0.002118,0.8603,0.5281,0.0474,0.003068,0.000000,0.000000,0.575243,-0.587515,0.582913,-0.587515,0.575243,-0.556835
2.1456,0.016785,0.000000,0.000000,0.000000,0.0000,0.0000,0.0000,0.000000,-0.000000,0.000671,0.000433,-0.002118,0.8603,0.5281,0.0474,-0.004602,0.000000,0.000000,0.575243,-0.587515,0.582913,-0.587515,0.575243,-0.556835
2.1623,0.016740,0.000000,0.000000,0.000000,0.0000,0.0000,0.0000,0.000000,-0.000000,0.000671,0.000433,-0.002118,0.8603,0.5281,0.0474,-0.004602,0.000000,0.000000,0.575243,-0.587515,0.582913,-0.587515,0.575243,-0.556835
2.1791,0.016743,0.000000,0.000000,0.000000,0.0000,0.0000,0.0000,0.000000,-0.000000,0.000671,0.000433,-0.002118,0.8603,0.5281,0.0474,-0.001534,0.000000,0.000000,0.575243,-0.587515,0.582913,-0.587515,0.575243,-0.556835
2.1958,0.016744,0.000000,0.000000,0.000000,0.0000,0.0000,0.0000,0.000000,-0.000000,0.000671,0.000433,-0.002118,0.8603,0.5281,0.0474,0.004602,0.000000,0.000000,0.575243,-0.587515,0.582913,-0.587515,0.575243,-0.556835
2.2126,0.016760,0.000000,0.000000,0.000000,0.0000,0.0000,0.0000,0.000000,-0.000000,0.000671,0.000433,-0.002118,0.8603,0.5281,0.0474,0.003068,0.000000,0.000000,0.575243,-0.587515,0.582913,-0.587515,0.575243,-0.556835
2.2293,0.016740,0.000000,0.000000,0.000000,0.0000,0.0000,0.0000,0.000000,-0.000000,0.000671,0.000433,-0.002118,0.8603,0.5281,0.0474,-0.004602,0.000000,0.000000,0.575243,-0.587515,0.582913,-0.587515,0.575243,-0.556835
2.2461,0.016755,0.000000,0.000000,0.000000,0.0000,0.0000,0.0000,0.000000,-0.000000,0.000671,0.000433,-0.002118,0.8603,0.5281,0.0474,-0.004602,0.000000,0.000000,0.575243,-0.587515,0.582913,-0.587515,0.575243,-0.556835
2.2628,0.016738,0.000000,0.000000,0.000000,0.0000,0.0000,0.0000,0.000000,-0.000000,0.000671,0.000433,-0.002118,0.8603,0.5281,0.0474,-0.001534,0.000000,0.000000,0.575243,-0.587515,0.582913,-0.587515,0.575243,-0.556835
2.2795,0.016738,0.000000,0.000000,0.000000,0.0000,0.0000,0.0000,0.000000,-0.000000,0.000671,0.000433,-0.002118,0.8603,0.5281,0.0474,0.004602,0.000000,0.000000,0.575243,-0.587515,0.582913,-0.587515,0.575243,-0.556835
2.2963,0.016741,0.000000,0.000000,0.000000,0.0000,0.0000,0.0000,0.000000,-0.000000,0.000671,0.000433,-0.002118,0.8603,0.5281,0.0474,0.001534,0.000000,0.000000,0.575243,-0.587515,0.582913,-0.587515,0.575243,-0.556835
2.3130,0.016750,0.000000,0.000000,0.000000,0.0000,0.0000,0.0000,0.000000,-0.000000,0.000671,0.000433,-0.002118,0.8603,0.5281,0.0474,-0.004602,0.000000,0.000000,0.575243,-0.587515,0.582913,-0.587515,0.575243,-0.556835
2.3298,0.016740,0.000000,0.000000,0.000000,0.0000,0.0000,0.0000,0.000000,-0.000000,0.000671,0.000433,-0.002118,0.8603,0.5281,0.0474,-0.001534,0.000000,0.000000,0.575243,-0.587515,0.582913,-0.587515,0.575243,-0.556835
2.3465,0.016745,0.000000,0.000000,0.000000,0.0000,0.0000,0.0000,0.000000,-0.000000,0.000671,0.000433,-0.002118,0.8603,0.5281,0.0474,-0.001534,0.000000,0.000000,0.575243,-0.587515,0.582913,-0.587515,0.575243,-0.556835
2.3633,0.016742,0.000000,0.000000,0.000000,0.0000,0.0000,0.0000,0.000000,-0.000000,0.000671,0.000433,-0.002118,0.8603,0.5281,0.0474,0.004602,0.000000,0.000000,0.575243,-0.587515,0.582913,-0.587515,0.575243,-0.556835
2.3803,0.017064,0.000000,0.000000,0.000000,0.0000,0.0000,0.0000,0.000000,-0.000000,0.000671,0.000433,-0.002118,0.8603,0.5281,0.0474,0.001534,0.000000,0.000000,0.575243,-0.587515,0.582913,-0.587515,0.575243,-0.556835
2.3971,0.016740,0.000000,0.000000,0.000000,0.0000,0.0000,0.0000,0.000000,-0.000000,0.000671,0.000433,-0.002118,0.8603,0.5281,0.0474,-0.004602,0.000000,0.000000,0.575243,-0.587515,0.582913,-0.587515,0.575243,-0.556835
2.4138,0.016741,0.000000,0.000000,0.000000,0.0000,0.0000,0.0000,0.000000,-0.000000,0.000671,0.000433,-0.002118,0.8603,0.5281,0.0474,0.000000,0.000000,0.000000,0.575243,-0.587515,0.582913,-0.587515,0.575243,-0.556835
2.4306,0.016770,0.000000,0.000000,0.000000,0.0000,0.0000,0.0000,0.000000,-0.000000,0.000671,0.000433,-0.002118,0.8603,0.5281,0.0474,0.004602,0.000000,0.000000,0.575243,-0.587515,0.582913,-0.587515,0.575243,-0.556835
2.4473,0.016745,0.000000,0.000000,0.000000,0.0000,0.0000,0.0000,0.000000,-0.000000,0.000671,0.000433,-0.002118,0.8603,0.5281,0.0474,0.004602,0.000000,0.000000,0.575243,-0.587515,0.582913,-0.587515,0.575243,-0.556835
2.4641,0.016742,0.000000,0.000000,0.000000,0.0000,0.0000,0.0000,0.000000,-0.000000,0.000671,0.000433,-0.002118,0.8603,0.5281,0.0474,0.001534,0.000000,0.000000,0.575243,-0.587515,0.582913,-0.587515,0.575243,-0.556835
2.4808,0.016741,0.000000,0.000000,0.000000,0.0000,0.0000,0.0000,0.000000,-0.000000,0.000671,0.000433,-0.002118,0.8603,0.5281,0.0474,-0.004602,0.000000,0.000000,0.575243,-0.587515,0.582913,-0.587515,0.575243,-0.556835
2.4975,0.016747,0.000000,0.000000,0.000000,0.0000,0.0000,0.0000,0.000000,-0.000000,0.000671,0.000433,-0.002118,0.8603,0.5281,0.0474,0.000000,0.000000,0.000000,0.575243,-0.587515,0.582913,-0.587515,0.575243,-0.556835
2.5143,0.016749,0.000000,0.000000,0.000000,0.0000,0.0000,0.0000,0.000000,-0.000000,0.000724,0.000417,-0.002107,0.8986,0.4935,-0.0059,0.004602,0.000000,0.000000,0.575243,-0.589049,0.582913,-0.587515,0.575243,-0.556835
2.5310,0.016747,0.000000,0.000000,0.000000,0.0000,0.0000,0.0000,0.000000,-0.000000,0.000665,0.000435,-0.002120,0.8559,0.5322,0.0536,-0.001534,0.000000,0.000000,0.575243,-0.587515,0.582913,-0.587515,0.575243,-0.556835
2.5478,0.016745,0.000000,0.000000,0.000000,0.0000,0.0000,0.0000,0.000000,-0.000000,0.000665,0.000435,-0.002120,0.8559,0.5322,0.0536,-0.001534,0.000000,0.000000,0.575243,-0.587515,0.582913,-0.587515,0.575243,-0.556835
2.5645,0.016765,0.000000,0.000000,0.000000,0.0000,0.0000,0.0000,0.000000,-0.000000,0.000671,0.000433,-0.002118,0.8603,0.5281,0.0474,-0.003068,0.000000,0.000000,0.575243,-0.587515,0.582913,-0.587515,0.575243,-0.556835
2.5813,0.016793,0.000000,0.000000,0.000000,0.0000,0.0000,0.0000,0.000000,-0.000000,0.000671,0.000433,-0.002118,0.8603,0.5281,0.0474,-0.003068,0.000000,0.000000,0.575243,-0.587515,0.582913,-0.587515,0.575243,-0.556835
2.5981,0.016763,0.000000,0.000000,0.000000,0.0000,0.0000,0.0000,0.000000,-0.000000,0.000671,0.000433,-0.002118,0.8603,0.5281,0.0474,-0.003068,0.000000,0.000000,0.575243,-0.587515,0.582913,-0.587515,0.575243,-0.556835
2.6149,0.016754,0.000000,0.000000,0.000000,0.0000,0.0000,0.0000,0.000000,-0.000000,0.000671,0.000433,-0.002118,0.8603,0.5281,0.0474,-0.003068,0.000000,0.000000,0.575243,-0.587515,0.582913,-0.587515,0.575243,-0.556835
2.6316,0.016756,0.000000,0.000000,0.000000,0.0000,0.0000,0.0000,0.000000,-0.000000,0.000671,0.000433,-0.002118,0.8603,0.5281,0.0474,-0.003068,0.000000,0.000000,0.575243,-0.587515,0.582913,-0.587515,0.575243,-0.556835
2.6484,0.016747,0.000000,0.000000,0.000000,0.0000,0.0000,0.0000,0.000000,-0.000000,0.000671,0.000433,-0.002118,0.8603,0.5281,0.0474,0.001534,0.000000,0.000000,0.575243,-0.587515,0.582913,-0.587515,0.575243,-0.556835
2.6651,0.016742,0.000000,0.000000,0.000000,0.0000,0.0000,0.0000,0.000000,-0.000000,0.000671,0.000433,-0.002118,0.8603,0.5281,0.0474,0.001534,0.000000,0.000000,0.575243,-0.587515,0.582913,-0.587515,0.575243,-0.556835
2.6818,0.016742,0.000000,0.000000,0.000000,0.0000,0.0000,0.0000,0.000000,-0.000000,0.000671,0.000433,-0.002118,0.8603,0.5281,0.0474,0.004602,0.000000,0.000000,0.575243,-0.587515,0.582913,-0.587515,0.575243,-0.556835
2.6986,0.016751,0.000000,0.000000,0.000000,0.0000,0.0000,0.0000,0.000000,-0.000000,0.000671,0.000433,-0.002118,0.8603,0.5281,0.0474,-0.003068,0.000000,0.000000,0.575243,-0.587515,0.582913,-0.587515,0.575243,-0.556835
2.7156,0.016960,0.000000,0.000000,0.000000,0.0000,0.0000,0.0000,0.000000,-0.000000,0.000671,0.000433,-0.002118,0.8603,0.5281,0.0474,-0.003068,0.000000,0.000000,0.575243,-0.587515,0.582913,-0.587515,0.575243,-0.556835
2.7323,0.016762,0.000000,0.000000,0.000000,0.0000,0.0000,0.0000,0.000000,-0.000000,0.000671,0.000433,-0.002118,0.8603,0.5281,0.0474,0.003068,0.000000,0.000000,0.575243,-0.587515,0.582913,-0.587515,0.575243,-0.556835
2.7492,0.016859,0.000000,0.000000,0.000000,0.0000,0.0000,0.0000,0.000000,-0.000000,0.000671,0.000433,-0.002118,0.8603,0.5281,0.0474,0.004602,0.000000,0.000000,0.575243,-0.587515,0.582913,-0.587515,0.575243,-0.556835
2.7659,0.016753,0.000000,0.000000,0.000000,0.0000,0.0000,0.0000,0.000000,-0.000000,0.000671,0.000433,-0.002118,0.8603,0.5281,0.0474,0.004602,0.000000,0.000000,0.575243,-0.587515,0.582913,-0.587515,0.575243,-0.556835
2.7827,0.016743,0.000000,0.000000,0.000000,0.0000,0.0000,0.0000,0.000000,-0.000000,0.000671,0.000433,-0.002118,0.8603,0.5281,0.0474,-0.003068,0.000000,0.000000,0.575243,-0.587515,0.582913,-0.587515,0.575243,-0.556835
2.7994,0.016749,0.000000,0.000000,0.000000,0.0000,0.0000,0.0000,0.000000,-0.000000,0.000671,0.000433,-0.002118,0.8603,0.5281,0.0474,-0.003068,0.000000,0.000000,0.575243,-0.587515,0.582913,-0.587515,0.575243,-0.556835
2.8162,0.016743,0.000000,0.000000,0.000000,0.0000,0.0000,0.0000,0.000000,-0.000000,0.000671,0.000433,-0.002118,0.8603,0.5281,0.0474,0.003068,0.000000,0.000000,0.575243,-0.587515,0.582913,-0.587515,0.575243,-0.556835
2.8329,0.016749,0.000000,0.000000,0.000000,0.0000,0.0000,0.0000,0.000000,-0.000000,0.000671,0.000433,-0.002118,0.8603,0.5281,0.0474,0.004602,0.000000,0.000000,0.575243,-0.587515,0.582913,-0.587515,0.575243,-0.556835
2.8497,0.016754,0.000000,0.000000,0.000000,0.0000,0.0000,0.0000,0.000000,-0.000000,0.000671,0.000433,-0.002118,0.8603,0.5281,0.0474,-0.003068,0.000000,0.000000,0.575243,-0.587515,0.582913,-0.587515,0.575243,-0.556835
2.8664,0.016745,0.000000,0.000000,0.000000,0.0000,0.0000,0.0000,0.000000,-0.000000,0.000671,0.000433,-0.002118,0.8603,0.5281,0.0474,-0.003068,0.000000,0.000000,0.575243,-0.587515,0.582913,-0.587515,0.575243,-0.556835
2.8832,0.016747,0.000000,0.000000,0.000000,0.0000,0.0000,0.0000,0.000000,-0.000000,0.000671,0.000433,-0.002118,0.8603,0.5281,0.0474,-0.003068,0.000000,0.000000,0.575243,-0.587515,0.582913,-0.587515,0.575243,-0.556835
2.8999,0.016742,0.000000,0.000000,0.000000,0.0000,0.0000,0.0000,0.000000,-0.000000,0.000671,0.000433,-0.002118,0.8603,0.5281,0.0474,0.004602,0.000000,0.000000,0.575243,-0.587515,0.582913,-0.587515,0.575243,-0.556835
2.9167,0.016752,0.000000,0.000000,0.000000,0.0000,0.0000,0.0000,0.000000,-0.000000,0.000671,0.000433,-0.002118,0.8603,0.5281,0.0474,0.004602,0.000000,0.000000,0.575243,-0.587515,0.582913,-0.587515,0.575243,-0.556835
2.9334,0.016749,0.000000,0.000000,0.000000,0.0000,0.0000,0.0000,0.000000,-0.000000,0.000671,0.000433,-0.002118,0.8603,0.5281,0.0474,-0.003068,0.000000,0.000000,0.575243,-0.587515,0.582913,-0.587515,0.575243,-0.556835
2.9501,0.016732,0.000000,0.000000,0.000000,0.0000,0.0000,0.0000,0.000000,-0.000000,0.000671,0.000433,-0.002118,0.8603,0.5281,0.0474,-0.003068,0.000000,0.000000,0.575243,-0.587515,0.582913,-0.587515,0.575243,-0.556835
2.9669,0.016746,0.000000,0.000000,0.000000,0.0000,0.0000,0.0000,0.000000,-0.000000,0.000671,0.000433,-0.002118,0.8603,0.5281,0.0474,-0.003068,0.000000,0.000000,0.575243,-0.587515,0.582913,-0.587515,0.575243,-0.556835
2.9836,0.016741,0.000000,0.000000,0.000000,0.0000,0.0000,0.0000,0.000000,-0.000000,0.000671,0.000433,-0.002118,0.8603,0.5281,0.0474,0.004602,0.000000,0.000000,0.575243,-0.587515,0.582913,-0.587515,0.575243,-0.556835
3.0004,0.016746,0.000000,0.000000,0.000000,0.0000,0.0000,0.0000,0.000000,-0.000000,0.000671,0.000433,-0.002118,0.8603,0.5281,0.0474,0.004602,0.000000,0.000000,0.575243,-0.587515,0.582913,-0.587515,0.575243,-0.556835
3.0171,0.016748,0.000000,0.000000,0.000000,0.0000,0.0000,0.0000,0.000000,-0.000000,0.000671,0.000433,-0.002118,0.8603,0.5281,0.0474,-0.003068,0.000000,0.000000,0.575243,-0.587515,0.582913,-0.587515,0.575243,-0.556835
3.0339,0.016744,0.000000,0.000000,0.000000,0.0000,0.0000,0.0000,0.000000,-0.000000,0.000671,0.000433,-0.002118,0.8603,0.5281,0.0474,-0.003068,0.000000,0.000000,0.575243,-0.587515,0.582913,-0.587515,0.575243,-0.556835
3.0513,0.017434,0.000000,0.000000,0.000000,0.0000,0.0000,0.0000,0.000000,-0.000000,0.000671,0.000433,-0.002118,0.8603,0.5281,0.0474,0.004602,0.000000,0.000000,0.575243,-0.587515,0.582913,-0.587515,0.575243,-0.556835
3.0680,0.016752,0.000000,0.000000,0.000000,0.0000,0.0000,0.0000,0.000000,-0.000000,0.000671,0.000433,-0.002118,0.8603,0.5281,0.0474,0.004602,0.000000,0.000000,0.575243,-0.587515,0.582913,-0.587515,0.575243,-0.556835
3.0848,0.016743,0.000000,0.000000,0.000000,0.0000,0.0000,0.0000,0.000000,-0.000000,0.000671,0.000433,-0.002118,0.8603,0.5281,0.0474,0.003068,0.000000,0.000000,0.575243,-0.587515,0.582913,-0.587515,0.575243,-0.556835
3.1015,0.016743,0.000000,0.000000,0.000000,0.0000,0.0000,0.0000,0.000000,-0.000000,0.000671,0.000433,-0.002118,0.8603,0.5281,0.0474,-0.004602,0.000000,0.000000,0.575243,-0.587515,0.582913,-0.587515,0.575243,-0.556835
3.1183,0.016743,0.000000,0.000000,0.000000,0.0000,0.0000,0.0000,0.000000,-0.000000,0.000671,0.000433,-0.002118,0.8603,0.5281,0.0474,-0.001534,0.000000,0.000000,0.575243,-0.587515,0.582913,-0.587515,0.575243,-0.556835
3.1350,0.016746,0.000000,0.000000,0.000000,0.0000,0.0000,0.0000,0.000000,-0.000000,0.000671,0.000433,-0.002118,0.8603,0.5281,0.0474,0.004602,0.000000,0.000000,0.575243,-0.587515,0.582913,-0.587515,0.575243,-0.556835
3.1519,0.016856,0.000000,0.000000,0.000000,0.0000,0.0000,0.0000,0.000000,-0.000000,0.000671,0.000433,-0.002118,0.8603,0.5281,0.0474,0.003068,0.000000,0.000000,0.575243,-0.587515,0.582913,-0.587515,0.575243,-0.556835
3.1686,0.016743,0.000000,0.000000,0.000000,0.0000,0.0000,0.0000,0.000000,-0.000000,0.000671,0.000433,-0.002118,0.8603,0.5281,0.0474,0.003068,0.000000,0.000000,0.575243,-0.587515,0.582913,-0.587515,0.575243,-0.556835
3.1854,0.016744,0.000000,0.000000,0.000000,0.0000,0.0000,0.0000,0.000000,-0.000000,0.000671,0.000433,-0.002118,0.8603,0.5281,0.0474,-0.004602,0.000000,0.000000,0.575243,-0.587515,0.582913,-0.587515,0.575243,-0.556835
3.2021,0.016750,0.000000,0.000000,0.000000,0.0000,0.0000,0.0000,0.000000,-0.000000,0.000671,0.000433,-0.002118,0.8603,0.5281,0.0474,-0.001534,0.000000,0.000000,0.575243,-0.587515,0.582913,-0.587515,0.575243,-0.556835
3.2189,0.016809,0.000000,0.000000,0.000000,0.0000,0.0000,0.0000,0.000000,-0.000000,0.000671,0.000433,-0.002118,0.8603,0.5281,0.0474,0.004602,0.000000,0.000000,0.575243,-0.587515,0.582913,-0.587515,0.575243,-0.556835
3.2357,0.016759,0.000000,0.000000,0.000000,0.0000,0.0000,0.0000,0.000000,-0.000000,0.000671,0.000433,-0.002118,0.8603,0.5281,0.0474,0.003068,0.000000,0.000000,0.575243,-0.587515,0.582913,-0.587515,0.575243,-0.556835
3.2524,0.016750,0.000000,0.000000,0.000000,0.0000,0.0000,0.0000,0.000000,-0.000000,0.000671,0.000433,-0.002118,0.8603,0.5281,0.0474,-0.004602,0.000000,0.000000,0.575243,-0.587515,0.582913,-0.587515,0.575243,-0.556835
3.2692,0.016760,0.000000,0.000000,0.000000,0.0000,0.0000,0.0000,0.000000,-0.000000,0.000671,0.000433,-0.002118,0.8603,0.5281,0.0474,-0.004602,0.000000,0.000000,0.575243,-0.587515,0.582913,-0.587515,0.575243,-0.556835
3.2859,0.016749,0.000000,0.000000,0.000000,0.0000,0.0000,0.0000,0.000000,-0.000000,0.000671,0.000433,-0.002118,0.8603,0.5281,0.0474,-0.001534,0.000000,0.000000,0.575243,-0.587515,0.582913,-0.587515,0.575243,-0.556835
3.3027,0.016755,0.000000,0.000000,0.000000,0.0000,0.0000,0.0000,0.000000,-0.000000,0.000671,0.000433,-0.002118,0.8603,0.5281,0.0474,0.004602,0.000000,0.000000,0.575243,-0.587515,0.582913,-0.587515,0.575243,-0.556835
3.3194,0.016752,0.000000,0.000000,0.000000,0.0000,0.0000,0.0000,0.000000,-0.000000,0.000671,0.000433,-0.002118,0.8603,0.5281,0.0474,0.003068,0.000000,0.000000,0.575243,-0.587515,0.582913,-0.587515,0.575243,-0.556835
3.3362,0.016759,0.000000,0.000000,0.000000,0.0000,0.0000,0.0000,0.000000,-0.000000,0.000671,0.000433,-0.002118,0.8603,0.5281,0.0474,-0.004602,0.000000,0.000000,0.575243,-0.587515,0.582913,-0.587515,0.575243,-0.556835
3.3530,0.016751,0.000000,0.000000,0.000000,0.0000,0.0000,0.0000,0.000000,-0.000000,0.000671,0.000433,-0.002118,0.8603,0.5281,0.0474,-0.001534,0.000000,0.000000,0.575243,-0.587515,0.582913,-0.587515,0.575243,-0.556835
3.3697,0.016757,0.000000,0.000000,0.000000,0.0000,0.0000,0.0000,0.000000,-0.000000,0.000671,0.000433,-0.002118,0.8603,0.5281,0.0474,-0.001534,0.000000,0.000000,0.575243,-0.587515,0.582913,-0.587515,0.575243,-0.556835
3.3865,0.016744,0.000000,0.000000,0.000000,0.0000,0.0000,0.0000,0.000000,-0.000000,0.000671,0.000433,-0.002118,0.8603,0.5281,0.0474,0.004602,0.000000,0.000000,0.575243,-0.587515,0.582913,-0.587515,0.575243,-0.556835
3.4032,0.016755,0.000000,0.000000,0.000000,0.0000,0.0000,0.0000,0.000000,-0.000000,0.000671,0.000433,-0.002118,0.8603,0.5281,0.0474,0.001534,0.000000,0.000000,0.575243,-0.587515,0.582913,-0.587515,0.575243,-0.556835
3.4200,0.016755,0.000000,0.000000,0.000000,0.0000,0.0000,0.0000,0.000000,-0.000000,0.000671,0.000433,-0.002118,0.8603,0.5281,0.0474,-0.004602,0.000000,0.000000,0.575243,-0.587515,0.582913,-0.587515,0.575243,-0.556835
3.4367,0.016753,0.000000,0.000000,0.000000,0.0000,0.0000,0.0000,0.000000,-0.000000,0.000671,0.000433,-0.002118,0.8603,0.5281,0.0474,-0.001534,0.000000,0.000000,0.575243,-0.587515,0.582913,-0.587515,0.575243,-0.556835
3.4535,0.016756,0.000000,0.000000,0.000000,0.0000,0.0000,0.0000,0.000000,-0.000000,0.000671,0.000433,-0.002118,0.8603,0.5281,0.0474,0.004602,0.000000,0.000000,0.575243,-0.587515,0.582913,-0.587515,0.575243,-0.556835
3.4702,0.016755,0.000000,0.000000,0.000000,0.0000,0.0000,0.0000,0.000000,-0.000000,0.000671,0.000433,-0.002118,0.8603,0.5281,0.0474,0.004602,0.000000,0.000000,0.575243,-0.587515,0.582913,-0.587515,0.575243,-0.556835
3.4870,0.016750,0.000000,0.000000,0.000000,0.0000,0.0000,0.0000,0.000000,-0.000000,0.000671,0.000433,-0.002118,0.8603,0.5281,0.0474,0.001534,0.000000,0.000000,0.575243,-0.587515,0.582913,-0.587515,0.575243,-0.556835
3.5037,0.016763,0.000000,0.000000,0.000000,0.0000,0.0000,0.0000,0.000000,-0.000000,0.000671,0.000433,-0.002118,0.8603,0.5281,0.0474,-0.004602,0.000000,0.000000,0.575243,-0.587515,0.582913,-0.587515,0.575243,-0.556835
3.5207,0.016902,0.000000,0.000000,0.000000,0.0000,0.0000,0.0000,0.000000,-0.000000,0.000671,0.000433,-0.002118,0.8603,0.5281,0.0474,0.004602,0.000000,0.000000,0.575243,-0.587515,0.582913,-0.587515,0.575243,-0.556835
3.5374,0.016755,0.000000,0.000000,0.000000,0.0000,0.0000,0.0000,0.000000,-0.000000,0.000671,0.000433,-0.002118,0.8603,0.5281,0.0474,0.004602,0.000000,0.000000,0.575243,-0.587515,0.582913,-0.587515,0.575243,-0.556835
3.5546,0.017170,0.000000,0.000000,0.000000,0.0000,0.0000,0.0000,0.000000,-0.000000,0.000671,0.000433,-0.002118,0.8603,0.5281,0.0474,-0.004602,0.000000,0.000000,0.575243,-0.587515,0.582913,-0.587515,0.575243,-0.556835
3.5713,0.016755,0.000000,0.000000,0.000000,0.0000,0.0000,0.0000,0.000000,-0.000000,0.000671,0.000433,-0.002118,0.8603,0.5281,0.0474,-0.004602,0.000000,0.000000,0.575243,-0.587515,0.582913,-0.587515,0.575243,-0.556835
3.5881,0.016743,0.000000,0.000000,0.000000,0.0000,0.0000,0.0000,0.000000,-0.000000,0.000671,0.000433,-0.002118,0.8603,0.5281,0.0474,0.000000,0.000000,0.000000,0.575243,-0.587515,0.582913,-0.587515,0.575243,-0.556835
3.6048,0.016758,0.000000,0.000000,0.000000,0.0000,0.0000,0.0000,0.000000,-0.000000,0.000671,0.000433,-0.002118,0.8603,0.5281,0.0474,0.000000,0.000000,0.000000,0.575243,-0.587515,0.582913,-0.587515,0.575243,-0.556835
3.6217,0.016871,0.000000,0.000000,0.000000,0.0000,0.0000,0.0000,0.000000,-0.000000,0.000671,0.000433,-0.002118,0.8603,0.5281,0.0474,0.000000,0.000000,0.000000,0.575243,-0.587515,0.582913,-0.587515,0.575243,-0.556835
3.6389,0.017220,0.000000,0.000000,0.000000,0.0000,0.0000,0.0000,0.000000,-0.000000,0.000671,0.000433,-0.002118,0.8603,0.5281,0.0474,0.000000,0.000000,0.000000,0.575243,-0.587515,0.582913,-0.587515,0.575243,-0.556835
3.6557,0.016740,0.000000,0.000000,0.000000,0.0000,0.0000,0.0000,0.000000,-0.000000,0.000671,0.000433,-0.002118,0.8603,0.5281,0.0474,0.000000,0.000000,0.000000,0.575243,-0.587515,0.582913,-0.587515,0.575243,-0.556835
3.6724,0.016752,0.000000,0.000000,0.000000,0.0000,0.0000,0.0000,0.000000,-0.000000,0.000671,0.000433,-0.002118,0.8603,0.5281,0.0474,0.000000,0.000000,0.000000,0.575243,-0.587515,0.582913,-0.587515,0.575243,-0.556835
3.6892,0.016758,0.000000,0.000000,0.000000,0.0000,0.0000,0.0000,0.000000,-0.000000,0.000671,0.000433,-0.002118,0.8603,0.5281,0.0474,0.004602,0.000000,0.000000,0.575243,-0.587515,0.582913,-0.587515,0.575243,-0.556835
3.7060,0.016778,0.000000,0.000000,0.000000,0.0000,0.0000,0.0000,0.000000,-0.000000,0.000671,0.000433,-0.002118,0.8603,0.5281,0.0474,0.000000,0.000000,0.000000,0.575243,-0.587515,0.582913,-0.587515,0.575243,-0.556835
3.7227,0.016744,0.000000,0.000000,0.000000,0.0000,0.0000,0.0000,0.000000,-0.000000,0.000671,0.000433,-0.002118,0.8603,0.5281,0.0474,0.000000,0.000000,0.000000,0.575243,-0.587515,0.582913,-0.587515,0.575243,-0.556835
3.7394,0.016753,0.000000,0.000000,0.000000,0.0000,0.0000,0.0000,0.000000,-0.000000,0.000671,0.000433,-0.002118,0.8603,0.5281,0.0474,-0.003068,0.000000,0.000000,0.575243,-0.587515,0.582913,-0.587515,0.575243,-0.556835
3.7562,0.016748,0.000000,0.000000,0.000000,0.0000,0.0000,0.0000,0.000000,-0.000000,0.000671,0.000433,-0.002118,0.8603,0.5281,0.0474,0.000000,0.000000,0.000000,0.575243,-0.587515,0.582913,-0.587515,0.575243,-0.556835
3.7730,0.016759,0.000000,0.000000,0.000000,0.0000,0.0000,0.0000,0.000000,-0.000000,0.000671,0.000433,-0.002118,0.8603,0.5281,0.0474,0.004602,0.000000,0.000000,0.575243,-0.587515,0.582913,-0.587515,0.575243,-0.556835
3.7897,0.016748,0.000000,0.000000,0.000000,0.0000,0.0000,0.0000,0.000000,-0.000000,0.000671,0.000433,-0.002118,0.8603,0.5281,0.0474,0.000000,0.000000,0.000000,0.575243,-0.587515,0.582913,-0.587515,0.575243,-0.556835
3.8065,0.016771,0.000000,0.000000,0.000000,0.0000,0.0000,0.0000,0.000000,-0.000000,0.000671,0.000433,-0.002118,0.8603,0.5281,0.0474,-0.003068,0.000000,0.000000,0.575243,-0.587515,0.582913,-0.587515,0.575243,-0.556835
3.8232,0.016744,0.000000,0.000000,0.000000,0.0000,0.0000,0.0000,0.000000,-0.000000,0.000671,0.000433,-0.002118,0.8603,0.5281,0.0474,-0.003068,0.000000,0.000000,0.575243,-0.587515,0.582913,-0.587515,0.575243,-0.556835
3.8400,0.016756,0.000000,0.000000,0.000000,0.0000,0.0000,0.0000,0.000000,-0.000000,0.000671,0.000433,-0.002118,0.8603,0.5281,0.0474,0.000000,0.000000,0.000000,0.575243,-0.587515,0.582913,-0.587515,0.575243,-0.556835
3.8567,0.016749,0.000000,0.000000,0.000000,0.0000,0.0000,0.0000,0.000000,-0.000000,0.000671,0.000433,-0.002118,0.8603,0.5281,0.0474,0.004602,0.000000,0.000000,0.575243,-0.587515,0.582913,-0.587515,0.575243,-0.556835
3.8735,0.016755,0.000000,0.000000,0.000000,0.0000,0.0000,0.0000,0.000000,-0.000000,0.000671,0.000433,-0.002118,0.8603,0.5281,0.0474,-0.001534,0.000000,0.000000,0.575243,-0.587515,0.582913,-0.587515,0.575243,-0.556835
3.8902,0.016751,0.000000,0.000000,0.000000,0.0000,0.0000,0.0000,0.000000,-0.000000,0.000671,0.000433,-0.002118,0.8603,0.5281,0.0474,-0.003068,0.000000,0.000000,0.575243,-0.587515,0.582913,-0.587515,0.575243,-0.556835
3.9070,0.016756,0.000000,0.000000,0.000000,0.0000,0.0000,0.0000,0.000000,-0.000000,0.000671,0.000433,-0.002118,0.8603,0.5281,0.0474,-0.003068,0.000000,0.000000,0.575243,-0.587515,0.582913,-0.587515,0.575243,-0.556835
3.9237,0.016745,0.000000,0.000000,0.000000,0.0000,0.0000,0.0000,0.000000,-0.000000,0.000724,0.000417,-0.002107,0.8986,0.4935,-0.0059,0.001534,0.000000,0.000000,0.575243,-0.589049,0.582913,-0.587515,0.575243,-0.556835
3.9405,0.016758,0.000000,0.000000,0.000000,0.0000,0.0000,0.0000,0.000000,-0.000000,0.000665,0.000435,-0.002120,0.8559,0.5322,0.0536,0.004602,0.000000,0.000000,0.575243,-0.587515,0.582913,-0.587515,0.575243,-0.556835
3.9572,0.016752,0.000000,0.000000,0.000000,0.0000,0.0000,0.0000,0.000000,-0.000000,0.000671,0.000433,-0.002118,0.8603,0.5281,0.0474,-0.001534,0.000000,0.000000,0.575243,-0.587515,0.582913,-0.587515,0.575243,-0.556835
3.9740,0.016759,0.000000,0.000000,0.000000,0.0000,0.0000,0.0000,0.000000,-0.000000,0.000671,0.000433,-0.002118,0.8603,0.5281,0.0474,-0.003068,0.000000,0.000000,0.575243,-0.587515,0.582913,-0.587515,0.575243,-0.556835
3.9907,0.016748,0.000000,0.000000,0.000000,0.0000,0.0000,0.0000,0.000000,-0.000000,0.000671,0.000433,-0.002118,0.8603,0.5281,0.0474,0.001534,0.000000,0.000000,0.575243,-0.587515,0.582913,-0.587515,0.575243,-0.556835
4.0075,0.016755,0.000000,0.000000,0.000000,0.0000,0.0000,0.0000,0.000000,-0.000000,0.000671,0.000433,-0.002118,0.8603,0.5281,0.0474,0.001534,0.000000,0.000000,0.575243,-0.587515,0.582913,-0.587515,0.575243,-0.556835
4.0242,0.016745,0.000000,0.000000,0.000000,0.0000,0.0000,0.0000,0.000000,-0.000000,0.000671,0.000433,-0.002118,0.8603,0.5281,0.0474,0.004602,0.000000,0.000000,0.575243,-0.587515,0.582913,-0.587515,0.575243,-0.556835
4.0410,0.016709,0.000000,0.000000,0.000000,0.0000,0.0000,0.0000,0.000000,-0.000000,0.000724,0.000417,-0.002107,0.8986,0.4935,-0.0059,-0.001534,0.000000,0.000000,0.575243,-0.589049,0.582913,-0.587515,0.575243,-0.556835
4.0577,0.016742,0.000000,0.000000,0.000000,0.0000,0.0000,0.0000,0.000000,-0.000000,0.000665,0.000435,-0.002120,0.8559,0.5322,0.0536,-0.003068,0.000000,0.000000,0.575243,-0.587515,0.582913,-0.587515,0.575243,-0.556835
4.0748,0.017102,0.000000,0.000000,0.000000,0.0000,0.0000,0.0000,0.000000,-0.000000,0.000671,0.000433,-0.002118,0.8603,0.5281,0.0474,0.003068,0.000000,0.000000,0.575243,-0.587515,0.582913,-0.587515,0.575243,-0.556835
4.0915,0.016743,0.000000,0.000000,0.000000,0.0000,0.0000,0.0000,0.000000,-0.000000,0.000671,0.000433,-0.002118,0.8603,0.5281,0.0474,0.004602,0.000000,0.000000,0.575243,-0.587515,0.582913,-0.587515,0.575243,-0.556835
4.1083,0.016753,0.000000,0.000000,0.000000,0.0000,0.0000,0.0000,0.000000,-0.000000,0.000671,0.000433,-0.002118,0.8603,0.5281,0.0474,0.004602,0.000000,0.000000,0.575243,-0.587515,0.582913,-0.587515,0.575243,-0.556835
4.1250,0.016744,0.000000,0.000000,0.000000,0.0000,0.0000,0.0000,0.000000,-0.000000,0.000671,0.000433,-0.002118,0.8603,0.5281,0.0474,-0.003068,0.000000,0.000000,0.575243,-0.587515,0.582913,-0.587515,0.575243,-0.556835
4.1418,0.016744,0.000000,0.000000,0.000000,0.0000,0.0000,0.0000,0.000000,-0.000000,0.000671,0.000433,-0.002118,0.8603,0.5281,0.0474,-0.003068,0.000000,0.000000,0.575243,-0.587515,0.582913,-0.587515,0.575243,-0.556835
4.1585,0.016740,0.000000,0.000000,0.000000,0.0000,0.0000,0.0000,0.000000,-0.000000,0.000671,0.000433,-0.002118,0.8603,0.5281,0.0474,0.004602,0.000000,0.000000,0.575243,-0.587515,0.582913,-0.587515,0.575243,-0.556835
4.1753,0.016758,0.000000,0.000000,0.000000,0.0000,0.0000,0.0000,0.000000,-0.000000,0.000724,0.000417,-0.002107,0.8986,0.4935,-0.0059,0.004602,0.000000,0.000000,0.575243,-0.589049,0.582913,-0.587515,0.575243,-0.556835
4.1923,0.016981,0.000000,0.000000,0.000000,0.0000,0.0000,0.0000,0.000000,-0.000000,0.000665,0.000435,-0.002120,0.8559,0.5322,0.0536,-0.004602,0.000000,0.000000,0.575243,-0.587515,0.582913,-0.587515,0.575243,-0.556835
4.2090,0.016761,0.000000,0.000000,0.000000,0.0000,0.0000,0.0000,0.000000,-0.000000,0.000665,0.000435,-0.002120,0.8559,0.5322,0.0536,-0.004602,0.000000,0.000000,0.575243,-0.587515,0.582913,-0.587515,0.575243,-0.556835
4.2258,0.016738,0.000000,0.000000,0.000000,0.0000,0.0000,0.0000,0.000000,-0.000000,0.000671,0.000433,-0.002118,0.8603,0.5281,0.0474,-0.003068,0.000000,0.000000,0.575243,-0.587515,0.582913,-0.587515,0.575243,-0.556835
4.2425,0.016752,0.000000,0.000000,0.000000,0.0000,0.0000,0.0000,0.000000,-0.000000,0.000671,0.000433,-0.002118,0.8603,0.5281,0.0474,0.004602,0.000000,0.000000,0.575243,-0.587515,0.582913,-0.587515,0.575243,-0.556835
4.2593,0.016738,0.000000,0.000000,0.000000,0.0000,0.0000,0.0000,0.000000,-0.000000,0.000671,0.000433,-0.002118,0.8603,0.5281,0.0474,0.003068,0.000000,0.000000,0.575243,-0.587515,0.582913,-0.587515,0.575243,-0.556835
4.2760,0.016753,0.000000,0.000000,0.000000,0.0000,0.0000,0.0000,0.000000,-0.000000,0.000671,0.000433,-0.002118,0.8603,0.5281,0.0474,-0.003068,0.000000,0.000000,0.575243,-0.587515,0.582913,-0.587515,0.575243,-0.556835
4.2928,0.016822,0.000000,0.000000,0.000000,0.0000,0.0000,0.0000,0.000000,-0.000000,0.000724,0.000417,-0.002107,0.8986,0.4935,-0.0059,-0.001534,0.000000,0.000000,0.575243,-0.589049,0.582913,-0.587515,0.575243,-0.556835
4.3096,0.016748,0.000000,0.000000,0.000000,0.0000,0.0000,0.0000,0.000000,-0.000000,0.000724,0.000417,-0.002107,0.8986,0.4935,-0.0059,-0.001534,0.000000,0.000000,0.575243,-0.589049,0.582913,-0.587515,0.575243,-0.556835
4.3263,0.016741,0.000000,0.000000,0.000000,0.0000,0.0000,0.0000,0.000000,-0.000000,0.000665,0.000435,-0.002120,0.8559,0.5322,0.0536,0.004602,0.000000,0.000000,0.575243,-0.587515,0.582913,-0.587515,0.575243,-0.556835
4.3431,0.016749,0.000000,0.000000,0.000000,0.0000,0.0000,0.0000,0.000000,-0.000000,0.000671,0.000433,-0.002118,0.8603,0.5281,0.0474,0.003068,0.000000,0.000000,0.575243,-0.587515,0.582913,-0.587515,0.575243,-0.556835
4.3598,0.016741,0.000000,0.000000,0.000000,0.0000,0.0000,0.0000,0.000000,-0.000000,0.000671,0.000433,-0.002118,0.8603,0.5281,0.0474,-0.004602,0.000000,0.000000,0.575243,-0.587515,0.582913,-0.587515,0.575243,-0.556835
4.3766,0.016754,0.000000,0.000000,0.000000,0.0000,0.0000,0.0000,0.000000,-0.000000,0.000671,0.000433,-0.002118,0.8603,0.5281,0.0474,-0.001534,0.000000,0.000000,0.575243,-0.587515,0.582913,-0.587515,0.575243,-0.556835
4.3933,0.016739,0.000000,0.000000,0.000000,0.0000,0.0000,0.0000,0.000000,-0.000000,0.000671,0.000433,-0.002118,0.8603,0.5281,0.0474,0.004602,0.000000,0.000000,0.575243,-0.587515,0.582913,-0.587515,0.575243,-0.556835
4.4101,0.016764,0.000000,0.000000,0.000000,0.0000,0.0000,0.0000,0.000000,-0.000000,0.000671,0.000433,-0.002118,0.8603,0.5281,0.0474,0.004602,0.000000,0.000000,0.575243,-0.587515,0.582913,-0.587515,0.575243,-0.556835
4.4268,0.016738,0.000000,0.000000,0.000000,0.0000,0.0000,0.0000,0.000000,-0.000000,0.000671,0.000433,-0.002118,0.8603,0.5281,0.0474,0.003068,0.000000,0.000000,0.575243,-0.587515,0.582913,-0.587515,0.575243,-0.556835
4.4436,0.016752,0.000000,0.000000,0.000000,0.0000,0.0000,0.0000,0.000000,-0.000000,0.000671,0.000433,-0.002118,0.8603,0.5281,0.0474,-0.004602,0.000000,0.000000,0.575243,-0.587515,0.582913,-0.587515,0.575243,-0.556835
4.4603,0.016739,0.000000,0.000000,0.000000,0.0000,0.0000,0.0000,0.000000,-0.000000,0.000671,0.000433,-0.002118,0.8603,0.5281,0.0474,-0.001534,0.000000,0.000000,0.575243,-0.587515,0.582913,-0.587515,0.575243,-0.556835
4.4770,0.016749,0.000000,0.000000,0.000000,0.0000,0.0000,0.0000,0.000000,-0.000000,0.000671,0.000433,-0.002118,0.8603,0.5281,0.0474,0.004602,0.000000,0.000000,0.575243,-0.587515,0.582913,-0.587515,0.575243,-0.556835
4.4944,0.017314,0.000000,0.000000,0.000000,0.0000,0.0000,0.0000,0.000000,-0.000000,0.000671,0.000433,-0.002118,0.8603,0.5281,0.0474,0.003068,0.000000,0.000000,0.575243,-0.587515,0.582913,-0.587515,0.575243,-0.556835
4.5111,0.016758,0.000000,0.000000,0.000000,0.0000,0.0000,0.0000,0.000000,-0.000000,0.000671,0.000433,-0.002118,0.8603,0.5281,0.0474,0.003068,0.000000,0.000000,0.575243,-0.587515,0.582913,-0.587515,0.575243,-0.556835
4.5279,0.016746,0.000000,0.000000,0.000000,0.0000,0.0000,0.0000,0.000000,-0.000000,0.000671,0.000433,-0.002118,0.8603,0.5281,0.0474,-0.004602,0.000000,0.000000,0.575243,-0.587515,0.582913,-0.587515,0.575243,-0.556835
4.5446,0.016753,0.000000,0.000000,0.000000,0.0000,0.0000,0.0000,0.000000,-0.000000,0.000671,0.000433,-0.002118,0.8603,0.5281,0.0474,-0.001534,0.000000,0.000000,0.575243,-0.587515,0.582913,-0.587515,0.575243,-0.556835
4.5614,0.016749,0.000000,0.000000,0.000000,0.0000,0.0000,0.0000,0.000000,-0.000000,0.000671,0.000433,-0.002118,0.8603,0.5281,0.0474,0.004602,0.000000,0.000000,0.575243,-0.587515,0.582913,-0.587515,0.575243,-0.556835
4.5781,0.016761,0.000000,0.000000,0.000000,0.0000,0.0000,0.0000,0.000000,-0.000000,0.000671,0.000433,-0.002118,0.8603,0.5281,0.0474,0.003068,0.000000,0.000000,0.575243,-0.587515,0.582913,-0.587515,0.575243,-0.556835
