t,loop_dt,cmd_x,cmd_y,cmd_z,cmd_roll,cmd_pitch,cmd_yaw,cmd_ant_l,cmd_ant_r,pres_x,pres_y,pres_z,pres_roll,pres_pitch,pres_yaw,pres_ant_l,pres_ant_r,pres_j0,pres_j1,pres_j2,pres_j3,pres_j4,pres_j5,pres_j6
0.0000,0.000001,0.000981,0.001576,-0.001912,0.3832,-1.3082,-0.8181,-0.004602,0.001534,0.000981,0.001576,-0.001912,0.3832,-1.3082,-0.8181,-0.004602,0.001534,0.000000,0.587515,-0.592117,0.549165,-0.590583,0.598253,-0.578311
0.0170,0.017035,0.000964,0.001549,-0.001880,0.3766,-1.2860,-0.8041,-0.004524,0.001508,0.000985,0.001572,-0.001913,0.3780,-1.3066,-0.8236,0.000000,0.001534,0.000000,0.587515,-0.592117,0.549165,-0.590583,0.598253,-0.578311
0.0339,0.016829,0.000948,0.001523,-0.001847,0.3700,-1.2641,-0.7903,-0.004446,0.001482,0.001026,0.001534,-0.001926,0.3281,-1.2912,-0.8763,0.003068,0.001534,0.000000,0.585981,-0.592117,0.549165,-0.590583,0.598253,-0.578311
0.0511,0.017217,0.000931,0.001496,-0.001814,0.3632,-1.2416,-0.7761,-0.004367,0.001456,0.001026,0.001534,-0.001926,0.3281,-1.2912,-0.8763,0.003068,0.001534,0.000000,0.585981,-0.592117,0.549165,-0.590583,0.598253,-0.578311
0.0712,0.020153,0.000911,0.001464,-0.001776,0.3553,-1.2153,-0.7596,-0.004274,0.001425,0.001026,0.001534,-0.001926,0.3281,-1.2912,-0.8763,0.003068,0.001534,0.000000,0.585981,-0.592117,0.549165,-0.590583,0.598253,-0.578311
0.0880,0.016764,0.000895,0.001438,-0.001744,0.3488,-1.1934,-0.7458,-0.004197,0.001399,0.001026,0.001534,-0.001926,0.3281,-1.2912,-0.8763,0.003068,0.001534,0.000000,0.585981,-0.592117,0.549165,-0.590583,0.598253,-0.578311
0.1048,0.016762,0.000878,0.001411,-0.001712,0.3422,-1.1715,-0.7320,-0.004120,0.001373,0.001319,0.001537,-0.002076,0.3293,-1.0596,-0.8710,-0.003068,0.000000,0.000000,0.578311,-0.590583,0.549165,-0.590583,0.596719,-0.570641
0.1215,0.016743,0.000862,0.001385,-0.001680,0.3357,-1.1496,-0.7183,-0.004043,0.001348,0.001450,0.001613,-0.002114,0.4272,-1.0169,-0.7656,0.001534,0.000000,0.000000,0.576777,-0.590583,0.549165,-0.590583,0.596719,-0.566039
0.1382,0.016744,0.000846,0.001358,-0.001648,0.3291,-1.1278,-0.7045,-0.003966,0.001322,0.001531,0.001659,-0.002112,0.4278,-1.0383,-0.6693,-0.003068,0.000000,0.000000,0.576777,-0.590583,0.549165,-0.590583,0.598253,-0.564505
0.1550,0.016748,0.000829,0.001332,-0.001616,0.3226,-1.1059,-0.6908,-0.003889,0.001296,0.001604,0.001654,-0.002139,0.4268,-1.0034,-0.6795,-0.007670,0.000000,0.000000,0.575243,-0.590583,0.549165,-0.590583,0.598253,-0.562971
0.1717,0.016744,0.000813,0.001306,-0.001584,0.3161,-1.0840,-0.6770,-0.003812,0.001271,0.001555,0.001693,-0.002124,0.4776,-1.0225,-0.6253,-0.003068,0.000000,0.000000,0.576777,-0.590583,0.549165,-0.590583,0.598253,-0.562971
0.1885,0.016773,0.000796,0.001279,-0.001552,0.3096,-1.0621,-0.6633,-0.003734,0.001245,0.001560,0.001689,-0.002125,0.4723,-1.0205,-0.6310,0.001534,0.000000,0.000000,0.576777,-0.590583,0.549165,-0.590583,0.598253,-0.562971
0.2053,0.016741,0.000780,0.001253,-0.001520,0.3031,-1.0403,-0.6495,-0.003657,0.001219,0.001560,0.001689,-0.002125,0.4723,-1.0205,-0.6310,0.001534,0.000000,0.000000,0.576777,-0.590583,0.549165,-0.590583,0.598253,-0.562971
0.2220,0.016742,0.000763,0.001226,-0.001488,0.2965,-1.0184,-0.6358,-0.003580,0.001193,0.001465,0.001635,-0.002122,0.4620,-1.0038,-0.7377,-0.001534,0.000000,0.000000,0.576777,-0.590583,0.549165,-0.590583,0.596719,-0.564505
0.2387,0.016745,0.000747,0.001200,-0.001456,0.2900,-0.9965,-0.6220,-0.003503,0.001168,0.001475,0.001641,-0.002123,0.4631,-1.0055,-0.7265,-0.004602,0.000000,0.000000,0.576777,-0.590583,0.549165,-0.590583,0.596719,-0.564505
0.2555,0.016743,0.000730,0.001174,-0.001424,0.2835,-0.9746,-0.6083,-0.003426,0.001142,0.001569,0.001694,-0.002125,0.4738,-1.0223,-0.6204,-0.004602,0.000000,0.000000,0.576777,-0.590583,0.549165,-0.590583,0.598253,-0.562971
0.2722,0.016749,0.000714,0.001147,-0.001392,0.2771,-0.9527,-0.5946,-0.003349,0.001116,0.001559,0.001689,-0.002125,0.4727,-1.0205,-0.6315,-0.004602,0.000000,0.000000,0.576777,-0.590583,0.549165,-0.590583,0.598253,-0.562971
0.2890,0.016744,0.000698,0.001121,-0.001360,0.2706,-0.9309,-0.5808,-0.003272,0.001091,0.001559,0.001689,-0.002125,0.4727,-1.0205,-0.6315,-0.004602,0.000000,0.000000,0.576777,-0.590583,0.549165,-0.590583,0.598253,-0.562971
0.3057,0.016751,0.000681,0.001094,-0.001328,0.2641,-0.9090,-0.5671,-0.003195,0.001065,0.001559,0.001689,-0.002125,0.4727,-1.0205,-0.6315,-0.004602,0.000000,0.000000,0.576777,-0.590583,0.549165,-0.590583,0.598253,-0.562971
0.3225,0.016743,0.000665,0.001068,-0.001296,0.2576,-0.8871,-0.5534,-0.003118,0.001039,0.001559,0.001689,-0.002125,0.4727,-1.0205,-0.6315,-0.006136,0.000000,0.000000,0.576777,-0.590583,0.549165,-0.590583,0.598253,-0.562971
0.3392,0.016750,0.000648,0.001042,-0.001263,0.2511,-0.8652,-0.5397,-0.003041,0.001014,0.001559,0.001689,-0.002125,0.4727,-1.0205,-0.6315,-0.003068,0.000000,0.000000,0.576777,-0.590583,0.549165,-0.590583,0.598253,-0.562971
0.3560,0.016748,0.000632,0.001015,-0.001231,0.2447,-0.8433,-0.5259,-0.002964,0.000988,0.001520,0.001651,-0.002111,0.4231,-1.0379,-0.6833,0.001534,0.000000,0.000000,0.576777,-0.590583,0.549165,-0.590583,0.598253,-0.564505
0.3731,0.017124,0.000615,0.000988,-0.001199,0.2381,-0.8209,-0.5119,-0.002885,0.000962,0.001509,0.001677,-0.002138,0.5169,-0.9847,-0.6793,-0.001534,0.000000,0.000000,0.576777,-0.590583,0.549165,-0.590583,0.596719,-0.562971
0.3898,0.016745,0.000599,0.000962,-0.001167,0.2316,-0.7990,-0.4982,-0.002808,0.000936,0.001509,0.001677,-0.002138,0.5169,-0.9847,-0.6793,-0.001534,0.000000,0.000000,0.576777,-0.590583,0.549165,-0.590583,0.596719,-0.562971
0.4066,0.016740,0.000582,0.000935,-0.001135,0.2252,-0.7771,-0.4845,-0.002731,0.000910,0.001565,0.001690,-0.002124,0.4682,-1.0244,-0.6254,-0.006136,0.000000,0.000000,0.576777,-0.590583,0.549165,-0.590583,0.598253,-0.562971
0.4233,0.016741,0.000566,0.000909,-0.001103,0.2187,-0.7552,-0.4708,-0.002654,0.000885,0.001559,0.001689,-0.002125,0.4733,-1.0203,-0.6310,-0.003068,0.000000,0.000000,0.576777,-0.590583,0.549165,-0.590583,0.598253,-0.562971
0.4401,0.016740,0.000549,0.000883,-0.001071,0.2123,-0.7333,-0.4571,-0.002577,0.000859,0.001559,0.001689,-0.002125,0.4733,-1.0203,-0.6310,0.004602,0.000000,0.000000,0.576777,-0.590583,0.549165,-0.590583,0.598253,-0.562971
0.4568,0.016741,0.000533,0.000856,-0.001039,0.2059,-0.7114,-0.4434,-0.002500,0.000833,0.001559,0.001689,-0.002125,0.4733,-1.0203,-0.6310,0.001534,0.000000,0.000000,0.576777,-0.590583,0.549165,-0.590583,0.598253,-0.562971
0.4737,0.016892,0.000516,0.000830,-0.001006,0.1994,-0.6893,-0.4295,-0.002422,0.000807,0.001559,0.001689,-0.002125,0.4733,-1.0203,-0.6310,-0.004602,0.000000,0.000000,0.576777,-0.590583,0.549165,-0.590583,0.598253,-0.562971
0.4904,0.016741,0.000500,0.000803,-0.000974,0.1929,-0.6674,-0.4158,-0.002345,0.000782,0.001559,0.001689,-0.002125,0.4733,-1.0203,-0.6310,-0.004602,0.000000,0.000000,0.576777,-0.590583,0.549165,-0.590583,0.598253,-0.562971
0.5072,0.016739,0.000484,0.000777,-0.000942,0.1865,-0.6455,-0.4021,-0.002268,0.000756,0.001559,0.001689,-0.002125,0.4733,-1.0203,-0.6310,-0.003068,0.000000,0.000000,0.576777,-0.590583,0.549165,-0.590583,0.598253,-0.562971
0.5239,0.016742,0.000467,0.000750,-0.000910,0.1801,-0.6236,-0.3884,-0.002191,0.000730,0.001559,0.001689,-0.002125,0.4733,-1.0203,-0.6310,0.003068,0.000000,0.000000,0.576777,-0.590583,0.549165,-0.590583,0.598253,-0.562971
0.5407,0.016739,0.000451,0.000724,-0.000878,0.1737,-0.6017,-0.3747,-0.002114,0.000705,0.001559,0.001689,-0.002125,0.4733,-1.0203,-0.6310,0.003068,0.000000,0.000000,0.576777,-0.590583,0.549165,-0.590583,0.598253,-0.562971
0.5574,0.016742,0.000434,0.000698,-0.000846,0.1673,-0.5798,-0.3611,-0.002037,0.000679,0.001559,0.001689,-0.002125,0.4733,-1.0203,-0.6310,-0.003068,0.000000,0.000000,0.576777,-0.590583,0.549165,-0.590583,0.598253,-0.562971
0.5747,0.017274,0.000417,0.000670,-0.000813,0.1607,-0.5572,-0.3469,-0.001957,0.000652,0.001559,0.001689,-0.002125,0.4733,-1.0203,-0.6310,-0.003068,0.000000,0.000000,0.576777,-0.590583,0.549165,-0.590583,0.598253,-0.562971
0.5914,0.016740,0.000401,0.000644,-0.000781,0.1543,-0.5353,-0.3332,-0.001880,0.000627,0.001559,0.001689,-0.002125,0.4733,-1.0203,-0.6310,-0.004602,0.000000,0.000000,0.576777,-0.590583,0.549165,-0.590583,0.598253,-0.562971
0.6081,0.016738,0.000384,0.000618,-0.000749,0.1479,-0.5134,-0.3196,-0.001803,0.000601,0.001505,0.001673,-0.002136,0.5117,-0.9866,-0.6847,0.000000,0.000000,0.000000,0.576777,-0.590583,0.549165,-0.590583,0.596719,-0.562971
0.6249,0.016741,0.000368,0.000591,-0.000717,0.1416,-0.4915,-0.3059,-0.001726,0.000575,0.001566,0.001691,-0.002124,0.4687,-1.0242,-0.6248,0.004602,0.000000,0.000000,0.576777,-0.590583,0.549165,-0.590583,0.598253,-0.562971
0.6416,0.016756,0.000352,0.000565,-0.000685,0.1352,-0.4695,-0.2922,-0.001649,0.000550,0.001505,0.001673,-0.002136,0.5122,-0.9862,-0.6854,-0.003068,0.000000,0.000000,0.576777,-0.590583,0.549165,-0.590583,0.596719,-0.562971
0.6584,0.016745,0.000335,0.000538,-0.000653,0.1288,-0.4476,-0.2785,-0.001572,0.000524,0.001566,0.001691,-0.002124,0.4687,-1.0243,-0.6247,-0.004602,0.000000,0.000000,0.576777,-0.590583,0.549165,-0.590583,0.598253,-0.562971
0.6752,0.016767,0.000319,0.000512,-0.000621,0.1224,-0.4256,-0.2648,-0.001495,0.000498,0.001559,0.001689,-0.002125,0.4732,-1.0203,-0.6311,0.003068,0.000000,0.000000,0.576777,-0.590583,0.549165,-0.590583,0.598253,-0.562971
0.6919,0.016743,0.000302,0.000486,-0.000589,0.1161,-0.4037,-0.2512,-0.001418,0.000473,0.001559,0.001689,-0.002125,0.4732,-1.0203,-0.6311,0.003068,0.000000,0.000000,0.576777,-0.590583,0.549165,-0.590583,0.598253,-0.562971
0.7086,0.016749,0.000286,0.000459,-0.000557,0.1097,-0.3818,-0.2375,-0.001341,0.000447,0.001559,0.001689,-0.002125,0.4732,-1.0203,-0.6311,0.003068,0.000000,0.000000,0.576777,-0.590583,0.549165,-0.590583,0.598253,-0.562971
0.7254,0.016741,0.000269,0.000433,-0.000525,0.1034,-0.3599,-0.2238,-0.001264,0.000421,0.001505,0.001673,-0.002136,0.5117,-0.9866,-0.6847,-0.001534,0.000000,0.000000,0.576777,-0.590583,0.549165,-0.590583,0.596719,-0.562971
0.7424,0.016975,0.000253,0.000406,-0.000493,0.0969,-0.3376,-0.2100,-0.001186,0.000395,0.001566,0.001691,-0.002124,0.4687,-1.0242,-0.6248,-0.001534,0.000000,0.000000,0.576777,-0.590583,0.549165,-0.590583,0.598253,-0.562971
0.7591,0.016746,0.000236,0.000380,-0.000461,0.0906,-0.3157,-0.1963,-0.001109,0.000370,0.001505,0.001673,-0.002136,0.5122,-0.9862,-0.6854,0.004602,0.000000,0.000000,0.576777,-0.590583,0.549165,-0.590583,0.596719,-0.562971
0.7759,0.016771,0.000220,0.000353,-0.000429,0.0843,-0.2937,-0.1826,-0.001031,0.000344,0.001566,0.001691,-0.002124,0.4687,-1.0243,-0.6247,0.000000,0.000000,0.000000,0.576777,-0.590583,0.549165,-0.590583,0.598253,-0.562971
0.7926,0.016699,0.000204,0.000327,-0.000397,0.0779,-0.2718,-0.1690,-0.000955,0.000318,0.001566,0.001691,-0.002124,0.4687,-1.0243,-0.6247,0.000000,0.000000,0.000000,0.576777,-0.590583,0.549165,-0.590583,0.598253,-0.562971
0.8093,0.016745,0.000187,0.000301,-0.000365,0.0716,-0.2499,-0.1553,-0.000877,0.000292,0.001519,0.001651,-0.002111,0.4235,-1.0375,-0.6840,-0.004602,0.000000,0.000000,0.576777,-0.590583,0.549165,-0.590583,0.598253,-0.564505
0.8261,0.016747,0.000171,0.000274,-0.000333,0.0653,-0.2280,-0.1417,-0.000800,0.000267,0.001524,0.001655,-0.002113,0.4282,-1.0361,-0.6778,-0.004602,0.000000,0.000000,0.576777,-0.590583,0.549165,-0.590583,0.598253,-0.564505
0.8429,0.016799,0.000154,0.000248,-0.000300,0.0590,-0.2060,-0.1280,-0.000723,0.000241,0.001564,0.001693,-0.002126,0.4775,-1.0191,-0.6255,0.003068,0.000000,0.000000,0.576777,-0.590583,0.549165,-0.590583,0.598253,-0.562971
0.8596,0.016746,0.000138,0.000221,-0.000268,0.0527,-0.1840,-0.1143,-0.000646,0.000215,0.001560,0.001689,-0.002125,0.4723,-1.0208,-0.6310,0.000000,0.000000,0.000000,0.576777,-0.590583,0.549165,-0.590583,0.598253,-0.562971
0.8764,0.016767,0.000121,0.000195,-0.000236,0.0464,-0.1620,-0.1007,-0.000569,0.000190,0.001465,0.001635,-0.002123,0.4620,-1.0037,-0.7377,-0.006136,0.000000,0.000000,0.576777,-0.590583,0.549165,-0.590583,0.596719,-0.564505
0.8931,0.016747,0.000105,0.000168,-0.000204,0.0401,-0.1401,-0.0870,-0.000492,0.000164,0.001465,0.001635,-0.002123,0.4620,-1.0037,-0.7377,-0.006136,0.000000,0.000000,0.576777,-0.590583,0.549165,-0.590583,0.596719,-0.564505
0.9099,0.016756,0.000088,0.000142,-0.000172,0.0338,-0.1181,-0.0734,-0.000415,0.000138,0.001530,0.001657,-0.002111,0.4242,-1.0396,-0.6722,-0.003068,0.000000,0.000000,0.576777,-0.590583,0.549165,-0.590583,0.598253,-0.564505
0.9266,0.016744,0.000072,0.000116,-0.000140,0.0275,-0.0962,-0.0597,-0.000338,0.000113,0.001523,0.001655,-0.002113,0.4281,-1.0359,-0.6790,0.004602,0.000000,0.000000,0.576777,-0.590583,0.549165,-0.590583,0.598253,-0.564505
0.9434,0.016751,0.000056,0.000089,-0.000108,0.0212,-0.0742,-0.0461,-0.000261,0.000087,0.001523,0.001655,-0.002113,0.4281,-1.0359,-0.6790,0.001534,0.000000,0.000000,0.576777,-0.590583,0.549165,-0.590583,0.598253,-0.564505
0.9601,0.016740,0.000039,0.000063,-0.000076,0.0149,-0.0523,-0.0325,-0.000184,0.000061,0.001523,0.001655,-0.002113,0.4281,-1.0359,-0.6790,-0.006136,0.000000,0.000000,0.576777,-0.590583,0.549165,-0.590583,0.598253,-0.564505
0.9769,0.016745,0.000023,0.000036,-0.000044,0.0087,-0.0303,-0.0188,-0.000106,0.000035,0.001523,0.001655,-0.002113,0.4281,-1.0359,-0.6790,-0.003068,0.000000,0.000000,0.576777,-0.590583,0.549165,-0.590583,0.598253,-0.564505
0.9936,0.016742,0.000006,0.000010,-0.000012,0.0024,-0.0084,-0.0052,-0.000029,0.000010,0.001523,0.001655,-0.002113,0.4281,-1.0359,-0.6790,-0.003068,0.000000,0.000000,0.576777,-0.590583,0.549165,-0.590583,0.598253,-0.564505
1.0104,0.016759,0.000000,0.000000,0.000000,0.0000,0.0000,0.0156,0.008526,-0.008526,0.001523,0.001655,-0.002113,0.4281,-1.0359,-0.6790,0.004602,0.000000,0.000000,0.576777,-0.590583,0.549165,-0.590583,0.598253,-0.564505
1.0271,0.016743,0.000000,0.000000,0.000000,0.0000,0.0000,0.0409,0.022271,-0.022271,0.001523,0.001655,-0.002113,0.4281,-1.0359,-0.6790,0.001534,0.000000,0.000000,0.576777,-0.590583,0.549165,-0.590583,0.598253,-0.564505
1.0439,0.016752,0.000000,0.000000,0.000000,0.0000,0.0000,0.0661,0.035962,-0.035962,0.001483,0.001693,-0.002100,0.4784,-1.0518,-0.6252,-0.006136,0.000000,0.000000,0.578311,-0.590583,0.549165,-0.590583,0.598253,-0.564505
1.0606,0.016741,0.000000,0.000000,0.000000,0.0000,0.0000,0.0914,0.049544,-0.049544,0.001487,0.001689,-0.002101,0.4732,-1.0501,-0.6309,0.001534,-0.004602,0.000000,0.578311,-0.590583,0.549165,-0.590583,0.598253,-0.564505
1.0774,0.016747,0.000000,0.000000,0.000000,0.0000,0.0000,0.1166,0.062994,-0.062994,0.001487,0.001689,-0.002101,0.4732,-1.0501,-0.6309,0.001534,-0.004602,0.000000,0.578311,-0.590583,0.549165,-0.590583,0.598253,-0.564505
1.0941,0.016779,0.000000,0.000000,0.000000,0.0000,0.0000,0.1419,0.076296,-0.076296,0.001487,0.001689,-0.002101,0.4732,-1.0501,-0.6309,0.018408,-0.013806,0.000000,0.578311,-0.590583,0.549165,-0.590583,0.598253,-0.564505
1.1109,0.016783,0.000000,0.000000,0.000000,0.0000,0.0000,0.1672,0.089388,-0.089388,0.001487,0.001689,-0.002101,0.4732,-1.0501,-0.6309,0.018408,-0.013806,0.000000,0.578311,-0.590583,0.549165,-0.590583,0.598253,-0.564505
1.1277,0.016774,0.000000,0.000000,0.000000,0.0000,0.0000,0.1924,0.102225,-0.102225,0.001487,0.001689,-0.002101,0.4732,-1.0501,-0.6309,0.018408,-0.013806,0.000000,0.578311,-0.590583,0.549165,-0.590583,0.598253,-0.564505
1.1444,0.016749,0.000000,0.000000,0.000000,0.0000,0.0000,0.2176,0.114759,-0.114759,0.001487,0.001689,-0.002101,0.4732,-1.0501,-0.6309,0.018408,-0.013806,0.000000,0.578311,-0.590583,0.549165,-0.590583,0.598253,-0.564505
1.1613,0.016886,0.000000,0.000000,0.000000,0.0000,0.0000,0.2430,0.127075,-0.127075,0.001487,0.001689,-0.002101,0.4732,-1.0501,-0.6309,0.059825,-0.055223,0.000000,0.578311,-0.590583,0.549165,-0.590583,0.598253,-0.564505
1.1782,0.016847,0.000000,0.000000,0.000000,0.0000,0.0000,0.2683,0.139006,-0.139006,0.001487,0.001689,-0.002101,0.4732,-1.0501,-0.6309,0.056757,-0.050621,0.000000,0.578311,-0.590583,0.549165,-0.590583,0.598253,-0.564505
1.1949,0.016747,0.000000,0.000000,0.000000,0.0000,0.0000,0.2935,0.150480,-0.150480,0.001487,0.001689,-0.002101,0.4732,-1.0501,-0.6309,0.052155,-0.047553,0.000000,0.578311,-0.590583,0.549165,-0.590583,0.598253,-0.564505
1.2117,0.016753,0.000000,0.000000,0.000000,0.0000,0.0000,0.3186,0.161541,-0.161541,0.001432,0.001673,-0.002113,0.5127,-1.0161,-0.6846,0.064427,-0.058291,0.000000,0.578311,-0.590583,0.549165,-0.590583,0.596719,-0.564505
1.2284,0.016742,0.000000,0.000000,0.000000,0.0000,0.0000,0.3437,0.172149,-0.172149,0.001432,0.001673,-0.002113,0.5127,-1.0161,-0.6846,0.064427,-0.058291,0.000000,0.578311,-0.590583,0.549165,-0.590583,0.596719,-0.564505
1.2452,0.016751,0.000000,0.000000,0.000000,0.0000,0.0000,0.3688,0.182285,-0.182285,0.001492,0.001691,-0.002100,0.4696,-1.0538,-0.6247,0.096641,-0.090505,0.000000,0.578311,-0.590583,0.549165,-0.590583,0.598253,-0.564505
1.2619,0.016744,0.000000,0.000000,0.000000,0.0000,0.0000,0.3938,0.191913,-0.191913,0.001486,0.001689,-0.002101,0.4741,-1.0499,-0.6309,0.138058,-0.127320,0.000000,0.578311,-0.590583,0.549165,-0.590583,0.598253,-0.564505
1.2787,0.016760,0.000000,0.000000,0.000000,0.0000,0.0000,0.4188,0.201019,-0.201019,0.001486,0.001689,-0.002101,0.4741,-1.0499,-0.6309,0.173340,-0.158000,0.000000,0.578311,-0.590583,0.549165,-0.590583,0.598253,-0.564505
1.2954,0.016745,0.000000,0.000000,0.000000,0.0000,0.0000,0.4438,0.209560,-0.209560,0.001486,0.001689,-0.002101,0.4741,-1.0499,-0.6309,0.184078,-0.182544,0.000000,0.578311,-0.590583,0.549165,-0.590583,0.598253,-0.564505
1.3122,0.016767,0.000000,0.000000,0.000000,0.0000,0.0000,0.4688,0.217531,-0.217531,0.001486,0.001689,-0.002101,0.4741,-1.0499,-0.6309,0.184078,-0.196350,0.000000,0.578311,-0.590583,0.549165,-0.590583,0.598253,-0.564505
1.3289,0.016743,0.000000,0.000000,0.000000,0.0000,0.0000,0.4937,0.224889,-0.224889,0.001486,0.001689,-0.002101,0.4741,-1.0499,-0.6309,0.184078,-0.196350,0.000000,0.578311,-0.590583,0.549165,-0.590583,0.598253,-0.564505
1.3457,0.016756,0.000000,0.000000,0.000000,0.0000,0.0000,0.5187,0.231630,-0.231630,0.001486,0.001689,-0.002101,0.4741,-1.0499,-0.6309,0.190214,-0.202485,0.000000,0.578311,-0.590583,0.549165,-0.590583,0.598253,-0.564505
1.3624,0.016742,0.000000,0.000000,0.000000,0.0000,0.0000,0.5435,0.237724,-0.237724,0.001486,0.001689,-0.002101,0.4741,-1.0499,-0.6309,0.205553,-0.207087,0.000000,0.578311,-0.590583,0.549165,-0.590583,0.598253,-0.564505
1.3792,0.016750,0.000000,0.000000,0.000000,0.0000,0.0000,0.5683,0.243163,-0.243163,0.001486,0.001689,-0.002101,0.4741,-1.0499,-0.6309,0.220893,-0.211689,0.000000,0.578311,-0.590583,0.549165,-0.590583,0.598253,-0.564505
1.3959,0.016741,0.000000,0.000000,0.000000,0.0000,0.0000,0.5931,0.247926,-0.247926,0.001486,0.001689,-0.002101,0.4741,-1.0499,-0.6309,0.225495,-0.219359,0.000000,0.578311,-0.590583,0.549165,-0.590583,0.598253,-0.564505
1.4127,0.016795,0.000000,0.000000,0.000000,0.0000,0.0000,0.6179,0.252016,-0.252016,0.001486,0.001689,-0.002101,0.4741,-1.0499,-0.6309,0.230097,-0.230097,0.000000,0.578311,-0.590583,0.549165,-0.590583,0.598253,-0.564505
1.4294,0.016739,0.000000,0.000000,0.000000,0.0000,0.0000,0.6426,0.255395,-0.255395,0.001486,0.001689,-0.002101,0.4741,-1.0499,-0.6309,0.230097,-0.230097,0.000000,0.578311,-0.590583,0.549165,-0.590583,0.598253,-0.564505
1.4462,0.016754,0.000000,0.000000,0.000000,0.0000,0.0000,0.6672,0.258069,-0.258069,0.001486,0.001689,-0.002101,0.4741,-1.0499,-0.6309,0.243903,-0.243903,0.000000,0.578311,-0.590583,0.549165,-0.590583,0.598253,-0.564505
1.4629,0.016741,0.000000,0.000000,0.000000,0.0000,0.0000,0.6918,0.260027,-0.260027,0.001486,0.001689,-0.002101,0.4741,-1.0499,-0.6309,0.246971,-0.246971,0.000000,0.578311,-0.590583,0.549165,-0.590583,0.598253,-0.564505
1.4797,0.016755,0.000000,0.000000,0.000000,0.0000,0.0000,0.7164,0.261267,-0.261267,0.001486,0.001689,-0.002101,0.4741,-1.0499,-0.6309,0.243903,-0.246971,0.000000,0.578311,-0.590583,0.549165,-0.590583,0.598253,-0.564505
1.4964,0.016741,0.000000,0.000000,0.000000,0.0000,0.0000,0.7409,0.261783,-0.261783,0.001486,0.001689,-0.002101,0.4741,-1.0499,-0.6309,0.251573,-0.254641,0.000000,0.578311,-0.590583,0.549165,-0.590583,0.598253,-0.564505
1.5132,0.016770,0.000000,0.000000,0.000000,0.0000,0.0000,0.7653,0.261574,-0.261574,0.001486,0.001689,-0.002101,0.4741,-1.0499,-0.6309,0.263845,-0.263845,0.000000,0.578311,-0.590583,0.549165,-0.590583,0.598253,-0.564505
1.5299,0.016738,0.000000,0.000000,0.000000,0.0000,0.0000,0.7897,0.260642,-0.260642,0.001486,0.001689,-0.002101,0.4741,-1.0499,-0.6309,0.263845,-0.263845,0.000000,0.578311,-0.590583,0.549165,-0.590583,0.598253,-0.564505
1.5467,0.016745,0.000000,0.000000,0.000000,0.0000,0.0000,0.8141,0.258988,-0.258988,0.001486,0.001689,-0.002101,0.4741,-1.0499,-0.6309,0.263845,-0.263845,0.000000,0.578311,-0.590583,0.549165,-0.590583,0.598253,-0.564505
1.5634,0.016740,0.000000,0.000000,0.000000,0.0000,0.0000,0.8383,0.256619,-0.256619,0.001486,0.001689,-0.002101,0.4741,-1.0499,-0.6309,0.263845,-0.262311,0.000000,0.578311,-0.590583,0.549165,-0.590583,0.598253,-0.564505
1.5802,0.016756,0.000000,0.000000,0.000000,0.0000,0.0000,0.8626,0.253536,-0.253536,0.001486,0.001689,-0.002101,0.4741,-1.0499,-0.6309,0.263845,-0.262311,0.000000,0.578311,-0.590583,0.549165,-0.590583,0.598253,-0.564505
1.5969,0.016738,0.000000,0.000000,0.000000,0.0000,0.0000,0.8867,0.249756,-0.249756,0.001432,0.001673,-0.002113,0.5126,-1.0162,-0.6846,0.256175,-0.259243,0.000000,0.578311,-0.590583,0.549165,-0.590583,0.596719,-0.564505
1.6137,0.016764,0.000000,0.000000,0.000000,0.0000,0.0000,0.9108,0.245278,-0.245278,0.001432,0.001673,-0.002113,0.5126,-1.0162,-0.6846,0.256175,-0.259243,0.000000,0.578311,-0.590583,0.549165,-0.590583,0.596719,-0.564505
1.6304,0.016738,0.000000,0.000000,0.000000,0.0000,0.0000,0.9348,0.240128,-0.240128,0.001492,0.001691,-0.002100,0.4696,-1.0538,-0.6247,0.254641,-0.257709,0.000000,0.578311,-0.590583,0.549165,-0.590583,0.598253,-0.564505
1.6472,0.016746,0.000000,0.000000,0.000000,0.0000,0.0000,0.9588,0.234312,-0.234312,0.001486,0.001689,-0.002101,0.4741,-1.0499,-0.6309,0.253107,-0.254641,0.000000,0.578311,-0.590583,0.549165,-0.590583,0.598253,-0.564505
1.6639,0.016741,0.000000,0.000000,0.000000,0.0000,0.0000,0.9827,0.227849,-0.227849,0.001486,0.001689,-0.002101,0.4741,-1.0499,-0.6309,0.251573,-0.253107,0.000000,0.578311,-0.590583,0.549165,-0.590583,0.598253,-0.564505
1.6807,0.016750,0.000000,0.000000,0.000000,0.0000,0.0000,1.0065,0.220752,-0.220752,0.001486,0.001689,-0.002101,0.4741,-1.0499,-0.6309,0.248505,-0.251573,0.000000,0.578311,-0.590583,0.549165,-0.590583,0.598253,-0.564505
1.6974,0.016739,0.000000,0.000000,0.000000,0.0000,0.0000,1.0302,0.213049,-0.213049,0.001486,0.001689,-0.002101,0.4741,-1.0499,-0.6309,0.240835,-0.240835,0.000000,0.578311,-0.590583,0.549165,-0.590583,0.598253,-0.564505
1.7142,0.016759,0.000000,0.000000,0.000000,0.0000,0.0000,1.0539,0.204747,-0.204747,0.001486,0.001689,-0.002101,0.4741,-1.0499,-0.6309,0.240835,-0.240835,0.000000,0.578311,-0.590583,0.549165,-0.590583,0.598253,-0.564505
1.7309,0.016738,0.000000,0.000000,0.000000,0.0000,0.0000,1.0775,0.195889,-0.195889,0.001486,0.001689,-0.002101,0.4741,-1.0499,-0.6309,0.233165,-0.230097,0.000000,0.578311,-0.590583,0.549165,-0.590583,0.598253,-0.564505
1.7476,0.016747,0.000000,0.000000,0.000000,0.0000,0.0000,1.1011,0.186485,-0.186485,0.001486,0.001689,-0.002101,0.4741,-1.0499,-0.6309,0.222427,-0.223961,0.000000,0.578311,-0.590583,0.549165,-0.590583,0.598253,-0.564505
1.7644,0.016739,0.000000,0.000000,0.000000,0.0000,0.0000,1.1245,0.176569,-0.176569,0.001486,0.001689,-0.002101,0.4741,-1.0499,-0.6309,0.211689,-0.211689,0.000000,0.578311,-0.590583,0.549165,-0.590583,0.598253,-0.564505
1.7811,0.016758,0.000000,0.000000,0.000000,0.0000,0.0000,1.1479,0.166153,-0.166153,0.001486,0.001689,-0.002101,0.4741,-1.0499,-0.6309,0.200951,-0.204019,0.000000,0.578311,-0.590583,0.549165,-0.590583,0.598253,-0.564505
1.7979,0.016751,0.000000,0.000000,0.000000,0.0000,0.0000,1.1712,0.155281,-0.155281,0.001486,0.001689,-0.002101,0.4741,-1.0499,-0.6309,0.187146,-0.194816,0.000000,0.578311,-0.590583,0.549165,-0.590583,0.598253,-0.564505
1.8147,0.016759,0.000000,0.000000,0.000000,0.0000,0.0000,1.1944,0.143973,-0.143973,0.001486,0.001689,-0.002101,0.4741,-1.0499,-0.6309,0.187146,-0.194816,0.000000,0.578311,-0.590583,0.549165,-0.590583,0.598253,-0.564505
1.8314,0.016741,0.000000,0.000000,0.000000,0.0000,0.0000,1.2175,0.132280,-0.132280,0.001486,0.001689,-0.002101,0.4741,-1.0499,-0.6309,0.173340,-0.185612,0.000000,0.578311,-0.590583,0.549165,-0.590583,0.598253,-0.564505
1.8481,0.016751,0.000000,0.000000,0.000000,0.0000,0.0000,1.2406,0.120213,-0.120213,0.001432,0.001673,-0.002113,0.5126,-1.0162,-0.6846,0.162602,-0.174874,0.000000,0.578311,-0.590583,0.549165,-0.590583,0.596719,-0.564505
1.8649,0.016739,0.000000,0.000000,0.000000,0.0000,0.0000,1.2635,0.107823,-0.107823,0.001492,0.001691,-0.002100,0.4696,-1.0538,-0.6247,0.151864,-0.161068,0.000000,0.578311,-0.590583,0.549165,-0.590583,0.598253,-0.564505
1.8816,0.016752,0.000000,0.000000,0.000000,0.0000,0.0000,1.2864,0.095124,-0.095124,0.001486,0.001689,-0.002101,0.4741,-1.0499,-0.6309,0.138058,-0.145728,0.000000,0.578311,-0.590583,0.549165,-0.590583,0.598253,-0.564505
1.8988,0.017117,0.000000,0.000000,0.000000,0.0000,0.0000,1.3097,0.081877,-0.081877,0.001486,0.001689,-0.002101,0.4741,-1.0499,-0.6309,0.122718,-0.130388,0.000000,0.578311,-0.590583,0.549165,-0.590583,0.598253,-0.564505
1.9155,0.016765,0.000000,0.000000,0.000000,0.0000,0.0000,1.3324,0.068672,-0.068672,0.001486,0.001689,-0.002101,0.4741,-1.0499,-0.6309,0.122718,-0.130388,0.000000,0.578311,-0.590583,0.549165,-0.590583,0.598253,-0.564505
1.9323,0.016743,0.000000,0.000000,0.000000,0.0000,0.0000,1.3549,0.055295,-0.055295,0.001432,0.001673,-0.002113,0.5126,-1.0162,-0.6846,0.107379,-0.113515,0.000000,0.578311,-0.590583,0.549165,-0.590583,0.596719,-0.564505
1.9490,0.016749,0.000000,0.000000,0.000000,0.0000,0.0000,1.3774,0.041760,-0.041760,0.001492,0.001691,-0.002100,0.4696,-1.0538,-0.6247,0.088971,-0.098175,0.000000,0.578311,-0.590583,0.549165,-0.590583,0.598253,-0.564505
1.9661,0.017070,0.000000,0.000000,0.000000,0.0000,0.0000,1.4002,0.027847,-0.027847,0.001486,0.001689,-0.002101,0.4741,-1.0499,-0.6309,0.075165,-0.082835,0.000000,0.578311,-0.590583,0.549165,-0.590583,0.598253,-0.564505
1.9828,0.016753,0.000000,0.000000,0.000000,0.0000,0.0000,1.4225,0.014114,-0.014114,0.001486,0.001689,-0.002101,0.4741,-1.0499,-0.6309,0.059825,-0.062893,0.000000,0.578311,-0.590583,0.549165,-0.590583,0.598253,-0.564505
1.9996,0.016753,0.000000,0.000000,0.000000,0.0000,0.0000,1.4447,0.000342,-0.000342,0.001486,0.001689,-0.002101,0.4741,-1.0499,-0.6309,0.041417,-0.041417,0.000000,0.578311,-0.590583,0.549165,-0.590583,0.598253,-0.564505
2.0163,0.016755,0.000000,0.000000,0.000000,0.0000,0.0000,1.4668,-0.013432,0.013432,0.001486,0.001689,-0.002101,0.4741,-1.0499,-0.6309,0.041417,-0.041417,0.000000,0.578311,-0.590583,0.549165,-0.590583,0.598253,-0.564505
2.0331,0.016748,0.000000,0.000000,0.000000,0.0000,0.0000,1.4888,-0.027164,0.027164,0.001486,0.001689,-0.002101,0.4741,-1.0499,-0.6309,0.024544,-0.021476,0.000000,0.578311,-0.590583,0.549165,-0.590583,0.598253,-0.564505
2.0498,0.016753,0.000000,0.000000,0.000000,0.0000,0.0000,1.5107,-0.040824,0.040824,0.001486,0.001689,-0.002101,0.4741,-1.0499,-0.6309,0.007670,-0.004602,0.000000,0.578311,-0.590583,0.549165,-0.590583,0.598253,-0.564505
2.0666,0.016756,0.000000,0.000000,0.000000,0.0000,0.0000,1.5324,-0.054374,0.054374,0.001486,0.001689,-0.002101,0.4741,-1.0499,-0.6309,-0.009204,0.006136,0.000000,0.578311,-0.590583,0.549165,-0.590583,0.598253,-0.564505
2.0833,0.016752,0.000000,0.000000,0.000000,0.0000,0.0000,1.5541,-0.067770,0.067770,0.001486,0.001689,-0.002101,0.4741,-1.0499,-0.6309,-0.021476,0.016874,0.000000,0.578311,-0.590583,0.549165,-0.590583,0.598253,-0.564505
2.1001,0.016755,0.000000,0.000000,0.000000,0.0000,0.0000,1.5757,-0.080981,0.080981,0.001486,0.001689,-0.002101,0.4741,-1.0499,-0.6309,-0.039884,0.035282,0.000000,0.578311,-0.590583,0.549165,-0.590583,0.598253,-0.564505
2.1169,0.016754,0.000000,0.000000,0.000000,0.0000,0.0000,1.5971,-0.093966,0.093966,0.001486,0.001689,-0.002101,0.4741,-1.0499,-0.6309,-0.039884,0.035282,0.000000,0.578311,-0.590583,0.549165,-0.590583,0.598253,-0.564505
2.1336,0.016748,0.000000,0.000000,0.000000,0.0000,0.0000,1.6184,-0.106687,0.106687,0.001486,0.001689,-0.002101,0.4741,-1.0499,-0.6309,-0.059825,0.056757,0.000000,0.578311,-0.590583,0.549165,-0.590583,0.598253,-0.564505
2.1505,0.016943,0.000000,0.000000,0.000000,0.0000,0.0000,1.6399,-0.119256,0.119256,0.001486,0.001689,-0.002101,0.4741,-1.0499,-0.6309,-0.075165,0.075165,0.000000,0.578311,-0.590583,0.549165,-0.590583,0.598253,-0.564505
2.1673,0.016780,0.000000,0.000000,0.000000,0.0000,0.0000,1.6610,-0.131370,0.131370,0.001486,0.001689,-0.002101,0.4741,-1.0499,-0.6309,-0.075165,0.075165,0.000000,0.578311,-0.590583,0.549165,-0.590583,0.598253,-0.564505
2.1841,0.016747,0.000000,0.000000,0.000000,0.0000,0.0000,1.6820,-0.143097,0.143097,0.001486,0.001689,-0.002101,0.4741,-1.0499,-0.6309,-0.075165,0.075165,0.000000,0.578311,-0.590583,0.549165,-0.590583,0.598253,-0.564505
2.2008,0.016742,0.000000,0.000000,0.000000,0.0000,0.0000,1.7028,-0.154425,0.154425,0.001486,0.001689,-0.002101,0.4741,-1.0499,-0.6309,-0.096641,0.095107,0.000000,0.578311,-0.590583,0.549165,-0.590583,0.598253,-0.564505
2.2176,0.016768,0.000000,0.000000,0.000000,0.0000,0.0000,1.7236,-0.165341,0.165341,0.001486,0.001689,-0.002101,0.4741,-1.0499,-0.6309,-0.110447,0.110447,0.000000,0.578311,-0.590583,0.549165,-0.590583,0.598253,-0.564505
2.2343,0.016745,0.000000,0.000000,0.000000,0.0000,0.0000,1.7442,-0.175786,0.175786,0.001486,0.001689,-0.002101,0.4741,-1.0499,-0.6309,-0.113515,0.111981,0.000000,0.578311,-0.590583,0.549165,-0.590583,0.598253,-0.564505
2.2511,0.016792,0.000000,0.000000,0.000000,0.0000,0.0000,1.7647,-0.185771,0.185771,0.001486,0.001689,-0.002101,0.4741,-1.0499,-0.6309,-0.113515,0.113515,0.000000,0.578311,-0.590583,0.549165,-0.590583,0.598253,-0.564505
2.2679,0.016748,0.000000,0.000000,0.000000,0.0000,0.0000,1.7851,-0.195216,0.195216,0.001486,0.001689,-0.002101,0.4741,-1.0499,-0.6309,-0.113515,0.113515,0.000000,0.578311,-0.590583,0.549165,-0.590583,0.598253,-0.564505
2.2846,0.016756,0.000000,0.000000,0.000000,0.0000,0.0000,1.8053,-0.204124,0.204124,0.001486,0.001689,-0.002101,0.4741,-1.0499,-0.6309,-0.133456,0.133456,0.000000,0.578311,-0.590583,0.549165,-0.590583,0.598253,-0.564505
2.3014,0.016750,0.000000,0.000000,0.000000,0.0000,0.0000,1.8254,-0.212463,0.212463,0.001486,0.001689,-0.002101,0.4741,-1.0499,-0.6309,-0.167204,0.167204,0.000000,0.578311,-0.590583,0.549165,-0.590583,0.598253,-0.564505
2.3181,0.016757,0.000000,0.000000,0.000000,0.0000,0.0000,1.8454,-0.220218,0.220218,0.001486,0.001689,-0.002101,0.4741,-1.0499,-0.6309,-0.193282,0.193282,0.000000,0.578311,-0.590583,0.549165,-0.590583,0.598253,-0.564505
2.3349,0.016749,0.000000,0.000000,0.000000,0.0000,0.0000,1.8653,-0.227359,0.227359,0.001486,0.001689,-0.002101,0.4741,-1.0499,-0.6309,-0.208621,0.205553,0.000000,0.578311,-0.590583,0.549165,-0.590583,0.598253,-0.564505
2.3516,0.016752,0.000000,0.000000,0.000000,0.0000,0.0000,1.8850,-0.233872,0.233872,0.001486,0.001689,-0.002101,0.4741,-1.0499,-0.6309,-0.208621,0.205553,0.000000,0.578311,-0.590583,0.549165,-0.590583,0.598253,-0.564505
2.3684,0.016739,0.000000,0.000000,0.000000,0.0000,0.0000,1.9046,-0.239733,0.239733,0.001486,0.001689,-0.002101,0.4741,-1.0499,-0.6309,-0.213223,0.211689,0.000000,0.578311,-0.590583,0.549165,-0.590583,0.598253,-0.564505
2.3851,0.016751,0.000000,0.000000,0.000000,0.0000,0.0000,1.9240,-0.244935,0.244935,0.001486,0.001689,-0.002101,0.4741,-1.0499,-0.6309,-0.217825,0.217825,0.000000,0.578311,-0.590583,0.549165,-0.590583,0.598253,-0.564505
2.4019,0.016738,0.000000,0.000000,0.000000,0.0000,0.0000,1.9433,-0.249455,0.249455,0.001486,0.001689,-0.002101,0.4741,-1.0499,-0.6309,-0.225495,0.227029,0.000000,0.578311,-0.590583,0.549165,-0.590583,0.598253,-0.564505
2.4186,0.016746,0.000000,0.000000,0.000000,0.0000,0.0000,1.9625,-0.253287,0.253287,0.001486,0.001689,-0.002101,0.4741,-1.0499,-0.6309,-0.236233,0.234699,0.000000,0.578311,-0.590583,0.549165,-0.590583,0.598253,-0.564505
2.4353,0.016743,0.000000,0.000000,0.000000,0.0000,0.0000,1.9815,-0.256418,0.256418,0.001486,0.001689,-0.002101,0.4741,-1.0499,-0.6309,-0.243903,0.237767,0.000000,0.578311,-0.590583,0.549165,-0.590583,0.598253,-0.564505
2.4521,0.016759,0.000000,0.000000,0.000000,0.0000,0.0000,2.0004,-0.258842,0.258842,0.001486,0.001689,-0.002101,0.4741,-1.0499,-0.6309,-0.243903,0.237767,0.000000,0.578311,-0.590583,0.549165,-0.590583,0.598253,-0.564505
2.4689,0.016748,0.000000,0.000000,0.000000,0.0000,0.0000,2.0192,-0.260547,0.260547,0.001486,0.001689,-0.002101,0.4741,-1.0499,-0.6309,-0.245437,0.239301,0.000000,0.578311,-0.590583,0.549165,-0.590583,0.598253,-0.564505
2.4856,0.016744,0.000000,0.000000,0.000000,0.0000,0.0000,2.0378,-0.261532,0.261532,0.001486,0.001689,-0.002101,0.4741,-1.0499,-0.6309,-0.251573,0.253107,0.000000,0.578311,-0.590583,0.549165,-0.590583,0.598253,-0.564505
2.5024,0.016749,0.000000,0.000000,0.000000,0.0000,0.0000,2.0562,-0.261792,0.261792,0.001486,0.001689,-0.002101,0.4741,-1.0499,-0.6309,-0.259243,0.257709,0.000000,0.578311,-0.590583,0.549165,-0.590583,0.598253,-0.564505
2.5191,0.016749,0.000000,0.000000,0.000000,0.0000,0.0000,2.0745,-0.261328,0.261328,0.001486,0.001689,-0.002101,0.4741,-1.0499,-0.6309,-0.259243,0.260777,0.000000,0.578311,-0.590583,0.549165,-0.590583,0.598253,-0.564505
2.5360,0.016897,0.000000,0.000000,0.000000,0.0000,0.0000,2.0929,-0.260127,0.260127,0.001486,0.001689,-0.002101,0.4741,-1.0499,-0.6309,-0.263845,0.262311,0.000000,0.578311,-0.590583,0.549165,-0.590583,0.598253,-0.564505
2.5527,0.016747,0.000000,0.000000,0.000000,0.0000,0.0000,2.1109,-0.258214,0.258214,0.001486,0.001689,-0.002101,0.4741,-1.0499,-0.6309,-0.263845,0.262311,0.000000,0.578311,-0.590583,0.549165,-0.590583,0.598253,-0.564505
2.5695,0.016741,0.000000,0.000000,0.000000,0.0000,0.0000,2.1288,-0.255587,0.255587,0.001486,0.001689,-0.002101,0.4741,-1.0499,-0.6309,-0.263845,0.259243,0.000000,0.578311,-0.590583,0.549165,-0.590583,0.598253,-0.564505
2.5862,0.016747,0.000000,0.000000,0.000000,0.0000,0.0000,2.1465,-0.252251,0.252251,0.001486,0.001689,-0.002101,0.4741,-1.0499,-0.6309,-0.260777,0.260777,0.000000,0.578311,-0.590583,0.549165,-0.590583,0.598253,-0.564505
2.6030,0.016745,0.000000,0.000000,0.000000,0.0000,0.0000,2.1640,-0.248219,0.248219,0.001486,0.001689,-0.002101,0.4741,-1.0499,-0.6309,-0.260777,0.260777,0.000000,0.578311,-0.590583,0.549165,-0.590583,0.598253,-0.564505
2.6197,0.016747,0.000000,0.000000,0.000000,0.0000,0.0000,2.1815,-0.243498,0.243498,0.001486,0.001689,-0.002101,0.4741,-1.0499,-0.6309,-0.259243,0.257709,0.000000,0.578311,-0.590583,0.549165,-0.590583,0.598253,-0.564505
2.6365,0.016748,0.000000,0.000000,0.000000,0.0000,0.0000,2.1987,-0.238104,0.238104,0.001486,0.001689,-0.002101,0.4741,-1.0499,-0.6309,-0.256175,0.254641,0.000000,0.578311,-0.590583,0.549165,-0.590583,0.598253,-0.564505
2.6532,0.016740,0.000000,0.000000,0.000000,0.0000,0.0000,2.2158,-0.232054,0.232054,0.001486,0.001689,-0.002101,0.4741,-1.0499,-0.6309,-0.256175,0.254641,0.000000,0.578311,-0.590583,0.549165,-0.590583,0.598253,-0.564505
2.6700,0.016744,0.000000,0.000000,0.000000,0.0000,0.0000,2.2328,-0.225360,0.225360,0.001432,0.001673,-0.002113,0.5126,-1.0162,-0.6846,-0.254641,0.253107,0.000000,0.578311,-0.590583,0.549165,-0.590583,0.596719,-0.564505
2.6867,0.016743,0.000000,0.000000,0.000000,0.0000,0.0000,2.2495,-0.218043,0.218043,0.001492,0.001691,-0.002100,0.4696,-1.0538,-0.6247,-0.253107,0.251573,0.000000,0.578311,-0.590583,0.549165,-0.590583,0.598253,-0.564505
2.7034,0.016743,0.000000,0.000000,0.000000,0.0000,0.0000,2.2662,-0.210124,0.210124,0.001431,0.001673,-0.002113,0.5130,-1.0158,-0.6852,-0.246971,0.248505,0.000000,0.578311,-0.590583,0.549165,-0.590583,0.596719,-0.564505
2.7202,0.016745,0.000000,0.000000,0.000000,0.0000,0.0000,2.2826,-0.201622,0.201622,0.001438,0.001675,-0.002111,0.5085,-1.0197,-0.6789,-0.234699,0.240835,0.000000,0.578311,-0.590583,0.549165,-0.590583,0.596719,-0.564505
2.7369,0.016757,0.000000,0.000000,0.000000,0.0000,0.0000,2.2989,-0.192555,0.192555,0.001438,0.001675,-0.002111,0.5085,-1.0197,-0.6789,-0.234699,0.240835,0.000000,0.578311,-0.590583,0.549165,-0.590583,0.596719,-0.564505
2.7537,0.016745,0.000000,0.000000,0.000000,0.0000,0.0000,2.3151,-0.182962,0.182962,0.001492,0.001691,-0.002100,0.4700,-1.0534,-0.6252,-0.220893,0.230097,0.000000,0.578311,-0.590583,0.549165,-0.590583,0.598253,-0.564505
2.7704,0.016747,0.000000,0.000000,0.000000,0.0000,0.0000,2.3311,-0.172862,0.172862,0.001486,0.001689,-0.002101,0.4740,-1.0499,-0.6308,-0.208621,0.220893,0.000000,0.578311,-0.590583,0.549165,-0.590583,0.598253,-0.564505
2.7872,0.016741,0.000000,0.000000,0.000000,0.0000,0.0000,2.3469,-0.162286,0.162286,0.001486,0.001689,-0.002101,0.4740,-1.0499,-0.6308,-0.199418,0.211689,0.000000,0.578311,-0.590583,0.549165,-0.590583,0.598253,-0.564505
2.8039,0.016753,0.000000,0.000000,0.000000,0.0000,0.0000,2.3625,-0.151255,0.151255,0.001486,0.001689,-0.002101,0.4740,-1.0499,-0.6308,-0.190214,0.200951,0.000000,0.578311,-0.590583,0.549165,-0.590583,0.598253,-0.564505
2.8207,0.016771,0.000000,0.000000,0.000000,0.0000,0.0000,2.3780,-0.139792,0.139792,0.001486,0.001689,-0.002101,0.4740,-1.0499,-0.6308,-0.177942,0.187146,0.000000,0.578311,-0.590583,0.549165,-0.590583,0.598253,-0.564505
2.8374,0.016747,0.000000,0.000000,0.000000,0.0000,0.0000,2.3933,-0.127958,0.127958,0.001486,0.001689,-0.002101,0.4740,-1.0499,-0.6308,-0.177942,0.187146,0.000000,0.578311,-0.590583,0.549165,-0.590583,0.598253,-0.564505
2.8542,0.016740,0.000000,0.000000,0.000000,0.0000,0.0000,2.4085,-0.115776,0.115776,0.001486,0.001689,-0.002101,0.4740,-1.0499,-0.6308,-0.164136,0.168738,0.000000,0.578311,-0.590583,0.549165,-0.590583,0.598253,-0.564505
2.8709,0.016742,0.000000,0.000000,0.000000,0.0000,0.0000,2.4234,-0.103271,0.103271,0.001486,0.001689,-0.002101,0.4740,-1.0499,-0.6308,-0.153398,0.156466,0.000000,0.578311,-0.590583,0.549165,-0.590583,0.598253,-0.564505
2.8877,0.016748,0.000000,0.000000,0.000000,0.0000,0.0000,2.4382,-0.090476,0.090476,0.001486,0.001689,-0.002101,0.4740,-1.0499,-0.6308,-0.139592,0.142660,0.000000,0.578311,-0.590583,0.549165,-0.590583,0.598253,-0.564505
2.9044,0.016753,0.000000,0.000000,0.000000,0.0000,0.0000,2.4529,-0.077427,0.077427,0.001486,0.001689,-0.002101,0.4740,-1.0499,-0.6308,-0.127320,0.127320,0.000000,0.578311,-0.590583,0.549165,-0.590583,0.598253,-0.564505
2.9212,0.016753,0.000000,0.000000,0.000000,0.0000,0.0000,2.4673,-0.064163,0.064163,0.001486,0.001689,-0.002101,0.4740,-1.0499,-0.6308,-0.111981,0.111981,0.000000,0.578311,-0.590583,0.549165,-0.590583,0.598253,-0.564505
2.9379,0.016751,0.000000,0.000000,0.000000,0.0000,0.0000,2.4816,-0.050724,0.050724,0.001486,0.001689,-0.002101,0.4740,-1.0499,-0.6308,-0.111981,0.111981,0.000000,0.578311,-0.590583,0.549165,-0.590583,0.598253,-0.564505
2.9547,0.016746,0.000000,0.000000,0.000000,0.0000,0.0000,2.4957,-0.037148,0.037148,0.001486,0.001689,-0.002101,0.4740,-1.0499,-0.6308,-0.092039,0.095107,0.000000,0.578311,-0.590583,0.549165,-0.590583,0.598253,-0.564505
2.9714,0.016751,0.000000,0.000000,0.000000,0.0000,0.0000,2.5096,-0.023465,0.023465,0.001486,0.001689,-0.002101,0.4740,-1.0499,-0.6308,-0.075165,0.076699,0.000000,0.578311,-0.590583,0.549165,-0.590583,0.598253,-0.564505
2.9882,0.016748,0.000000,0.000000,0.000000,0.0000,0.0000,2.5234,-0.009720,0.009720,0.001486,0.001689,-0.002101,0.4740,-1.0499,-0.6308,-0.061359,0.061359,0.000000,0.578311,-0.590583,0.549165,-0.590583,0.598253,-0.564505
3.0050,0.016801,0.000000,0.000000,0.000000,0.0000,0.0000,2.5370,0.004096,-0.004096,0.001486,0.001689,-0.002101,0.4740,-1.0499,-0.6308,-0.046019,0.049087,0.000000,0.578311,-0.590583,0.549165,-0.590583,0.598253,-0.564505
3.0217,0.016748,0.000000,0.000000,0.000000,0.0000,0.0000,2.5504,0.017857,-0.017857,0.001486,0.001689,-0.002101,0.4740,-1.0499,-0.6308,-0.029146,0.032214,0.000000,0.578311,-0.590583,0.549165,-0.590583,0.598253,-0.564505
3.0385,0.016758,0.000000,0.000000,0.000000,0.0000,0.0000,2.5636,0.031577,-0.031577,0.001486,0.001689,-0.002101,0.4740,-1.0499,-0.6308,-0.007670,0.013806,0.000000,0.578311,-0.590583,0.549165,-0.590583,0.598253,-0.564505
3.0552,0.016743,0.000000,0.000000,0.000000,0.0000,0.0000,2.5766,0.045197,-0.045197,0.001486,0.001689,-0.002101,0.4740,-1.0499,-0.6308,-0.007670,0.013806,0.000000,0.578311,-0.590583,0.549165,-0.590583,0.598253,-0.564505
3.0720,0.016750,0.000000,0.000000,0.000000,0.0000,0.0000,2.5895,0.058697,-0.058697,0.001486,0.001689,-0.002101,0.4740,-1.0499,-0.6308,0.010738,-0.003068,0.000000,0.578311,-0.590583,0.549165,-0.590583,0.598253,-0.564505
3.0887,0.016746,0.000000,0.000000,0.000000,0.0000,0.0000,2.6021,0.072032,-0.072032,0.001432,0.001673,-0.002113,0.5126,-1.0162,-0.6846,0.024544,-0.019942,0.000000,0.578311,-0.590583,0.549165,-0.590583,0.596719,-0.564505
3.1055,0.016749,0.000000,0.000000,0.000000,0.0000,0.0000,2.6146,0.085170,-0.085170,0.001492,0.001691,-0.002100,0.4696,-1.0538,-0.6247,0.038350,-0.041417,0.000000,0.578311,-0.590583,0.549165,-0.590583,0.598253,-0.564505
3.1222,0.016749,0.000000,0.000000,0.000000,0.0000,0.0000,2.6269,0.098073,-0.098073,0.001486,0.001689,-0.002101,0.4741,-1.0499,-0.6309,0.056757,-0.059825,0.000000,0.578311,-0.590583,0.549165,-0.590583,0.598253,-0.564505
3.1390,0.016757,0.000000,0.000000,0.000000,0.0000,0.0000,2.6390,0.110710,-0.110710,0.001486,0.001689,-0.002101,0.4741,-1.0499,-0.6309,0.056757,-0.059825,0.000000,0.578311,-0.590583,0.549165,-0.590583,0.598253,-0.564505
3.1557,0.016745,0.000000,0.000000,0.000000,0.0000,0.0000,2.6509,0.123031,-0.123031,0.001486,0.001689,-0.002101,0.4741,-1.0499,-0.6309,0.073631,-0.073631,0.000000,0.578311,-0.590583,0.549165,-0.590583,0.598253,-0.564505
3.1725,0.016759,0.000000,0.000000,0.000000,0.0000,0.0000,2.6627,0.135021,-0.135021,0.001486,0.001689,-0.002101,0.4741,-1.0499,-0.6309,0.092039,-0.085903,0.000000,0.578311,-0.590583,0.549165,-0.590583,0.598253,-0.564505
3.1893,0.016815,0.000000,0.000000,0.000000,0.0000,0.0000,2.6743,0.146676,-0.146676,0.001486,0.001689,-0.002101,0.4741,-1.0499,-0.6309,0.102777,-0.098175,0.000000,0.578311,-0.590583,0.549165,-0.590583,0.598253,-0.564505
3.2061,0.016820,0.000000,0.000000,0.000000,0.0000,0.0000,2.6856,0.157925,-0.157925,0.001486,0.001689,-0.002101,0.4741,-1.0499,-0.6309,0.102777,-0.098175,0.000000,0.578311,-0.590583,0.549165,-0.590583,0.598253,-0.564505
3.2229,0.016749,0.000000,0.000000,0.000000,0.0000,0.0000,2.6968,0.168688,-0.168688,0.001486,0.001689,-0.002101,0.4741,-1.0499,-0.6309,0.102777,-0.098175,0.000000,0.578311,-0.590583,0.549165,-0.590583,0.598253,-0.564505
3.2396,0.016758,0.000000,0.000000,0.000000,0.0000,0.0000,2.7078,0.178990,-0.178990,0.001486,0.001689,-0.002101,0.4741,-1.0499,-0.6309,0.128854,-0.128854,0.000000,0.578311,-0.590583,0.549165,-0.590583,0.598253,-0.564505
3.2564,0.016742,0.000000,0.000000,0.000000,0.0000,0.0000,2.7186,0.188786,-0.188786,0.001486,0.001689,-0.002101,0.4741,-1.0499,-0.6309,0.145728,-0.141126,0.000000,0.578311,-0.590583,0.549165,-0.590583,0.598253,-0.564505
3.2731,0.016774,0.000000,0.000000,0.000000,0.0000,0.0000,2.7292,0.198078,-0.198078,0.001486,0.001689,-0.002101,0.4741,-1.0499,-0.6309,0.145728,-0.141126,0.000000,0.578311,-0.590583,0.549165,-0.590583,0.598253,-0.564505
3.2899,0.016746,0.000000,0.000000,0.000000,0.0000,0.0000,2.7395,0.206806,-0.206806,0.001486,0.001689,-0.002101,0.4741,-1.0499,-0.6309,0.142660,-0.147262,0.000000,0.578311,-0.590583,0.549165,-0.590583,0.598253,-0.564505
3.3066,0.016760,0.000000,0.000000,0.000000,0.0000,0.0000,2.7497,0.214967,-0.214967,0.001486,0.001689,-0.002101,0.4741,-1.0499,-0.6309,0.142660,-0.147262,0.000000,0.578311,-0.590583,0.549165,-0.590583,0.598253,-0.564505
3.3234,0.016744,0.000000,0.000000,0.000000,0.0000,0.0000,2.7597,0.222527,-0.222527,0.001486,0.001689,-0.002101,0.4741,-1.0499,-0.6309,0.161068,-0.165670,0.000000,0.578311,-0.590583,0.549165,-0.590583,0.598253,-0.564505
3.3402,0.016762,0.000000,0.000000,0.000000,0.0000,0.0000,2.7696,0.229478,-0.229478,0.001486,0.001689,-0.002101,0.4741,-1.0499,-0.6309,0.193282,-0.190214,0.000000,0.578311,-0.590583,0.549165,-0.590583,0.598253,-0.564505
3.3569,0.016746,0.000000,0.000000,0.000000,0.0000,0.0000,2.7792,0.235786,-0.235786,0.001486,0.001689,-0.002101,0.4741,-1.0499,-0.6309,0.217825,-0.210155,0.000000,0.578311,-0.590583,0.549165,-0.590583,0.598253,-0.564505
3.3737,0.016759,0.000000,0.000000,0.000000,0.0000,0.0000,2.7886,0.241447,-0.241447,0.001432,0.001673,-0.002113,0.5126,-1.0162,-0.6846,0.225495,-0.223961,0.000000,0.578311,-0.590583,0.549165,-0.590583,0.596719,-0.564505
3.3906,0.016916,0.000000,0.000000,0.000000,0.0000,0.0000,2.7979,0.246482,-0.246482,0.001492,0.001691,-0.002100,0.4696,-1.0538,-0.6247,0.227029,-0.231631,0.000000,0.578311,-0.590583,0.549165,-0.590583,0.598253,-0.564505
3.4073,0.016756,0.000000,0.000000,0.000000,0.0000,0.0000,2.8069,0.250783,-0.250783,0.001492,0.001691,-0.002100,0.4696,-1.0538,-0.6247,0.227029,-0.231631,0.000000,0.578311,-0.590583,0.549165,-0.590583,0.598253,-0.564505
3.4241,0.016742,0.000000,0.000000,0.000000,0.0000,0.0000,2.8157,0.254387,-0.254387,0.001486,0.001689,-0.002101,0.4741,-1.0499,-0.6309,0.236233,-0.236233,0.000000,0.578311,-0.590583,0.549165,-0.590583,0.598253,-0.564505
3.4408,0.016743,0.000000,0.000000,0.000000,0.0000,0.0000,2.8243,0.257287,-0.257287,0.001486,0.001689,-0.002101,0.4741,-1.0499,-0.6309,0.240835,-0.237767,0.000000,0.578311,-0.590583,0.549165,-0.590583,0.598253,-0.564505
3.4576,0.016748,0.000000,0.000000,0.000000,0.0000,0.0000,2.8327,0.259476,-0.259476,0.001486,0.001689,-0.002101,0.4741,-1.0499,-0.6309,0.240835,-0.243903,0.000000,0.578311,-0.590583,0.549165,-0.590583,0.598253,-0.564505
3.4743,0.016739,0.000000,0.000000,0.000000,0.0000,0.0000,2.8410,0.260947,-0.260947,0.001446,0.001728,-0.002089,0.5243,-1.0657,-0.5772,0.246971,-0.251573,0.000000,0.579845,-0.590583,0.549165,-0.590583,0.598253,-0.564505
3.4910,0.016743,0.000000,0.000000,0.000000,0.0000,0.0000,2.8490,0.261696,-0.261696,0.001409,0.001762,-0.002078,0.5697,-1.0794,-0.5297,0.257709,-0.259243,0.000000,0.581379,-0.590583,0.549165,-0.590583,0.598253,-0.564505
3.5078,0.016761,0.000000,0.000000,0.000000,0.0000,0.0000,2.8568,0.261721,-0.261721,0.001409,0.001762,-0.002078,0.5697,-1.0794,-0.5297,0.257709,-0.259243,0.000000,0.581379,-0.590583,0.549165,-0.590583,0.598253,-0.564505
3.5246,0.016748,0.000000,0.000000,0.000000,0.0000,0.0000,2.8644,0.261021,-0.261021,0.001372,0.001797,-0.002067,0.6155,-1.0933,-0.4815,0.260777,-0.260777,0.000000,0.582913,-0.590583,0.549165,-0.590583,0.598253,-0.564505
3.5413,0.016758,0.000000,0.000000,0.000000,0.0000,0.0000,2.8718,0.259597,-0.259597,0.001293,0.001870,-0.002043,0.7118,-1.1223,-0.3801,0.256175,-0.260777,0.000000,0.585981,-0.590583,0.549165,-0.590583,0.598253,-0.564505
3.5581,0.016747,0.000000,0.000000,0.000000,0.0000,0.0000,2.8790,0.257456,-0.257456,0.001260,0.001900,-0.002034,0.7522,-1.1344,-0.3375,0.260777,-0.260777,0.000000,0.587515,-0.590583,0.549165,-0.590583,0.598253,-0.564505
3.5753,0.017204,0.000000,0.000000,0.000000,0.0000,0.0000,2.8862,0.254515,-0.254515,0.001181,0.001974,-0.002011,0.8489,-1.1633,-0.2354,0.262311,-0.260777,0.000000,0.590583,-0.590583,0.549165,-0.590583,0.598253,-0.564505
3.5920,0.016749,0.000000,0.000000,0.000000,0.0000,0.0000,2.8930,0.250937,-0.250937,0.001148,0.002005,-0.002001,0.8892,-1.1753,-0.1927,0.259243,-0.260777,0.000000,0.592117,-0.590583,0.549165,-0.590583,0.598253,-0.564505
3.6095,0.017438,0.000000,0.000000,0.000000,0.0000,0.0000,2.8998,0.246475,-0.246475,0.001148,0.002005,-0.002001,0.8892,-1.1753,-0.1927,0.257709,-0.259243,0.000000,0.593651,-0.590583,0.549165,-0.590583,0.598253,-0.564505
3.6262,0.016744,0.000000,0.000000,0.000000,0.0000,0.0000,2.9062,0.241493,-0.241493,0.001110,0.002040,-0.001990,0.9353,-1.1890,-0.1439,0.257709,-0.259243,0.000000,0.593651,-0.590583,0.549165,-0.590583,0.598253,-0.564505
3.6430,0.016756,0.000000,0.000000,0.000000,0.0000,0.0000,2.9124,0.235840,-0.235840,0.001073,0.002075,-0.001979,0.9808,-1.2024,-0.0956,0.256175,-0.257709,0.000000,0.595185,-0.590583,0.549165,-0.590583,0.598253,-0.564505
3.6597,0.016794,0.000000,0.000000,0.000000,0.0000,0.0000,2.9183,0.229518,-0.229518,0.001077,0.002071,-0.001980,0.9760,-1.2010,-0.1006,0.253107,-0.254641,0.000000,0.595185,-0.590583,0.549165,-0.590583,0.598253,-0.564505
3.6765,0.016766,0.000000,0.000000,0.000000,0.0000,0.0000,2.9241,0.222569,-0.222569,0.001077,0.002071,-0.001980,0.9760,-1.2010,-0.1006,0.250039,-0.253107,0.000000,0.595185,-0.590583,0.549165,-0.590583,0.598253,-0.564505
3.6933,0.016741,0.000000,0.000000,0.000000,0.0000,0.0000,2.9296,0.215015,-0.215015,0.001077,0.002071,-0.001980,0.9760,-1.2010,-0.1006,0.245437,-0.250039,0.000000,0.595185,-0.590583,0.549165,-0.590583,0.598253,-0.564505
3.7100,0.016764,0.000000,0.000000,0.000000,0.0000,0.0000,2.9350,0.206855,-0.206855,0.001077,0.002071,-0.001980,0.9760,-1.2010,-0.1006,0.245437,-0.250039,0.000000,0.595185,-0.590583,0.549165,-0.590583,0.598253,-0.564505
3.7268,0.016744,0.000000,0.000000,0.000000,0.0000,0.0000,2.9401,0.198131,-0.198131,0.001077,0.002071,-0.001980,0.9760,-1.2010,-0.1006,0.237767,-0.240835,0.000000,0.595185,-0.590583,0.549165,-0.590583,0.598253,-0.564505
3.7435,0.016753,0.000000,0.000000,0.000000,0.0000,0.0000,2.9450,0.188855,-0.188855,0.001077,0.002071,-0.001980,0.9760,-1.2010,-0.1006,0.230097,-0.230097,0.000000,0.595185,-0.590583,0.549165,-0.590583,0.598253,-0.564505
3.7603,0.016743,0.000000,0.000000,0.000000,0.0000,0.0000,2.9497,0.179061,-0.179061,0.001077,0.002071,-0.001980,0.9760,-1.2010,-0.1006,0.219359,-0.222427,0.000000,0.595185,-0.590583,0.549165,-0.590583,0.598253,-0.564505
3.7770,0.016783,0.000000,0.000000,0.000000,0.0000,0.0000,2.9542,0.168747,-0.168747,0.001021,0.002055,-0.001992,1.0154,-1.1674,-0.1543,0.211689,-0.211689,0.000000,0.595185,-0.590583,0.549165,-0.590583,0.596719,-0.564505
3.7938,0.016745,0.000000,0.000000,0.000000,0.0000,0.0000,2.9585,0.157989,-0.157989,0.001082,0.002073,-0.001979,0.9724,-1.2047,-0.0945,0.197884,-0.202485,0.000000,0.595185,-0.590583,0.549165,-0.590583,0.598253,-0.564505
3.8105,0.016751,0.000000,0.000000,0.000000,0.0000,0.0000,2.9626,0.146790,-0.146790,0.001082,0.002073,-0.001979,0.9724,-1.2047,-0.0945,0.197884,-0.202485,0.000000,0.595185,-0.590583,0.549165,-0.590583,0.598253,-0.564505
3.8273,0.016742,0.000000,0.000000,0.000000,0.0000,0.0000,2.9665,0.135190,-0.135190,0.001076,0.002071,-0.001981,0.9769,-1.2008,-0.1008,0.185612,-0.194816,0.000000,0.595185,-0.590583,0.549165,-0.590583,0.598253,-0.564505
3.8440,0.016749,0.000000,0.000000,0.000000,0.0000,0.0000,2.9701,0.123212,-0.123212,0.001076,0.002071,-0.001981,0.9769,-1.2008,-0.1008,0.170272,-0.182544,0.000000,0.595185,-0.590583,0.549165,-0.590583,0.598253,-0.564505
3.8608,0.016742,0.000000,0.000000,0.000000,0.0000,0.0000,2.9736,0.110898,-0.110898,0.001076,0.002071,-0.001981,0.9769,-1.2008,-0.1008,0.159534,-0.171806,0.000000,0.595185,-0.590583,0.549165,-0.590583,0.598253,-0.564505
3.8775,0.016746,0.000000,0.000000,0.000000,0.0000,0.0000,2.9768,0.098274,-0.098274,0.001076,0.002071,-0.001981,0.9769,-1.2008,-0.1008,0.148796,-0.156466,0.000000,0.595185,-0.590583,0.549165,-0.590583,0.598253,-0.564505
3.8943,0.016742,0.000000,0.000000,0.000000,0.0000,0.0000,2.9798,0.085381,-0.085381,0.001076,0.002071,-0.001981,0.9769,-1.2008,-0.1008,0.138058,-0.145728,0.000000,0.595185,-0.590583,0.549165,-0.590583,0.598253,-0.564505
3.9110,0.016760,0.000000,0.000000,0.000000,0.0000,0.0000,2.9827,0.072238,-0.072238,0.001076,0.002071,-0.001981,0.9769,-1.2008,-0.1008,0.138058,-0.145728,0.000000,0.595185,-0.590583,0.549165,-0.590583,0.598253,-0.564505
3.9278,0.016743,0.000000,0.000000,0.000000,0.0000,0.0000,2.9853,0.058908,-0.058908,0.001076,0.002071,-0.001981,0.9769,-1.2008,-0.1008,0.121184,-0.127320,0.000000,0.595185,-0.590583,0.549165,-0.590583,0.598253,-0.564505
3.9445,0.016752,0.000000,0.000000,0.000000,0.0000,0.0000,2.9877,0.045408,-0.045408,0.001076,0.002071,-0.001981,0.9769,-1.2008,-0.1008,0.105845,-0.113515,0.000000,0.595185,-0.590583,0.549165,-0.590583,0.598253,-0.564505
3.9612,0.016739,0.000000,0.000000,0.000000,0.0000,0.0000,2.9898,0.031793,-0.031793,0.001076,0.002071,-0.001981,0.9769,-1.2008,-0.1008,0.092039,-0.099709,0.000000,0.595185,-0.590583,0.549165,-0.590583,0.598253,-0.564505
3.9780,0.016750,0.000000,0.000000,0.000000,0.0000,0.0000,2.9918,0.018081,-0.018081,0.001076,0.002071,-0.001981,0.9769,-1.2008,-0.1008,0.076699,-0.084369,0.000000,0.595185,-0.590583,0.549165,-0.590583,0.598253,-0.564505
3.9947,0.016740,0.000000,0.000000,0.000000,0.0000,0.0000,2.9936,0.004327,-0.004327,0.001076,0.002071,-0.001981,0.9769,-1.2008,-0.1008,0.059825,-0.064427,0.000000,0.595185,-0.590583,0.549165,-0.590583,0.598253,-0.564505
4.0115,0.016754,0.000000,0.000000,0.000000,0.0000,0.0000,2.9951,-0.009451,0.009451,0.001076,0.002071,-0.001981,0.9769,-1.2008,-0.1008,0.059825,-0.064427,0.000000,0.595185,-0.590583,0.549165,-0.590583,0.598253,-0.564505
4.0282,0.016740,0.000000,0.000000,0.000000,0.0000,0.0000,2.9965,-0.023191,0.023191,0.001076,0.002071,-0.001981,0.9769,-1.2008,-0.1008,0.041417,-0.044485,0.000000,0.595185,-0.590583,0.549165,-0.590583,0.598253,-0.564505
4.0450,0.016752,0.000000,0.000000,0.000000,0.0000,0.0000,2.9976,-0.036876,0.036876,0.001076,0.002071,-0.001981,0.9769,-1.2008,-0.1008,0.024544,-0.024544,0.000000,0.595185,-0.590583,0.549165,-0.590583,0.598253,-0.564505
4.0617,0.016739,0.000000,0.000000,0.000000,0.0000,0.0000,2.9985,-0.050449,0.050449,0.001076,0.002071,-0.001981,0.9769,-1.2008,-0.1008,0.007670,-0.004602,0.000000,0.595185,-0.590583,0.549165,-0.590583,0.598253,-0.564505
4.0785,0.016759,0.000000,0.000000,0.000000,0.0000,0.0000,2.9992,-0.063898,0.063898,0.001076,0.002071,-0.001981,0.9769,-1.2008,-0.1008,-0.007670,0.006136,0.000000,0.595185,-0.590583,0.549165,-0.590583,0.598253,-0.564505
4.0952,0.016741,0.000000,0.000000,0.000000,0.0000,0.0000,2.9997,-0.077156,0.077156,0.001076,0.002071,-0.001981,0.9769,-1.2008,-0.1008,-0.046019,0.038350,0.000000,0.595185,-0.590583,0.549165,-0.590583,0.598253,-0.564505
4.1120,0.016756,0.000000,0.000000,0.000000,0.0000,0.0000,2.9999,-0.090213,0.090213,0.001076,0.002071,-0.001981,0.9769,-1.2008,-0.1008,-0.046019,0.038350,0.000000,0.595185,-0.590583,0.549165,-0.590583,0.598253,-0.564505
4.1287,0.016716,0.000000,0.000000,0.000000,0.0000,0.0000,3.0000,-0.102989,0.102989,0.001076,0.002071,-0.001981,0.9769,-1.2008,-0.1008,-0.061359,0.058291,0.000000,0.595185,-0.590583,0.549165,-0.590583,0.598253,-0.564505
4.1455,0.016757,0.000000,0.000000,0.000000,0.0000,0.0000,2.9998,-0.115512,0.115512,0.001076,0.002071,-0.001981,0.9769,-1.2008,-0.1008,-0.075165,0.076699,0.000000,0.595185,-0.590583,0.549165,-0.590583,0.598253,-0.564505
4.1622,0.016746,0.000000,0.000000,0.000000,0.0000,0.0000,2.9995,-0.127706,0.127706,0.001076,0.002071,-0.001981,0.9769,-1.2008,-0.1008,-0.085903,0.087437,0.000000,0.595185,-0.590583,0.549165,-0.590583,0.598253,-0.564505
4.1790,0.016797,0.000000,0.000000,0.000000,0.0000,0.0000,2.9989,-0.139583,0.139583,0.001076,0.002071,-0.001981,0.9769,-1.2008,-0.1008,-0.101243,0.098175,0.000000,0.595185,-0.590583,0.549165,-0.590583,0.598253,-0.564505
4.1958,0.016805,0.000000,0.000000,0.000000,0.0000,0.0000,2.9981,-0.151076,0.151076,0.001076,0.002071,-0.001981,0.9769,-1.2008,-0.1008,-0.119651,0.119651,0.000000,0.595185,-0.590583,0.549165,-0.590583,0.598253,-0.564505
4.2126,0.016752,0.000000,0.000000,0.000000,0.0000,0.0000,2.9971,-0.162114,0.162114,0.001076,0.002071,-0.001981,0.9769,-1.2008,-0.1008,-0.119651,0.119651,0.000000,0.595185,-0.590583,0.549165,-0.590583,0.598253,-0.564505
4.2294,0.016805,0.000000,0.000000,0.000000,0.0000,0.0000,2.9959,-0.172736,0.172736,0.001076,0.002071,-0.001981,0.9769,-1.2008,-0.1008,-0.141126,0.138058,0.000000,0.595185,-0.590583,0.549165,-0.590583,0.598253,-0.564505
4.2493,0.019975,0.000000,0.000000,0.000000,0.0000,0.0000,2.9941,-0.184733,0.184733,0.001076,0.002071,-0.001981,0.9769,-1.2008,-0.1008,-0.141126,0.138058,0.000000,0.595185,-0.590583,0.549165,-0.590583,0.598253,-0.564505
4.2661,0.016747,0.000000,0.000000,0.000000,0.0000,0.0000,2.9925,-0.194233,0.194233,0.001076,0.002071,-0.001981,0.9769,-1.2008,-0.1008,-0.154932,0.150330,0.000000,0.595185,-0.590583,0.549165,-0.590583,0.598253,-0.564505
4.2828,0.016767,0.000000,0.000000,0.000000,0.0000,0.0000,2.9906,-0.203206,0.203206,0.001076,0.002071,-0.001981,0.9769,-1.2008,-0.1008,-0.154932,0.150330,0.000000,0.595185,-0.590583,0.549165,-0.590583,0.598253,-0.564505
4.2996,0.016750,0.000000,0.000000,0.000000,0.0000,0.0000,2.9885,-0.211606,0.211606,0.001076,0.002071,-0.001981,0.9769,-1.2008,-0.1008,-0.153398,0.150330,0.000000,0.595185,-0.590583,0.549165,-0.590583,0.598253,-0.564505
4.3164,0.016753,0.000000,0.000000,0.000000,0.0000,0.0000,2.9861,-0.219422,0.219422,0.001076,0.002071,-0.001981,0.9769,-1.2008,-0.1008,-0.161068,0.159534,0.000000,0.595185,-0.590583,0.549165,-0.590583,0.598253,-0.564505
4.3331,0.016741,0.000000,0.000000,0.000000,0.0000,0.0000,2.9836,-0.226626,0.226626,0.001076,0.002071,-0.001981,0.9769,-1.2008,-0.1008,-0.184078,0.182544,0.000000,0.595185,-0.590583,0.549165,-0.590583,0.598253,-0.564505
4.3499,0.016762,0.000000,0.000000,0.000000,0.0000,0.0000,2.9809,-0.233211,0.233211,0.001076,0.002071,-0.001981,0.9769,-1.2008,-0.1008,-0.210155,0.210155,0.000000,0.595185,-0.590583,0.549165,-0.590583,0.598253,-0.564505
4.3666,0.016740,0.000000,0.000000,0.000000,0.0000,0.0000,2.9779,-0.239142,0.239142,0.001076,0.002071,-0.001981,0.9769,-1.2008,-0.1008,-0.230097,0.228563,0.000000,0.595185,-0.590583,0.549165,-0.590583,0.598253,-0.564505
4.3834,0.016756,0.000000,0.000000,0.000000,0.0000,0.0000,2.9747,-0.244416,0.244416,0.001076,0.002071,-0.001981,0.9769,-1.2008,-0.1008,-0.230097,0.228563,0.000000,0.595185,-0.590583,0.549165,-0.590583,0.598253,-0.564505
4.4001,0.016741,0.000000,0.000000,0.000000,0.0000,0.0000,2.9714,-0.249009,0.249009,0.001076,0.002071,-0.001981,0.9769,-1.2008,-0.1008,-0.231631,0.230097,0.000000,0.595185,-0.590583,0.549165,-0.590583,0.598253,-0.564505
4.4168,0.016749,0.000000,0.000000,0.000000,0.0000,0.0000,2.9678,-0.252916,0.252916,0.001076,0.002071,-0.001981,0.9769,-1.2008,-0.1008,-0.228563,0.228563,0.000000,0.595185,-0.590583,0.549165,-0.590583,0.598253,-0.564505
4.4336,0.016742,0.000000,0.000000,0.000000,0.0000,0.0000,2.9640,-0.256121,0.256121,0.001076,0.002071,-0.001981,0.9769,-1.2008,-0.1008,-0.240835,0.240835,0.000000,0.595185,-0.590583,0.549165,-0.590583,0.598253,-0.564505
4.4503,0.016746,0.000000,0.000000,0.000000,0.0000,0.0000,2.9600,-0.258618,0.258618,0.001076,0.002071,-0.001981,0.9769,-1.2008,-0.1008,-0.253107,0.250039,0.000000,0.595185,-0.590583,0.549165,-0.590583,0.598253,-0.564505
4.4671,0.016740,0.000000,0.000000,0.000000,0.0000,0.0000,2.9558,-0.260400,0.260400,0.001076,0.002071,-0.001981,0.9769,-1.2008,-0.1008,-0.254641,0.254641,0.000000,0.595185,-0.590583,0.549165,-0.590583,0.598253,-0.564505
4.4838,0.016757,0.000000,0.000000,0.000000,0.0000,0.0000,2.9513,-0.261461,0.261461,0.001076,0.002071,-0.001981,0.9769,-1.2008,-0.1008,-0.254641,0.254641,0.000000,0.595185,-0.590583,0.549165,-0.590583,0.598253,-0.564505
4.5006,0.016739,0.000000,0.000000,0.000000,0.0000,0.0000,2.9467,-0.261799,0.261799,0.001076,0.002071,-0.001981,0.9769,-1.2008,-0.1008,-0.253107,0.254641,0.000000,0.595185,-0.590583,0.549165,-0.590583,0.598253,-0.564505
4.5173,0.016745,0.000000,0.000000,0.000000,0.0000,0.0000,2.9419,-0.261412,0.261412,0.001076,0.002071,-0.001981,0.9769,-1.2008,-0.1008,-0.259243,0.257709,0.000000,0.595185,-0.590583,0.549165,-0.590583,0.598253,-0.564505
4.5341,0.016745,0.000000,0.000000,0.000000,0.0000,0.0000,2.9368,-0.260303,0.260303,0.001076,0.002071,-0.001981,0.9769,-1.2008,-0.1008,-0.262311,0.257709,0.000000,0.595185,-0.590583,0.549165,-0.590583,0.598253,-0.564505
