t,loop_dt,cmd_x,cmd_y,cmd_z,cmd_roll,cmd_pitch,cmd_yaw,cmd_ant_l,cmd_ant_r,pres_x,pres_y,pres_z,pres_roll,pres_pitch,pres_yaw,pres_ant_l,pres_ant_r,pres_j0,pres_j1,pres_j2,pres_j3,pres_j4,pres_j5,pres_j6
0.0000,0.000001,0.000942,0.000970,-0.001645,-0.9465,-0.7914,0.8067,-0.179476,0.176408,0.000942,0.000970,-0.001645,-0.9465,-0.7914,0.8067,-0.179476,0.176408,0.000000,0.584447,-0.576777,0.572175,-0.590583,0.621262,-0.585981
0.0167,0.016745,0.000927,0.000954,-0.001618,-0.9305,-0.7783,0.7931,-0.179393,0.176376,0.000997,0.000950,-0.001633,-0.8992,-0.8276,0.7411,-0.179476,0.176408,0.000000,0.584447,-0.578311,0.572175,-0.590583,0.621262,-0.585981
0.0335,0.016766,0.000911,0.000937,-0.001590,-0.9146,-0.7651,0.7794,-0.179310,0.176345,0.000992,0.000952,-0.001634,-0.9042,-0.8239,0.7480,-0.179476,0.176408,0.000000,0.584447,-0.578311,0.572175,-0.590583,0.621262,-0.585981
0.0503,0.016741,0.000895,0.000921,-0.001563,-0.8986,-0.7520,0.7658,-0.179227,0.176314,0.000992,0.000952,-0.001634,-0.9042,-0.8239,0.7480,-0.179476,0.176408,0.000000,0.584447,-0.578311,0.572175,-0.590583,0.621262,-0.585981
0.0691,0.018877,0.000877,0.000903,-0.001532,-0.8807,-0.7372,0.7505,-0.179134,0.176278,0.000992,0.000952,-0.001634,-0.9042,-0.8239,0.7480,-0.179476,0.176408,0.000000,0.584447,-0.578311,0.572175,-0.590583,0.621262,-0.585981
0.0859,0.016743,0.000861,0.000887,-0.001504,-0.8648,-0.7240,0.7369,-0.179051,0.176247,0.000978,0.001038,-0.001697,-0.9714,-0.7717,0.8011,-0.181010,0.176408,0.000000,0.582913,-0.575243,0.570641,-0.590583,0.621262,-0.584447
0.1027,0.016857,0.000845,0.000870,-0.001476,-0.8487,-0.7108,0.7232,-0.178968,0.176215,0.001142,0.001043,-0.001829,-1.0044,-0.5414,0.8463,-0.179476,0.176408,0.000000,0.576777,-0.572175,0.570641,-0.590583,0.619728,-0.578311
0.1195,0.016755,0.000830,0.000854,-0.001449,-0.8328,-0.6976,0.7096,-0.178885,0.176184,0.001234,0.001134,-0.001880,-0.9398,-0.4626,1.0010,-0.181010,0.176408,0.000000,0.575243,-0.570641,0.570641,-0.590583,0.619728,-0.573709
0.1364,0.016937,0.000814,0.000838,-0.001421,-0.8167,-0.6843,0.6959,-0.178801,0.176152,0.001212,0.001102,-0.001863,-1.0330,-0.4180,1.1464,-0.179476,0.176408,0.000000,0.575243,-0.569107,0.572175,-0.590583,0.621262,-0.573709
0.1532,0.016782,0.000798,0.000821,-0.001393,-0.8008,-0.6711,0.6823,-0.178718,0.176121,0.001212,0.001102,-0.001863,-1.0330,-0.4180,1.1464,-0.179476,0.176408,0.000000,0.575243,-0.569107,0.572175,-0.590583,0.621262,-0.573709
0.1700,0.016755,0.000782,0.000805,-0.001366,-0.7848,-0.6579,0.6687,-0.178636,0.176089,0.001201,0.001160,-0.001852,-1.0139,-0.3712,1.0768,-0.181010,0.176408,0.000000,0.575243,-0.569107,0.572175,-0.592117,0.621262,-0.573709
0.1868,0.016815,0.000766,0.000789,-0.001338,-0.7689,-0.6447,0.6550,-0.178553,0.176058,0.001257,0.001138,-0.001879,-0.9752,-0.4103,1.1917,-0.181010,0.176408,0.000000,0.575243,-0.569107,0.572175,-0.590583,0.621262,-0.572175
0.2035,0.016753,0.000751,0.000772,-0.001310,-0.7530,-0.6315,0.6414,-0.178470,0.176026,0.001182,0.001163,-0.001862,-0.8928,-0.4915,1.0185,-0.181010,0.176408,0.000000,0.576777,-0.570641,0.570641,-0.590583,0.619728,-0.573709
0.2203,0.016749,0.000735,0.000756,-0.001283,-0.7370,-0.6183,0.6279,-0.178387,0.175995,0.001176,0.001137,-0.001889,-0.9904,-0.4320,1.0364,-0.181010,0.176408,0.000000,0.575243,-0.569107,0.570641,-0.590583,0.619728,-0.573709
0.2371,0.016776,0.000719,0.000740,-0.001255,-0.7211,-0.6051,0.6143,-0.178304,0.175963,0.001177,0.001140,-0.001886,-0.9802,-0.4382,1.0345,-0.181010,0.176408,0.000000,0.575243,-0.569107,0.570641,-0.590583,0.619728,-0.573709
0.2538,0.016740,0.000703,0.000724,-0.001228,-0.7052,-0.5919,0.6007,-0.178221,0.175932,0.001177,0.001140,-0.001886,-0.9802,-0.4382,1.0345,-0.181010,0.176408,0.000000,0.575243,-0.569107,0.570641,-0.590583,0.619728,-0.573709
0.2706,0.016759,0.000687,0.000707,-0.001200,-0.6893,-0.5787,0.5871,-0.178138,0.175901,0.001218,0.001069,-0.001861,-0.9521,-0.4222,1.0345,-0.181010,0.176408,0.000000,0.575243,-0.570641,0.572175,-0.590583,0.619728,-0.573709
0.2873,0.016758,0.000672,0.000691,-0.001173,-0.6734,-0.5655,0.5736,-0.178056,0.175869,0.001213,0.001077,-0.001864,-0.9550,-0.4239,1.0345,-0.181010,0.176408,0.000000,0.575243,-0.570641,0.572175,-0.590583,0.619728,-0.573709
0.3043,0.017036,0.000656,0.000675,-0.001145,-0.6573,-0.5520,0.5598,-0.177971,0.175837,0.001213,0.001077,-0.001864,-0.9550,-0.4239,1.0345,-0.181010,0.176408,0.000000,0.575243,-0.570641,0.572175,-0.590583,0.619728,-0.573709
0.3211,0.016751,0.000640,0.000658,-0.001117,-0.6414,-0.5388,0.5462,-0.177889,0.175806,0.001160,0.001092,-0.001875,-0.9937,-0.3880,1.0878,-0.179476,0.176408,0.000000,0.575243,-0.569107,0.572175,-0.590583,0.619728,-0.573709
0.3379,0.016782,0.000624,0.000642,-0.001089,-0.6255,-0.5256,0.5327,-0.177806,0.175774,0.001233,0.001161,-0.001876,-1.0177,-0.4768,1.0843,-0.179476,0.176408,0.000000,0.575243,-0.569107,0.570641,-0.590583,0.621262,-0.573709
0.3546,0.016768,0.000608,0.000626,-0.001062,-0.6096,-0.5123,0.5191,-0.177723,0.175743,0.001233,0.001161,-0.001876,-1.0177,-0.4768,1.0843,-0.179476,0.176408,0.000000,0.575243,-0.569107,0.570641,-0.590583,0.621262,-0.573709
0.3714,0.016750,0.000592,0.000610,-0.001034,-0.5937,-0.4991,0.5056,-0.177640,0.175711,0.001225,0.001154,-0.001876,-1.0152,-0.4676,1.0846,-0.179476,0.176408,0.000000,0.575243,-0.569107,0.570641,-0.590583,0.621262,-0.573709
0.3881,0.016741,0.000577,0.000593,-0.001007,-0.5778,-0.4859,0.4920,-0.177557,0.175680,0.001172,0.001138,-0.001887,-0.9777,-0.4344,1.0295,-0.179476,0.176408,0.000000,0.575243,-0.569107,0.570641,-0.590583,0.619728,-0.573709
0.4049,0.016756,0.000561,0.000577,-0.000979,-0.5619,-0.4726,0.4785,-0.177474,0.175649,0.001231,0.001124,-0.001874,-0.9426,-0.4737,0.9819,-0.181010,0.176408,0.000000,0.575243,-0.570641,0.570641,-0.590583,0.619728,-0.573709
0.4216,0.016746,0.000545,0.000561,-0.000952,-0.5461,-0.4594,0.4650,-0.177392,0.175617,0.001171,0.001142,-0.001887,-0.9852,-0.4338,1.0402,-0.179476,0.176408,0.000000,0.575243,-0.569107,0.570641,-0.590583,0.619728,-0.573709
0.4384,0.016797,0.000529,0.000545,-0.000924,-0.5302,-0.4461,0.4514,-0.177309,0.175586,0.001177,0.001140,-0.001886,-0.9808,-0.4380,1.0341,-0.179476,0.176408,0.000000,0.575243,-0.569107,0.570641,-0.590583,0.619728,-0.573709
0.4552,0.016745,0.000513,0.000528,-0.000896,-0.5143,-0.4329,0.4379,-0.177226,0.175554,0.001177,0.001140,-0.001886,-0.9808,-0.4380,1.0341,-0.179476,0.176408,0.000000,0.575243,-0.569107,0.570641,-0.590583,0.619728,-0.573709
0.4719,0.016765,0.000498,0.000512,-0.000869,-0.4984,-0.4196,0.4243,-0.177143,0.175523,0.001177,0.001140,-0.001886,-0.9808,-0.4380,1.0341,-0.179476,0.176408,0.000000,0.575243,-0.569107,0.570641,-0.590583,0.619728,-0.573709
0.4887,0.016748,0.000482,0.000496,-0.000841,-0.4826,-0.4064,0.4108,-0.177060,0.175492,0.001177,0.001140,-0.001886,-0.9808,-0.4380,1.0341,-0.179476,0.176408,0.000000,0.575243,-0.569107,0.570641,-0.590583,0.619728,-0.573709
0.5055,0.016766,0.000466,0.000480,-0.000814,-0.4667,-0.3931,0.3973,-0.176977,0.175460,0.001163,0.001085,-0.001873,-0.9910,-0.3865,1.0878,-0.179476,0.176408,0.000000,0.575243,-0.569107,0.572175,-0.590583,0.619728,-0.573709
0.5222,0.016747,0.000450,0.000463,-0.000786,-0.4508,-0.3798,0.3838,-0.176895,0.175429,0.001165,0.001091,-0.001874,-0.9900,-0.3919,1.0822,-0.179476,0.176408,0.000000,0.575243,-0.569107,0.572175,-0.590583,0.619728,-0.573709
0.5390,0.016780,0.000434,0.000447,-0.000759,-0.4350,-0.3666,0.3703,-0.176812,0.175397,0.001165,0.001091,-0.001874,-0.9900,-0.3919,1.0822,-0.181010,0.176408,0.000000,0.575243,-0.569107,0.570641,-0.590583,0.619728,-0.573709
0.5557,0.016746,0.000419,0.000431,-0.000731,-0.4191,-0.3533,0.3568,-0.176729,0.175366,0.001178,0.001145,-0.001887,-0.9803,-0.4423,1.0297,-0.181010,0.176408,0.000000,0.575243,-0.569107,0.570641,-0.590583,0.619728,-0.573709
0.5725,0.016757,0.000403,0.000415,-0.000703,-0.4033,-0.3400,0.3433,-0.176646,0.175334,0.001176,0.001139,-0.001886,-0.9813,-0.4371,1.0352,-0.179476,0.176408,0.000000,0.575243,-0.569107,0.570641,-0.590583,0.619728,-0.573709
0.5892,0.016747,0.000387,0.000398,-0.000676,-0.3874,-0.3267,0.3298,-0.176563,0.175303,0.001176,0.001139,-0.001886,-0.9813,-0.4371,1.0352,-0.179476,0.176408,0.000000,0.575243,-0.569107,0.570641,-0.590583,0.619728,-0.573709
0.6060,0.016760,0.000371,0.000382,-0.000648,-0.3716,-0.3135,0.3163,-0.176480,0.175272,0.001176,0.001139,-0.001886,-0.9813,-0.4371,1.0352,-0.181010,0.176408,0.000000,0.575243,-0.569107,0.570641,-0.590583,0.619728,-0.573709
0.6227,0.016750,0.000355,0.000366,-0.000621,-0.3558,-0.3002,0.3028,-0.176398,0.175240,0.001176,0.001139,-0.001886,-0.9813,-0.4371,1.0352,-0.179476,0.176408,0.000000,0.575243,-0.569107,0.570641,-0.590583,0.619728,-0.573709
0.6395,0.016780,0.000340,0.000350,-0.000593,-0.3399,-0.2869,0.2893,-0.176315,0.175209,0.001176,0.001139,-0.001886,-0.9813,-0.4371,1.0352,-0.179476,0.176408,0.000000,0.575243,-0.569107,0.570641,-0.590583,0.619728,-0.573709
0.6563,0.016753,0.000324,0.000333,-0.000566,-0.3241,-0.2736,0.2758,-0.176232,0.175177,0.001176,0.001139,-0.001886,-0.9813,-0.4371,1.0352,-0.181010,0.176408,0.000000,0.575243,-0.569107,0.570641,-0.590583,0.619728,-0.573709
0.6730,0.016752,0.000308,0.000317,-0.000538,-0.3083,-0.2603,0.2623,-0.176149,0.175146,0.001231,0.001124,-0.001874,-0.9422,-0.4734,0.9813,-0.179476,0.176408,0.000000,0.575243,-0.570641,0.570641,-0.590583,0.619728,-0.573709
0.6898,0.016749,0.000292,0.000301,-0.000510,-0.2924,-0.2470,0.2488,-0.176066,0.175115,0.001171,0.001142,-0.001887,-0.9852,-0.4338,1.0402,-0.179476,0.176408,0.000000,0.575243,-0.569107,0.570641,-0.590583,0.619728,-0.573709
0.7065,0.016763,0.000277,0.000285,-0.000483,-0.2766,-0.2337,0.2354,-0.175983,0.175083,0.001164,0.001085,-0.001873,-0.9906,-0.3869,1.0872,-0.179476,0.176408,0.000000,0.575243,-0.569107,0.572175,-0.590583,0.619728,-0.573709
0.7233,0.016748,0.000261,0.000268,-0.000455,-0.2608,-0.2204,0.2219,-0.175901,0.175052,0.001232,0.001130,-0.001875,-0.9412,-0.4786,0.9759,-0.179476,0.176408,0.000000,0.575243,-0.570641,0.570641,-0.590583,0.619728,-0.573709
0.7401,0.016838,0.000245,0.000252,-0.000428,-0.2449,-0.2070,0.2084,-0.175817,0.175020,0.001232,0.001130,-0.001875,-0.9412,-0.4786,0.9759,-0.179476,0.176408,0.000000,0.575243,-0.570641,0.570641,-0.590583,0.619728,-0.573709
0.7569,0.016752,0.000229,0.000236,-0.000400,-0.2291,-0.1937,0.1949,-0.175735,0.174989,0.001225,0.001125,-0.001875,-0.9464,-0.4691,0.9875,-0.177942,0.176408,0.000000,0.575243,-0.570641,0.570641,-0.590583,0.619728,-0.573709
0.7737,0.016819,0.000213,0.000219,-0.000372,-0.2132,-0.1803,0.1814,-0.175651,0.174957,0.001172,0.001141,-0.001887,-0.9848,-0.4343,1.0396,-0.179476,0.176408,0.000000,0.575243,-0.569107,0.570641,-0.590583,0.619728,-0.573709
0.7927,0.018997,0.000195,0.000201,-0.000341,-0.1953,-0.1652,0.1661,-0.175558,0.174922,0.001172,0.001141,-0.001887,-0.9848,-0.4343,1.0396,-0.179476,0.176408,0.000000,0.575243,-0.569107,0.570641,-0.590583,0.619728,-0.573709
0.8100,0.017267,0.000179,0.000184,-0.000313,-0.1790,-0.1514,0.1523,-0.175472,0.174889,0.001172,0.001141,-0.001887,-0.9848,-0.4343,1.0396,-0.179476,0.176408,0.000000,0.575243,-0.569107,0.570641,-0.590583,0.619728,-0.573709
0.8267,0.016746,0.000163,0.000168,-0.000285,-0.1632,-0.1381,0.1388,-0.175389,0.174858,0.001177,0.001140,-0.001886,-0.9808,-0.4379,1.0342,-0.179476,0.176408,0.000000,0.575243,-0.569107,0.570641,-0.590583,0.619728,-0.573709
0.8435,0.016750,0.000148,0.000152,-0.000258,-0.1474,-0.1248,0.1254,-0.175307,0.174826,0.001231,0.001124,-0.001874,-0.9422,-0.4733,0.9815,-0.179476,0.176408,0.000000,0.575243,-0.570641,0.570641,-0.590583,0.619728,-0.573709
0.8602,0.016749,0.000132,0.000136,-0.000230,-0.1316,-0.1114,0.1120,-0.175224,0.174795,0.001231,0.001124,-0.001874,-0.9422,-0.4733,0.9815,-0.179476,0.176408,0.000000,0.575243,-0.570641,0.570641,-0.590583,0.619728,-0.573709
0.8770,0.016753,0.000116,0.000119,-0.000202,-0.1159,-0.0981,0.0985,-0.175141,0.174764,0.001171,0.001142,-0.001887,-0.9852,-0.4338,1.0402,-0.177942,0.176408,0.000000,0.575243,-0.569107,0.570641,-0.590583,0.619728,-0.573709
0.8937,0.016747,0.000100,0.000103,-0.000175,-0.1001,-0.0848,0.0851,-0.175058,0.174732,0.001177,0.001140,-0.001886,-0.9808,-0.4380,1.0341,-0.177942,0.176408,0.000000,0.575243,-0.569107,0.570641,-0.590583,0.619728,-0.573709
0.9108,0.017127,0.000084,0.000086,-0.000147,-0.0839,-0.0711,0.0714,-0.174974,0.174700,0.001231,0.001124,-0.001874,-0.9422,-0.4733,0.9815,-0.177942,0.176408,0.000000,0.575243,-0.570641,0.570641,-0.590583,0.619728,-0.573709
0.9276,0.016744,0.000068,0.000070,-0.000119,-0.0682,-0.0578,0.0580,-0.174891,0.174669,0.001158,0.001087,-0.001874,-0.9950,-0.3828,1.0933,-0.177942,0.176408,0.000000,0.575243,-0.569107,0.572175,-0.590583,0.619728,-0.573709
0.9443,0.016747,0.000052,0.000054,-0.000092,-0.0524,-0.0444,0.0446,-0.174808,0.174637,0.001158,0.001087,-0.001874,-0.9950,-0.3828,1.0933,-0.177942,0.176408,0.000000,0.576777,-0.570641,0.570641,-0.590583,0.619728,-0.573709
0.9611,0.016750,0.000037,0.000038,-0.000064,-0.0366,-0.0311,0.0312,-0.174725,0.174606,0.001192,0.001168,-0.001863,-0.8907,-0.4944,1.0288,-0.177942,0.176408,0.000000,0.576777,-0.570641,0.570641,-0.590583,0.619728,-0.573709
0.9778,0.016747,0.000021,0.000022,-0.000036,-0.0209,-0.0177,0.0177,-0.174643,0.174575,0.001176,0.001105,-0.001851,-0.9114,-0.4317,1.0886,-0.177942,0.176408,0.000000,0.576777,-0.570641,0.572175,-0.590583,0.619728,-0.573709
0.9946,0.016768,0.000005,0.000005,-0.000009,-0.0051,-0.0043,0.0043,-0.174560,0.174543,0.001123,0.001127,-0.001864,-0.9483,-0.4025,1.1357,-0.179476,0.176408,0.000000,0.576777,-0.569107,0.572175,-0.590583,0.619728,-0.573709
1.0113,0.016748,0.000000,0.000000,0.000021,0.0000,0.0000,0.0214,-0.172668,0.172668,0.001183,0.001109,-0.001851,-0.9054,-0.4413,1.0775,-0.177942,0.176408,0.000000,0.576777,-0.570641,0.572175,-0.590583,0.619728,-0.573709
1.0281,0.016748,0.000000,0.000000,0.000053,0.0000,0.0000,0.0529,-0.169915,0.169915,0.001190,0.001166,-0.001865,-0.9001,-0.4883,1.0304,-0.177942,0.176408,0.000000,0.576777,-0.570641,0.570641,-0.590583,0.619728,-0.573709
1.0448,0.016752,0.000000,0.000000,0.000085,0.0000,0.0000,0.0845,-0.167166,0.167166,0.001190,0.001166,-0.001865,-0.9001,-0.4883,1.0304,-0.177942,0.176408,0.000000,0.576777,-0.570641,0.570641,-0.590583,0.619728,-0.573709
1.0616,0.016744,0.000000,0.000000,0.000116,0.0000,0.0000,0.1161,-0.164426,0.164426,0.001135,0.001067,-0.001837,-0.9606,-0.4496,1.0352,-0.176408,0.176408,0.000000,0.576777,-0.570641,0.572175,-0.590583,0.619728,-0.575243
1.0783,0.016746,0.000000,0.000000,0.000148,0.0000,0.0000,0.1476,-0.161695,0.161695,0.001154,0.001132,-0.001853,-0.9444,-0.5047,0.9817,-0.174874,0.176408,0.000000,0.576777,-0.570641,0.570641,-0.590583,0.619728,-0.575243
1.0951,0.016744,0.000000,0.000000,0.000179,0.0000,0.0000,0.1792,-0.158978,0.158978,0.001098,0.001141,-0.001864,-0.9851,-0.4632,1.0405,-0.174874,0.174874,0.000000,0.576777,-0.569107,0.570641,-0.590583,0.619728,-0.575243
1.1118,0.016744,0.000000,0.000000,0.000211,0.0000,0.0000,0.2107,-0.156276,0.156276,0.001158,0.001124,-0.001850,-0.9419,-0.5033,0.9811,-0.174874,0.173340,0.000000,0.576777,-0.570641,0.570641,-0.590583,0.619728,-0.575243
1.1286,0.016760,0.000000,0.000000,0.000242,0.0000,0.0000,0.2423,-0.153589,0.153589,0.001138,0.001071,-0.001839,-0.9562,-0.4481,1.0404,-0.173340,0.171806,0.000000,0.576777,-0.570641,0.572175,-0.590583,0.619728,-0.575243
1.1453,0.016741,0.000000,0.000000,0.000274,0.0000,0.0000,0.2738,-0.150927,0.150927,0.001138,0.001071,-0.001839,-0.9562,-0.4481,1.0404,-0.173340,0.171806,0.000000,0.576777,-0.570641,0.572175,-0.590583,0.619728,-0.575243
1.1621,0.016741,0.000000,0.000000,0.000305,0.0000,0.0000,0.3053,-0.148288,0.148288,0.001153,0.001132,-0.001853,-0.9449,-0.5049,0.9811,-0.168738,0.168738,0.000000,0.576777,-0.570641,0.570641,-0.590583,0.619728,-0.575243
1.1788,0.016744,0.000000,0.000000,0.000336,0.0000,0.0000,0.3368,-0.145675,0.145675,0.001152,0.001125,-0.001852,-0.9461,-0.4990,0.9873,-0.161068,0.167204,0.000000,0.576777,-0.570641,0.570641,-0.590583,0.619728,-0.575243
1.1957,0.016866,0.000000,0.000000,0.000368,0.0000,0.0000,0.3685,-0.143072,0.143072,0.001139,0.001071,-0.001839,-0.9558,-0.4485,1.0397,-0.153398,0.162602,0.000000,0.576777,-0.570641,0.572175,-0.590583,0.619728,-0.575243
1.2124,0.016744,0.000000,0.000000,0.000399,0.0000,0.0000,0.4000,-0.140519,0.140519,0.001113,0.001170,-0.001841,-0.8950,-0.5202,1.0347,-0.150330,0.156466,0.000000,0.578311,-0.570641,0.570641,-0.590583,0.619728,-0.575243
1.2292,0.016752,0.000000,0.000000,0.000430,0.0000,0.0000,0.4314,-0.137998,0.137998,0.001102,0.001105,-0.001828,-0.9112,-0.4617,1.0883,-0.148796,0.148796,0.000000,0.578311,-0.570641,0.572175,-0.590583,0.619728,-0.575243
1.2459,0.016741,0.000000,0.000000,0.000462,0.0000,0.0000,0.4629,-0.135516,0.135516,0.001102,0.001105,-0.001828,-0.9112,-0.4617,1.0883,-0.148796,0.148796,0.000000,0.578311,-0.570641,0.572175,-0.590583,0.619728,-0.575243
1.2626,0.016743,0.000000,0.000000,0.000493,0.0000,0.0000,0.4943,-0.133072,0.133072,0.001104,0.001112,-0.001829,-0.9095,-0.4678,1.0827,-0.145728,0.145728,0.000000,0.578311,-0.570641,0.572175,-0.590583,0.619728,-0.575243
1.2794,0.016743,0.000000,0.000000,0.000524,0.0000,0.0000,0.5257,-0.130670,0.130670,0.001104,0.001112,-0.001829,-0.9095,-0.4678,1.0827,-0.145728,0.142660,0.000000,0.578311,-0.570641,0.572175,-0.590583,0.619728,-0.575243
1.2962,0.016762,0.000000,0.000000,0.000555,0.0000,0.0000,0.5571,-0.128309,0.128309,0.001104,0.001112,-0.001829,-0.9095,-0.4678,1.0827,-0.145728,0.142660,0.000000,0.578311,-0.570641,0.572175,-0.590583,0.619728,-0.575243
1.3129,0.016753,0.000000,0.000000,0.000586,0.0000,0.0000,0.5884,-0.125995,0.125995,0.001104,0.001112,-0.001829,-0.9095,-0.4678,1.0827,-0.144194,0.141126,0.000000,0.578311,-0.570641,0.572175,-0.590583,0.619728,-0.575243
1.3297,0.016778,0.000000,0.000000,0.000617,0.0000,0.0000,0.6198,-0.123726,0.123726,0.001104,0.001112,-0.001829,-0.9095,-0.4678,1.0827,-0.144194,0.141126,0.000000,0.578311,-0.570641,0.572175,-0.590583,0.619728,-0.575243
1.3464,0.016733,0.000000,0.000000,0.000648,0.0000,0.0000,0.6511,-0.121514,0.121514,0.001158,0.001128,-0.001818,-0.9474,-0.5012,1.1385,-0.136524,0.139592,0.000000,0.578311,-0.570641,0.572175,-0.590583,0.621262,-0.575243
1.3636,0.017214,0.000000,0.000000,0.000679,0.0000,0.0000,0.6833,-0.119293,0.119293,0.001152,0.001126,-0.001819,-0.9435,-0.4977,1.1326,-0.128854,0.134990,0.000000,0.578311,-0.570641,0.572175,-0.590583,0.621262,-0.575243
1.3804,0.016744,0.000000,0.000000,0.000710,0.0000,0.0000,0.7145,-0.117189,0.117189,0.001098,0.001110,-0.001830,-0.9061,-0.4640,1.0781,-0.127320,0.128854,0.000000,0.578311,-0.570641,0.572175,-0.590583,0.619728,-0.575243
1.3971,0.016754,0.000000,0.000000,0.000741,0.0000,0.0000,0.7458,-0.115140,0.115140,0.001104,0.001112,-0.001829,-0.9100,-0.4675,1.0838,-0.125786,0.122718,0.000000,0.578311,-0.570641,0.572175,-0.590583,0.619728,-0.575243
1.4139,0.016746,0.000000,0.000000,0.000771,0.0000,0.0000,0.7770,-0.113152,0.113152,0.001104,0.001112,-0.001829,-0.9100,-0.4675,1.0838,-0.124252,0.121184,0.000000,0.578311,-0.570641,0.572175,-0.590583,0.619728,-0.575243
1.4307,0.016818,0.000000,0.000000,0.000802,0.0000,0.0000,0.8083,-0.111217,0.111217,0.001104,0.001112,-0.001829,-0.9100,-0.4675,1.0838,-0.124252,0.121184,0.000000,0.578311,-0.570641,0.572175,-0.590583,0.619728,-0.575243
1.4474,0.016745,0.000000,0.000000,0.000832,0.0000,0.0000,0.8394,-0.109353,0.109353,0.001104,0.001112,-0.001829,-0.9100,-0.4675,1.0838,-0.121184,0.118117,0.000000,0.578311,-0.570641,0.572175,-0.590583,0.619728,-0.575243
1.4642,0.016762,0.000000,0.000000,0.000863,0.0000,0.0000,0.8705,-0.107552,0.107552,0.001104,0.001112,-0.001829,-0.9100,-0.4675,1.0838,-0.118117,0.118117,0.000000,0.578311,-0.570641,0.572175,-0.590583,0.619728,-0.575243
1.4810,0.016751,0.000000,0.000000,0.000893,0.0000,0.0000,0.9016,-0.105820,0.105820,0.001104,0.001112,-0.001829,-0.9100,-0.4675,1.0838,-0.116583,0.116583,0.000000,0.578311,-0.570641,0.572175,-0.590583,0.619728,-0.575243
1.4981,0.017186,0.000000,0.000000,0.000924,0.0000,0.0000,0.9335,-0.104113,0.104113,0.001117,0.001166,-0.001842,-0.8997,-0.5182,1.0301,-0.110447,0.118117,0.000000,0.578311,-0.570641,0.570641,-0.590583,0.619728,-0.575243
1.5149,0.016753,0.000000,0.000000,0.000954,0.0000,0.0000,0.9645,-0.102521,0.102521,0.001102,0.001106,-0.001827,-0.9107,-0.4619,1.0888,-0.108913,0.116583,0.000000,0.578311,-0.570641,0.572175,-0.590583,0.619728,-0.575243
1.5317,0.016762,0.000000,0.000000,0.000984,0.0000,0.0000,0.9954,-0.101000,0.101000,0.001102,0.001106,-0.001827,-0.9107,-0.4619,1.0888,-0.108913,0.116583,0.000000,0.578311,-0.570641,0.572175,-0.590583,0.619728,-0.575243
1.5484,0.016743,0.000000,0.000000,0.001013,0.0000,0.0000,1.0264,-0.099554,0.099554,0.001104,0.001112,-0.001829,-0.9095,-0.4677,1.0827,-0.108913,0.116583,0.000000,0.578311,-0.570641,0.572175,-0.590583,0.619728,-0.575243
1.5651,0.016754,0.000000,0.000000,0.001043,0.0000,0.0000,1.0572,-0.098181,0.098181,0.001022,0.001189,-0.001805,-0.8098,-0.4977,1.1905,-0.107379,0.113515,0.000000,0.581379,-0.570641,0.572175,-0.590583,0.619728,-0.575243
1.5819,0.016741,0.000000,0.000000,0.001073,0.0000,0.0000,1.0881,-0.096886,0.096886,0.000950,0.001258,-0.001783,-0.7206,-0.5249,1.2865,-0.104311,0.110447,0.000000,0.584447,-0.570641,0.572175,-0.590583,0.619728,-0.575243
1.5986,0.016757,0.000000,0.000000,0.001102,0.0000,0.0000,1.1189,-0.095667,0.095667,0.000862,0.001383,-0.001749,-0.6207,-0.5006,1.3295,-0.102777,0.104311,0.000000,0.587515,-0.570641,0.572175,-0.592117,0.619728,-0.575243
1.6154,0.016743,0.000000,0.000000,0.001131,0.0000,0.0000,1.1496,-0.094527,0.094527,0.000722,0.001471,-0.001718,-0.4422,-0.6145,1.5944,-0.101243,0.098175,0.000000,0.593651,-0.570641,0.572175,-0.590583,0.619728,-0.575243
1.6321,0.016749,0.000000,0.000000,0.001160,0.0000,0.0000,1.1803,-0.093467,0.093467,0.000722,0.001471,-0.001718,-0.4422,-0.6145,1.5944,-0.099709,0.096641,0.000000,0.596719,-0.570641,0.572175,-0.590583,0.619728,-0.575243
1.6489,0.016746,0.000000,0.000000,0.001190,0.0000,0.0000,1.2110,-0.092488,0.092488,0.000655,0.001539,-0.001698,-0.3618,-0.6320,1.6745,-0.099709,0.096641,0.000000,0.596719,-0.570641,0.572175,-0.590583,0.619728,-0.575243
1.6656,0.016737,0.000000,0.000000,0.001218,0.0000,0.0000,1.2415,-0.091591,0.091591,0.000593,0.001665,-0.001654,-0.2596,-0.7077,1.8828,-0.099709,0.096641,0.000000,0.601320,-0.570641,0.572175,-0.590583,0.621262,-0.575243
1.6824,0.016776,0.000000,0.000000,0.001247,0.0000,0.0000,1.2721,-0.090775,0.090775,0.000462,0.001713,-0.001647,-0.1339,-0.6950,1.9140,-0.096641,0.095107,0.000000,0.604388,-0.570641,0.572175,-0.590583,0.619728,-0.575243
1.6992,0.016758,0.000000,0.000000,0.001276,0.0000,0.0000,1.3027,-0.090043,0.090043,0.000449,0.001802,-0.001614,-0.0861,-0.7586,2.0738,-0.095107,0.092039,0.000000,0.607456,-0.570641,0.572175,-0.590583,0.621262,-0.575243
1.7159,0.016745,0.000000,0.000000,0.001304,0.0000,0.0000,1.3331,-0.089396,0.089396,0.000354,0.001816,-0.001618,-0.0042,-0.7327,2.0562,-0.093573,0.092039,0.000000,0.608990,-0.570641,0.572175,-0.590583,0.619728,-0.575243
1.7327,0.016756,0.000000,0.000000,0.001333,0.0000,0.0000,1.3635,-0.088833,0.088833,0.000354,0.001816,-0.001618,-0.0042,-0.7327,2.0562,-0.093573,0.092039,0.000000,0.608990,-0.570641,0.572175,-0.590583,0.619728,-0.575243
1.7494,0.016745,0.000000,0.000000,0.001361,0.0000,0.0000,1.3939,-0.088356,0.088356,0.000309,0.001800,-0.001558,0.0270,-0.6959,2.3285,-0.092039,0.092039,0.000000,0.612058,-0.570641,0.575243,-0.590583,0.621262,-0.575243
1.7662,0.016757,0.000000,0.000000,0.001389,0.0000,0.0000,1.4242,-0.087965,0.087965,0.000219,0.001622,-0.001536,0.0294,-0.5146,2.4065,-0.092039,0.092039,0.000000,0.612058,-0.570641,0.579845,-0.590583,0.619728,-0.575243
1.7829,0.016744,0.000000,0.000000,0.001417,0.0000,0.0000,1.4544,-0.087660,0.087660,0.000066,0.001516,-0.001464,0.0445,-0.4293,2.6152,-0.092039,0.090505,0.000000,0.615126,-0.570641,0.584447,-0.590583,0.619728,-0.576777
1.7997,0.016761,0.000000,0.000000,0.001445,0.0000,0.0000,1.4846,-0.087442,0.087442,-0.000053,0.001309,-0.001396,-0.0024,-0.2701,2.8103,-0.092039,0.090505,0.000000,0.616660,-0.570641,0.590583,-0.590583,0.619728,-0.578311
1.8164,0.016741,0.000000,0.000000,0.001472,0.0000,0.0000,1.5147,-0.087311,0.087311,-0.000094,0.001220,-0.001354,-0.0205,-0.0848,2.8982,-0.090505,0.090505,0.000000,0.616660,-0.570641,0.595185,-0.592117,0.619728,-0.578311
1.8332,0.016826,0.000000,0.000000,0.001500,0.0000,0.0000,1.5449,-0.087266,0.087266,-0.000094,0.001220,-0.001354,-0.0205,-0.0848,2.8982,-0.090505,0.090505,0.000000,0.616660,-0.570641,0.595185,-0.592117,0.619728,-0.578311
1.8513,0.018058,0.000000,0.000000,0.001529,0.0000,0.0000,1.5772,-0.087316,0.087316,-0.000094,0.001220,-0.001354,-0.0205,-0.0848,2.8982,-0.090505,0.090505,0.000000,0.616660,-0.570641,0.595185,-0.592117,0.619728,-0.578311
1.8680,0.016750,0.000000,0.000000,0.001556,0.0000,0.0000,1.6072,-0.087453,0.087453,-0.000094,0.001220,-0.001354,-0.0205,-0.0848,2.8982,-0.090505,0.090505,0.000000,0.616660,-0.570641,0.595185,-0.592117,0.619728,-0.578311
1.8848,0.016748,0.000000,0.000000,0.001583,0.0000,0.0000,1.6370,-0.087677,0.087677,-0.000222,0.000755,-0.001199,-0.0311,0.3954,3.3796,-0.087437,0.090505,0.000000,0.618194,-0.572175,0.610524,-0.593651,0.619728,-0.578311
1.9016,0.016765,0.000000,0.000000,0.001610,0.0000,0.0000,1.6669,-0.087987,0.087987,-0.000222,0.000755,-0.001199,-0.0311,0.3954,3.3796,-0.087437,0.090505,0.000000,0.618194,-0.573709,0.613592,-0.595185,0.621262,-0.578311
1.9183,0.016743,0.000000,0.000000,0.001636,0.0000,0.0000,1.6966,-0.088383,0.088383,-0.000139,0.000748,-0.001155,-0.0396,0.4257,3.3852,-0.087437,0.090505,0.000000,0.618194,-0.573709,0.613592,-0.595185,0.621262,-0.578311
1.9350,0.016754,0.000000,0.000000,0.001663,0.0000,0.0000,1.7262,-0.088865,0.088865,-0.000067,0.000685,-0.001106,0.1193,0.4517,3.1699,-0.087437,0.090505,0.000000,0.618194,-0.578311,0.615126,-0.596719,0.619728,-0.578311
1.9518,0.016749,0.000000,0.000000,0.001689,0.0000,0.0000,1.7558,-0.089433,0.089433,-0.000007,0.000715,-0.001048,0.1927,0.5320,3.0316,-0.087437,0.090505,0.000000,0.618194,-0.581379,0.616660,-0.599786,0.619728,-0.578311
1.9686,0.016759,0.000000,0.000000,0.001715,0.0000,0.0000,1.7854,-0.090086,0.090086,0.000068,0.000790,-0.001002,0.2861,0.5570,2.8304,-0.087437,0.090505,0.000000,0.618194,-0.584447,0.616660,-0.602854,0.619728,-0.578311
1.9853,0.016759,0.000000,0.000000,0.001741,0.0000,0.0000,1.8149,-0.090823,0.090823,0.000209,0.000790,-0.000955,0.4069,0.5000,2.6358,-0.087437,0.090505,0.000000,0.618194,-0.589049,0.616660,-0.604388,0.619728,-0.578311
2.0021,0.016778,0.000000,0.000000,0.001767,0.0000,0.0000,1.8443,-0.091645,0.091645,0.000209,0.000790,-0.000955,0.4069,0.5000,2.6358,-0.087437,0.090505,0.000000,0.618194,-0.589049,0.616660,-0.604388,0.619728,-0.578311
2.0188,0.016743,0.000000,0.000000,0.001792,0.0000,0.0000,1.8736,-0.092547,0.092547,0.000330,0.000853,-0.000897,0.5342,0.5033,2.3859,-0.088971,0.090505,0.000000,0.618194,-0.593651,0.616660,-0.607456,0.619728,-0.578311
2.0356,0.016764,0.000000,0.000000,0.001817,0.0000,0.0000,1.9028,-0.093533,0.093533,0.000400,0.000957,-0.000854,0.5431,0.5369,2.3040,-0.090505,0.090505,0.000000,0.618194,-0.595185,0.616660,-0.610524,0.621262,-0.578311
2.0523,0.016746,0.000000,0.000000,0.001842,0.0000,0.0000,1.9320,-0.094598,0.094598,0.000433,0.000954,-0.000832,0.6690,0.5479,2.0958,-0.090505,0.090505,0.000000,0.618194,-0.598253,0.616660,-0.612058,0.619728,-0.578311
2.0691,0.016758,0.000000,0.000000,0.001867,0.0000,0.0000,1.9611,-0.095744,0.095744,0.000525,0.001010,-0.000798,0.6677,0.5287,2.0634,-0.090505,0.090505,0.000000,0.618194,-0.599786,0.616660,-0.613592,0.621262,-0.578311
2.0859,0.016747,0.000000,0.000000,0.001892,0.0000,0.0000,1.9901,-0.096967,0.096967,0.000516,0.001004,-0.000802,0.6678,0.5307,2.0668,-0.093573,0.090505,0.000000,0.618194,-0.599786,0.616660,-0.613592,0.621262,-0.578311
2.1026,0.016792,0.000000,0.000000,0.001916,0.0000,0.0000,2.0191,-0.098271,0.098271,0.000448,0.001045,-0.000801,0.7155,0.6159,1.9580,-0.096641,0.093573,0.000000,0.618194,-0.599786,0.616660,-0.615126,0.619728,-0.578311
2.1194,0.016740,0.000000,0.000000,0.001940,0.0000,0.0000,2.0479,-0.099648,0.099648,0.000448,0.001045,-0.000801,0.7155,0.6159,1.9580,-0.096641,0.093573,0.000000,0.618194,-0.599786,0.616660,-0.615126,0.619728,-0.578311
2.1361,0.016752,0.000000,0.000000,0.001964,0.0000,0.0000,2.0767,-0.101100,0.101100,0.000565,0.001040,-0.000777,0.7122,0.5375,1.9694,-0.095107,0.095107,0.000000,0.618194,-0.601320,0.616660,-0.615126,0.621262,-0.578311
2.1529,0.016742,0.000000,0.000000,0.001988,0.0000,0.0000,2.1054,-0.102624,0.102624,0.000593,0.001080,-0.000755,0.7618,0.5615,1.8597,-0.096641,0.095107,0.000000,0.618194,-0.602854,0.616660,-0.616660,0.621262,-0.578311
2.1696,0.016755,0.000000,0.000000,0.002012,0.0000,0.0000,2.1340,-0.104221,0.104221,0.000590,0.001076,-0.000757,0.7567,0.5590,1.8711,-0.101243,0.099709,0.000000,0.618194,-0.602854,0.616660,-0.616660,0.621262,-0.578311
2.1864,0.016764,0.000000,0.000000,0.002035,0.0000,0.0000,2.1625,-0.105889,0.105889,0.000590,0.001076,-0.000757,0.7567,0.5590,1.8711,-0.101243,0.099709,0.000000,0.618194,-0.602854,0.616660,-0.616660,0.621262,-0.578311
2.2032,0.016780,0.000000,0.000000,0.002058,0.0000,0.0000,2.1910,-0.107627,0.107627,0.000536,0.001061,-0.000768,0.7949,0.5932,1.8157,-0.102777,0.098175,0.000000,0.618194,-0.602854,0.616660,-0.616660,0.619728,-0.578311
2.2199,0.016740,0.000000,0.000000,0.002081,0.0000,0.0000,2.2193,-0.109428,0.109428,0.000536,0.001061,-0.000768,0.7949,0.5932,1.8157,-0.102777,0.098175,0.000000,0.618194,-0.602854,0.616660,-0.616660,0.619728,-0.578311
2.2367,0.016803,0.000000,0.000000,0.002104,0.0000,0.0000,2.2476,-0.111301,0.111301,0.000554,0.001118,-0.000744,0.8022,0.5412,1.9305,-0.107379,0.101243,0.000000,0.619728,-0.602854,0.616660,-0.616660,0.621262,-0.578311
2.2535,0.016741,0.000000,0.000000,0.002126,0.0000,0.0000,2.2758,-0.113230,0.113230,0.000510,0.001151,-0.000735,0.8503,0.5323,1.9733,-0.108913,0.105845,0.000000,0.621262,-0.602854,0.616660,-0.616660,0.621262,-0.578311
2.2702,0.016768,0.000000,0.000000,0.002148,0.0000,0.0000,2.3039,-0.115223,0.115223,0.000431,0.001227,-0.000713,0.9431,0.5046,2.0786,-0.108913,0.107379,0.000000,0.624330,-0.602854,0.616660,-0.616660,0.621262,-0.578311
2.2870,0.016743,0.000000,0.000000,0.002170,0.0000,0.0000,2.3318,-0.117273,0.117273,0.000300,0.001283,-0.000705,1.0687,0.5128,2.1232,-0.113515,0.108913,0.000000,0.627398,-0.602854,0.616660,-0.616660,0.619728,-0.578311
2.3037,0.016767,0.000000,0.000000,0.002192,0.0000,0.0000,2.3597,-0.119383,0.119383,0.000300,0.001283,-0.000705,1.0687,0.5128,2.1232,-0.113515,0.108913,0.000000,0.627398,-0.602854,0.616660,-0.616660,0.619728,-0.578311
2.3205,0.016744,0.000000,0.000000,0.002213,0.0000,0.0000,2.3875,-0.121544,0.121544,0.000284,0.001372,-0.000672,1.1154,0.4500,2.2827,-0.115049,0.111981,0.000000,0.630466,-0.602854,0.616660,-0.616660,0.621262,-0.578311
2.3372,0.016752,0.000000,0.000000,0.002234,0.0000,0.0000,2.4152,-0.123760,0.123760,0.000146,0.001426,-0.000665,1.2455,0.4622,2.3220,-0.115049,0.115049,0.000000,0.633534,-0.602854,0.616660,-0.616660,0.619728,-0.578311
2.3540,0.016745,0.000000,0.000000,0.002255,0.0000,0.0000,2.4428,-0.126025,0.126025,0.000088,0.001555,-0.000621,1.3400,0.3857,2.5374,-0.121184,0.116583,0.000000,0.638136,-0.602854,0.616660,-0.616660,0.621262,-0.578311
2.3707,0.016753,0.000000,0.000000,0.002276,0.0000,0.0000,2.4703,-0.128339,0.128339,0.000009,0.001621,-0.000604,1.4272,0.3664,2.6252,-0.124252,0.119651,0.000000,0.641204,-0.602854,0.616660,-0.616660,0.621262,-0.578311
2.3877,0.017006,0.000000,0.000000,0.002297,0.0000,0.0000,2.4981,-0.130736,0.130736,0.000042,0.001726,-0.000562,1.4398,0.2745,2.8350,-0.124252,0.124252,0.000000,0.644272,-0.602854,0.616660,-0.616660,0.624330,-0.578311
2.4045,0.016764,0.000000,0.000000,0.002317,0.0000,0.0000,2.5254,-0.133143,0.133143,0.000042,0.001726,-0.000562,1.4398,0.2745,2.8350,-0.124252,0.124252,0.000000,0.644272,-0.602854,0.616660,-0.616660,0.624330,-0.578311
2.4213,0.016769,0.000000,0.000000,0.002337,0.0000,0.0000,2.5527,-0.135591,0.135591,0.000008,0.001810,-0.000534,1.4979,0.2240,2.9779,-0.127320,0.124252,0.000000,0.647340,-0.602854,0.616660,-0.616660,0.625864,-0.578311
2.4380,0.016753,0.000000,0.000000,0.002357,0.0000,0.0000,2.5798,-0.138076,0.138076,0.000040,0.001834,-0.000490,1.4149,0.1307,3.0730,-0.131922,0.124252,0.000000,0.648874,-0.602854,0.616660,-0.616660,0.628932,-0.579845
2.4548,0.016754,0.000000,0.000000,0.002376,0.0000,0.0000,2.6068,-0.140598,0.140598,0.000105,0.001903,-0.000462,1.3975,0.0607,3.2274,-0.133456,0.130388,0.000000,0.650408,-0.602854,0.616660,-0.616660,0.632000,-0.579845
2.4715,0.016760,0.000000,0.000000,0.002395,0.0000,0.0000,2.6337,-0.143155,0.143155,0.000100,0.001818,-0.000392,1.3009,0.0688,3.4325,-0.134990,0.133456,0.000000,0.651942,-0.602854,0.619728,-0.616660,0.635068,-0.581379
2.4886,0.017108,0.000000,0.000000,0.002414,0.0000,0.0000,2.6610,-0.145796,0.145796,0.000047,0.001734,-0.000305,1.2497,0.1045,3.7436,-0.141126,0.134990,0.000000,0.655010,-0.602854,0.624330,-0.616660,0.638136,-0.582913
2.5054,0.016770,0.000000,0.000000,0.002433,0.0000,0.0000,2.6877,-0.148415,0.148415,0.000047,0.001734,-0.000305,1.2497,0.1045,3.7436,-0.141126,0.134990,0.000000,0.655010,-0.602854,0.624330,-0.616660,0.638136,-0.582913
2.5222,0.016749,0.000000,0.000000,0.002451,0.0000,0.0000,2.7143,-0.151056,0.151056,0.000012,0.001594,-0.000226,1.1826,0.0789,3.7694,-0.144194,0.141126,0.000000,0.656544,-0.604388,0.627398,-0.616660,0.639670,-0.585981
2.5389,0.016759,0.000000,0.000000,0.002469,0.0000,0.0000,2.7408,-0.153723,0.153723,0.000115,0.001475,-0.000161,1.0834,0.0583,3.8786,-0.144194,0.142660,0.000000,0.656544,-0.605922,0.630466,-0.616660,0.642738,-0.587515
2.5557,0.016750,0.000000,0.000000,0.002487,0.0000,0.0000,2.7671,-0.156408,0.156408,0.000037,0.001337,-0.000129,1.0207,0.1395,3.9241,-0.145728,0.144194,0.000000,0.656544,-0.605922,0.633534,-0.616660,0.642738,-0.589049
2.5731,0.017443,0.000000,0.000000,0.002505,0.0000,0.0000,2.7945,-0.159224,0.159224,-0.000064,0.001241,-0.000084,1.0017,0.1968,4.0319,-0.154932,0.148796,0.000000,0.658078,-0.605922,0.636602,-0.616660,0.642738,-0.590583
2.5901,0.016935,0.000000,0.000000,0.002523,0.0000,0.0000,2.8209,-0.161974,0.161974,-0.000121,0.001101,-0.000051,0.9302,0.2695,4.0776,-0.158000,0.154932,0.000000,0.658078,-0.605922,0.639670,-0.616660,0.642738,-0.592117
2.6068,0.016764,0.000000,0.000000,0.002540,0.0000,0.0000,2.8469,-0.164709,0.164709,-0.000121,0.001101,-0.000051,0.9302,0.2695,4.0776,-0.158000,0.154932,0.000000,0.658078,-0.605922,0.639670,-0.616660,0.642738,-0.592117
2.6236,0.016746,0.000000,0.000000,0.002557,0.0000,0.0000,2.8728,-0.167450,0.167450,-0.000224,0.001005,-0.000006,0.9116,0.3272,4.1855,-0.158000,0.153398,0.000000,0.659612,-0.605922,0.642738,-0.616660,0.642738,-0.593651
2.6403,0.016756,0.000000,0.000000,0.002573,0.0000,0.0000,2.8986,-0.170201,0.170201,-0.000227,0.000959,0.000001,0.9019,0.3696,4.2300,-0.159534,0.154932,0.000000,0.659612,-0.605922,0.644272,-0.616660,0.642738,-0.593651
2.6571,0.016742,0.000000,0.000000,0.002589,0.0000,0.0000,2.9243,-0.172953,0.172953,-0.000240,0.000907,0.000012,0.8913,0.4136,4.2812,-0.164136,0.161068,0.000000,0.659612,-0.605922,0.645806,-0.616660,0.642738,-0.593651
2.6738,0.016756,0.000000,0.000000,0.002605,0.0000,0.0000,2.9498,-0.175709,0.175709,-0.000238,0.000913,0.000010,0.8924,0.4090,4.2758,-0.168738,0.165670,0.000000,0.659612,-0.605922,0.645806,-0.616660,0.642738,-0.593651
2.6906,0.016752,0.000000,0.000000,0.002620,0.0000,0.0000,2.9753,-0.178464,0.178464,-0.000238,0.000913,0.000010,0.8924,0.4090,4.2758,-0.171806,0.170272,0.000000,0.659612,-0.605922,0.645806,-0.616660,0.642738,-0.593651
2.7073,0.016759,0.000000,0.000000,0.002636,0.0000,0.0000,3.0006,-0.181215,0.181215,-0.000238,0.000913,0.000010,0.8924,0.4090,4.2758,-0.171806,0.170272,0.000000,0.659612,-0.605922,0.645806,-0.616660,0.642738,-0.593651
2.7241,0.016748,0.000000,0.000000,0.002650,0.0000,0.0000,3.0258,-0.183958,0.183958,-0.000279,0.000873,0.000024,0.8416,0.3909,4.2219,-0.176408,0.170272,0.000000,0.659612,-0.605922,0.645806,-0.616660,0.642738,-0.595185
2.7408,0.016749,0.000000,0.000000,0.002665,0.0000,0.0000,3.0509,-0.186692,0.186692,-0.000275,0.000877,0.000023,0.8469,0.3928,4.2275,-0.176408,0.171806,0.000000,0.659612,-0.605922,0.645806,-0.616660,0.642738,-0.595185
2.7576,0.016746,0.000000,0.000000,0.002679,0.0000,0.0000,3.0758,-0.189413,0.189413,-0.000316,0.000837,0.000037,0.7956,0.3741,4.1724,-0.177942,0.179476,0.000000,0.659612,-0.605922,0.645806,-0.616660,0.642738,-0.596719
2.7743,0.016749,0.000000,0.000000,0.002694,0.0000,0.0000,3.1006,-0.192120,0.192120,-0.000312,0.000842,0.000035,0.8010,0.3760,4.1781,-0.185612,0.181010,0.000000,0.659612,-0.605922,0.645806,-0.616660,0.642738,-0.596719
2.7911,0.016748,0.000000,0.000000,0.002707,0.0000,0.0000,3.1253,-0.194809,0.194809,-0.000355,0.000881,0.000046,0.8479,0.3625,4.2334,-0.190214,0.182544,0.000000,0.661146,-0.605922,0.645806,-0.616660,0.642738,-0.596719
2.8078,0.016748,0.000000,0.000000,0.002721,0.0000,0.0000,3.1499,-0.197478,0.197478,-0.000355,0.000881,0.000046,0.8479,0.3625,4.2334,-0.190214,0.182544,0.000000,0.661146,-0.605922,0.645806,-0.616660,0.642738,-0.596719
2.8246,0.016749,0.000000,0.000000,0.002734,0.0000,0.0000,3.1744,-0.200125,0.200125,-0.000393,0.000917,0.000055,0.8904,0.3506,4.2834,-0.190214,0.188680,0.000000,0.662680,-0.605922,0.645806,-0.616660,0.642738,-0.596719
2.8413,0.016757,0.000000,0.000000,0.002747,0.0000,0.0000,3.1987,-0.202746,0.202746,-0.000389,0.000914,0.000054,0.8860,0.3518,4.2782,-0.191748,0.190214,0.000000,0.662680,-0.605922,0.645806,-0.616660,0.642738,-0.596719
2.8581,0.016743,0.000000,0.000000,0.002759,0.0000,0.0000,3.2229,-0.205338,0.205338,-0.000389,0.000914,0.000054,0.8860,0.3518,4.2782,-0.196350,0.191748,0.000000,0.662680,-0.605922,0.645806,-0.616660,0.642738,-0.596719
2.8748,0.016745,0.000000,0.000000,0.002772,0.0000,0.0000,3.2470,-0.207900,0.207900,-0.000389,0.000914,0.000054,0.8860,0.3518,4.2782,-0.199418,0.199418,0.000000,0.662680,-0.605922,0.645806,-0.616660,0.642738,-0.596719
2.8916,0.016794,0.000000,0.000000,0.002783,0.0000,0.0000,3.2710,-0.210435,0.210435,-0.000389,0.000914,0.000054,0.8860,0.3518,4.2782,-0.199418,0.199418,0.000000,0.662680,-0.605922,0.645806,-0.616660,0.642738,-0.596719
2.9085,0.016846,0.000000,0.000000,0.002795,0.0000,0.0000,3.2949,-0.212942,0.212942,-0.000389,0.000914,0.000054,0.8860,0.3518,4.2782,-0.199418,0.199418,0.000000,0.662680,-0.605922,0.645806,-0.616660,0.642738,-0.596719
2.9253,0.016825,0.000000,0.000000,0.002807,0.0000,0.0000,3.3187,-0.215408,0.215408,-0.000389,0.000914,0.000054,0.8860,0.3518,4.2782,-0.199418,0.199418,0.000000,0.662680,-0.605922,0.645806,-0.616660,0.642738,-0.596719
2.9420,0.016751,0.000000,0.000000,0.002818,0.0000,0.0000,3.3423,-0.217821,0.217821,-0.000389,0.000914,0.000054,0.8860,0.3518,4.2782,-0.199418,0.199418,0.000000,0.662680,-0.605922,0.645806,-0.616660,0.642738,-0.596719
2.9588,0.016762,0.000000,0.000000,0.002828,0.0000,0.0000,3.3657,-0.220193,0.220193,-0.000456,0.000812,0.000106,0.6982,0.2625,4.1701,-0.204019,0.204019,0.000000,0.662680,-0.605922,0.645806,-0.616660,0.644272,-0.601320
2.9758,0.016987,0.000000,0.000000,0.002839,0.0000,0.0000,3.3893,-0.222551,0.222551,-0.000456,0.000812,0.000106,0.6982,0.2625,4.1701,-0.205553,0.204019,0.000000,0.662680,-0.605922,0.645806,-0.616660,0.645806,-0.601320
2.9925,0.016749,0.000000,0.000000,0.002849,0.0000,0.0000,3.4124,-0.224827,0.224827,-0.000394,0.000839,0.000112,0.6814,0.2384,4.2365,-0.205553,0.204019,0.000000,0.662680,-0.605922,0.645806,-0.616660,0.645806,-0.601320
3.0093,0.016732,0.000000,0.000000,0.002859,0.0000,0.0000,3.4354,-0.227051,0.227051,-0.000400,0.000836,0.000111,0.6832,0.2410,4.2295,-0.207087,0.207087,0.000000,0.662680,-0.605922,0.645806,-0.616660,0.645806,-0.601320
3.0260,0.016748,0.000000,0.000000,0.002868,0.0000,0.0000,3.4583,-0.229224,0.229224,-0.000400,0.000836,0.000111,0.6832,0.2410,4.2295,-0.213223,0.211689,0.000000,0.662680,-0.605922,0.645806,-0.616660,0.645806,-0.601320
3.0427,0.016744,0.000000,0.000000,0.002877,0.0000,0.0000,3.4810,-0.231343,0.231343,-0.000400,0.000836,0.000111,0.6832,0.2410,4.2295,-0.222427,0.217825,0.000000,0.662680,-0.605922,0.645806,-0.616660,0.645806,-0.601320
3.0595,0.016752,0.000000,0.000000,0.002886,0.0000,0.0000,3.5036,-0.233406,0.233406,-0.000315,0.000981,0.000159,0.6311,0.2784,4.2317,-0.230097,0.230097,0.000000,0.662680,-0.605922,0.645806,-0.619728,0.648874,-0.601320
3.0763,0.016776,0.000000,0.000000,0.002894,0.0000,0.0000,3.5261,-0.235413,0.235413,-0.000337,0.001022,0.000167,0.6469,0.3268,4.1770,-0.230097,0.230097,0.000000,0.662680,-0.605922,0.645806,-0.621262,0.648874,-0.601320
3.0930,0.016751,0.000000,0.000000,0.002902,0.0000,0.0000,3.5484,-0.237357,0.237357,-0.000337,0.001022,0.000167,0.6469,0.3268,4.1770,-0.230097,0.230097,0.000000,0.662680,-0.605922,0.645806,-0.621262,0.648874,-0.601320
3.1098,0.016745,0.000000,0.000000,0.002910,0.0000,0.0000,3.5706,-0.239237,0.239237,-0.000348,0.001073,0.000178,0.6556,0.3740,4.1281,-0.228563,0.230097,0.000000,0.662680,-0.605922,0.645806,-0.622796,0.648874,-0.601320
3.1265,0.016742,0.000000,0.000000,0.002918,0.0000,0.0000,3.5926,-0.241052,0.241052,-0.000305,0.001140,0.000201,0.6287,0.3878,4.1338,-0.230097,0.231631,0.000000,0.662680,-0.605922,0.645806,-0.624330,0.650408,-0.601320
3.1433,0.016742,0.000000,0.000000,0.002925,0.0000,0.0000,3.6145,-0.242801,0.242801,-0.000336,0.001245,0.000223,0.6522,0.4906,4.0240,-0.234699,0.233165,0.000000,0.662680,-0.605922,0.645806,-0.627398,0.650408,-0.601320
3.1600,0.016746,0.000000,0.000000,0.002932,0.0000,0.0000,3.6362,-0.244483,0.244483,-0.000402,0.001274,0.000222,0.6967,0.5651,3.9257,-0.239301,0.234699,0.000000,0.662680,-0.605922,0.645806,-0.628932,0.648874,-0.601320
3.1769,0.016891,0.000000,0.000000,0.002938,0.0000,0.0000,3.6580,-0.246109,0.246109,-0.000422,0.001384,0.000246,0.7130,0.6611,3.8266,-0.239301,0.239301,0.000000,0.662680,-0.605922,0.645806,-0.632000,0.648874,-0.601320
3.1936,0.016749,0.000000,0.000000,0.002945,0.0000,0.0000,3.6795,-0.247649,0.247649,-0.000422,0.001384,0.000246,0.7130,0.6611,3.8266,-0.239301,0.239301,0.000000,0.662680,-0.605922,0.645806,-0.632000,0.648874,-0.601320
3.2104,0.016743,0.000000,0.000000,0.002950,0.0000,0.0000,3.7008,-0.249116,0.249116,-0.000364,0.001388,0.000255,0.6747,0.6179,3.8920,-0.243903,0.240835,0.000000,0.662680,-0.605922,0.645806,-0.632000,0.650408,-0.601320
3.2271,0.016745,0.000000,0.000000,0.002956,0.0000,0.0000,3.7219,-0.250508,0.250508,-0.000370,0.001388,0.000254,0.6787,0.6224,3.8852,-0.245437,0.242369,0.000000,0.662680,-0.605922,0.645806,-0.632000,0.650408,-0.601320
3.2439,0.016749,0.000000,0.000000,0.002961,0.0000,0.0000,3.7429,-0.251826,0.251826,-0.000438,0.001428,0.000255,0.7254,0.7069,3.7761,-0.243903,0.243903,0.000000,0.662680,-0.605922,0.645806,-0.633534,0.648874,-0.601320
3.2606,0.016758,0.000000,0.000000,0.002966,0.0000,0.0000,3.7638,-0.253067,0.253067,-0.000389,0.001496,0.000278,0.6944,0.7166,3.7878,-0.246971,0.243903,0.000000,0.662680,-0.605922,0.645806,-0.635068,0.650408,-0.601320
3.2774,0.016802,0.000000,0.000000,0.002971,0.0000,0.0000,3.7846,-0.254232,0.254232,-0.000450,0.001473,0.000264,0.7343,0.7488,3.7316,-0.250039,0.250039,0.000000,0.662680,-0.605922,0.645806,-0.635068,0.648874,-0.601320
3.2942,0.016751,0.000000,0.000000,0.002975,0.0000,0.0000,3.8051,-0.255315,0.255315,-0.000450,0.001473,0.000264,0.7343,0.7488,3.7316,-0.250039,0.250039,0.000000,0.662680,-0.605922,0.645806,-0.635068,0.648874,-0.601320
3.3109,0.016742,0.000000,0.000000,0.002979,0.0000,0.0000,3.8255,-0.256316,0.256316,-0.000443,0.001476,0.000266,0.7302,0.7454,3.7374,-0.251573,0.251573,0.000000,0.662680,-0.605922,0.645806,-0.635068,0.648874,-0.601320
3.3277,0.016744,0.000000,0.000000,0.002982,0.0000,0.0000,3.8458,-0.257236,0.257236,-0.000443,0.001476,0.000266,0.7302,0.7454,3.7374,-0.251573,0.251573,0.000000,0.662680,-0.605922,0.645806,-0.635068,0.648874,-0.601320
3.3444,0.016747,0.000000,0.000000,0.002986,0.0000,0.0000,3.8659,-0.258074,0.258074,-0.000388,0.001492,0.000277,0.6939,0.7126,3.7918,-0.253107,0.251573,0.000000,0.662680,-0.605922,0.645806,-0.635068,0.650408,-0.601320
3.3612,0.016749,0.000000,0.000000,0.002989,0.0000,0.0000,3.8858,-0.258828,0.258828,-0.000450,0.001474,0.000264,0.7344,0.7492,3.7311,-0.257709,0.256175,0.000000,0.662680,-0.605922,0.645806,-0.635068,0.648874,-0.601320
3.3781,0.016908,0.000000,0.000000,0.002991,0.0000,0.0000,3.9058,-0.259505,0.259505,-0.000443,0.001476,0.000266,0.7302,0.7454,3.7374,-0.259243,0.256175,0.000000,0.662680,-0.605922,0.645806,-0.635068,0.648874,-0.601320
3.3948,0.016749,0.000000,0.000000,0.002993,0.0000,0.0000,3.9254,-0.260090,0.260090,-0.000443,0.001476,0.000266,0.7302,0.7454,3.7374,-0.259243,0.256175,0.000000,0.662680,-0.605922,0.645806,-0.635068,0.648874,-0.601320
3.4116,0.016746,0.000000,0.000000,0.002995,0.0000,0.0000,3.9449,-0.260590,0.260590,-0.000457,0.001532,0.000277,0.7412,0.7974,3.6820,-0.257709,0.256175,0.000000,0.662680,-0.605922,0.645806,-0.636602,0.648874,-0.601320
3.4283,0.016744,0.000000,0.000000,0.002997,0.0000,0.0000,3.9642,-0.261004,0.261004,-0.000456,0.001526,0.000276,0.7400,0.7920,3.6878,-0.257709,0.256175,0.000000,0.662680,-0.605922,0.645806,-0.636602,0.648874,-0.601320
3.4451,0.016740,0.000000,0.000000,0.002998,0.0000,0.0000,3.9833,-0.261332,0.261332,-0.000387,0.001486,0.000276,0.6928,0.7078,3.7970,-0.259243,0.257709,0.000000,0.662680,-0.605922,0.645806,-0.635068,0.650408,-0.601320
3.4618,0.016751,0.000000,0.000000,0.002999,0.0000,0.0000,4.0024,-0.261573,0.261573,-0.000450,0.001474,0.000264,0.7345,0.7497,3.7306,-0.260777,0.259243,0.000000,0.662680,-0.605922,0.645806,-0.635068,0.648874,-0.601320
3.4786,0.016749,0.000000,0.000000,0.003000,0.0000,0.0000,4.0212,-0.261728,0.261728,-0.000388,0.001492,0.000277,0.6934,0.7122,3.7925,-0.262311,0.259243,0.000000,0.662680,-0.605922,0.645806,-0.635068,0.650408,-0.601320
3.4953,0.016754,0.000000,0.000000,0.003000,0.0000,0.0000,4.0399,-0.261796,0.261796,-0.000388,0.001492,0.000277,0.6934,0.7122,3.7925,-0.262311,0.259243,0.000000,0.662680,-0.605922,0.645806,-0.635068,0.650408,-0.601320
3.5121,0.016741,0.000000,0.000000,0.003000,0.0000,0.0000,4.0584,-0.261777,0.261777,-0.000394,0.001490,0.000276,0.6977,0.7161,3.7861,-0.262311,0.259243,0.000000,0.662680,-0.605922,0.645806,-0.635068,0.650408,-0.601320
3.5288,0.016751,0.000000,0.000000,0.003000,0.0000,0.0000,4.0768,-0.261671,0.261671,-0.000449,0.001474,0.000264,0.7340,0.7488,3.7317,-0.262311,0.259243,0.000000,0.662680,-0.605922,0.645806,-0.635068,0.648874,-0.601320
3.5456,0.016758,0.000000,0.000000,0.002999,0.0000,0.0000,4.0950,-0.261478,0.261478,-0.000457,0.001532,0.000277,0.7408,0.7971,3.6826,-0.262311,0.259243,0.000000,0.662680,-0.605922,0.645806,-0.636602,0.648874,-0.601320
3.5623,0.016754,0.000000,0.000000,0.002998,0.0000,0.0000,4.1130,-0.261198,0.261198,-0.000443,0.001470,0.000264,0.7295,0.7404,3.7425,-0.262311,0.259243,0.000000,0.662680,-0.605922,0.645806,-0.635068,0.648874,-0.601320
3.5791,0.016748,0.000000,0.000000,0.002996,0.0000,0.0000,4.1309,-0.260832,0.260832,-0.000443,0.001470,0.000264,0.7295,0.7404,3.7425,-0.262311,0.259243,0.000000,0.662680,-0.605922,0.645806,-0.636602,0.650408,-0.601320
3.5958,0.016751,0.000000,0.000000,0.002995,0.0000,0.0000,4.1486,-0.260380,0.260380,-0.000402,0.001549,0.000289,0.7045,0.7648,3.7365,-0.262311,0.259243,0.000000,0.662680,-0.605922,0.645806,-0.636602,0.650408,-0.601320
3.6126,0.016743,0.000000,0.000000,0.002993,0.0000,0.0000,4.1661,-0.259843,0.259843,-0.000461,0.001524,0.000275,0.7438,0.7954,3.6821,-0.262311,0.259243,0.000000,0.662680,-0.605922,0.645806,-0.636602,0.648874,-0.601320
3.6293,0.016753,0.000000,0.000000,0.002990,0.0000,0.0000,4.1835,-0.259220,0.259220,-0.000442,0.001470,0.000264,0.7292,0.7406,3.7426,-0.262311,0.259243,0.000000,0.662680,-0.605922,0.645806,-0.635068,0.648874,-0.601320
3.6462,0.016855,0.000000,0.000000,0.002987,0.0000,0.0000,4.2008,-0.258508,0.258508,-0.000389,0.001492,0.000277,0.6940,0.7131,3.7913,-0.262311,0.259243,0.000000,0.662680,-0.605922,0.645806,-0.635068,0.650408,-0.601320
3.6629,0.016749,0.000000,0.000000,0.002984,0.0000,0.0000,4.2178,-0.257717,0.257717,-0.000450,0.001474,0.000264,0.7343,0.7491,3.7312,-0.260777,0.257709,0.000000,0.662680,-0.605922,0.645806,-0.635068,0.648874,-0.601320
3.6798,0.016903,0.000000,0.000000,0.002981,0.0000,0.0000,4.2349,-0.256834,0.256834,-0.000347,0.001531,0.000263,0.7437,0.7309,3.8472,-0.259243,0.257709,0.000000,0.662680,-0.605922,0.645806,-0.635068,0.650408,-0.599786
3.6966,0.016752,0.000000,0.000000,0.002977,0.0000,0.0000,4.2516,-0.255877,0.255877,-0.000347,0.001531,0.000263,0.7437,0.7309,3.8472,-0.259243,0.257709,0.000000,0.662680,-0.605922,0.645806,-0.635068,0.650408,-0.599786
3.7133,0.016749,0.000000,0.000000,0.002973,0.0000,0.0000,4.2681,-0.254839,0.254839,-0.000398,0.001486,0.000277,0.6925,0.7141,3.7804,-0.260777,0.257709,0.000000,0.662680,-0.605922,0.645806,-0.635068,0.650408,-0.601320
3.7301,0.016766,0.000000,0.000000,0.002969,0.0000,0.0000,4.2845,-0.253720,0.253720,-0.000449,0.001474,0.000264,0.7345,0.7490,3.7323,-0.259243,0.257709,0.000000,0.662680,-0.605922,0.645806,-0.635068,0.648874,-0.601320
3.7468,0.016760,0.000000,0.000000,0.002964,0.0000,0.0000,4.3007,-0.252522,0.252522,-0.000443,0.001476,0.000266,0.7301,0.7454,3.7373,-0.259243,0.256175,0.000000,0.662680,-0.605922,0.645806,-0.635068,0.648874,-0.601320
3.7636,0.016755,0.000000,0.000000,0.002959,0.0000,0.0000,4.3167,-0.251247,0.251247,-0.000443,0.001476,0.000266,0.7301,0.7454,3.7373,-0.259243,0.254641,0.000000,0.662680,-0.605922,0.645806,-0.635068,0.648874,-0.601320
3.7804,0.016768,0.000000,0.000000,0.002954,0.0000,0.0000,4.3326,-0.249894,0.249894,-0.000457,0.001419,0.000277,0.7190,0.7944,3.7925,-0.259243,0.254641,0.000000,0.662680,-0.605922,0.647340,-0.635068,0.648874,-0.601320
3.7971,0.016761,0.000000,0.000000,0.002948,0.0000,0.0000,4.3483,-0.248466,0.248466,-0.000457,0.001419,0.000277,0.7190,0.7944,3.7925,-0.259243,0.254641,0.000000,0.662680,-0.605922,0.647340,-0.635068,0.648874,-0.601320
3.8139,0.016764,0.000000,0.000000,0.002942,0.0000,0.0000,4.3638,-0.246965,0.246965,-0.000468,0.001369,0.000288,0.7085,0.8379,3.8424,-0.259243,0.254641,0.000000,0.662680,-0.605922,0.648874,-0.635068,0.648874,-0.601320
3.8306,0.016752,0.000000,0.000000,0.002935,0.0000,0.0000,4.3791,-0.245392,0.245392,-0.000480,0.001318,0.000299,0.6979,0.8818,3.8930,-0.256175,0.256175,0.000000,0.662680,-0.605922,0.650408,-0.635068,0.648874,-0.601320
3.8474,0.016758,0.000000,0.000000,0.002929,0.0000,0.0000,4.3942,-0.243748,0.243748,-0.000505,0.001211,0.000322,0.6755,0.9741,3.9993,-0.256175,0.254641,0.000000,0.662680,-0.605922,0.653476,-0.635068,0.648874,-0.601320
3.8642,0.016762,0.000000,0.000000,0.002922,0.0000,0.0000,4.4092,-0.242034,0.242034,-0.000528,0.001109,0.000343,0.6542,1.0611,4.0999,-0.256175,0.254641,0.000000,0.662680,-0.605922,0.656544,-0.635068,0.648874,-0.601320
3.8809,0.016776,0.000000,0.000000,0.002914,0.0000,0.0000,4.4241,-0.240252,0.240252,-0.000511,0.001047,0.000350,0.6832,1.1669,4.2562,-0.256175,0.254641,0.000000,0.662680,-0.605922,0.659612,-0.635068,0.648874,-0.599786
3.8977,0.016759,0.000000,0.000000,0.002907,0.0000,0.0000,4.4387,-0.238406,0.238406,-0.000511,0.001047,0.000350,0.6832,1.1669,4.2562,-0.256175,0.254641,0.000000,0.662680,-0.605922,0.659612,-0.635068,0.648874,-0.599786
3.9145,0.016750,0.000000,0.000000,0.002899,0.0000,0.0000,4.4531,-0.236497,0.236497,-0.000567,0.000957,0.000374,0.6177,1.1853,4.2409,-0.256175,0.254641,0.000000,0.662680,-0.605922,0.661146,-0.635068,0.648874,-0.601320
3.9312,0.016760,0.000000,0.000000,0.002891,0.0000,0.0000,4.4674,-0.234525,0.234525,-0.000531,0.000869,0.000406,0.5643,1.2460,4.4094,-0.254641,0.253107,0.000000,0.662680,-0.605922,0.664214,-0.635068,0.650408,-0.601320
3.9480,0.016759,0.000000,0.000000,0.002882,0.0000,0.0000,4.4815,-0.232493,0.232493,-0.000616,0.000862,0.000415,0.6048,1.3730,4.3382,-0.254641,0.251573,0.000000,0.662680,-0.605922,0.665748,-0.636602,0.648874,-0.601320
3.9649,0.016925,0.000000,0.000000,0.002873,0.0000,0.0000,4.4956,-0.230383,0.230383,-0.000616,0.000862,0.000415,0.6048,1.3730,4.3382,-0.254641,0.251573,0.000000,0.662680,-0.605922,0.665748,-0.636602,0.648874,-0.601320
3.9818,0.016867,0.000000,0.000000,0.002864,0.0000,0.0000,4.5094,-0.228223,0.228223,-0.000616,0.000862,0.000415,0.6048,1.3730,4.3382,-0.254641,0.251573,0.000000,0.662680,-0.605922,0.665748,-0.636602,0.648874,-0.601320
3.9986,0.016852,0.000000,0.000000,0.002854,0.0000,0.0000,4.5230,-0.226011,0.226011,-0.000616,0.000862,0.000415,0.6048,1.3730,4.3382,-0.254641,0.251573,0.000000,0.662680,-0.605922,0.665748,-0.636602,0.648874,-0.601320
4.0154,0.016760,0.000000,0.000000,0.002844,0.0000,0.0000,4.5364,-0.223760,0.223760,-0.000607,0.000750,0.000413,0.5780,1.3556,4.4565,-0.233165,0.240835,0.000000,0.662680,-0.605922,0.667282,-0.635068,0.648874,-0.601320
4.0321,0.016751,0.000000,0.000000,0.002834,0.0000,0.0000,4.5496,-0.221461,0.221461,-0.000621,0.000818,0.000426,0.5914,1.4094,4.3894,-0.233165,0.236233,0.000000,0.662680,-0.605922,0.667282,-0.636602,0.648874,-0.601320
4.0489,0.016744,0.000000,0.000000,0.002823,0.0000,0.0000,4.5626,-0.219115,0.219115,-0.000621,0.000818,0.000426,0.5914,1.4094,4.3894,-0.233165,0.236233,0.000000,0.662680,-0.605922,0.667282,-0.636602,0.648874,-0.601320
4.0656,0.016753,0.000000,0.000000,0.002813,0.0000,0.0000,4.5754,-0.216725,0.216725,-0.000607,0.000754,0.000412,0.5794,1.3518,4.4511,-0.234699,0.234699,0.000000,0.662680,-0.605922,0.667282,-0.635068,0.648874,-0.601320
4.0824,0.016772,0.000000,0.000000,0.002801,0.0000,0.0000,4.5881,-0.214289,0.214289,-0.000608,0.000761,0.000414,0.5806,1.3578,4.4447,-0.231631,0.231631,0.000000,0.662680,-0.605922,0.667282,-0.635068,0.648874,-0.601320
4.0992,0.016770,0.000000,0.000000,0.002790,0.0000,0.0000,4.6005,-0.211814,0.211814,-0.000553,0.000776,0.000425,0.5441,1.3237,4.5003,-0.228563,0.230097,0.000000,0.662680,-0.605922,0.667282,-0.635068,0.650408,-0.601320
4.1164,0.017281,0.000000,0.000000,0.002778,0.0000,0.0000,4.6132,-0.209224,0.209224,-0.000614,0.000759,0.000412,0.5843,1.3607,4.4396,-0.227029,0.228563,0.000000,0.662680,-0.605922,0.667282,-0.635068,0.648874,-0.601320
4.1332,0.016753,0.000000,0.000000,0.002766,0.0000,0.0000,4.6253,-0.206679,0.206679,-0.000620,0.000817,0.000426,0.5907,1.4089,4.3911,-0.222427,0.227029,0.000000,0.662680,-0.605922,0.667282,-0.636602,0.648874,-0.601320
4.1499,0.016739,0.000000,0.000000,0.002753,0.0000,0.0000,4.6372,-0.204103,0.204103,-0.000620,0.000817,0.000426,0.5907,1.4089,4.3911,-0.222427,0.227029,0.000000,0.662680,-0.605922,0.667282,-0.636602,0.648874,-0.601320
4.1667,0.016750,0.000000,0.000000,0.002741,0.0000,0.0000,4.6489,-0.201497,0.201497,-0.000551,0.000770,0.000424,0.5430,1.3184,4.5059,-0.214757,0.227029,0.000000,0.662680,-0.605922,0.667282,-0.635068,0.650408,-0.601320
4.1834,0.016749,0.000000,0.000000,0.002728,0.0000,0.0000,4.6604,-0.198863,0.198863,-0.000614,0.000759,0.000412,0.5844,1.3612,4.4390,-0.208621,0.225495,0.000000,0.662680,-0.605922,0.667282,-0.635068,0.648874,-0.601320
4.2002,0.016752,0.000000,0.000000,0.002714,0.0000,0.0000,4.6718,-0.196205,0.196205,-0.000552,0.000776,0.000425,0.5437,1.3233,4.5009,-0.207087,0.223961,0.000000,0.662680,-0.605922,0.667282,-0.635068,0.650408,-0.601320
4.2169,0.016751,0.000000,0.000000,0.002701,0.0000,0.0000,4.6829,-0.193526,0.193526,-0.000614,0.000759,0.000412,0.5843,1.3607,4.4395,-0.205553,0.220893,0.000000,0.662680,-0.605922,0.667282,-0.635068,0.648874,-0.601320
4.2337,0.016778,0.000000,0.000000,0.002687,0.0000,0.0000,4.6939,-0.190823,0.190823,-0.000614,0.000759,0.000412,0.5843,1.3607,4.4395,-0.204019,0.211689,0.000000,0.662680,-0.605922,0.667282,-0.636602,0.648874,-0.601320
4.2505,0.016739,0.000000,0.000000,0.002673,0.0000,0.0000,4.7047,-0.188111,0.188111,-0.000620,0.000817,0.000426,0.5907,1.4089,4.3911,-0.204019,0.211689,0.000000,0.662680,-0.605922,0.667282,-0.636602,0.648874,-0.601320
4.2672,0.016756,0.000000,0.000000,0.002658,0.0000,0.0000,4.7153,-0.185382,0.185382,-0.000620,0.000811,0.000425,0.5901,1.4038,4.3962,-0.200951,0.205553,0.000000,0.662680,-0.605922,0.667282,-0.636602,0.648874,-0.601320
4.2839,0.016718,0.000000,0.000000,0.002643,0.0000,0.0000,4.7257,-0.182648,0.182648,-0.000552,0.000771,0.000424,0.5431,1.3189,4.5054,-0.200951,0.199418,0.000000,0.662680,-0.605922,0.667282,-0.635068,0.650408,-0.601320
4.3010,0.017109,0.000000,0.000000,0.002628,0.0000,0.0000,4.7361,-0.179842,0.179842,-0.000614,0.000759,0.000412,0.5844,1.3612,4.4391,-0.200951,0.196350,0.000000,0.662680,-0.605922,0.667282,-0.635068,0.648874,-0.601320
4.3178,0.016748,0.000000,0.000000,0.002613,0.0000,0.0000,4.7461,-0.177090,0.177090,-0.000565,0.000833,0.000437,0.5543,1.3754,4.4461,-0.200951,0.196350,0.000000,0.662680,-0.605922,0.667282,-0.636602,0.650408,-0.601320
4.3346,0.016809,0.000000,0.000000,0.002597,0.0000,0.0000,4.7560,-0.174325,0.174325,-0.000584,0.000849,0.000410,0.6444,1.4258,4.4455,-0.197884,0.194816,0.000000,0.662680,-0.605922,0.667282,-0.636602,0.648874,-0.599786
4.3513,0.016738,0.000000,0.000000,0.002581,0.0000,0.0000,4.7657,-0.171573,0.171573,-0.000584,0.000849,0.000410,0.6444,1.4258,4.4455,-0.197884,0.194816,0.000000,0.662680,-0.605922,0.667282,-0.636602,0.648874,-0.599786
4.3681,0.016755,0.000000,0.000000,0.002565,0.0000,0.0000,4.7751,-0.168820,0.168820,-0.000623,0.000808,0.000426,0.5845,1.4020,4.3905,-0.188680,0.193282,0.000000,0.662680,-0.605922,0.667282,-0.636602,0.648874,-0.601320
4.3848,0.016741,0.000000,0.000000,0.002548,0.0000,0.0000,4.7844,-0.166075,0.166075,-0.000606,0.000755,0.000412,0.5801,1.3525,4.4510,-0.181010,0.188680,0.000000,0.662680,-0.605922,0.667282,-0.635068,0.648874,-0.601320
4.4016,0.016770,0.000000,0.000000,0.002531,0.0000,0.0000,4.7935,-0.163335,0.163335,-0.000608,0.000761,0.000414,0.5805,1.3577,4.4447,-0.176408,0.182544,0.000000,0.662680,-0.605922,0.667282,-0.635068,0.648874,-0.601320
4.4183,0.016743,0.000000,0.000000,0.002514,0.0000,0.0000,4.8023,-0.160609,0.160609,-0.000621,0.000817,0.000426,0.5911,1.4092,4.3906,-0.174874,0.174874,0.000000,0.662680,-0.605922,0.667282,-0.636602,0.648874,-0.601320
4.4351,0.016734,0.000000,0.000000,0.002497,0.0000,0.0000,4.8110,-0.157899,0.157899,-0.000607,0.000754,0.000412,0.5794,1.3518,4.4510,-0.174874,0.170272,0.000000,0.662680,-0.605922,0.667282,-0.635068,0.648874,-0.601320
4.4518,0.016742,0.000000,0.000000,0.002479,0.0000,0.0000,4.8195,-0.155204,0.155204,-0.000607,0.000754,0.000412,0.5794,1.3518,4.4510,-0.174874,0.170272,0.000000,0.662680,-0.605922,0.667282,-0.635068,0.648874,-0.601320
4.4686,0.016750,0.000000,0.000000,0.002461,0.0000,0.0000,4.8278,-0.152528,0.152528,-0.000608,0.000761,0.000414,0.5806,1.3578,4.4447,-0.173340,0.167204,0.000000,0.662680,-0.605922,0.667282,-0.635068,0.648874,-0.601320
4.4853,0.016742,0.000000,0.000000,0.002443,0.0000,0.0000,4.8360,-0.149874,0.149874,-0.000621,0.000817,0.000426,0.5911,1.4092,4.3906,-0.167204,0.165670,0.000000,0.662680,-0.605922,0.667282,-0.636602,0.648874,-0.601320
4.5021,0.016754,0.000000,0.000000,0.002425,0.0000,0.0000,4.8439,-0.147243,0.147243,-0.000620,0.000811,0.000425,0.5900,1.4038,4.3962,-0.158000,0.161068,0.000000,0.662680,-0.605922,0.667282,-0.636602,0.648874,-0.601320
4.5188,0.016741,0.000000,0.000000,0.002406,0.0000,0.0000,4.8516,-0.144642,0.144642,-0.000607,0.000755,0.000412,0.5795,1.3523,4.4504,-0.150330,0.154932,0.000000,0.662680,-0.605922,0.667282,-0.635068,0.648874,-0.601320
4.5356,0.016763,0.000000,0.000000,0.002387,0.0000,0.0000,4.8592,-0.142066,0.142066,-0.000607,0.000755,0.000412,0.5795,1.3523,4.4504,-0.150330,0.154932,0.000000,0.662680,-0.605922,0.667282,-0.635068,0.648874,-0.601320
4.5523,0.016748,0.000000,0.000000,0.002368,0.0000,0.0000,4.8665,-0.139526,0.139526,-0.000608,0.000761,0.000414,0.5806,1.3577,4.4448,-0.148796,0.148796,0.000000,0.662680,-0.605922,0.667282,-0.635068,0.648874,-0.601320
