t,loop_dt,cmd_x,cmd_y,cmd_z,cmd_roll,cmd_pitch,cmd_yaw,cmd_ant_l,cmd_ant_r,pres_x,pres_y,pres_z,pres_roll,pres_pitch,pres_yaw,pres_ant_l,pres_ant_r,pres_j0,pres_j1,pres_j2,pres_j3,pres_j4,pres_j5,pres_j6
0.0000,0.000001,-0.000505,0.001355,-0.002431,0.4312,0.3531,-0.5819,-0.001534,0.001534,-0.000505,0.001355,-0.002431,0.4312,0.3531,-0.5819,-0.001534,0.001534,0.000000,0.578311,-0.562971,0.556835,-0.590583,0.567573,-0.567573
0.0167,0.016743,-0.000496,0.001332,-0.002390,0.4240,0.3472,-0.5722,-0.001508,0.001508,-0.000518,0.001409,-0.002420,0.4422,0.4030,-0.6350,-0.004602,0.001534,0.000000,0.578311,-0.562971,0.556835,-0.592117,0.567573,-0.567573
0.0335,0.016752,-0.000488,0.001310,-0.002350,0.4168,0.3413,-0.5625,-0.001483,0.001483,-0.000503,0.001349,-0.002432,0.4299,0.3474,-0.5757,-0.001534,0.001534,0.000000,0.578311,-0.562971,0.556835,-0.590583,0.567573,-0.567573
0.0502,0.016745,-0.000480,0.001287,-0.002309,0.4096,0.3353,-0.5527,-0.001457,0.001457,-0.000518,0.001410,-0.002420,0.4423,0.4036,-0.6357,0.003068,0.000000,0.000000,0.578311,-0.562971,0.556835,-0.592117,0.567573,-0.567573
0.0670,0.016773,-0.000471,0.001264,-0.002268,0.4024,0.3294,-0.5430,-0.001431,0.001431,-0.000518,0.001410,-0.002420,0.4423,0.4036,-0.6357,0.003068,0.000000,0.000000,0.578311,-0.562971,0.556835,-0.592117,0.567573,-0.567573
0.0838,0.016749,-0.000463,0.001241,-0.002227,0.3952,0.3234,-0.5333,-0.001405,0.001405,-0.000475,0.001364,-0.002470,0.3901,0.4160,-0.5226,-0.003068,0.000000,0.000000,0.576777,-0.561437,0.556835,-0.590583,0.567573,-0.566039
0.1005,0.016742,-0.000454,0.001219,-0.002187,0.3880,0.3175,-0.5236,-0.001380,0.001380,-0.000195,0.001438,-0.002589,0.3640,0.5313,-0.5351,-0.004602,0.000000,0.000000,0.570641,-0.559903,0.555301,-0.590583,0.567573,-0.559903
0.1172,0.016739,-0.000446,0.001196,-0.002146,0.3808,0.3115,-0.5138,-0.001354,0.001354,-0.000116,0.001414,-0.002601,0.4048,0.6222,-0.4273,-0.001534,0.000000,0.000000,0.569107,-0.559903,0.556835,-0.590583,0.567573,-0.556835
0.1340,0.016746,-0.000437,0.001173,-0.002105,0.3736,0.3056,-0.5041,-0.001328,0.001328,-0.000124,0.001417,-0.002600,0.4006,0.6127,-0.4386,0.003068,0.000000,0.000000,0.569107,-0.559903,0.556835,-0.590583,0.567573,-0.556835
0.1508,0.016773,-0.000429,0.001151,-0.002065,0.3664,0.2996,-0.4944,-0.001303,0.001303,-0.000082,0.001378,-0.002611,0.3509,0.6296,-0.4910,-0.001534,0.000000,0.000000,0.567573,-0.559903,0.556835,-0.590583,0.567573,-0.556835
0.1675,0.016753,-0.000420,0.001128,-0.002024,0.3592,0.2937,-0.4846,-0.001277,0.001277,-0.000082,0.001378,-0.002611,0.3509,0.6296,-0.4910,-0.001534,0.000000,0.000000,0.567573,-0.559903,0.556835,-0.590583,0.567573,-0.556835
0.1843,0.016743,-0.000412,0.001105,-0.001983,0.3520,0.2878,-0.4749,-0.001251,0.001251,-0.000127,0.001421,-0.002598,0.4062,0.6119,-0.4319,-0.001534,0.000000,0.000000,0.569107,-0.559903,0.556835,-0.590583,0.567573,-0.556835
0.2010,0.016751,-0.000403,0.001083,-0.001942,0.3448,0.2818,-0.4652,-0.001226,0.001226,-0.000123,0.001416,-0.002600,0.4005,0.6138,-0.4381,-0.001534,0.000000,0.000000,0.569107,-0.559903,0.556835,-0.590583,0.567573,-0.556835
0.2178,0.016743,-0.000395,0.001060,-0.001902,0.3376,0.2759,-0.4554,-0.001200,0.001200,-0.000123,0.001416,-0.002600,0.4005,0.6138,-0.4381,0.004602,0.000000,0.000000,0.569107,-0.559903,0.556835,-0.590583,0.567573,-0.556835
0.2345,0.016745,-0.000387,0.001037,-0.001861,0.3304,0.2700,-0.4457,-0.001174,0.001174,-0.000123,0.001416,-0.002600,0.4005,0.6138,-0.4381,-0.004602,0.000000,0.000000,0.569107,-0.559903,0.556835,-0.590583,0.567573,-0.556835
0.2517,0.017223,-0.000378,0.001014,-0.001819,0.3230,0.2639,-0.4357,-0.001148,0.001148,-0.000123,0.001416,-0.002600,0.4005,0.6138,-0.4381,-0.001534,0.000000,0.000000,0.569107,-0.559903,0.556835,-0.590583,0.567573,-0.556835
0.2685,0.016741,-0.000369,0.000991,-0.001778,0.3158,0.2579,-0.4260,-0.001122,0.001122,-0.000123,0.001416,-0.002600,0.4005,0.6138,-0.4381,-0.001534,0.000000,0.000000,0.569107,-0.559903,0.556835,-0.590583,0.567573,-0.556835
0.2852,0.016749,-0.000361,0.000968,-0.001738,0.3086,0.2520,-0.4162,-0.001096,0.001096,-0.000123,0.001416,-0.002600,0.4005,0.6138,-0.4381,-0.001534,0.000000,0.000000,0.569107,-0.559903,0.556835,-0.590583,0.567573,-0.556835
0.3020,0.016745,-0.000352,0.000946,-0.001697,0.3014,0.2461,-0.4065,-0.001071,0.001071,-0.000123,0.001416,-0.002600,0.4005,0.6138,-0.4381,0.000000,0.000000,0.000000,0.569107,-0.559903,0.556835,-0.590583,0.567573,-0.556835
0.3187,0.016749,-0.000344,0.000923,-0.001656,0.2942,0.2401,-0.3968,-0.001045,0.001045,-0.000123,0.001416,-0.002600,0.4005,0.6138,-0.4381,-0.006136,0.000000,0.000000,0.569107,-0.559903,0.556835,-0.590583,0.567573,-0.556835
0.3354,0.016743,-0.000336,0.000900,-0.001616,0.2870,0.2342,-0.3870,-0.001019,0.001019,-0.000123,0.001416,-0.002600,0.4005,0.6138,-0.4381,-0.003068,0.000000,0.000000,0.569107,-0.559903,0.556835,-0.590583,0.567573,-0.556835
0.3522,0.016758,-0.000327,0.000878,-0.001575,0.2797,0.2283,-0.3773,-0.000994,0.000994,-0.000123,0.001416,-0.002600,0.4005,0.6138,-0.4381,0.004602,0.000000,0.000000,0.569107,-0.559903,0.556835,-0.590583,0.567573,-0.556835
0.3689,0.016741,-0.000319,0.000855,-0.001534,0.2725,0.2224,-0.3675,-0.000968,0.000968,-0.000123,0.001416,-0.002600,0.4005,0.6138,-0.4381,0.004602,0.000000,0.000000,0.569107,-0.559903,0.556835,-0.590583,0.567573,-0.556835
0.3857,0.016749,-0.000310,0.000832,-0.001493,0.2653,0.2164,-0.3578,-0.000942,0.000942,-0.000123,0.001416,-0.002600,0.4005,0.6138,-0.4381,0.001534,0.000000,0.000000,0.569107,-0.559903,0.556835,-0.590583,0.567573,-0.556835
0.4024,0.016747,-0.000302,0.000810,-0.001453,0.2581,0.2105,-0.3481,-0.000917,0.000917,-0.000123,0.001416,-0.002600,0.4005,0.6138,-0.4381,-0.006136,0.000000,0.000000,0.569107,-0.559903,0.556835,-0.590583,0.567573,-0.556835
0.4192,0.016750,-0.000293,0.000787,-0.001412,0.2509,0.2046,-0.3383,-0.000891,0.000891,-0.000123,0.001416,-0.002600,0.4005,0.6138,-0.4381,-0.003068,0.000000,0.000000,0.569107,-0.559903,0.556835,-0.590583,0.567573,-0.556835
0.4359,0.016747,-0.000285,0.000764,-0.001371,0.2437,0.1987,-0.3286,-0.000865,0.000865,-0.000123,0.001416,-0.002600,0.4005,0.6138,-0.4381,0.004602,0.000000,0.000000,0.569107,-0.559903,0.556835,-0.590583,0.567573,-0.556835
0.4527,0.016761,-0.000276,0.000742,-0.001331,0.2364,0.1928,-0.3188,-0.000840,0.000840,-0.000123,0.001416,-0.002600,0.4005,0.6138,-0.4381,0.003068,0.000000,0.000000,0.569107,-0.559903,0.556835,-0.590583,0.567573,-0.556835
0.4694,0.016743,-0.000268,0.000719,-0.001290,0.2292,0.1868,-0.3091,-0.000814,0.000814,-0.000123,0.001416,-0.002600,0.4005,0.6138,-0.4381,0.003068,0.000000,0.000000,0.569107,-0.559903,0.556835,-0.590583,0.567573,-0.556835
0.4862,0.016743,-0.000259,0.000696,-0.001249,0.2220,0.1809,-0.2993,-0.000788,0.000788,-0.000123,0.001416,-0.002600,0.4005,0.6138,-0.4381,-0.006136,0.000000,0.000000,0.569107,-0.559903,0.556835,-0.590583,0.567573,-0.556835
0.5029,0.016745,-0.000251,0.000673,-0.001208,0.2148,0.1750,-0.2896,-0.000762,0.000762,-0.000123,0.001416,-0.002600,0.4005,0.6138,-0.4381,-0.003068,0.000000,0.000000,0.569107,-0.559903,0.556835,-0.590583,0.567573,-0.556835
0.5197,0.016756,-0.000243,0.000651,-0.001168,0.2076,0.1691,-0.2798,-0.000737,0.000737,-0.000123,0.001416,-0.002600,0.4005,0.6138,-0.4381,0.004602,0.000000,0.000000,0.569107,-0.559903,0.556835,-0.590583,0.567573,-0.556835
0.5364,0.016714,-0.000234,0.000628,-0.001127,0.2004,0.1632,-0.2701,-0.000711,0.000711,-0.000136,0.001472,-0.002588,0.4119,0.6641,-0.4912,0.001534,0.000000,0.000000,0.569107,-0.559903,0.556835,-0.592117,0.567573,-0.556835
0.5532,0.016763,-0.000226,0.000605,-0.001086,0.1931,0.1573,-0.2604,-0.000685,0.000685,-0.000136,0.001472,-0.002588,0.4119,0.6641,-0.4912,0.001534,0.000000,0.000000,0.569107,-0.559903,0.556835,-0.592117,0.567573,-0.556835
0.5699,0.016746,-0.000217,0.000583,-0.001046,0.1859,0.1514,-0.2506,-0.000660,0.000660,-0.000122,0.001411,-0.002601,0.3999,0.6083,-0.4319,-0.006136,0.000000,0.000000,0.569107,-0.559903,0.556835,-0.590583,0.567573,-0.556835
0.5867,0.016806,-0.000209,0.000560,-0.001005,0.1787,0.1454,-0.2408,-0.000634,0.000634,-0.000123,0.001417,-0.002599,0.4011,0.6141,-0.4381,-0.003068,0.000000,0.000000,0.569107,-0.559903,0.556835,-0.590583,0.567573,-0.556835
0.6035,0.016744,-0.000200,0.000537,-0.000964,0.1714,0.1395,-0.2311,-0.000608,0.000608,-0.000123,0.001417,-0.002599,0.4011,0.6141,-0.4381,0.003068,0.000000,0.000000,0.569107,-0.559903,0.556835,-0.590583,0.567573,-0.556835
0.6202,0.016752,-0.000192,0.000515,-0.000923,0.1642,0.1336,-0.2213,-0.000583,0.000583,-0.000123,0.001417,-0.002599,0.4011,0.6141,-0.4381,0.001534,0.000000,0.000000,0.569107,-0.559903,0.556835,-0.590583,0.567573,-0.556835
0.6370,0.016741,-0.000183,0.000492,-0.000883,0.1570,0.1277,-0.2116,-0.000557,0.000557,-0.000123,0.001417,-0.002599,0.4011,0.6141,-0.4381,-0.006136,0.000000,0.000000,0.569107,-0.559903,0.556835,-0.590583,0.567573,-0.556835
0.6537,0.016767,-0.000175,0.000469,-0.000842,0.1497,0.1218,-0.2018,-0.000531,0.000531,-0.000123,0.001417,-0.002599,0.4011,0.6141,-0.4381,-0.006136,0.000000,0.000000,0.569107,-0.559903,0.556835,-0.590583,0.567573,-0.556835
0.6705,0.016743,-0.000166,0.000446,-0.000801,0.1425,0.1159,-0.1921,-0.000506,0.000506,-0.000123,0.001417,-0.002599,0.4011,0.6141,-0.4381,-0.003068,0.000000,0.000000,0.569107,-0.559903,0.556835,-0.590583,0.567573,-0.556835
0.6875,0.017012,-0.000158,0.000423,-0.000760,0.1352,0.1099,-0.1822,-0.000479,0.000479,-0.000123,0.001417,-0.002599,0.4011,0.6141,-0.4381,0.004602,0.000000,0.000000,0.569107,-0.559903,0.556835,-0.590583,0.567573,-0.556835
0.7043,0.016786,-0.000149,0.000401,-0.000719,0.1279,0.1040,-0.1724,-0.000454,0.000454,-0.000070,0.001401,-0.002587,0.4399,0.5780,-0.4906,0.003068,0.000000,0.000000,0.569107,-0.561437,0.556835,-0.590583,0.567573,-0.556835
0.7211,0.016798,-0.000141,0.000378,-0.000678,0.1206,0.0981,-0.1626,-0.000428,0.000428,-0.000070,0.001401,-0.002587,0.4399,0.5780,-0.4906,0.003068,0.000000,0.000000,0.569107,-0.561437,0.556835,-0.590583,0.567573,-0.556835
0.7378,0.016757,-0.000132,0.000355,-0.000637,0.1134,0.0922,-0.1528,-0.000402,0.000402,-0.000070,0.001401,-0.002587,0.4399,0.5780,-0.4906,0.003068,0.000000,0.000000,0.569107,-0.561437,0.556835,-0.590583,0.567573,-0.556835
0.7546,0.016753,-0.000124,0.000333,-0.000597,0.1062,0.0863,-0.1431,-0.000376,0.000376,-0.000076,0.001402,-0.002588,0.4359,0.5818,-0.4851,-0.003068,0.000000,0.000000,0.569107,-0.561437,0.556835,-0.590583,0.567573,-0.556835
0.7713,0.016748,-0.000115,0.000310,-0.000556,0.0989,0.0804,-0.1333,-0.000351,0.000351,-0.000076,0.001402,-0.002588,0.4359,0.5818,-0.4851,0.004602,0.000000,0.000000,0.569107,-0.561437,0.556835,-0.590583,0.567573,-0.556835
0.7881,0.016752,-0.000107,0.000287,-0.000515,0.0917,0.0745,-0.1236,-0.000325,0.000325,-0.000076,0.001402,-0.002588,0.4359,0.5818,-0.4851,0.003068,0.000000,0.000000,0.569107,-0.561437,0.556835,-0.590583,0.567573,-0.556835
0.8050,0.016930,-0.000098,0.000264,-0.000474,0.0844,0.0685,-0.1137,-0.000299,0.000299,-0.000116,0.001441,-0.002576,0.4864,0.5655,-0.4320,-0.004602,0.000000,0.000000,0.570641,-0.561437,0.556835,-0.590583,0.567573,-0.556835
0.8218,0.016757,-0.000090,0.000242,-0.000433,0.0771,0.0626,-0.1039,-0.000273,0.000273,-0.000116,0.001441,-0.002576,0.4864,0.5655,-0.4320,-0.004602,0.000000,0.000000,0.570641,-0.561437,0.556835,-0.590583,0.567573,-0.556835
0.8385,0.016741,-0.000082,0.000219,-0.000393,0.0699,0.0567,-0.0942,-0.000248,0.000248,-0.000112,0.001437,-0.002578,0.4811,0.5672,-0.4376,-0.004602,0.000000,0.000000,0.570641,-0.561437,0.556835,-0.590583,0.567573,-0.556835
0.8553,0.016759,-0.000073,0.000196,-0.000352,0.0626,0.0509,-0.0844,-0.000222,0.000222,-0.000112,0.001437,-0.002578,0.4811,0.5672,-0.4376,0.000000,0.000000,0.000000,0.570641,-0.561437,0.556835,-0.590583,0.567573,-0.556835
0.8720,0.016758,-0.000065,0.000173,-0.000311,0.0554,0.0450,-0.0746,-0.000196,0.000196,-0.000112,0.001437,-0.002578,0.4811,0.5672,-0.4376,0.003068,0.000000,0.000000,0.570641,-0.561437,0.556835,-0.590583,0.567573,-0.556835
0.8888,0.016755,-0.000056,0.000151,-0.000270,0.0481,0.0391,-0.0649,-0.000171,0.000171,-0.000112,0.001437,-0.002578,0.4811,0.5672,-0.4376,-0.003068,0.000000,0.000000,0.570641,-0.561437,0.556835,-0.590583,0.567573,-0.556835
0.9055,0.016751,-0.000048,0.000128,-0.000230,0.0409,0.0332,-0.0551,-0.000145,0.000145,-0.000112,0.001437,-0.002578,0.4811,0.5672,-0.4376,-0.004602,0.000000,0.000000,0.570641,-0.561437,0.556835,-0.590583,0.567573,-0.556835
0.9223,0.016757,-0.000039,0.000105,-0.000189,0.0336,0.0273,-0.0453,-0.000119,0.000119,-0.000112,0.001437,-0.002578,0.4811,0.5672,-0.4376,-0.004602,0.000000,0.000000,0.570641,-0.561437,0.556835,-0.590583,0.567573,-0.556835
0.9390,0.016740,-0.000031,0.000083,-0.000148,0.0264,0.0214,-0.0356,-0.000094,0.000094,-0.000112,0.001437,-0.002578,0.4811,0.5672,-0.4376,0.001534,0.000000,0.000000,0.570641,-0.561437,0.556835,-0.590583,0.567573,-0.556835
0.9558,0.016760,-0.000022,0.000060,-0.000108,0.0191,0.0155,-0.0258,-0.000068,0.000068,-0.000112,0.001437,-0.002578,0.4811,0.5672,-0.4376,0.003068,0.000000,0.000000,0.570641,-0.561437,0.556835,-0.590583,0.567573,-0.556835
0.9727,0.016894,-0.000014,0.000037,-0.000066,0.0118,0.0096,-0.0159,-0.000042,0.000042,-0.000112,0.001437,-0.002578,0.4811,0.5672,-0.4376,-0.003068,0.000000,0.000000,0.570641,-0.561437,0.556835,-0.590583,0.567573,-0.556835
0.9894,0.016754,-0.000005,0.000014,-0.000026,0.0046,0.0037,-0.0062,-0.000016,0.000016,-0.000059,0.001421,-0.002565,0.5206,0.5315,-0.4902,-0.004602,0.000000,0.000000,0.570641,-0.562971,0.556835,-0.590583,0.567573,-0.556835
1.0064,0.016944,0.000000,0.000000,0.000020,0.0000,0.0000,0.0000,0.000000,-0.000000,-0.000118,0.001439,-0.002579,0.4776,0.5708,-0.4315,0.000000,0.000000,0.000000,0.570641,-0.561437,0.556835,-0.590583,0.567573,-0.556835
1.0231,0.016759,0.000000,0.000000,0.000073,0.0000,0.0000,0.0000,0.000000,-0.000000,-0.000118,0.001439,-0.002579,0.4776,0.5708,-0.4315,0.000000,0.000000,0.000000,0.570641,-0.561437,0.556835,-0.590583,0.567573,-0.556835
1.0399,0.016742,0.000000,0.000000,0.000125,0.0000,0.0000,0.0000,0.000000,-0.000000,-0.000112,0.001437,-0.002577,0.4820,0.5667,-0.4376,0.003068,0.000000,0.000000,0.570641,-0.561437,0.556835,-0.590583,0.567573,-0.556835
1.0566,0.016746,0.000000,0.000000,0.000178,0.0000,0.0000,0.0000,0.000000,-0.000000,-0.000112,0.001437,-0.002577,0.4820,0.5667,-0.4376,-0.003068,0.000000,0.000000,0.570641,-0.561437,0.556835,-0.590583,0.567573,-0.556835
1.0734,0.016744,0.000000,0.000000,0.000230,0.0000,0.0000,0.0000,0.000000,-0.000000,-0.000112,0.001437,-0.002577,0.4820,0.5667,-0.4376,-0.004602,0.000000,0.000000,0.570641,-0.561437,0.556835,-0.590583,0.567573,-0.556835
1.0901,0.016756,0.000000,0.000000,0.000283,0.0000,0.0000,0.0000,0.000000,-0.000000,-0.000059,0.001421,-0.002565,0.5205,0.5316,-0.4902,0.001534,0.000000,0.000000,0.570641,-0.562971,0.556835,-0.590583,0.567573,-0.556835
1.1069,0.016750,0.000000,0.000000,0.000335,0.0000,0.0000,0.0000,0.000000,-0.000000,-0.000064,0.001423,-0.002566,0.5164,0.5352,-0.4847,0.004602,0.000000,0.000000,0.570641,-0.562971,0.556835,-0.590583,0.567573,-0.556835
1.1236,0.016753,0.000000,0.000000,0.000388,0.0000,0.0000,0.0000,0.000000,-0.000000,-0.000064,0.001423,-0.002566,0.5164,0.5352,-0.4847,0.004602,0.000000,0.000000,0.570641,-0.562971,0.556835,-0.590583,0.567573,-0.556835
1.1404,0.016741,0.000000,0.000000,0.000440,0.0000,0.0000,0.0000,0.000000,-0.000000,-0.000077,0.001478,-0.002555,0.5277,0.5853,-0.5390,-0.003068,0.000000,0.000000,0.570641,-0.562971,0.556835,-0.592117,0.567573,-0.556835
1.1571,0.016745,0.000000,0.000000,0.000493,0.0000,0.0000,0.0000,0.000000,-0.000000,-0.000129,0.001488,-0.002569,0.4877,0.6156,-0.4801,-0.003068,0.000000,0.000000,0.570641,-0.561437,0.556835,-0.592117,0.567573,-0.556835
1.1738,0.016744,0.000000,0.000000,0.000545,0.0000,0.0000,0.0000,0.000000,-0.000000,-0.000123,0.001487,-0.002567,0.4918,0.6125,-0.4863,0.004602,0.000000,0.000000,0.570641,-0.561437,0.556835,-0.592117,0.567573,-0.556835
1.1907,0.016898,0.000000,0.000000,0.000598,0.0000,0.0000,0.0000,0.000000,-0.000000,-0.000152,0.001471,-0.002567,0.5306,0.5465,-0.3783,0.004602,0.000000,0.000000,0.572175,-0.561437,0.556835,-0.590583,0.567573,-0.556835
1.2077,0.016949,0.000000,0.000000,0.000651,0.0000,0.0000,0.0000,0.000000,-0.000000,-0.000109,0.001512,-0.002543,0.5763,0.5684,-0.4964,-0.004602,0.000000,0.000000,0.572175,-0.562971,0.556835,-0.592117,0.567573,-0.556835
1.2244,0.016753,0.000000,0.000000,0.000703,0.0000,0.0000,0.0000,0.000000,-0.000000,-0.000109,0.001512,-0.002543,0.5763,0.5684,-0.4964,-0.004602,0.000000,0.000000,0.572175,-0.562971,0.556835,-0.592117,0.567573,-0.556835
1.2412,0.016742,0.000000,0.000000,0.000755,0.0000,0.0000,0.0000,0.000000,-0.000000,-0.000139,0.001400,-0.002518,0.5507,0.6702,-0.3774,-0.003068,0.000000,0.000000,0.572175,-0.562971,0.559903,-0.592117,0.567573,-0.556835
1.2579,0.016747,0.000000,0.000000,0.000807,0.0000,0.0000,0.0000,0.000000,-0.000000,-0.000283,0.001343,-0.002458,0.5830,0.7143,-0.2290,0.006136,0.000000,0.000000,0.575243,-0.562971,0.562971,-0.592117,0.567573,-0.558369
1.2747,0.016742,0.000000,0.000000,0.000859,0.0000,0.0000,0.0000,0.000000,-0.000000,-0.000427,0.001148,-0.002387,0.4987,0.8143,-0.1373,0.004602,0.000000,0.000000,0.576777,-0.562971,0.567573,-0.592117,0.567573,-0.561437
1.2914,0.016749,0.000000,0.000000,0.000910,0.0000,0.0000,0.0000,0.000000,-0.000000,-0.000614,0.000975,-0.002269,0.5539,0.8924,0.0690,-0.004602,0.000000,0.000000,0.581379,-0.564505,0.573709,-0.592117,0.567573,-0.564505
1.3083,0.016840,0.000000,0.000000,0.000962,0.0000,0.0000,0.0000,0.000000,-0.000000,-0.000614,0.000975,-0.002269,0.5539,0.8924,0.0690,-0.001534,0.000000,0.000000,0.585981,-0.567573,0.578311,-0.592117,0.567573,-0.566039
1.3250,0.016752,0.000000,0.000000,0.001014,0.0000,0.0000,0.0000,0.000000,-0.000000,-0.000690,0.000876,-0.002169,0.6933,0.9030,0.2107,-0.001534,0.000000,0.000000,0.585981,-0.567573,0.578311,-0.592117,0.567573,-0.566039
1.3418,0.016743,0.000000,0.000000,0.001065,0.0000,0.0000,0.0000,0.000000,-0.000000,-0.000913,0.000787,-0.002020,0.7849,0.9207,0.2526,0.006136,0.000000,0.000000,0.592117,-0.570641,0.582913,-0.593651,0.567573,-0.570641
1.3585,0.016746,0.000000,0.000000,0.001117,0.0000,0.0000,0.0000,0.000000,-0.000000,-0.001014,0.000695,-0.001925,0.8810,0.8689,0.3045,0.001534,0.000000,0.000000,0.596719,-0.573709,0.585981,-0.593651,0.567573,-0.573709
1.3753,0.016744,0.000000,0.000000,0.001168,0.0000,0.0000,0.0000,0.000000,-0.000000,-0.001153,0.000525,-0.001799,0.8778,0.9251,0.2475,-0.004602,0.000000,0.000000,0.599786,-0.576777,0.590583,-0.595185,0.567573,-0.578311
1.3920,0.016752,0.000000,0.000000,0.001219,0.0000,0.0000,0.0000,0.000000,-0.000000,-0.001153,0.000536,-0.001689,1.0460,0.9695,0.1488,-0.001534,0.000000,0.000000,0.602854,-0.581379,0.593651,-0.598253,0.567573,-0.579845
1.4088,0.016751,0.000000,0.000000,0.001270,0.0000,0.0000,0.0000,0.000000,-0.000000,-0.001209,0.000490,-0.001565,1.1468,0.9980,-0.0000,0.006136,0.000000,0.000000,0.605922,-0.585981,0.596719,-0.601320,0.567573,-0.582913
1.4255,0.016752,0.000000,0.000000,0.001321,0.0000,0.0000,0.0000,0.000000,-0.000000,-0.001209,0.000490,-0.001565,1.1468,0.9980,-0.0000,0.006136,0.000000,0.000000,0.605922,-0.585981,0.596719,-0.601320,0.567573,-0.582913
1.4423,0.016745,0.000000,0.000000,0.001372,0.0000,0.0000,0.0000,0.000000,-0.000000,-0.001043,0.000478,-0.001464,1.1746,0.8911,-0.0396,0.000000,0.000000,0.000000,0.607456,-0.590583,0.598253,-0.602854,0.570641,-0.584447
1.4590,0.016749,0.000000,0.000000,0.001422,0.0000,0.0000,0.0000,0.000000,-0.000000,-0.000967,0.000456,-0.001325,1.0816,0.8834,-0.0373,-0.004602,0.000000,0.000000,0.608990,-0.593651,0.601320,-0.605922,0.575243,-0.587515
1.4757,0.016741,0.000000,0.000000,0.001472,0.0000,0.0000,0.0000,0.000000,-0.000000,-0.000827,0.000608,-0.001253,1.1620,0.8315,-0.0928,0.001534,0.000000,0.000000,0.610524,-0.596719,0.601320,-0.608990,0.578311,-0.587515
1.4925,0.016745,0.000000,0.000000,0.001523,0.0000,0.0000,0.0000,0.000000,-0.000000,-0.000639,0.000646,-0.001197,1.1634,0.7493,-0.1431,0.004602,0.000000,0.000000,0.610524,-0.599786,0.601320,-0.610524,0.581379,-0.587515
1.5094,0.016922,0.000000,0.000000,0.001573,0.0000,0.0000,0.0000,0.000000,-0.000000,-0.000469,0.000816,-0.001129,1.0271,0.7220,-0.0328,-0.001534,0.000000,0.000000,0.610524,-0.599786,0.601320,-0.613592,0.587515,-0.587515
1.5262,0.016759,0.000000,0.000000,0.001623,0.0000,0.0000,0.0000,0.000000,-0.000000,-0.000469,0.000816,-0.001129,1.0271,0.7220,-0.0328,-0.001534,0.000000,0.000000,0.610524,-0.599786,0.601320,-0.613592,0.587515,-0.587515
1.5429,0.016740,0.000000,0.000000,0.001673,0.0000,0.0000,0.0000,0.000000,-0.000000,-0.000432,0.000846,-0.001087,0.9244,0.6900,-0.0460,-0.003068,0.000000,0.000000,0.610524,-0.599786,0.601320,-0.615126,0.590583,-0.589049
1.5597,0.016749,0.000000,0.000000,0.001722,0.0000,0.0000,0.0000,0.000000,-0.000000,-0.000394,0.000947,-0.001030,0.8291,0.7088,-0.1003,0.001534,0.000000,0.000000,0.610524,-0.599786,0.601320,-0.618194,0.593651,-0.590583
1.5764,0.016734,0.000000,0.000000,0.001771,0.0000,0.0000,0.0000,0.000000,-0.000000,-0.000248,0.001039,-0.000987,0.7319,0.6551,0.0120,0.004602,0.000000,0.000000,0.610524,-0.599786,0.601320,-0.619728,0.598253,-0.590583
1.5931,0.016752,0.000000,0.000000,0.001821,0.0000,0.0000,0.0000,0.000000,-0.000000,-0.000168,0.001117,-0.000956,0.6746,0.6430,0.0534,-0.001534,0.000000,0.000000,0.610524,-0.599786,0.601320,-0.621262,0.601320,-0.590583
1.6099,0.016746,0.000000,0.000000,0.001869,0.0000,0.0000,0.0000,0.000000,-0.000000,-0.000217,0.001102,-0.000910,0.5538,0.6263,-0.0602,-0.003068,0.000000,0.000000,0.610524,-0.599786,0.601320,-0.622796,0.602854,-0.593651
1.6267,0.016760,0.000000,0.000000,0.001918,0.0000,0.0000,0.0000,0.000000,-0.000000,-0.000217,0.001102,-0.000910,0.5538,0.6263,-0.0602,-0.003068,0.000000,0.000000,0.610524,-0.599786,0.601320,-0.622796,0.602854,-0.593651
1.6434,0.016741,0.000000,0.000000,0.001967,0.0000,0.0000,0.0000,0.000000,-0.000000,-0.000116,0.001191,-0.000878,0.4989,0.6105,0.0050,0.001534,0.000000,0.000000,0.610524,-0.599786,0.601320,-0.624330,0.605922,-0.593651
1.6601,0.016753,0.000000,0.000000,0.002015,0.0000,0.0000,0.0000,0.000000,-0.000000,-0.000113,0.001126,-0.000856,0.4941,0.5598,-0.1103,0.004602,0.000000,0.000000,0.610524,-0.601320,0.601320,-0.624330,0.605922,-0.595185
1.6769,0.016779,0.000000,0.000000,0.002063,0.0000,0.0000,0.0000,0.000000,-0.000000,-0.000045,0.001126,-0.000785,0.3674,0.4782,-0.2076,-0.003068,0.000000,0.000000,0.610524,-0.602854,0.601320,-0.625864,0.608990,-0.598253
1.6937,0.016747,0.000000,0.000000,0.002111,0.0000,0.0000,0.0000,0.000000,-0.000000,0.000028,0.001143,-0.000657,0.3415,0.3472,-0.4699,0.004602,0.000000,0.000000,0.612058,-0.607456,0.601320,-0.628932,0.612058,-0.602854
1.7104,0.016760,0.000000,0.000000,0.002159,0.0000,0.0000,0.0000,0.000000,-0.000000,0.000047,0.001142,-0.000622,0.3438,0.2594,-0.4425,0.004602,0.000000,0.000000,0.613592,-0.608990,0.601320,-0.628932,0.613592,-0.604388
1.7272,0.016764,0.000000,0.000000,0.002206,0.0000,0.0000,0.0000,0.000000,-0.000000,0.000047,0.001142,-0.000622,0.3438,0.2594,-0.4425,0.004602,0.000000,0.000000,0.613592,-0.608990,0.601320,-0.628932,0.613592,-0.604388
1.7440,0.016765,0.000000,0.000000,0.002253,0.0000,0.0000,0.0000,0.000000,-0.000000,-0.000010,0.001238,-0.000566,0.4040,0.3010,-0.6091,-0.003068,0.000000,0.000000,0.615126,-0.610524,0.601320,-0.632000,0.613592,-0.605922
1.7609,0.016941,0.000000,0.000000,0.002300,0.0000,0.0000,0.0000,0.000000,-0.000000,-0.000010,0.001238,-0.000566,0.4040,0.3010,-0.6091,-0.003068,0.000000,0.000000,0.615126,-0.610524,0.601320,-0.632000,0.613592,-0.605922
1.7777,0.016795,0.000000,0.000000,0.002347,0.0000,0.0000,0.0000,0.000000,-0.000000,-0.000010,0.001238,-0.000566,0.4040,0.3010,-0.6091,-0.003068,0.000000,0.000000,0.615126,-0.610524,0.601320,-0.632000,0.613592,-0.605922
1.7945,0.016762,0.000000,0.000000,0.002394,0.0000,0.0000,0.0000,0.000000,-0.000000,-0.000010,0.001238,-0.000566,0.4040,0.3010,-0.6091,-0.003068,0.000000,0.000000,0.615126,-0.610524,0.601320,-0.632000,0.613592,-0.605922
1.8112,0.016752,0.000000,0.000000,0.002440,0.0000,0.0000,0.0000,0.000000,-0.000000,-0.000226,0.001261,-0.000389,0.6144,0.2656,-0.6462,0.003068,0.000000,0.000000,0.622796,-0.615126,0.604388,-0.635068,0.613592,-0.610524
1.8280,0.016758,0.000000,0.000000,0.002485,0.0000,0.0000,0.0000,0.000000,-0.000000,-0.000226,0.001261,-0.000389,0.6144,0.2656,-0.6462,0.003068,0.000000,0.000000,0.622796,-0.615126,0.604388,-0.635068,0.613592,-0.610524
1.8447,0.016743,0.000000,0.000000,0.002531,0.0000,0.0000,0.0000,0.000000,-0.000000,-0.000313,0.001260,-0.000359,0.5936,0.3381,-0.6424,-0.001534,0.000000,0.000000,0.624330,-0.615126,0.605922,-0.636602,0.613592,-0.612058
1.8615,0.016760,0.000000,0.000000,0.002576,0.0000,0.0000,0.0000,0.000000,-0.000000,-0.000426,0.001206,-0.000337,0.5856,0.4527,-0.4242,-0.003068,0.000000,0.000000,0.625864,-0.613592,0.608990,-0.636602,0.613592,-0.612058
1.8782,0.016746,0.000000,0.000000,0.002621,0.0000,0.0000,0.0000,0.000000,-0.000000,-0.000373,0.001140,-0.000314,0.6138,0.4568,-0.4469,0.003068,0.000000,0.000000,0.625864,-0.615126,0.610524,-0.636602,0.613592,-0.612058
1.8950,0.016775,0.000000,0.000000,0.002666,0.0000,0.0000,0.0000,0.000000,-0.000000,-0.000459,0.001020,-0.000266,0.6278,0.5942,-0.2254,0.004602,0.000000,0.000000,0.627398,-0.615126,0.615126,-0.636602,0.613592,-0.612058
1.9118,0.016759,0.000000,0.000000,0.002710,0.0000,0.0000,0.0000,0.000000,-0.000000,-0.000643,0.000922,-0.000197,0.6050,0.6170,-0.1385,-0.003068,0.000000,0.000000,0.630466,-0.615126,0.618194,-0.636602,0.613592,-0.615126
1.9286,0.016804,0.000000,0.000000,0.002754,0.0000,0.0000,0.0000,0.000000,-0.000000,-0.000734,0.000790,-0.000118,0.6618,0.6842,0.0179,-0.003068,0.000000,0.000000,0.633534,-0.616660,0.622796,-0.636602,0.613592,-0.616660
1.9453,0.016748,0.000000,0.000000,0.002798,0.0000,0.0000,0.0000,0.000000,-0.000000,-0.000734,0.000790,-0.000118,0.6618,0.6842,0.0179,-0.003068,0.000000,0.000000,0.633534,-0.616660,0.622796,-0.636602,0.613592,-0.616660
1.9621,0.016754,0.000000,0.000000,0.002842,0.0000,0.0000,0.0000,0.000000,-0.000000,-0.000683,0.000732,-0.000065,0.6820,0.6942,0.1663,0.001534,0.000000,0.000000,0.635068,-0.618194,0.625864,-0.636602,0.615126,-0.616660
1.9788,0.016748,0.000000,0.000000,0.002885,0.0000,0.0000,0.0000,0.000000,-0.000000,-0.000579,0.000659,0.000066,0.5803,0.6238,0.2048,0.003068,0.000000,0.000000,0.636602,-0.621262,0.628932,-0.638136,0.619728,-0.619728
1.9956,0.016769,0.000000,0.000000,0.002928,0.0000,0.0000,0.0000,0.000000,-0.000000,-0.000565,0.000746,0.000173,0.6881,0.5314,0.3111,-0.001534,0.000000,0.000000,0.641204,-0.624330,0.630466,-0.639670,0.622796,-0.621262
2.0123,0.016747,0.000000,0.000000,0.002970,0.0000,0.0000,0.0000,0.000000,-0.000000,-0.000513,0.000721,0.000284,0.7140,0.5074,0.4104,-0.003068,0.000000,0.000000,0.644272,-0.627398,0.633534,-0.641204,0.625864,-0.622796
2.0291,0.016767,0.000000,0.000000,0.003012,0.0000,0.0000,0.0000,0.000000,-0.000000,-0.000464,0.000741,0.000358,0.6724,0.4758,0.4548,0.001534,0.000000,0.000000,0.645806,-0.628932,0.635068,-0.642738,0.628932,-0.624330
2.0458,0.016743,0.000000,0.000000,0.003054,0.0000,0.0000,0.0000,0.000000,-0.000000,-0.000464,0.000741,0.000358,0.6724,0.4758,0.4548,0.001534,0.000000,0.000000,0.645806,-0.628932,0.635068,-0.642738,0.628932,-0.624330
2.0626,0.016747,0.000000,0.000000,0.003096,0.0000,0.0000,0.0000,0.000000,-0.000000,-0.000454,0.000780,0.000435,0.7255,0.5960,0.5060,0.004602,0.000000,0.000000,0.647340,-0.630466,0.638136,-0.645806,0.630466,-0.624330
2.0793,0.016744,0.000000,0.000000,0.003137,0.0000,0.0000,0.0000,0.000000,-0.000000,-0.000401,0.000904,0.000474,0.7026,0.5508,0.6103,-0.003068,0.000000,0.000000,0.648874,-0.630466,0.638136,-0.647340,0.633534,-0.624330
2.0961,0.016764,0.000000,0.000000,0.003178,0.0000,0.0000,0.0000,0.000000,-0.000000,-0.000323,0.001004,0.000518,0.7271,0.5871,0.4891,-0.003068,0.000000,0.000000,0.648874,-0.632000,0.638136,-0.650408,0.635068,-0.624330
2.1128,0.016742,0.000000,0.000000,0.003218,0.0000,0.0000,0.0000,0.000000,-0.000000,-0.000344,0.001051,0.000525,0.7356,0.6332,0.4467,0.004602,0.000000,0.000000,0.648874,-0.632000,0.638136,-0.651942,0.635068,-0.624330
2.1296,0.016783,0.000000,0.000000,0.003258,0.0000,0.0000,0.0000,0.000000,-0.000000,-0.000343,0.001159,0.000559,0.7560,0.6298,0.5062,0.004602,0.000000,0.000000,0.650408,-0.632000,0.638136,-0.653476,0.636602,-0.624330
2.1464,0.016744,0.000000,0.000000,0.003298,0.0000,0.0000,0.0000,0.000000,-0.000000,-0.000343,0.001159,0.000559,0.7560,0.6298,0.5062,0.004602,0.000000,0.000000,0.650408,-0.632000,0.638136,-0.653476,0.636602,-0.624330
2.1631,0.016756,0.000000,0.000000,0.003337,0.0000,0.0000,0.0000,0.000000,-0.000000,-0.000288,0.001164,0.000604,0.7159,0.5944,0.3894,-0.003068,0.000000,0.000000,0.650408,-0.633534,0.638136,-0.655010,0.638136,-0.625864
2.1799,0.016744,0.000000,0.000000,0.003376,0.0000,0.0000,0.0000,0.000000,-0.000000,-0.000294,0.001276,0.000634,0.7413,0.5996,0.4566,-0.003068,0.000000,0.000000,0.651942,-0.633534,0.638136,-0.656544,0.639670,-0.625864
2.1966,0.016771,0.000000,0.000000,0.003415,0.0000,0.0000,0.0000,0.000000,-0.000000,-0.000196,0.001321,0.000667,0.7495,0.5802,0.3941,0.004602,0.000000,0.000000,0.651942,-0.635068,0.638136,-0.658078,0.641204,-0.625864
2.2134,0.016742,0.000000,0.000000,0.003453,0.0000,0.0000,0.0000,0.000000,-0.000000,-0.000151,0.001332,0.000675,0.7102,0.5487,0.4554,0.004602,0.000000,0.000000,0.651942,-0.635068,0.638136,-0.658078,0.642738,-0.625864
2.2301,0.016773,0.000000,0.000000,0.003491,0.0000,0.0000,0.0000,0.000000,-0.000000,-0.000157,0.001412,0.000709,0.8121,0.5520,0.3943,-0.001534,0.000000,0.000000,0.653476,-0.636602,0.638136,-0.659612,0.642738,-0.625864
2.2469,0.016745,0.000000,0.000000,0.003529,0.0000,0.0000,0.0000,0.000000,-0.000000,-0.000157,0.001412,0.000709,0.8121,0.5520,0.3943,-0.001534,0.000000,0.000000,0.653476,-0.636602,0.638136,-0.659612,0.642738,-0.625864
2.2636,0.016756,0.000000,0.000000,0.003566,0.0000,0.0000,0.0000,0.000000,-0.000000,-0.000351,0.001696,0.000760,0.9817,0.7547,0.2363,-0.001534,0.000000,0.000000,0.656544,-0.636602,0.638136,-0.665748,0.641204,-0.625864
2.2804,0.016755,0.000000,0.000000,0.003602,0.0000,0.0000,0.0000,0.000000,-0.000000,-0.000276,0.001683,0.000767,0.9255,0.7000,0.3074,0.003068,0.000000,0.000000,0.656544,-0.636602,0.638136,-0.665748,0.642738,-0.625864
2.2972,0.016766,0.000000,0.000000,0.003639,0.0000,0.0000,0.0000,0.000000,-0.000000,-0.000325,0.001644,0.000779,0.8827,0.6884,0.2448,0.000000,0.000000,0.000000,0.656544,-0.636602,0.638136,-0.665748,0.642738,-0.627398
2.3139,0.016742,0.000000,0.000000,0.003675,0.0000,0.0000,0.0000,0.000000,-0.000000,-0.000376,0.001746,0.000800,0.9471,0.7247,0.2517,-0.003068,0.000000,0.000000,0.658078,-0.636602,0.638136,-0.667282,0.642738,-0.627398
2.3307,0.016766,0.000000,0.000000,0.003710,0.0000,0.0000,0.0000,0.000000,-0.000000,-0.000376,0.001746,0.000800,0.9471,0.7247,0.2517,-0.003068,0.000000,0.000000,0.658078,-0.636602,0.638136,-0.667282,0.642738,-0.627398
2.3474,0.016763,0.000000,0.000000,0.003745,0.0000,0.0000,0.0000,0.000000,-0.000000,-0.000427,0.001833,0.000819,1.0004,0.7560,0.2514,0.000000,0.000000,0.000000,0.659612,-0.636602,0.638136,-0.668816,0.642738,-0.627398
2.3642,0.016752,0.000000,0.000000,0.003780,0.0000,0.0000,0.0000,0.000000,-0.000000,-0.000464,0.001897,0.000864,0.9676,0.7372,0.2513,0.001534,0.000000,0.000000,0.661146,-0.636602,0.638136,-0.670350,0.644272,-0.628932
2.3809,0.016741,0.000000,0.000000,0.003814,0.0000,0.0000,0.0000,0.000000,-0.000000,-0.000502,0.001964,0.000906,0.9437,0.7237,0.2511,-0.001534,0.000000,0.000000,0.662680,-0.636602,0.638136,-0.671884,0.645806,-0.630466
2.3977,0.016758,0.000000,0.000000,0.003848,0.0000,0.0000,0.0000,0.000000,-0.000000,-0.000498,0.001957,0.000901,0.9462,0.7251,0.2511,-0.001534,0.000000,0.000000,0.662680,-0.636602,0.638136,-0.671884,0.645806,-0.630466
2.4144,0.016760,0.000000,0.000000,0.003881,0.0000,0.0000,0.0000,0.000000,-0.000000,-0.000487,0.002128,0.000958,0.9773,0.6798,0.4170,0.001534,0.000000,0.000000,0.665748,-0.636602,0.638136,-0.673418,0.648874,-0.630466
2.4312,0.016767,0.000000,0.000000,0.003914,0.0000,0.0000,0.0000,0.000000,-0.000000,-0.000487,0.002128,0.000958,0.9773,0.6798,0.4170,0.001534,0.000000,0.000000,0.665748,-0.636602,0.638136,-0.673418,0.648874,-0.630466
2.4480,0.016747,0.000000,0.000000,0.003947,0.0000,0.0000,0.0000,0.000000,-0.000000,-0.000489,0.002224,0.000985,0.9955,0.6870,0.4550,0.003068,0.000000,0.000000,0.667282,-0.636602,0.638136,-0.674952,0.650408,-0.630466
2.4647,0.016750,0.000000,0.000000,0.003979,0.0000,0.0000,0.0000,0.000000,-0.000000,-0.000490,0.002328,0.001051,1.0141,0.6924,0.6727,-0.001534,0.000000,0.000000,0.670350,-0.636602,0.639670,-0.676486,0.653476,-0.630466
2.4815,0.016749,0.000000,0.000000,0.004011,0.0000,0.0000,0.0000,0.000000,-0.000000,-0.000529,0.002264,0.001117,1.0004,0.8454,0.8722,-0.003068,0.000000,0.000000,0.671884,-0.636602,0.644272,-0.678020,0.655010,-0.630466
2.4982,0.016752,0.000000,0.000000,0.004042,0.0000,0.0000,0.0000,0.000000,-0.000000,-0.000608,0.002258,0.001193,1.0382,0.9686,1.1302,0.001534,0.000000,0.000000,0.674952,-0.636602,0.648874,-0.679553,0.656544,-0.630466
2.5150,0.016745,0.000000,0.000000,0.004073,0.0000,0.0000,0.0000,0.000000,-0.000000,-0.000573,0.002212,0.001293,1.1468,1.0236,1.2724,0.004602,0.000000,0.000000,0.678020,-0.639670,0.653476,-0.681087,0.658078,-0.630466
2.5317,0.016759,0.000000,0.000000,0.004103,0.0000,0.0000,0.0000,0.000000,-0.000000,-0.000573,0.002212,0.001293,1.1468,1.0236,1.2724,0.004602,0.000000,0.000000,0.678020,-0.639670,0.653476,-0.681087,0.658078,-0.630466
2.5485,0.016743,0.000000,0.000000,0.004133,0.0000,0.0000,0.0000,0.000000,-0.000000,-0.000549,0.002170,0.001356,1.2492,1.0822,1.2599,-0.001534,0.000000,0.000000,0.679553,-0.642738,0.656544,-0.682621,0.658078,-0.630466
2.5652,0.016746,0.000000,0.000000,0.004162,0.0000,0.0000,0.0000,0.000000,-0.000000,-0.000469,0.002144,0.001434,1.3141,1.1074,1.3185,-0.003068,0.000000,0.000000,0.681087,-0.645806,0.659612,-0.684155,0.659612,-0.630466
2.5819,0.016745,0.000000,0.000000,0.004191,0.0000,0.0000,0.0000,0.000000,-0.000000,-0.000409,0.002141,0.001523,1.4703,1.1829,1.2039,0.001534,0.000000,0.000000,0.682621,-0.650408,0.662680,-0.687223,0.659612,-0.630466
2.5987,0.016766,0.000000,0.000000,0.004219,0.0000,0.0000,0.0000,0.000000,-0.000000,-0.000320,0.002020,0.001623,1.5932,1.1573,1.3861,0.004602,0.000000,0.000000,0.685689,-0.655010,0.667282,-0.687223,0.661146,-0.630466
2.6155,0.016791,0.000000,0.000000,0.004248,0.0000,0.0000,0.0000,0.000000,-0.000000,-0.000178,0.001927,0.001664,1.6835,1.1032,1.2565,-0.003068,0.000000,0.000000,0.685689,-0.659612,0.668816,-0.687223,0.661146,-0.630466
2.6322,0.016745,0.000000,0.000000,0.004275,0.0000,0.0000,0.0000,0.000000,-0.000000,-0.000178,0.001927,0.001664,1.6835,1.1032,1.2565,-0.003068,0.000000,0.000000,0.685689,-0.659612,0.668816,-0.687223,0.661146,-0.630466
2.6490,0.016745,0.000000,0.000000,0.004302,0.0000,0.0000,0.0000,0.000000,-0.000000,-0.000137,0.001920,0.001672,1.7119,1.0735,1.2143,-0.003068,0.000000,0.000000,0.685689,-0.661146,0.668816,-0.687223,0.661146,-0.630466
2.6657,0.016748,0.000000,0.000000,0.004329,0.0000,0.0000,0.0000,0.000000,-0.000000,-0.000100,0.001962,0.001695,1.7578,1.0906,1.1074,0.003068,0.000000,0.000000,0.685689,-0.662680,0.668816,-0.688757,0.661146,-0.630466
2.6825,0.016746,0.000000,0.000000,0.004355,0.0000,0.0000,0.0000,0.000000,-0.000000,0.000006,0.001924,0.001718,1.8285,1.0181,1.0067,0.003068,0.000000,0.000000,0.685689,-0.665748,0.668816,-0.688757,0.661146,-0.630466
2.6992,0.016749,0.000000,0.000000,0.004380,0.0000,0.0000,0.0000,0.000000,-0.000000,0.000105,0.001894,0.001740,1.8963,0.9551,0.9052,-0.003068,0.000000,0.000000,0.685689,-0.668816,0.668816,-0.688757,0.661146,-0.630466
2.7160,0.016752,0.000000,0.000000,0.004406,0.0000,0.0000,0.0000,0.000000,-0.000000,0.000105,0.001894,0.001740,1.8963,0.9551,0.9052,-0.003068,0.000000,0.000000,0.685689,-0.670350,0.668816,-0.690291,0.661146,-0.632000
2.7327,0.016759,0.000000,0.000000,0.004430,0.0000,0.0000,0.0000,0.000000,-0.000000,0.000096,0.001898,0.001775,1.8886,0.9580,0.7486,-0.003068,0.000000,0.000000,0.685689,-0.670350,0.668816,-0.690291,0.661146,-0.632000
2.7495,0.016745,0.000000,0.000000,0.004454,0.0000,0.0000,0.0000,0.000000,-0.000000,0.000056,0.001859,0.001821,1.8399,0.9366,0.5419,0.003068,0.000000,0.000000,0.685689,-0.671884,0.668816,-0.691825,0.661146,-0.635068
2.7662,0.016746,0.000000,0.000000,0.004478,0.0000,0.0000,0.0000,0.000000,-0.000000,0.000019,0.001824,0.001865,1.7957,0.9179,0.3403,0.001534,0.000000,0.000000,0.685689,-0.673418,0.668816,-0.693359,0.661146,-0.638136
2.7830,0.016749,0.000000,0.000000,0.004501,0.0000,0.0000,0.0000,0.000000,-0.000000,-0.000073,0.001805,0.001898,1.7141,0.9343,0.1941,-0.003068,0.000000,0.000000,0.685689,-0.673418,0.668816,-0.694893,0.661146,-0.641204
2.7997,0.016744,0.000000,0.000000,0.004524,0.0000,0.0000,0.0000,0.000000,-0.000000,-0.000021,0.001814,0.001931,1.5596,0.7821,0.1512,-0.003068,0.000000,0.000000,0.685689,-0.673418,0.667282,-0.694893,0.664214,-0.644272
2.8166,0.016871,0.000000,0.000000,0.004546,0.0000,0.0000,0.0000,0.000000,-0.000000,-0.000021,0.001814,0.001931,1.5596,0.7821,0.1512,-0.003068,0.000000,0.000000,0.685689,-0.673418,0.667282,-0.694893,0.664214,-0.644272
2.8334,0.016755,0.000000,0.000000,0.004568,0.0000,0.0000,0.0000,0.000000,-0.000000,-0.000021,0.001814,0.001931,1.5596,0.7821,0.1512,-0.003068,0.000000,0.000000,0.685689,-0.673418,0.667282,-0.694893,0.664214,-0.644272
2.8501,0.016752,0.000000,0.000000,0.004589,0.0000,0.0000,0.0000,0.000000,-0.000000,-0.000206,0.001710,0.002026,1.3924,0.7814,0.0442,0.004602,0.000000,0.000000,0.687223,-0.673418,0.668816,-0.696427,0.665748,-0.650408
2.8669,0.016746,0.000000,0.000000,0.004610,0.0000,0.0000,0.0000,0.000000,-0.000000,-0.000344,0.001778,0.002050,1.4210,0.6699,0.0000,-0.003068,0.000000,0.000000,0.690291,-0.673418,0.667282,-0.696427,0.665748,-0.653476
2.8836,0.016749,0.000000,0.000000,0.004630,0.0000,0.0000,0.0000,0.000000,-0.000000,-0.000344,0.001778,0.002050,1.4210,0.6699,0.0000,-0.003068,0.000000,0.000000,0.690291,-0.673418,0.667282,-0.696427,0.665748,-0.653476
2.9003,0.016741,0.000000,0.000000,0.004649,0.0000,0.0000,0.0000,0.000000,-0.000000,-0.000372,0.001731,0.002096,1.3688,0.6674,0.1166,-0.003068,0.000000,0.000000,0.691825,-0.673418,0.668816,-0.696427,0.667282,-0.655010
2.9171,0.016743,0.000000,0.000000,0.004668,0.0000,0.0000,0.0000,0.000000,-0.000000,-0.000411,0.001810,0.002138,1.3473,0.6523,0.1043,0.004602,0.000000,0.000000,0.693359,-0.673418,0.668816,-0.697961,0.668816,-0.656544
2.9339,0.016840,0.000000,0.000000,0.004687,0.0000,0.0000,0.0000,0.000000,-0.000000,-0.000395,0.001858,0.002156,1.3595,0.6070,0.2173,0.003068,0.000000,0.000000,0.694893,-0.673418,0.668816,-0.697961,0.670350,-0.656544
2.9507,0.016750,0.000000,0.000000,0.004705,0.0000,0.0000,0.0000,0.000000,-0.000000,-0.000372,0.001934,0.002200,1.4536,0.5162,0.3177,-0.004602,0.000000,0.000000,0.697961,-0.674952,0.668816,-0.697961,0.671884,-0.656544
2.9674,0.016758,0.000000,0.000000,0.004723,0.0000,0.0000,0.0000,0.000000,-0.000000,-0.000372,0.001934,0.002200,1.4536,0.5162,0.3177,-0.004602,0.000000,0.000000,0.697961,-0.674952,0.668816,-0.697961,0.671884,-0.656544
2.9842,0.016747,0.000000,0.000000,0.004740,0.0000,0.0000,0.0000,0.000000,-0.000000,-0.000417,0.002001,0.002241,1.4170,0.5107,0.3072,-0.001534,0.000000,0.000000,0.699495,-0.674952,0.668816,-0.699495,0.673418,-0.658078
3.0009,0.016743,0.000000,0.000000,0.004756,0.0000,0.0000,0.0000,0.000000,-0.000000,-0.000328,0.001894,0.002264,1.3603,0.3774,0.3074,0.004602,0.000000,0.000000,0.699495,-0.676486,0.668816,-0.697961,0.674952,-0.659612
3.0177,0.016749,0.000000,0.000000,0.004772,0.0000,0.0000,0.0000,0.000000,-0.000000,-0.000351,0.001964,0.002272,1.3775,0.4401,0.2515,0.003068,0.000000,0.000000,0.699495,-0.676486,0.668816,-0.699495,0.674952,-0.659612
3.0344,0.016748,0.000000,0.000000,0.004788,0.0000,0.0000,0.0000,0.000000,-0.000000,-0.000322,0.001955,0.002283,1.3745,0.3383,0.4252,-0.004602,0.000000,0.000000,0.701029,-0.676486,0.668816,-0.697961,0.676486,-0.659612
3.0512,0.016748,0.000000,0.000000,0.004802,0.0000,0.0000,0.0000,0.000000,-0.000000,-0.000281,0.001916,0.002307,1.3269,0.3590,0.1824,-0.001534,0.000000,0.000000,0.699495,-0.678020,0.668816,-0.699495,0.676486,-0.661146
3.0679,0.016744,0.000000,0.000000,0.004817,0.0000,0.0000,0.0000,0.000000,-0.000000,-0.000281,0.001916,0.002307,1.3269,0.3590,0.1824,-0.001534,0.000000,0.000000,0.699495,-0.678020,0.668816,-0.699495,0.676486,-0.661146
3.0847,0.016746,0.000000,0.000000,0.004831,0.0000,0.0000,0.0000,0.000000,-0.000000,-0.000271,0.001862,0.002330,1.3207,0.3049,0.0954,0.006136,0.000000,0.000000,0.699495,-0.679553,0.668816,-0.699495,0.676486,-0.662680
3.1014,0.016746,0.000000,0.000000,0.004844,0.0000,0.0000,0.0000,0.000000,-0.000000,-0.000159,0.001900,0.002351,1.2453,0.2446,0.2156,0.003068,0.000000,0.000000,0.699495,-0.679553,0.668816,-0.699495,0.679553,-0.662680
3.1182,0.016745,0.000000,0.000000,0.004857,0.0000,0.0000,0.0000,0.000000,-0.000000,-0.000171,0.001896,0.002349,1.2532,0.2509,0.2030,-0.001534,0.000000,0.000000,0.699495,-0.679553,0.668816,-0.699495,0.679553,-0.662680
3.1349,0.016744,0.000000,0.000000,0.004869,0.0000,0.0000,0.0000,0.000000,-0.000000,-0.000183,0.001840,0.002362,1.2415,0.3000,0.2607,0.004602,0.000000,0.000000,0.699495,-0.679553,0.670350,-0.699495,0.679553,-0.662680
3.1517,0.016752,0.000000,0.000000,0.004881,0.0000,0.0000,0.0000,0.000000,-0.000000,-0.000195,0.001790,0.002374,1.2319,0.3446,0.3111,0.003068,0.000000,0.000000,0.699495,-0.679553,0.671884,-0.699495,0.679553,-0.662680
3.1684,0.016740,0.000000,0.000000,0.004892,0.0000,0.0000,0.0000,0.000000,-0.000000,-0.000195,0.001790,0.002374,1.2319,0.3446,0.3111,0.003068,0.000000,0.000000,0.699495,-0.679553,0.671884,-0.699495,0.679553,-0.662680
3.1851,0.016741,0.000000,0.000000,0.004902,0.0000,0.0000,0.0000,0.000000,-0.000000,-0.000207,0.001739,0.002385,1.2220,0.3896,0.3623,-0.004602,0.000000,0.000000,0.699495,-0.679553,0.673418,-0.699495,0.679553,-0.662680
3.2019,0.016743,0.000000,0.000000,0.004913,0.0000,0.0000,0.0000,0.000000,-0.000000,-0.000206,0.001744,0.002384,1.2230,0.3849,0.3569,-0.004602,0.000000,0.000000,0.699495,-0.679553,0.673418,-0.699495,0.679553,-0.662680
3.2186,0.016749,0.000000,0.000000,0.004922,0.0000,0.0000,0.0000,0.000000,-0.000000,-0.000246,0.001689,0.002421,1.2123,0.5333,0.4144,0.004602,0.000000,0.000000,0.699495,-0.679553,0.676486,-0.701029,0.679553,-0.662680
3.2354,0.016750,0.000000,0.000000,0.004931,0.0000,0.0000,0.0000,0.000000,-0.000000,-0.000282,0.001640,0.002453,1.2027,0.6655,0.4654,0.003068,0.000000,0.000000,0.699495,-0.679553,0.679553,-0.702563,0.679553,-0.662680
3.2524,0.017042,0.000000,0.000000,0.004940,0.0000,0.0000,0.0000,0.000000,-0.000000,-0.000305,0.001531,0.002475,1.1817,0.7504,0.5732,-0.004602,0.000000,0.000000,0.699495,-0.679553,0.682621,-0.702563,0.679553,-0.662680
3.2692,0.016744,0.000000,0.000000,0.004948,0.0000,0.0000,0.0000,0.000000,-0.000000,-0.000305,0.001531,0.002475,1.1817,0.7504,0.5732,-0.004602,0.000000,0.000000,0.699495,-0.679553,0.682621,-0.702563,0.679553,-0.662680
3.2859,0.016757,0.000000,0.000000,0.004955,0.0000,0.0000,0.0000,0.000000,-0.000000,-0.000302,0.001543,0.002473,1.1838,0.7415,0.5620,-0.001534,0.000000,0.000000,0.699495,-0.679553,0.682621,-0.702563,0.679553,-0.662680
3.3027,0.016750,0.000000,0.000000,0.004962,0.0000,0.0000,0.0000,0.000000,-0.000000,-0.000303,0.001541,0.002473,1.1835,0.7427,0.5635,0.004602,0.000000,0.000000,0.699495,-0.679553,0.682621,-0.702563,0.679553,-0.662680
3.3194,0.016755,0.000000,0.000000,0.004968,0.0000,0.0000,0.0000,0.000000,-0.000000,-0.000303,0.001541,0.002473,1.1835,0.7427,0.5635,0.001534,0.000000,0.000000,0.699495,-0.679553,0.682621,-0.702563,0.679553,-0.662680
3.3362,0.016742,0.000000,0.000000,0.004974,0.0000,0.0000,0.0000,0.000000,-0.000000,-0.000303,0.001541,0.002473,1.1835,0.7427,0.5635,-0.004602,0.000000,0.000000,0.699495,-0.679553,0.682621,-0.702563,0.679553,-0.662680
3.3531,0.016915,0.000000,0.000000,0.004979,0.0000,0.0000,0.0000,0.000000,-0.000000,-0.000303,0.001541,0.002473,1.1835,0.7427,0.5635,-0.001534,0.000000,0.000000,0.699495,-0.679553,0.682621,-0.702563,0.679553,-0.662680
3.3698,0.016745,0.000000,0.000000,0.004983,0.0000,0.0000,0.0000,0.000000,-0.000000,-0.000303,0.001541,0.002473,1.1835,0.7427,0.5635,-0.001534,0.000000,0.000000,0.699495,-0.679553,0.682621,-0.702563,0.679553,-0.662680
3.3867,0.016844,0.000000,0.000000,0.004987,0.0000,0.0000,0.0000,0.000000,-0.000000,-0.000303,0.001541,0.002473,1.1835,0.7427,0.5635,0.004602,0.000000,0.000000,0.699495,-0.679553,0.682621,-0.702563,0.679553,-0.662680
3.4034,0.016744,0.000000,0.000000,0.004991,0.0000,0.0000,0.0000,0.000000,-0.000000,-0.000316,0.001600,0.002484,1.1949,0.7911,0.5069,0.003068,0.000000,0.000000,0.699495,-0.679553,0.682621,-0.704097,0.679553,-0.662680
3.4202,0.016746,0.000000,0.000000,0.004994,0.0000,0.0000,0.0000,0.000000,-0.000000,-0.000315,0.001594,0.002483,1.1937,0.7860,0.5128,-0.004602,0.000000,0.000000,0.699495,-0.679553,0.682621,-0.704097,0.679553,-0.662680
3.4369,0.016746,0.000000,0.000000,0.004996,0.0000,0.0000,0.0000,0.000000,-0.000000,-0.000315,0.001594,0.002483,1.1937,0.7860,0.5128,0.000000,0.000000,0.000000,0.699495,-0.679553,0.682621,-0.704097,0.679553,-0.662680
3.4539,0.017033,0.000000,0.000000,0.004998,0.0000,0.0000,0.0000,0.000000,-0.000000,-0.000329,0.001653,0.002494,1.2051,0.8353,0.4561,0.004602,0.000000,0.000000,0.699495,-0.679553,0.682621,-0.705631,0.679553,-0.662680
3.4707,0.016742,0.000000,0.000000,0.004999,0.0000,0.0000,0.0000,0.000000,-0.000000,-0.000329,0.001653,0.002494,1.2051,0.8353,0.4561,0.004602,0.000000,0.000000,0.699495,-0.679553,0.682621,-0.705631,0.679553,-0.662680
3.4874,0.016759,0.000000,0.000000,0.005000,0.0000,0.0000,0.0000,0.000000,-0.000000,-0.000327,0.001647,0.002492,1.2039,0.8301,0.4620,0.001534,0.000000,0.000000,0.699495,-0.679553,0.682621,-0.705631,0.679553,-0.662680
3.5042,0.016748,0.000000,0.000000,0.005000,0.0000,0.0000,0.0000,0.000000,-0.000000,-0.000327,0.001647,0.002492,1.2039,0.8301,0.4620,-0.003068,0.000000,0.000000,0.699495,-0.679553,0.682621,-0.705631,0.679553,-0.662680
3.5209,0.016751,0.000000,0.000000,0.005000,0.0000,0.0000,0.0000,0.000000,-0.000000,-0.000327,0.001647,0.002492,1.2039,0.8301,0.4620,0.000000,0.000000,0.000000,0.699495,-0.679553,0.682621,-0.705631,0.679553,-0.662680
3.5377,0.016744,0.000000,0.000000,0.004999,0.0000,0.0000,0.0000,0.000000,-0.000000,-0.000327,0.001647,0.002492,1.2039,0.8301,0.4620,0.004602,0.000000,0.000000,0.699495,-0.679553,0.682621,-0.705631,0.679553,-0.662680
3.5545,0.016777,0.000000,0.000000,0.004997,0.0000,0.0000,0.0000,0.000000,-0.000000,-0.000327,0.001647,0.002492,1.2039,0.8301,0.4620,-0.001534,0.000000,0.000000,0.699495,-0.679553,0.682621,-0.705631,0.679553,-0.662680
3.5712,0.016748,0.000000,0.000000,0.004995,0.0000,0.0000,0.0000,0.000000,-0.000000,-0.000327,0.001647,0.002492,1.2039,0.8301,0.4620,-0.001534,0.000000,0.000000,0.699495,-0.679553,0.682621,-0.705631,0.679553,-0.662680
3.5880,0.016757,0.000000,0.000000,0.004992,0.0000,0.0000,0.0000,0.000000,-0.000000,-0.000327,0.001647,0.002492,1.2039,0.8301,0.4620,-0.003068,0.000000,0.000000,0.699495,-0.679553,0.682621,-0.705631,0.679553,-0.662680
3.6047,0.016749,0.000000,0.000000,0.004989,0.0000,0.0000,0.0000,0.000000,-0.000000,-0.000327,0.001647,0.002492,1.2039,0.8301,0.4620,0.001534,0.000000,0.000000,0.699495,-0.679553,0.682621,-0.705631,0.679553,-0.662680
3.6215,0.016763,0.000000,0.000000,0.004985,0.0000,0.0000,0.0000,0.000000,-0.000000,-0.000327,0.001647,0.002492,1.2039,0.8301,0.4620,0.004602,0.000000,0.000000,0.699495,-0.679553,0.682621,-0.705631,0.679553,-0.662680
3.6382,0.016755,0.000000,0.000000,0.004981,0.0000,0.0000,0.0000,0.000000,-0.000000,-0.000327,0.001647,0.002492,1.2039,0.8301,0.4620,-0.003068,0.000000,0.000000,0.699495,-0.679553,0.682621,-0.705631,0.679553,-0.662680
3.6550,0.016762,0.000000,0.000000,0.004976,0.0000,0.0000,0.0000,0.000000,-0.000000,-0.000327,0.001647,0.002492,1.2039,0.8301,0.4620,-0.003068,0.000000,0.000000,0.699495,-0.679553,0.682621,-0.705631,0.679553,-0.662680
3.6717,0.016747,0.000000,0.000000,0.004971,0.0000,0.0000,0.0000,0.000000,-0.000000,-0.000327,0.001647,0.002492,1.2039,0.8301,0.4620,-0.003068,0.000000,0.000000,0.699495,-0.679553,0.682621,-0.705631,0.679553,-0.662680
3.6885,0.016777,0.000000,0.000000,0.004965,0.0000,0.0000,0.0000,0.000000,-0.000000,-0.000327,0.001647,0.002492,1.2039,0.8301,0.4620,0.004602,0.000000,0.000000,0.699495,-0.679553,0.682621,-0.705631,0.679553,-0.662680
3.7053,0.016750,0.000000,0.000000,0.004958,0.0000,0.0000,0.0000,0.000000,-0.000000,-0.000327,0.001647,0.002492,1.2039,0.8301,0.4620,0.004602,0.000000,0.000000,0.699495,-0.679553,0.682621,-0.705631,0.679553,-0.662680
3.7222,0.016913,0.000000,0.000000,0.004951,0.0000,0.0000,0.0000,0.000000,-0.000000,-0.000327,0.001647,0.002492,1.2039,0.8301,0.4620,-0.003068,0.000000,0.000000,0.699495,-0.679553,0.682621,-0.705631,0.679553,-0.662680
3.7395,0.017337,0.000000,0.000000,0.004943,0.0000,0.0000,0.0000,0.000000,-0.000000,-0.000327,0.001647,0.002492,1.2039,0.8301,0.4620,-0.003068,0.000000,0.000000,0.699495,-0.679553,0.682621,-0.705631,0.679553,-0.662680
3.7563,0.016829,0.000000,0.000000,0.004935,0.0000,0.0000,0.0000,0.000000,-0.000000,-0.000327,0.001647,0.002492,1.2039,0.8301,0.4620,0.004602,0.000000,0.000000,0.699495,-0.679553,0.682621,-0.705631,0.679553,-0.662680
3.7731,0.016740,0.000000,0.000000,0.004927,0.0000,0.0000,0.0000,0.000000,-0.000000,-0.000327,0.001647,0.002492,1.2039,0.8301,0.4620,0.004602,0.000000,0.000000,0.699495,-0.679553,0.682621,-0.705631,0.679553,-0.662680
3.7898,0.016749,0.000000,0.000000,0.004917,0.0000,0.0000,0.0000,0.000000,-0.000000,-0.000327,0.001647,0.002492,1.2039,0.8301,0.4620,0.004602,0.000000,0.000000,0.699495,-0.679553,0.682621,-0.705631,0.679553,-0.662680
3.8066,0.016745,0.000000,0.000000,0.004908,0.0000,0.0000,0.0000,0.000000,-0.000000,-0.000327,0.001647,0.002492,1.2039,0.8301,0.4620,-0.003068,0.000000,0.000000,0.699495,-0.679553,0.682621,-0.705631,0.679553,-0.662680
3.8233,0.016754,0.000000,0.000000,0.004897,0.0000,0.0000,0.0000,0.000000,-0.000000,-0.000327,0.001647,0.002492,1.2039,0.8301,0.4620,-0.003068,0.000000,0.000000,0.699495,-0.679553,0.682621,-0.705631,0.679553,-0.662680
3.8402,0.016837,0.000000,0.000000,0.004886,0.0000,0.0000,0.0000,0.000000,-0.000000,-0.000327,0.001647,0.002492,1.2039,0.8301,0.4620,0.004602,0.000000,0.000000,0.699495,-0.679553,0.682621,-0.705631,0.679553,-0.662680
3.8569,0.016777,0.000000,0.000000,0.004875,0.0000,0.0000,0.0000,0.000000,-0.000000,-0.000327,0.001647,0.002492,1.2039,0.8301,0.4620,0.004602,0.000000,0.000000,0.699495,-0.679553,0.682621,-0.705631,0.679553,-0.662680
3.8738,0.016828,0.000000,0.000000,0.004863,0.0000,0.0000,0.0000,0.000000,-0.000000,-0.000327,0.001647,0.002492,1.2039,0.8301,0.4620,0.004602,0.000000,0.000000,0.699495,-0.679553,0.682621,-0.705631,0.679553,-0.662680
3.8906,0.016814,0.000000,0.000000,0.004850,0.0000,0.0000,0.0000,0.000000,-0.000000,-0.000327,0.001647,0.002492,1.2039,0.8301,0.4620,0.004602,0.000000,0.000000,0.699495,-0.679553,0.682621,-0.705631,0.679553,-0.662680
3.9073,0.016755,0.000000,0.000000,0.004837,0.0000,0.0000,0.0000,0.000000,-0.000000,-0.000327,0.001647,0.002492,1.2039,0.8301,0.4620,-0.001534,0.000000,0.000000,0.699495,-0.679553,0.682621,-0.705631,0.679553,-0.662680
3.9241,0.016762,0.000000,0.000000,0.004824,0.0000,0.0000,0.0000,0.000000,-0.000000,-0.000327,0.001647,0.002492,1.2039,0.8301,0.4620,-0.001534,0.000000,0.000000,0.699495,-0.679553,0.682621,-0.705631,0.679553,-0.662680
3.9409,0.016744,0.000000,0.000000,0.004809,0.0000,0.0000,0.0000,0.000000,-0.000000,-0.000327,0.001647,0.002492,1.2039,0.8301,0.4620,0.006136,0.000000,0.000000,0.699495,-0.679553,0.682621,-0.705631,0.679553,-0.662680
3.9576,0.016716,0.000000,0.000000,0.004795,0.0000,0.0000,0.0000,0.000000,-0.000000,-0.000327,0.001647,0.002492,1.2039,0.8301,0.4620,0.003068,0.000000,0.000000,0.699495,-0.679553,0.682621,-0.705631,0.679553,-0.662680
3.9743,0.016746,0.000000,0.000000,0.004780,0.0000,0.0000,0.0000,0.000000,-0.000000,-0.000327,0.001647,0.002492,1.2039,0.8301,0.4620,-0.006136,0.000000,0.000000,0.699495,-0.679553,0.682621,-0.705631,0.679553,-0.662680
3.9911,0.016757,0.000000,0.000000,0.004764,0.0000,0.0000,0.0000,0.000000,-0.000000,-0.000327,0.001647,0.002492,1.2039,0.8301,0.4620,-0.001534,0.000000,0.000000,0.699495,-0.679553,0.682621,-0.705631,0.679553,-0.662680
4.0078,0.016750,0.000000,0.000000,0.004748,0.0000,0.0000,0.0000,0.000000,-0.000000,-0.000327,0.001647,0.002492,1.2039,0.8301,0.4620,0.004602,0.000000,0.000000,0.699495,-0.679553,0.682621,-0.705631,0.679553,-0.662680
4.0246,0.016758,0.000000,0.000000,0.004731,0.0000,0.0000,0.0000,0.000000,-0.000000,-0.000327,0.001647,0.002492,1.2039,0.8301,0.4620,0.004602,0.000000,0.000000,0.699495,-0.679553,0.682621,-0.705631,0.679553,-0.662680
4.0413,0.016739,0.000000,0.000000,0.004714,0.0000,0.0000,0.0000,0.000000,-0.000000,-0.000327,0.001647,0.002492,1.2039,0.8301,0.4620,0.003068,0.000000,0.000000,0.699495,-0.679553,0.682621,-0.705631,0.679553,-0.662680
4.0581,0.016745,0.000000,0.000000,0.004696,0.0000,0.0000,0.0000,0.000000,-0.000000,-0.000327,0.001647,0.002492,1.2039,0.8301,0.4620,-0.004602,0.000000,0.000000,0.699495,-0.679553,0.682621,-0.705631,0.679553,-0.662680
4.0748,0.016745,0.000000,0.000000,0.004677,0.0000,0.0000,0.0000,0.000000,-0.000000,-0.000327,0.001647,0.002492,1.2039,0.8301,0.4620,-0.001534,0.000000,0.000000,0.699495,-0.679553,0.682621,-0.705631,0.679553,-0.662680
4.0916,0.016747,0.000000,0.000000,0.004659,0.0000,0.0000,0.0000,0.000000,-0.000000,-0.000327,0.001647,0.002492,1.2039,0.8301,0.4620,0.004602,0.000000,0.000000,0.699495,-0.679553,0.682621,-0.705631,0.679553,-0.662680
4.1083,0.016743,0.000000,0.000000,0.004639,0.0000,0.0000,0.0000,0.000000,-0.000000,-0.000327,0.001647,0.002492,1.2039,0.8301,0.4620,0.001534,0.000000,0.000000,0.699495,-0.679553,0.682621,-0.705631,0.679553,-0.662680
4.1251,0.016767,0.000000,0.000000,0.004619,0.0000,0.0000,0.0000,0.000000,-0.000000,-0.000327,0.001647,0.002492,1.2039,0.8301,0.4620,0.001534,0.000000,0.000000,0.699495,-0.679553,0.682621,-0.705631,0.679553,-0.662680
4.1418,0.016743,0.000000,0.000000,0.004599,0.0000,0.0000,0.0000,0.000000,-0.000000,-0.000327,0.001647,0.002492,1.2039,0.8301,0.4620,-0.004602,0.000000,0.000000,0.699495,-0.679553,0.682621,-0.705631,0.679553,-0.662680
4.1586,0.016750,0.000000,0.000000,0.004578,0.0000,0.0000,0.0000,0.000000,-0.000000,-0.000327,0.001647,0.002492,1.2039,0.8301,0.4620,0.000000,0.000000,0.000000,0.699495,-0.679553,0.682621,-0.705631,0.679553,-0.662680
4.1753,0.016749,0.000000,0.000000,0.004557,0.0000,0.0000,0.0000,0.000000,-0.000000,-0.000327,0.001647,0.002492,1.2039,0.8301,0.4620,0.004602,0.000000,0.000000,0.699495,-0.679553,0.682621,-0.705631,0.679553,-0.662680
4.1923,0.016968,0.000000,0.000000,0.004534,0.0000,0.0000,0.0000,0.000000,-0.000000,-0.000327,0.001647,0.002492,1.2039,0.8301,0.4620,-0.001534,0.000000,0.000000,0.699495,-0.679553,0.682621,-0.705631,0.679553,-0.662680
4.2098,0.017494,0.000000,0.000000,0.004511,0.0000,0.0000,0.0000,0.000000,-0.000000,-0.000327,0.001647,0.002492,1.2039,0.8301,0.4620,0.000000,0.000000,0.000000,0.699495,-0.679553,0.682621,-0.705631,0.679553,-0.662680
4.2265,0.016767,0.000000,0.000000,0.004488,0.0000,0.0000,0.0000,0.000000,-0.000000,-0.000327,0.001647,0.002492,1.2039,0.8301,0.4620,0.000000,0.000000,0.000000,0.699495,-0.679553,0.682621,-0.705631,0.679553,-0.662680
4.2433,0.016740,0.000000,0.000000,0.004465,0.0000,0.0000,0.0000,0.000000,-0.000000,-0.000327,0.001647,0.002492,1.2039,0.8301,0.4620,0.004602,0.000000,0.000000,0.699495,-0.679553,0.682621,-0.705631,0.679553,-0.662680
4.2600,0.016753,0.000000,0.000000,0.004441,0.0000,0.0000,0.0000,0.000000,-0.000000,-0.000327,0.001647,0.002492,1.2039,0.8301,0.4620,0.004602,0.000000,0.000000,0.699495,-0.679553,0.682621,-0.705631,0.679553,-0.662680
4.2768,0.016754,0.000000,0.000000,0.004416,0.0000,0.0000,0.0000,0.000000,-0.000000,-0.000327,0.001647,0.002492,1.2039,0.8301,0.4620,-0.003068,0.000000,0.000000,0.699495,-0.679553,0.682621,-0.705631,0.679553,-0.662680
4.2935,0.016754,0.000000,0.000000,0.004391,0.0000,0.0000,0.0000,0.000000,-0.000000,-0.000327,0.001647,0.002492,1.2039,0.8301,0.4620,0.001534,0.000000,0.000000,0.699495,-0.679553,0.682621,-0.705631,0.679553,-0.662680
4.3103,0.016745,0.000000,0.000000,0.004366,0.0000,0.0000,0.0000,0.000000,-0.000000,-0.000327,0.001647,0.002492,1.2039,0.8301,0.4620,0.004602,0.000000,0.000000,0.699495,-0.679553,0.682621,-0.705631,0.679553,-0.662680
4.3270,0.016760,0.000000,0.000000,0.004340,0.0000,0.0000,0.0000,0.000000,-0.000000,-0.000327,0.001647,0.002492,1.2039,0.8301,0.4620,0.004602,0.000000,0.000000,0.699495,-0.679553,0.682621,-0.705631,0.679553,-0.662680
4.3439,0.016854,0.000000,0.000000,0.004313,0.0000,0.0000,0.0000,0.000000,-0.000000,-0.000327,0.001647,0.002492,1.2039,0.8301,0.4620,-0.003068,0.000000,0.000000,0.699495,-0.679553,0.682621,-0.705631,0.679553,-0.662680
4.3606,0.016749,0.000000,0.000000,0.004287,0.0000,0.0000,0.0000,0.000000,-0.000000,-0.000327,0.001647,0.002492,1.2039,0.8301,0.4620,-0.003068,0.000000,0.000000,0.699495,-0.679553,0.682621,-0.705631,0.679553,-0.662680
4.3774,0.016751,0.000000,0.000000,0.004259,0.0000,0.0000,0.0000,0.000000,-0.000000,-0.000327,0.001647,0.002492,1.2039,0.8301,0.4620,0.003068,0.000000,0.000000,0.699495,-0.679553,0.682621,-0.705631,0.679553,-0.662680
4.3945,0.017138,0.000000,0.000000,0.004231,0.0000,0.0000,0.0000,0.000000,-0.000000,-0.000327,0.001647,0.002492,1.2039,0.8301,0.4620,0.004602,0.000000,0.000000,0.699495,-0.679553,0.682621,-0.705631,0.679553,-0.662680
4.4113,0.016758,0.000000,0.000000,0.004203,0.0000,0.0000,0.0000,0.000000,-0.000000,-0.000327,0.001647,0.002492,1.2039,0.8301,0.4620,0.004602,0.000000,0.000000,0.699495,-0.679553,0.682621,-0.705631,0.679553,-0.662680
4.4280,0.016753,0.000000,0.000000,0.004174,0.0000,0.0000,0.0000,0.000000,-0.000000,-0.000327,0.001647,0.002492,1.2039,0.8301,0.4620,-0.003068,0.000000,0.000000,0.699495,-0.679553,0.682621,-0.705631,0.679553,-0.662680
4.4448,0.016743,0.000000,0.000000,0.004145,0.0000,0.0000,0.0000,0.000000,-0.000000,-0.000327,0.001647,0.002492,1.2039,0.8301,0.4620,-0.003068,0.000000,0.000000,0.699495,-0.679553,0.682621,-0.705631,0.679553,-0.662680
4.4616,0.016798,0.000000,0.000000,0.004115,0.0000,0.0000,0.0000,0.000000,-0.000000,-0.000327,0.001647,0.002492,1.2039,0.8301,0.4620,0.004602,0.000000,0.000000,0.699495,-0.679553,0.682621,-0.705631,0.679553,-0.662680
4.4783,0.016750,0.000000,0.000000,0.004085,0.0000,0.0000,0.0000,0.000000,-0.000000,-0.000327,0.001647,0.002492,1.2039,0.8301,0.4620,0.003068,0.000000,0.000000,0.699495,-0.679553,0.682621,-0.705631,0.679553,-0.662680
4.4951,0.016770,0.000000,0.000000,0.004054,0.0000,0.0000,0.0000,0.000000,-0.000000,-0.000327,0.001647,0.002492,1.2039,0.8301,0.4620,-0.004602,0.000000,0.000000,0.699495,-0.679553,0.682621,-0.705631,0.679553,-0.662680
4.5118,0.016744,0.000000,0.000000,0.004023,0.0000,0.0000,0.0000,0.000000,-0.000000,-0.000327,0.001647,0.002492,1.2039,0.8301,0.4620,-0.004602,0.000000,0.000000,0.699495,-0.679553,0.682621,-0.705631,0.679553,-0.662680
4.5286,0.016751,0.000000,0.000000,0.003992,0.0000,0.0000,0.0000,0.000000,-0.000000,-0.000327,0.001647,0.002492,1.2039,0.8301,0.4620,-0.001534,0.000000,0.000000,0.699495,-0.679553,0.682621,-0.705631,0.679553,-0.662680
4.5453,0.016743,0.000000,0.000000,0.003960,0.0000,0.0000,0.0000,0.000000,-0.000000,-0.000327,0.001647,0.002492,1.2039,0.8301,0.4620,0.004602,0.000000,0.000000,0.699495,-0.679553,0.682621,-0.705631,0.679553,-0.662680
4.5621,0.016758,0.000000,0.000000,0.003927,0.0000,0.0000,0.0000,0.000000,-0.000000,-0.000327,0.001647,0.002492,1.2039,0.8301,0.4620,0.003068,0.000000,0.000000,0.699495,-0.679553,0.682621,-0.705631,0.679553,-0.662680
