t,loop_dt,cmd_x,cmd_y,cmd_z,cmd_roll,cmd_pitch,cmd_yaw,cmd_ant_l,cmd_ant_r,pres_x,pres_y,pres_z,pres_roll,pres_pitch,pres_yaw,pres_ant_l,pres_ant_r,pres_j0,pres_j1,pres_j2,pres_j3,pres_j4,pres_j5,pres_j6
0.0000,0.000001,0.000047,0.000473,-0.002269,0.0990,0.7481,1.5546,-0.176408,0.174874,0.000047,0.000473,-0.002269,0.0990,0.7481,1.5546,-0.176408,0.174874,0.000000,0.579845,-0.562971,0.585981,-0.579845,0.582913,-0.556835
0.0168,0.016751,0.000046,0.000465,-0.002231,0.0971,0.7356,1.5286,-0.176376,0.174868,0.000065,0.000494,-0.002243,0.1923,0.6931,1.5506,-0.176408,0.174874,0.000000,0.579845,-0.562971,0.585981,-0.579845,0.582913,-0.556835
0.0335,0.016775,0.000045,0.000457,-0.002193,0.0953,0.7231,1.5025,-0.176345,0.174862,0.000010,0.000507,-0.002258,0.1425,0.7340,1.6041,-0.176408,0.174874,0.000000,0.579845,-0.561437,0.585981,-0.579845,0.582913,-0.556835
0.0503,0.016768,0.000044,0.000449,-0.002154,0.0935,0.7106,1.4764,-0.176313,0.174857,0.000110,0.000451,-0.002256,0.1385,0.7101,1.4915,-0.176408,0.174874,0.000000,0.578311,-0.562971,0.585981,-0.579845,0.582913,-0.556835
0.0671,0.016768,0.000044,0.000441,-0.002116,0.0917,0.6981,1.4504,-0.176282,0.174851,0.000046,0.000473,-0.002269,0.0989,0.7478,1.5563,-0.176408,0.174874,0.000000,0.578311,-0.561437,0.585981,-0.579845,0.582913,-0.556835
0.0838,0.016760,0.000043,0.000433,-0.002078,0.0899,0.6855,1.4243,-0.176251,0.174845,0.000046,0.000473,-0.002269,0.0989,0.7478,1.5563,-0.176408,0.174874,0.000000,0.578311,-0.561437,0.585981,-0.579845,0.582913,-0.556835
0.1006,0.016764,0.000042,0.000425,-0.002040,0.0881,0.6730,1.3982,-0.176219,0.174840,0.000052,0.000471,-0.002267,0.1030,0.7439,1.5496,-0.176408,0.174874,0.000000,0.578311,-0.561437,0.585981,-0.579845,0.582913,-0.556835
0.1173,0.016749,0.000041,0.000417,-0.002002,0.0863,0.6605,1.3722,-0.176188,0.174834,0.000052,0.000471,-0.002267,0.1030,0.7439,1.5496,-0.176408,0.174874,0.000000,0.578311,-0.561437,0.585981,-0.579845,0.582913,-0.556835
0.1341,0.016759,0.000040,0.000409,-0.001964,0.0845,0.6480,1.3461,-0.176156,0.174828,0.000392,0.000538,-0.002432,0.0782,0.9979,1.7070,-0.176408,0.174874,0.000000,0.570641,-0.558369,0.585981,-0.579845,0.582913,-0.547631
0.1509,0.016761,0.000040,0.000402,-0.001926,0.0827,0.6355,1.3201,-0.176125,0.174822,0.000438,0.000531,-0.002440,0.0820,1.0047,1.6901,-0.176408,0.174874,0.000000,0.569107,-0.558369,0.585981,-0.579845,0.582913,-0.546097
0.1676,0.016760,0.000039,0.000394,-0.001888,0.0810,0.6230,1.2940,-0.176094,0.174817,0.000434,0.000532,-0.002439,0.0817,1.0042,1.6913,-0.176408,0.174874,0.000000,0.569107,-0.558369,0.585981,-0.579845,0.582913,-0.546097
0.1844,0.016762,0.000038,0.000386,-0.001850,0.0792,0.6104,1.2679,-0.176062,0.174811,0.000474,0.000570,-0.002453,0.1321,1.0217,1.7450,-0.176408,0.174874,0.000000,0.569107,-0.558369,0.585981,-0.579845,0.582913,-0.544563
0.2011,0.016761,0.000037,0.000378,-0.001812,0.0774,0.5979,1.2419,-0.176031,0.174805,0.000474,0.000570,-0.002453,0.1321,1.0217,1.7450,-0.176408,0.174874,0.000000,0.569107,-0.558369,0.585981,-0.579845,0.582913,-0.544563
0.2179,0.016750,0.000036,0.000370,-0.001774,0.0757,0.5854,1.2158,-0.175999,0.174800,0.000388,0.000567,-0.002426,0.1257,0.9868,1.7400,-0.177942,0.174874,0.000000,0.570641,-0.558369,0.585981,-0.579845,0.582913,-0.546097
0.2346,0.016757,0.000036,0.000362,-0.001736,0.0739,0.5729,1.1898,-0.175968,0.174794,0.000397,0.000567,-0.002429,0.1264,0.9904,1.7405,-0.176408,0.174874,0.000000,0.570641,-0.558369,0.585981,-0.579845,0.582913,-0.546097
0.2514,0.016777,0.000035,0.000354,-0.001698,0.0722,0.5603,1.1637,-0.175936,0.174788,0.000397,0.000567,-0.002429,0.1264,0.9904,1.7405,-0.176408,0.173340,0.000000,0.570641,-0.558369,0.585981,-0.579845,0.582913,-0.546097
0.2753,0.023854,0.000034,0.000343,-0.001644,0.0697,0.5425,1.1266,-0.175892,0.174780,0.000397,0.000567,-0.002429,0.1264,0.9904,1.7405,-0.176408,0.173340,0.000000,0.570641,-0.558369,0.585981,-0.579845,0.582913,-0.546097
0.2921,0.016815,0.000033,0.000335,-0.001606,0.0680,0.5299,1.1005,-0.175860,0.174774,0.000397,0.000567,-0.002429,0.1264,0.9904,1.7405,-0.176408,0.173340,0.000000,0.570641,-0.558369,0.585981,-0.579845,0.582913,-0.546097
0.3089,0.016776,0.000032,0.000327,-0.001568,0.0662,0.5174,1.0744,-0.175829,0.174769,0.000397,0.000567,-0.002429,0.1264,0.9904,1.7405,-0.176408,0.173340,0.000000,0.570641,-0.558369,0.585981,-0.579845,0.582913,-0.546097
0.3256,0.016745,0.000031,0.000319,-0.001530,0.0645,0.5049,1.0483,-0.175797,0.174763,0.000397,0.000567,-0.002429,0.1264,0.9904,1.7405,-0.176408,0.173340,0.000000,0.570641,-0.558369,0.585981,-0.579845,0.582913,-0.546097
0.3424,0.016743,0.000031,0.000311,-0.001492,0.0628,0.4924,1.0223,-0.175766,0.174757,0.000397,0.000567,-0.002429,0.1264,0.9904,1.7405,-0.176408,0.173340,0.000000,0.570641,-0.558369,0.585981,-0.579845,0.582913,-0.546097
0.3591,0.016744,0.000030,0.000303,-0.001454,0.0611,0.4799,0.9963,-0.175735,0.174751,0.000397,0.000567,-0.002429,0.1264,0.9904,1.7405,-0.176408,0.173340,0.000000,0.570641,-0.558369,0.585981,-0.579845,0.582913,-0.546097
0.3758,0.016745,0.000029,0.000295,-0.001416,0.0594,0.4673,0.9702,-0.175703,0.174746,0.000397,0.000567,-0.002429,0.1264,0.9904,1.7405,-0.176408,0.173340,0.000000,0.570641,-0.558369,0.585981,-0.579845,0.582913,-0.546097
0.3926,0.016732,0.000028,0.000287,-0.001378,0.0577,0.4548,0.9442,-0.175672,0.174740,0.000397,0.000567,-0.002429,0.1264,0.9904,1.7405,-0.176408,0.173340,0.000000,0.570641,-0.558369,0.585981,-0.579845,0.582913,-0.546097
0.4093,0.016742,0.000028,0.000279,-0.001340,0.0560,0.4423,0.9182,-0.175640,0.174734,0.000397,0.000567,-0.002429,0.1264,0.9904,1.7405,-0.176408,0.173340,0.000000,0.570641,-0.558369,0.585981,-0.579845,0.582913,-0.546097
0.4261,0.016760,0.000027,0.000271,-0.001302,0.0543,0.4298,0.8921,-0.175609,0.174729,0.000397,0.000567,-0.002429,0.1264,0.9904,1.7405,-0.176408,0.173340,0.000000,0.570641,-0.558369,0.585981,-0.579845,0.582913,-0.546097
0.4428,0.016747,0.000026,0.000263,-0.001264,0.0526,0.4172,0.8661,-0.175578,0.174723,0.000397,0.000567,-0.002429,0.1264,0.9904,1.7405,-0.176408,0.173340,0.000000,0.570641,-0.558369,0.585981,-0.579845,0.582913,-0.546097
0.4596,0.016750,0.000025,0.000256,-0.001226,0.0510,0.4047,0.8400,-0.175546,0.174717,0.000397,0.000567,-0.002429,0.1264,0.9904,1.7405,-0.176408,0.173340,0.000000,0.570641,-0.558369,0.585981,-0.579845,0.582913,-0.546097
0.4763,0.016745,0.000024,0.000248,-0.001188,0.0493,0.3922,0.8140,-0.175515,0.174711,0.000397,0.000567,-0.002429,0.1264,0.9904,1.7405,-0.176408,0.173340,0.000000,0.570641,-0.558369,0.585981,-0.579845,0.582913,-0.546097
0.4931,0.016753,0.000024,0.000240,-0.001150,0.0476,0.3796,0.7880,-0.175483,0.174706,0.000397,0.000567,-0.002429,0.1264,0.9904,1.7405,-0.176408,0.173340,0.000000,0.570641,-0.558369,0.585981,-0.579845,0.582913,-0.546097
0.5098,0.016751,0.000023,0.000232,-0.001112,0.0460,0.3671,0.7619,-0.175452,0.174700,0.000397,0.000567,-0.002429,0.1264,0.9904,1.7405,-0.176408,0.173340,0.000000,0.570641,-0.558369,0.585981,-0.579845,0.582913,-0.546097
0.5266,0.016752,0.000022,0.000224,-0.001074,0.0443,0.3546,0.7359,-0.175421,0.174694,0.000397,0.000567,-0.002429,0.1264,0.9904,1.7405,-0.176408,0.173340,0.000000,0.570641,-0.558369,0.585981,-0.579845,0.582913,-0.546097
0.5433,0.016748,0.000021,0.000216,-0.001036,0.0427,0.3420,0.7098,-0.175389,0.174689,0.000397,0.000567,-0.002429,0.1264,0.9904,1.7405,-0.176408,0.173340,0.000000,0.570641,-0.558369,0.585981,-0.579845,0.582913,-0.546097
0.5601,0.016756,0.000021,0.000208,-0.000998,0.0410,0.3295,0.6838,-0.175358,0.174683,0.000397,0.000567,-0.002429,0.1264,0.9904,1.7405,-0.176408,0.173340,0.000000,0.570641,-0.558369,0.585981,-0.579845,0.582913,-0.546097
0.5768,0.016747,0.000020,0.000200,-0.000960,0.0394,0.3170,0.6578,-0.175326,0.174677,0.000397,0.000567,-0.002429,0.1264,0.9904,1.7405,-0.176408,0.173340,0.000000,0.570641,-0.558369,0.585981,-0.579845,0.582913,-0.546097
0.5936,0.016744,0.000019,0.000192,-0.000922,0.0378,0.3044,0.6317,-0.175295,0.174671,0.000397,0.000567,-0.002429,0.1264,0.9904,1.7405,-0.176408,0.173340,0.000000,0.570641,-0.558369,0.585981,-0.579845,0.582913,-0.546097
0.6103,0.016751,0.000018,0.000184,-0.000884,0.0362,0.2919,0.6057,-0.175264,0.174666,0.000397,0.000567,-0.002429,0.1264,0.9904,1.7405,-0.176408,0.173340,0.000000,0.570641,-0.558369,0.585981,-0.579845,0.582913,-0.546097
0.6271,0.016767,0.000017,0.000176,-0.000846,0.0345,0.2793,0.5796,-0.175232,0.174660,0.000397,0.000567,-0.002429,0.1264,0.9904,1.7405,-0.176408,0.173340,0.000000,0.570641,-0.558369,0.585981,-0.579845,0.582913,-0.546097
0.6438,0.016746,0.000017,0.000168,-0.000808,0.0329,0.2668,0.5536,-0.175201,0.174654,0.000397,0.000567,-0.002429,0.1264,0.9904,1.7405,-0.176408,0.173340,0.000000,0.570641,-0.558369,0.585981,-0.579845,0.582913,-0.546097
0.6607,0.016816,0.000016,0.000160,-0.000770,0.0313,0.2542,0.5274,-0.175169,0.174649,0.000397,0.000567,-0.002429,0.1264,0.9904,1.7405,-0.176408,0.173340,0.000000,0.570641,-0.558369,0.585981,-0.579845,0.582913,-0.546097
0.6774,0.016744,0.000015,0.000153,-0.000732,0.0297,0.2417,0.5014,-0.175138,0.174643,0.000397,0.000567,-0.002429,0.1264,0.9904,1.7405,-0.176408,0.173340,0.000000,0.570641,-0.558369,0.585981,-0.579845,0.582913,-0.546097
0.6942,0.016770,0.000014,0.000145,-0.000694,0.0281,0.2291,0.4753,-0.175106,0.174637,0.000397,0.000567,-0.002429,0.1264,0.9904,1.7405,-0.176408,0.173340,0.000000,0.570641,-0.558369,0.585981,-0.579845,0.582913,-0.546097
0.7109,0.016747,0.000013,0.000137,-0.000656,0.0265,0.2166,0.4493,-0.175075,0.174631,0.000397,0.000567,-0.002429,0.1264,0.9904,1.7405,-0.176408,0.173340,0.000000,0.570641,-0.558369,0.585981,-0.579845,0.582913,-0.546097
0.7277,0.016757,0.000013,0.000129,-0.000618,0.0249,0.2040,0.4233,-0.175044,0.174626,0.000397,0.000567,-0.002429,0.1264,0.9904,1.7405,-0.176408,0.173340,0.000000,0.570641,-0.558369,0.585981,-0.579845,0.582913,-0.546097
0.7444,0.016747,0.000012,0.000121,-0.000580,0.0234,0.1915,0.3972,-0.175012,0.174620,0.000397,0.000567,-0.002429,0.1264,0.9904,1.7405,-0.176408,0.173340,0.000000,0.570641,-0.558369,0.585981,-0.579845,0.582913,-0.546097
0.7613,0.016920,0.000011,0.000113,-0.000541,0.0218,0.1788,0.3709,-0.174980,0.174614,0.000397,0.000567,-0.002429,0.1264,0.9904,1.7405,-0.176408,0.173340,0.000000,0.570641,-0.558369,0.585981,-0.579845,0.582913,-0.546097
0.7781,0.016745,0.000010,0.000105,-0.000503,0.0202,0.1663,0.3449,-0.174949,0.174609,0.000397,0.000567,-0.002429,0.1264,0.9904,1.7405,-0.176408,0.173340,0.000000,0.570641,-0.558369,0.585981,-0.579845,0.582913,-0.546097
0.7948,0.016753,0.000010,0.000097,-0.000465,0.0187,0.1537,0.3189,-0.174918,0.174603,0.000397,0.000567,-0.002429,0.1264,0.9904,1.7405,-0.176408,0.173340,0.000000,0.570641,-0.558369,0.585981,-0.579845,0.582913,-0.546097
0.8116,0.016741,0.000009,0.000089,-0.000427,0.0171,0.1412,0.2928,-0.174886,0.174597,0.000397,0.000567,-0.002429,0.1264,0.9904,1.7405,-0.176408,0.173340,0.000000,0.570641,-0.558369,0.585981,-0.579845,0.582913,-0.546097
0.8283,0.016758,0.000008,0.000081,-0.000389,0.0155,0.1286,0.2668,-0.174855,0.174591,0.000397,0.000567,-0.002429,0.1264,0.9904,1.7405,-0.176408,0.173340,0.000000,0.570641,-0.558369,0.585981,-0.579845,0.582913,-0.546097
0.8451,0.016747,0.000007,0.000073,-0.000351,0.0140,0.1161,0.2408,-0.174823,0.174586,0.000450,0.000551,-0.002416,0.1664,0.9547,1.6876,-0.176408,0.173340,0.000000,0.570641,-0.559903,0.585981,-0.579845,0.582913,-0.546097
0.8618,0.016752,0.000006,0.000065,-0.000313,0.0125,0.1035,0.2147,-0.174792,0.174580,0.000391,0.000569,-0.002430,0.1222,0.9938,1.7460,-0.176408,0.173340,0.000000,0.570641,-0.558369,0.585981,-0.579845,0.582913,-0.546097
0.8786,0.016743,0.000006,0.000057,-0.000275,0.0109,0.0910,0.1887,-0.174761,0.174574,0.000397,0.000567,-0.002428,0.1268,0.9897,1.7399,-0.176408,0.173340,0.000000,0.570641,-0.558369,0.585981,-0.579845,0.582913,-0.546097
0.8956,0.017021,0.000005,0.000049,-0.000237,0.0094,0.0782,0.1622,-0.174729,0.174569,0.000397,0.000567,-0.002428,0.1268,0.9897,1.7399,-0.176408,0.173340,0.000000,0.570641,-0.558369,0.585981,-0.579845,0.582913,-0.546097
0.9123,0.016745,0.000004,0.000041,-0.000199,0.0079,0.0657,0.1362,-0.174697,0.174563,0.000397,0.000567,-0.002428,0.1268,0.9897,1.7399,-0.176408,0.173340,0.000000,0.570641,-0.558369,0.585981,-0.579845,0.582913,-0.546097
0.9291,0.016760,0.000003,0.000034,-0.000161,0.0063,0.0531,0.1102,-0.174666,0.174557,0.000397,0.000567,-0.002428,0.1268,0.9897,1.7399,-0.176408,0.173340,0.000000,0.570641,-0.558369,0.585981,-0.579845,0.582913,-0.546097
0.9459,0.016745,0.000003,0.000026,-0.000123,0.0048,0.0406,0.0842,-0.174634,0.174551,0.000397,0.000567,-0.002428,0.1268,0.9897,1.7399,-0.176408,0.173340,0.000000,0.570641,-0.558369,0.585981,-0.579845,0.582913,-0.546097
0.9626,0.016754,0.000002,0.000018,-0.000085,0.0033,0.0280,0.0581,-0.174603,0.174546,0.000397,0.000567,-0.002428,0.1268,0.9897,1.7399,-0.176408,0.173340,0.000000,0.570641,-0.558369,0.585981,-0.579845,0.582913,-0.546097
0.9793,0.016746,0.000001,0.000010,-0.000047,0.0018,0.0155,0.0321,-0.174572,0.174540,0.000450,0.000551,-0.002416,0.1664,0.9548,1.6876,-0.176408,0.173340,0.000000,0.570641,-0.559903,0.585981,-0.579845,0.582913,-0.546097
0.9963,0.016937,0.000000,0.000002,-0.000008,0.0003,0.0028,0.0058,-0.174540,0.174534,0.000450,0.000551,-0.002416,0.1664,0.9548,1.6876,-0.176408,0.173340,0.000000,0.570641,-0.559903,0.585981,-0.579845,0.582913,-0.546097
1.0130,0.016741,0.000000,0.000000,0.000010,0.0016,0.0000,0.0000,-0.174247,0.174247,0.000391,0.000569,-0.002430,0.1222,0.9938,1.7460,-0.176408,0.173340,0.000000,0.570641,-0.558369,0.585981,-0.579845,0.582913,-0.546097
1.0298,0.016753,0.000000,0.000000,0.000022,0.0037,0.0000,0.0000,-0.173880,0.173880,0.000397,0.000567,-0.002428,0.1268,0.9897,1.7399,-0.176408,0.174874,0.000000,0.570641,-0.558369,0.585981,-0.579845,0.582913,-0.546097
1.0466,0.016822,0.000000,0.000000,0.000035,0.0059,0.0000,0.0000,-0.173511,0.173511,0.000397,0.000567,-0.002428,0.1268,0.9897,1.7399,-0.176408,0.173340,0.000000,0.570641,-0.558369,0.585981,-0.579845,0.582913,-0.546097
1.0634,0.016764,0.000000,0.000000,0.000048,0.0080,0.0000,0.0000,-0.173143,0.173143,0.000397,0.000567,-0.002428,0.1268,0.9897,1.7399,-0.176408,0.173340,0.000000,0.570641,-0.558369,0.585981,-0.579845,0.582913,-0.546097
1.0801,0.016749,0.000000,0.000000,0.000060,0.0101,0.0000,0.0000,-0.172777,0.172777,0.000450,0.000551,-0.002416,0.1664,0.9548,1.6876,-0.176408,0.173340,0.000000,0.570641,-0.559903,0.585981,-0.579845,0.582913,-0.546097
1.0969,0.016757,0.000000,0.000000,0.000073,0.0122,0.0000,0.0000,-0.172410,0.172410,0.000391,0.000569,-0.002430,0.1222,0.9938,1.7460,-0.176408,0.173340,0.000000,0.570641,-0.558369,0.585981,-0.579845,0.582913,-0.546097
1.1136,0.016739,0.000000,0.000000,0.000086,0.0143,0.0000,0.0000,-0.172043,0.172043,0.000391,0.000569,-0.002430,0.1222,0.9938,1.7460,-0.176408,0.173340,0.000000,0.570641,-0.558369,0.585981,-0.579845,0.582913,-0.546097
1.1304,0.016751,0.000000,0.000000,0.000098,0.0164,0.0000,0.0000,-0.171677,0.171677,0.000397,0.000567,-0.002428,0.1268,0.9897,1.7399,-0.176408,0.173340,0.000000,0.570641,-0.558369,0.585981,-0.579845,0.582913,-0.546097
1.1471,0.016743,0.000000,0.000000,0.000111,0.0185,0.0000,0.0000,-0.171311,0.171311,0.000450,0.000551,-0.002416,0.1664,0.9548,1.6876,-0.176408,0.173340,0.000000,0.570641,-0.559903,0.585981,-0.579845,0.582913,-0.546097
1.1639,0.016756,0.000000,0.000000,0.000123,0.0206,0.0000,0.0000,-0.170945,0.170945,0.000391,0.000569,-0.002430,0.1222,0.9938,1.7460,-0.176408,0.173340,0.000000,0.570641,-0.558369,0.585981,-0.579845,0.582913,-0.546097
1.1806,0.016744,0.000000,0.000000,0.000136,0.0227,0.0000,0.0000,-0.170580,0.170580,0.000370,0.000474,-0.002389,0.0658,0.9190,1.5803,-0.176408,0.173340,0.000000,0.570641,-0.559903,0.585981,-0.579845,0.582913,-0.549165
1.1974,0.016844,0.000000,0.000000,0.000149,0.0248,0.0000,0.0000,-0.170213,0.170213,0.000370,0.000474,-0.002389,0.0658,0.9190,1.5803,-0.176408,0.173340,0.000000,0.572175,-0.559903,0.585981,-0.579845,0.582913,-0.550699
1.2142,0.016744,0.000000,0.000000,0.000161,0.0269,0.0000,0.0000,-0.169849,0.169849,0.000291,0.000484,-0.002368,0.0706,0.8938,1.5981,-0.176408,0.173340,0.000000,0.572175,-0.559903,0.585981,-0.579845,0.582913,-0.550699
1.2309,0.016757,0.000000,0.000000,0.000174,0.0290,0.0000,0.0000,-0.169485,0.169485,0.000299,0.000483,-0.002370,0.0701,0.8964,1.5962,-0.176408,0.173340,0.000000,0.572175,-0.559903,0.585981,-0.579845,0.582913,-0.550699
1.2477,0.016747,0.000000,0.000000,0.000186,0.0311,0.0000,0.0000,-0.169122,0.169122,0.000217,0.000406,-0.002343,-0.0307,0.8610,1.4896,-0.176408,0.173340,0.000000,0.572175,-0.559903,0.585981,-0.579845,0.582913,-0.553767
1.2645,0.016760,0.000000,0.000000,0.000199,0.0332,0.0000,0.0000,-0.168759,0.168759,0.000185,0.000376,-0.002333,-0.0705,0.8473,1.4473,-0.176408,0.173340,0.000000,0.572175,-0.559903,0.585981,-0.579845,0.582913,-0.555301
1.2812,0.016747,0.000000,0.000000,0.000212,0.0353,0.0000,0.0000,-0.168397,0.168397,0.000135,0.000318,-0.002308,-0.2061,0.8814,1.2372,-0.174874,0.173340,0.000000,0.570641,-0.559903,0.585981,-0.581379,0.582913,-0.558369
1.2980,0.016758,0.000000,0.000000,0.000224,0.0374,0.0000,0.0000,-0.168036,0.168036,0.000135,0.000318,-0.002308,-0.2061,0.8814,1.2372,-0.174874,0.173340,0.000000,0.570641,-0.559903,0.585981,-0.581379,0.582913,-0.558369
1.3148,0.016844,0.000000,0.000000,0.000237,0.0395,0.0000,0.0000,-0.167673,0.167673,0.000047,0.000379,-0.002273,-0.1824,0.8965,1.2057,-0.176408,0.173340,0.000000,0.572175,-0.559903,0.585981,-0.582913,0.582913,-0.559903
1.3316,0.016841,0.000000,0.000000,0.000249,0.0416,0.0000,0.0000,-0.167312,0.167312,0.000047,0.000379,-0.002273,-0.1824,0.8965,1.2057,-0.176408,0.173340,0.000000,0.572175,-0.559903,0.585981,-0.582913,0.582913,-0.559903
1.3484,0.016741,0.000000,0.000000,0.000262,0.0437,0.0000,0.0000,-0.166953,0.166953,0.000047,0.000379,-0.002273,-0.1824,0.8965,1.2057,-0.176408,0.173340,0.000000,0.572175,-0.559903,0.585981,-0.582913,0.582913,-0.559903
1.3651,0.016750,0.000000,0.000000,0.000274,0.0458,0.0000,0.0000,-0.166595,0.166595,0.000109,0.000357,-0.002226,-0.1448,0.8590,0.9958,-0.174874,0.173340,0.000000,0.572175,-0.562971,0.585981,-0.584447,0.582913,-0.561437
1.3819,0.016752,0.000000,0.000000,0.000287,0.0479,0.0000,0.0000,-0.166237,0.166237,0.000130,0.000375,-0.002230,-0.1879,0.9303,0.9100,-0.174874,0.173340,0.000000,0.570641,-0.562971,0.585981,-0.585981,0.582913,-0.561437
1.3986,0.016752,0.000000,0.000000,0.000299,0.0500,0.0000,0.0000,-0.165881,0.165881,0.000130,0.000375,-0.002230,-0.1879,0.9303,0.9100,-0.174874,0.173340,0.000000,0.570641,-0.562971,0.585981,-0.585981,0.582913,-0.561437
1.4154,0.016742,0.000000,0.000000,0.000312,0.0521,0.0000,0.0000,-0.165526,0.165526,0.000087,0.000413,-0.002218,-0.1339,0.9070,0.9729,-0.174874,0.173340,0.000000,0.572175,-0.562971,0.585981,-0.585981,0.582913,-0.561437
1.4321,0.016751,0.000000,0.000000,0.000324,0.0542,0.0000,0.0000,-0.165171,0.165171,0.000079,0.000463,-0.002207,-0.1292,0.9609,0.9125,-0.174874,0.173340,0.000000,0.572175,-0.562971,0.585981,-0.587515,0.582913,-0.561437
1.4489,0.016743,0.000000,0.000000,0.000337,0.0563,0.0000,0.0000,-0.164818,0.164818,0.000080,0.000458,-0.002208,-0.1297,0.9553,0.9188,-0.174874,0.173340,0.000000,0.572175,-0.562971,0.585981,-0.587515,0.582913,-0.561437
1.4656,0.016749,0.000000,0.000000,0.000349,0.0584,0.0000,0.0000,-0.164466,0.164466,0.000080,0.000458,-0.002208,-0.1297,0.9553,0.9188,-0.174874,0.173340,0.000000,0.572175,-0.562971,0.585981,-0.587515,0.582913,-0.561437
1.4824,0.016761,0.000000,0.000000,0.000362,0.0605,0.0000,0.0000,-0.164114,0.164114,0.000067,0.000514,-0.002196,-0.1193,1.0073,0.8642,-0.174874,0.173340,0.000000,0.572175,-0.562971,0.585981,-0.589049,0.582913,-0.561437
1.4991,0.016755,0.000000,0.000000,0.000374,0.0626,0.0000,0.0000,-0.163764,0.163764,0.000067,0.000514,-0.002196,-0.1193,1.0073,0.8642,-0.174874,0.173340,0.000000,0.572175,-0.562971,0.585981,-0.589049,0.582913,-0.561437
1.5159,0.016743,0.000000,0.000000,0.000387,0.0646,0.0000,0.0000,-0.163415,0.163415,0.000056,0.000563,-0.002185,-0.1100,1.0532,0.8160,-0.174874,0.173340,0.000000,0.572175,-0.562971,0.585981,-0.590583,0.582913,-0.561437
1.5326,0.016745,0.000000,0.000000,0.000399,0.0667,0.0000,0.0000,-0.163068,0.163068,0.000057,0.000635,-0.002187,-0.0114,1.0498,0.9287,-0.174874,0.173340,0.000000,0.573709,-0.562971,0.585981,-0.590583,0.582913,-0.559903
1.5494,0.016745,0.000000,0.000000,0.000411,0.0688,0.0000,0.0000,-0.162722,0.162722,-0.000091,0.000698,-0.002162,-0.0514,1.1037,0.9163,-0.173340,0.173340,0.000000,0.575243,-0.561437,0.585981,-0.592117,0.582913,-0.561437
1.5661,0.016753,0.000000,0.000000,0.000424,0.0709,0.0000,0.0000,-0.162377,0.162377,-0.000116,0.000731,-0.002153,0.0022,1.0824,0.9716,-0.173340,0.173340,0.000000,0.576777,-0.561437,0.585981,-0.592117,0.582913,-0.561437
1.5829,0.016743,0.000000,0.000000,0.000436,0.0730,0.0000,0.0000,-0.162033,0.162033,-0.000116,0.000731,-0.002153,0.0022,1.0824,0.9716,-0.173340,0.173340,0.000000,0.576777,-0.561437,0.585981,-0.592117,0.582913,-0.561437
1.5996,0.016753,0.000000,0.000000,0.000448,0.0751,0.0000,0.0000,-0.161691,0.161691,-0.000102,0.000751,-0.002130,0.0859,1.0337,0.9670,-0.168738,0.173340,0.000000,0.578311,-0.562971,0.585981,-0.592117,0.582913,-0.561437
1.6164,0.016741,0.000000,0.000000,0.000461,0.0771,0.0000,0.0000,-0.161350,0.161350,-0.000131,0.000733,-0.002132,0.1160,0.9718,1.0754,-0.164136,0.171806,0.000000,0.579845,-0.562971,0.585981,-0.590583,0.582913,-0.561437
1.6331,0.016763,0.000000,0.000000,0.000473,0.0792,0.0000,0.0000,-0.161010,0.161010,-0.000087,0.000696,-0.002144,0.0635,0.9938,1.0101,-0.162602,0.171806,0.000000,0.578311,-0.562971,0.585981,-0.590583,0.582913,-0.561437
1.6499,0.016740,0.000000,0.000000,0.000485,0.0813,0.0000,0.0000,-0.160673,0.160673,-0.000158,0.000770,-0.002143,0.0396,1.0782,1.0159,-0.164136,0.171806,0.000000,0.578311,-0.561437,0.585981,-0.592117,0.582913,-0.561437
1.6666,0.016779,0.000000,0.000000,0.000497,0.0834,0.0000,0.0000,-0.160336,0.160336,-0.000097,0.000747,-0.002131,0.0820,1.0341,0.9624,-0.164136,0.171806,0.000000,0.578311,-0.562971,0.585981,-0.592117,0.582913,-0.561437
1.6834,0.016742,0.000000,0.000000,0.000510,0.0855,0.0000,0.0000,-0.160001,0.160001,-0.000097,0.000747,-0.002131,0.0820,1.0341,0.9624,-0.164136,0.171806,0.000000,0.578311,-0.562971,0.585981,-0.592117,0.582913,-0.561437
1.7002,0.016762,0.000000,0.000000,0.000522,0.0875,0.0000,0.0000,-0.159667,0.159667,-0.000104,0.000749,-0.002132,0.0775,1.0387,0.9680,-0.162602,0.171806,0.000000,0.578311,-0.562971,0.585981,-0.592117,0.582913,-0.561437
1.7169,0.016740,0.000000,0.000000,0.000534,0.0896,0.0000,0.0000,-0.159336,0.159336,-0.000197,0.000804,-0.002133,0.0876,1.0579,1.0744,-0.162602,0.171806,0.000000,0.579845,-0.561437,0.585981,-0.592117,0.582913,-0.561437
1.7336,0.016757,0.000000,0.000000,0.000546,0.0917,0.0000,0.0000,-0.159006,0.159006,-0.000134,0.000783,-0.002120,0.1264,1.0206,1.0104,-0.162602,0.171806,0.000000,0.579845,-0.562971,0.585981,-0.592117,0.582913,-0.561437
1.7504,0.016739,0.000000,0.000000,0.000558,0.0937,0.0000,0.0000,-0.158678,0.158678,-0.000100,0.000746,-0.002133,0.0729,1.0401,0.9630,-0.162602,0.171806,0.000000,0.578311,-0.562971,0.585981,-0.592117,0.582913,-0.561437
1.7672,0.016787,0.000000,0.000000,0.000570,0.0958,0.0000,0.0000,-0.158351,0.158351,-0.000144,0.000789,-0.002120,0.1279,1.0225,1.0220,-0.161068,0.171806,0.000000,0.579845,-0.562971,0.585981,-0.592117,0.582913,-0.561437
1.7839,0.016740,0.000000,0.000000,0.000582,0.0979,0.0000,0.0000,-0.158027,0.158027,-0.000144,0.000789,-0.002120,0.1279,1.0225,1.0220,-0.161068,0.171806,0.000000,0.579845,-0.562971,0.585981,-0.592117,0.582913,-0.561437
1.8007,0.016753,0.000000,0.000000,0.000595,0.0999,0.0000,0.0000,-0.157704,0.157704,-0.000140,0.000784,-0.002121,0.1222,1.0243,1.0159,-0.161068,0.170272,0.000000,0.579845,-0.562971,0.585981,-0.592117,0.582913,-0.561437
1.8174,0.016743,0.000000,0.000000,0.000607,0.1020,0.0000,0.0000,-0.157383,0.157383,-0.000140,0.000784,-0.002121,0.1222,1.0243,1.0159,-0.161068,0.170272,0.000000,0.579845,-0.562971,0.585981,-0.592117,0.582913,-0.561437
1.8342,0.016755,0.000000,0.000000,0.000619,0.1041,0.0000,0.0000,-0.157064,0.157064,-0.000222,0.000863,-0.002098,0.2215,0.9930,1.1248,-0.161068,0.170272,0.000000,0.582913,-0.562971,0.585981,-0.592117,0.582913,-0.561437
1.8509,0.016747,0.000000,0.000000,0.000631,0.1061,0.0000,0.0000,-0.156747,0.156747,-0.000214,0.000855,-0.002100,0.2111,0.9963,1.1134,-0.159534,0.170272,0.000000,0.582913,-0.562971,0.585981,-0.592117,0.582913,-0.561437
1.8677,0.016767,0.000000,0.000000,0.000643,0.1082,0.0000,0.0000,-0.156431,0.156431,-0.000214,0.000855,-0.002100,0.2111,0.9963,1.1134,-0.159534,0.170272,0.000000,0.582913,-0.562971,0.585981,-0.592117,0.582913,-0.561437
1.8844,0.016742,0.000000,0.000000,0.000655,0.1102,0.0000,0.0000,-0.156118,0.156118,-0.000256,0.000895,-0.002088,0.2615,0.9805,1.1687,-0.159534,0.170272,0.000000,0.584447,-0.562971,0.585981,-0.592117,0.582913,-0.561437
1.9011,0.016708,0.000000,0.000000,0.000666,0.1123,0.0000,0.0000,-0.155808,0.155808,-0.000292,0.000930,-0.002078,0.3056,0.9668,1.2172,-0.159534,0.168738,0.000000,0.585981,-0.562971,0.585981,-0.592117,0.582913,-0.561437
1.9179,0.016749,0.000000,0.000000,0.000678,0.1143,0.0000,0.0000,-0.155499,0.155499,-0.000423,0.000942,-0.002068,0.2603,0.9704,1.2656,-0.161068,0.167204,0.000000,0.587515,-0.561437,0.585981,-0.592117,0.582913,-0.562971
1.9346,0.016766,0.000000,0.000000,0.000690,0.1164,0.0000,0.0000,-0.155192,0.155192,-0.000397,0.000886,-0.002043,0.2551,0.9169,1.1538,-0.159534,0.164136,0.000000,0.587515,-0.562971,0.585981,-0.592117,0.582913,-0.564505
1.9514,0.016748,0.000000,0.000000,0.000702,0.1184,0.0000,0.0000,-0.154887,0.154887,-0.000400,0.000892,-0.002045,0.2556,0.9225,1.1655,-0.158000,0.159534,0.000000,0.587515,-0.562971,0.585981,-0.592117,0.582913,-0.564505
1.9682,0.016763,0.000000,0.000000,0.000714,0.1205,0.0000,0.0000,-0.154584,0.154584,-0.000400,0.000892,-0.002045,0.2556,0.9225,1.1655,-0.158000,0.159534,0.000000,0.587515,-0.562971,0.585981,-0.592117,0.582913,-0.564505
1.9849,0.016747,0.000000,0.000000,0.000726,0.1225,0.0000,0.0000,-0.154284,0.154284,-0.000400,0.000892,-0.002045,0.2556,0.9225,1.1655,-0.158000,0.156466,0.000000,0.587515,-0.562971,0.585981,-0.592117,0.582913,-0.564505
2.0017,0.016753,0.000000,0.000000,0.000737,0.1245,0.0000,0.0000,-0.153986,0.153986,-0.000440,0.000853,-0.002032,0.2057,0.9043,1.1105,-0.158000,0.156466,0.000000,0.587515,-0.562971,0.585981,-0.592117,0.582913,-0.566039
2.0184,0.016748,0.000000,0.000000,0.000749,0.1266,0.0000,0.0000,-0.153690,0.153690,-0.000436,0.000857,-0.002033,0.2109,0.9062,1.1162,-0.156466,0.154932,0.000000,0.587515,-0.562971,0.585981,-0.592117,0.582913,-0.566039
2.0352,0.016780,0.000000,0.000000,0.000761,0.1286,0.0000,0.0000,-0.153396,0.153396,-0.000395,0.000817,-0.002045,0.1612,0.9215,1.0614,-0.156466,0.153398,0.000000,0.585981,-0.562971,0.585981,-0.592117,0.582913,-0.566039
2.0520,0.016774,0.000000,0.000000,0.000773,0.1307,0.0000,0.0000,-0.153105,0.153105,-0.000441,0.000861,-0.002032,0.2156,0.9044,1.1214,-0.156466,0.153398,0.000000,0.587515,-0.562971,0.585981,-0.592117,0.582913,-0.566039
2.0687,0.016767,0.000000,0.000000,0.000784,0.1327,0.0000,0.0000,-0.152815,0.152815,-0.000441,0.000861,-0.002032,0.2156,0.9044,1.1214,-0.156466,0.153398,0.000000,0.587515,-0.562971,0.585981,-0.592117,0.582913,-0.566039
2.0855,0.016747,0.000000,0.000000,0.000796,0.1347,0.0000,0.0000,-0.152529,0.152529,-0.000435,0.000778,-0.002032,0.1109,0.9040,1.0071,-0.156466,0.153398,0.000000,0.585981,-0.562971,0.585981,-0.592117,0.582913,-0.567573
2.1022,0.016753,0.000000,0.000000,0.000807,0.1367,0.0000,0.0000,-0.152245,0.152245,-0.000477,0.000826,-0.002021,0.1710,0.8885,1.0732,-0.154932,0.151864,0.000000,0.587515,-0.562971,0.585981,-0.592117,0.582913,-0.567573
2.1190,0.016745,0.000000,0.000000,0.000819,0.1388,0.0000,0.0000,-0.151964,0.151964,-0.000539,0.000892,-0.002023,0.1356,0.9767,1.0655,-0.154932,0.151864,0.000000,0.587515,-0.561437,0.585981,-0.593651,0.582913,-0.567573
2.1357,0.016765,0.000000,0.000000,0.000830,0.1408,0.0000,0.0000,-0.151684,0.151684,-0.000532,0.000885,-0.002023,0.1393,0.9675,1.0663,-0.154932,0.151864,0.000000,0.587515,-0.561437,0.585981,-0.593651,0.582913,-0.567573
2.1524,0.016707,0.000000,0.000000,0.000842,0.1428,0.0000,0.0000,-0.151409,0.151409,-0.000493,0.000925,-0.001998,0.1897,0.9845,0.9593,-0.154932,0.151864,0.000000,0.587515,-0.562971,0.585981,-0.595185,0.582913,-0.567573
2.1692,0.016755,0.000000,0.000000,0.000853,0.1448,0.0000,0.0000,-0.151135,0.151135,-0.000493,0.000925,-0.001998,0.1897,0.9845,0.9593,-0.154932,0.151864,0.000000,0.587515,-0.562971,0.585981,-0.595185,0.582913,-0.567573
2.1859,0.016744,0.000000,0.000000,0.000865,0.1468,0.0000,0.0000,-0.150863,0.150863,-0.000550,0.000937,-0.002014,0.1445,1.0180,1.0234,-0.154932,0.151864,0.000000,0.587515,-0.561437,0.585981,-0.595185,0.582913,-0.567573
2.2027,0.016753,0.000000,0.000000,0.000876,0.1488,0.0000,0.0000,-0.150595,0.150595,-0.000491,0.000920,-0.001999,0.1892,0.9792,0.9638,-0.153398,0.151864,0.000000,0.587515,-0.562971,0.585981,-0.595185,0.582913,-0.567573
2.2194,0.016742,0.000000,0.000000,0.000887,0.1509,0.0000,0.0000,-0.150329,0.150329,-0.000469,0.001016,-0.001963,0.2460,1.0503,0.8092,-0.153398,0.150330,0.000000,0.587515,-0.564505,0.585981,-0.598253,0.582913,-0.567573
2.2362,0.016755,0.000000,0.000000,0.000899,0.1529,0.0000,0.0000,-0.150065,0.150065,-0.000418,0.000991,-0.001954,0.2798,1.0075,0.7723,-0.153398,0.151864,0.000000,0.587515,-0.566039,0.585981,-0.598253,0.582913,-0.567573
2.2529,0.016750,0.000000,0.000000,0.000910,0.1549,0.0000,0.0000,-0.149805,0.149805,-0.000264,0.000946,-0.001916,0.3952,0.9061,0.6166,-0.153398,0.150330,0.000000,0.587515,-0.570641,0.585981,-0.598253,0.582913,-0.567573
2.2697,0.016757,0.000000,0.000000,0.000921,0.1569,0.0000,0.0000,-0.149547,0.149547,-0.000264,0.000946,-0.001916,0.3952,0.9061,0.6166,-0.153398,0.150330,0.000000,0.587515,-0.570641,0.585981,-0.598253,0.582913,-0.567573
2.2864,0.016743,0.000000,0.000000,0.000932,0.1589,0.0000,0.0000,-0.149292,0.149292,-0.000364,0.001108,-0.001860,0.5816,0.8858,0.6884,-0.151864,0.150330,0.000000,0.592117,-0.572175,0.585981,-0.599786,0.582913,-0.567573
2.3032,0.016759,0.000000,0.000000,0.000944,0.1609,0.0000,0.0000,-0.149039,0.149039,-0.000247,0.001138,-0.001804,0.7407,0.8175,0.5210,-0.151864,0.150330,0.000000,0.593651,-0.576777,0.585981,-0.601320,0.582913,-0.567573
2.3200,0.016776,0.000000,0.000000,0.000955,0.1628,0.0000,0.0000,-0.148789,0.148789,-0.000207,0.001198,-0.001761,0.8628,0.7893,0.4317,-0.151864,0.150330,0.000000,0.595185,-0.579845,0.585981,-0.602854,0.582913,-0.567573
2.3367,0.016756,0.000000,0.000000,0.000966,0.1648,0.0000,0.0000,-0.148542,0.148542,-0.000146,0.001199,-0.001729,0.9778,0.7061,0.3878,-0.151864,0.150330,0.000000,0.596719,-0.582913,0.585981,-0.602854,0.582913,-0.567573
2.3536,0.016907,0.000000,0.000000,0.000977,0.1668,0.0000,0.0000,-0.148296,0.148296,-0.000155,0.001357,-0.001660,1.1645,0.7149,0.2857,-0.153398,0.150330,0.000000,0.599786,-0.585981,0.585981,-0.605922,0.582913,-0.567573
2.3705,0.016833,0.000000,0.000000,0.000988,0.1688,0.0000,0.0000,-0.148054,0.148054,-0.000155,0.001357,-0.001660,1.1645,0.7149,0.2857,-0.153398,0.150330,0.000000,0.599786,-0.585981,0.585981,-0.605922,0.582913,-0.567573
2.3883,0.017821,0.000000,0.000000,0.001000,0.1709,0.0000,0.0000,-0.147801,0.147801,-0.000155,0.001357,-0.001660,1.1645,0.7149,0.2857,-0.153398,0.150330,0.000000,0.599786,-0.585981,0.585981,-0.605922,0.582913,-0.567573
2.4050,0.016741,0.000000,0.000000,0.001011,0.1729,0.0000,0.0000,-0.147567,0.147567,-0.000155,0.001357,-0.001660,1.1645,0.7149,0.2857,-0.153398,0.150330,0.000000,0.599786,-0.585981,0.585981,-0.605922,0.582913,-0.567573
2.4218,0.016770,0.000000,0.000000,0.001021,0.1749,0.0000,0.0000,-0.147335,0.147335,0.000017,0.001393,-0.001570,1.4493,0.5569,0.0807,-0.151864,0.148796,0.000000,0.602854,-0.593651,0.585981,-0.607456,0.582913,-0.567573
2.4386,0.016753,0.000000,0.000000,0.001032,0.1769,0.0000,0.0000,-0.147106,0.147106,-0.000014,0.001445,-0.001568,1.4300,0.6237,0.0485,-0.150330,0.148796,0.000000,0.602854,-0.593651,0.585981,-0.608990,0.582913,-0.567573
2.4553,0.016755,0.000000,0.000000,0.001043,0.1788,0.0000,0.0000,-0.146880,0.146880,-0.000014,0.001445,-0.001568,1.4300,0.6237,0.0485,-0.150330,0.148796,0.000000,0.602854,-0.593651,0.585981,-0.608990,0.582913,-0.567573
2.4721,0.016752,0.000000,0.000000,0.001054,0.1808,0.0000,0.0000,-0.146657,0.146657,-0.000011,0.001440,-0.001568,1.4320,0.6167,0.0518,-0.151864,0.148796,0.000000,0.602854,-0.593651,0.585981,-0.608990,0.582913,-0.567573
2.4888,0.016752,0.000000,0.000000,0.001065,0.1828,0.0000,0.0000,-0.146438,0.146438,-0.000011,0.001440,-0.001568,1.4320,0.6167,0.0518,-0.150330,0.148796,0.000000,0.602854,-0.593651,0.585981,-0.608990,0.582913,-0.567573
2.5056,0.016744,0.000000,0.000000,0.001075,0.1847,0.0000,0.0000,-0.146221,0.146221,-0.000011,0.001440,-0.001568,1.4320,0.6167,0.0518,-0.148796,0.147262,0.000000,0.602854,-0.593651,0.585981,-0.608990,0.582913,-0.567573
2.5223,0.016746,0.000000,0.000000,0.001086,0.1867,0.0000,0.0000,-0.146008,0.146008,-0.000011,0.001440,-0.001568,1.4320,0.6167,0.0518,-0.148796,0.147262,0.000000,0.602854,-0.593651,0.585981,-0.608990,0.582913,-0.567573
2.5390,0.016743,0.000000,0.000000,0.001096,0.1886,0.0000,0.0000,-0.145798,0.145798,-0.000011,0.001440,-0.001568,1.4320,0.6167,0.0518,-0.148796,0.147262,0.000000,0.602854,-0.593651,0.585981,-0.608990,0.582913,-0.567573
2.5558,0.016758,0.000000,0.000000,0.001107,0.1906,0.0000,0.0000,-0.145591,0.145591,-0.000011,0.001440,-0.001568,1.4320,0.6167,0.0518,-0.148796,0.147262,0.000000,0.602854,-0.593651,0.585981,-0.608990,0.582913,-0.567573
2.5726,0.016759,0.000000,0.000000,0.001117,0.1925,0.0000,0.0000,-0.145387,0.145387,-0.000011,0.001440,-0.001568,1.4320,0.6167,0.0518,-0.148796,0.147262,0.000000,0.602854,-0.593651,0.585981,-0.608990,0.582913,-0.567573
2.5893,0.016745,0.000000,0.000000,0.001128,0.1944,0.0000,0.0000,-0.145187,0.145187,-0.000011,0.001440,-0.001568,1.4320,0.6167,0.0518,-0.148796,0.147262,0.000000,0.602854,-0.593651,0.585981,-0.608990,0.582913,-0.567573
2.6061,0.016746,0.000000,0.000000,0.001138,0.1964,0.0000,0.0000,-0.144989,0.144989,-0.000011,0.001440,-0.001568,1.4320,0.6167,0.0518,-0.148796,0.147262,0.000000,0.602854,-0.593651,0.585981,-0.608990,0.582913,-0.567573
2.6228,0.016778,0.000000,0.000000,0.001149,0.1983,0.0000,0.0000,-0.144795,0.144795,-0.000011,0.001440,-0.001568,1.4320,0.6167,0.0518,-0.148796,0.147262,0.000000,0.602854,-0.593651,0.585981,-0.608990,0.582913,-0.567573
2.6396,0.016745,0.000000,0.000000,0.001159,0.2003,0.0000,0.0000,-0.144604,0.144604,-0.000011,0.001440,-0.001568,1.4320,0.6167,0.0518,-0.148796,0.147262,0.000000,0.602854,-0.593651,0.585981,-0.608990,0.582913,-0.567573
2.6563,0.016757,0.000000,0.000000,0.001169,0.2022,0.0000,0.0000,-0.144417,0.144417,-0.000011,0.001440,-0.001568,1.4320,0.6167,0.0518,-0.148796,0.147262,0.000000,0.602854,-0.593651,0.585981,-0.608990,0.582913,-0.567573
2.6731,0.016741,0.000000,0.000000,0.001179,0.2041,0.0000,0.0000,-0.144233,0.144233,-0.000011,0.001440,-0.001568,1.4320,0.6167,0.0518,-0.148796,0.147262,0.000000,0.602854,-0.593651,0.585981,-0.608990,0.582913,-0.567573
2.6898,0.016748,0.000000,0.000000,0.001190,0.2060,0.0000,0.0000,-0.144052,0.144052,-0.000011,0.001440,-0.001568,1.4320,0.6167,0.0518,-0.148796,0.147262,0.000000,0.602854,-0.593651,0.585981,-0.608990,0.582913,-0.567573
2.7066,0.016745,0.000000,0.000000,0.001200,0.2079,0.0000,0.0000,-0.143875,0.143875,-0.000011,0.001440,-0.001568,1.4320,0.6167,0.0518,-0.148796,0.147262,0.000000,0.602854,-0.593651,0.585981,-0.608990,0.582913,-0.567573
2.7233,0.016755,0.000000,0.000000,0.001210,0.2099,0.0000,0.0000,-0.143701,0.143701,-0.000011,0.001440,-0.001568,1.4320,0.6167,0.0518,-0.148796,0.147262,0.000000,0.602854,-0.593651,0.585981,-0.608990,0.582913,-0.567573
2.7401,0.016748,0.000000,0.000000,0.001220,0.2118,0.0000,0.0000,-0.143530,0.143530,0.000043,0.001424,-0.001556,1.4704,0.5820,-0.0028,-0.148796,0.147262,0.000000,0.602854,-0.595185,0.585981,-0.608990,0.582913,-0.567573
2.7568,0.016761,0.000000,0.000000,0.001230,0.2137,0.0000,0.0000,-0.143363,0.143363,0.000043,0.001424,-0.001556,1.4704,0.5820,-0.0028,-0.148796,0.147262,0.000000,0.602854,-0.595185,0.585981,-0.608990,0.582913,-0.567573
2.7736,0.016743,0.000000,0.000000,0.001240,0.2156,0.0000,0.0000,-0.143200,0.143200,0.000037,0.001426,-0.001557,1.4664,0.5856,0.0029,-0.148796,0.147262,0.000000,0.602854,-0.595185,0.585981,-0.608990,0.582913,-0.567573
2.7903,0.016746,0.000000,0.000000,0.001250,0.2175,0.0000,0.0000,-0.143039,0.143039,0.000037,0.001426,-0.001557,1.4664,0.5856,0.0029,-0.148796,0.147262,0.000000,0.602854,-0.595185,0.585981,-0.608990,0.582913,-0.567573
2.8071,0.016747,0.000000,0.000000,0.001260,0.2194,0.0000,0.0000,-0.142883,0.142883,0.000091,0.001409,-0.001544,1.5054,0.5498,-0.0520,-0.148796,0.147262,0.000000,0.602854,-0.596719,0.585981,-0.608990,0.582913,-0.567573
2.8238,0.016747,0.000000,0.000000,0.001269,0.2212,0.0000,0.0000,-0.142730,0.142730,0.000086,0.001411,-0.001546,1.5013,0.5536,-0.0463,-0.148796,0.147262,0.000000,0.602854,-0.596719,0.585981,-0.608990,0.582913,-0.567573
2.8406,0.016740,0.000000,0.000000,0.001279,0.2231,0.0000,0.0000,-0.142580,0.142580,0.000140,0.001394,-0.001533,1.5402,0.5177,-0.1013,-0.148796,0.147262,0.000000,0.602854,-0.598253,0.585981,-0.608990,0.582913,-0.567573
2.8573,0.016748,0.000000,0.000000,0.001289,0.2250,0.0000,0.0000,-0.142434,0.142434,0.000140,0.001394,-0.001533,1.5402,0.5177,-0.1013,-0.148796,0.147262,0.000000,0.602854,-0.598253,0.585981,-0.608990,0.582913,-0.567573
2.8740,0.016740,0.000000,0.000000,0.001298,0.2269,0.0000,0.0000,-0.142291,0.142291,0.000134,0.001396,-0.001534,1.5362,0.5215,-0.0955,-0.148796,0.147262,0.000000,0.602854,-0.598253,0.585981,-0.608990,0.582913,-0.567573
2.8908,0.016744,0.000000,0.000000,0.001308,0.2288,0.0000,0.0000,-0.142153,0.142153,0.000134,0.001396,-0.001534,1.5362,0.5215,-0.0955,-0.148796,0.147262,0.000000,0.602854,-0.598253,0.585981,-0.608990,0.582913,-0.567573
2.9075,0.016744,0.000000,0.000000,0.001317,0.2306,0.0000,0.0000,-0.142017,0.142017,0.000189,0.001380,-0.001522,1.5750,0.4857,-0.1506,-0.148796,0.147262,0.000000,0.602854,-0.599786,0.585981,-0.608990,0.582913,-0.567573
2.9243,0.016752,0.000000,0.000000,0.001327,0.2325,0.0000,0.0000,-0.141885,0.141885,0.000129,0.001398,-0.001535,1.5326,0.5248,-0.0904,-0.148796,0.145728,0.000000,0.602854,-0.598253,0.585981,-0.608990,0.582913,-0.567573
2.9410,0.016746,0.000000,0.000000,0.001336,0.2344,0.0000,0.0000,-0.141757,0.141757,0.000149,0.001341,-0.001508,1.5258,0.4678,-0.2050,-0.148796,0.145728,0.000000,0.602854,-0.599786,0.585981,-0.608990,0.582913,-0.569107
2.9578,0.016746,0.000000,0.000000,0.001346,0.2362,0.0000,0.0000,-0.141633,0.141633,0.000149,0.001341,-0.001508,1.5258,0.4678,-0.2050,-0.148796,0.145728,0.000000,0.602854,-0.599786,0.585981,-0.608990,0.582913,-0.569107
2.9745,0.016741,0.000000,0.000000,0.001355,0.2381,0.0000,0.0000,-0.141512,0.141512,0.000121,0.001284,-0.001473,1.3879,0.4049,-0.2476,-0.148796,0.145728,0.000000,0.602854,-0.599786,0.585981,-0.608990,0.584447,-0.572175
2.9913,0.016741,0.000000,0.000000,0.001364,0.2399,0.0000,0.0000,-0.141395,0.141395,0.000178,0.001416,-0.001429,1.3838,0.3784,-0.1361,-0.148796,0.145728,0.000000,0.604388,-0.599786,0.585981,-0.610524,0.587515,-0.572175
3.0080,0.016746,0.000000,0.000000,0.001373,0.2418,0.0000,0.0000,-0.141281,0.141281,0.000133,0.001396,-0.001384,1.2565,0.3626,-0.2560,-0.148796,0.145728,0.000000,0.604388,-0.599786,0.585981,-0.612058,0.589049,-0.575243
3.0247,0.016743,0.000000,0.000000,0.001383,0.2436,0.0000,0.0000,-0.141171,0.141171,0.000098,0.001392,-0.001339,1.1423,0.3459,-0.3518,-0.148796,0.145728,0.000000,0.604388,-0.599786,0.585981,-0.613592,0.590583,-0.578311
3.0415,0.016777,0.000000,0.000000,0.001392,0.2454,0.0000,0.0000,-0.141065,0.141065,0.000062,0.001385,-0.001331,1.0271,0.3318,-0.2879,-0.148796,0.145728,0.000000,0.604388,-0.598253,0.585981,-0.613592,0.592117,-0.579845
3.0583,0.016749,0.000000,0.000000,0.001401,0.2473,0.0000,0.0000,-0.140962,0.140962,0.000062,0.001385,-0.001331,1.0271,0.3318,-0.2879,-0.148796,0.145728,0.000000,0.604388,-0.598253,0.585981,-0.613592,0.592117,-0.579845
3.0750,0.016740,0.000000,0.000000,0.001410,0.2491,0.0000,0.0000,-0.140863,0.140863,0.000133,0.001457,-0.001259,1.0097,0.2475,-0.2954,-0.147262,0.145728,0.000000,0.605922,-0.599786,0.585981,-0.615126,0.595185,-0.581379
3.0918,0.016747,0.000000,0.000000,0.001419,0.2509,0.0000,0.0000,-0.140768,0.140768,0.000084,0.001522,-0.001218,0.9833,0.2400,-0.2948,-0.147262,0.145728,0.000000,0.607456,-0.599786,0.585981,-0.616660,0.596719,-0.582913
3.1085,0.016749,0.000000,0.000000,0.001428,0.2527,0.0000,0.0000,-0.140677,0.140677,0.000090,0.001547,-0.001222,0.9084,0.2425,-0.1868,-0.147262,0.145728,0.000000,0.607456,-0.598253,0.585981,-0.616660,0.598253,-0.582913
3.1253,0.016751,0.000000,0.000000,0.001436,0.2545,0.0000,0.0000,-0.140589,0.140589,0.000049,0.001505,-0.001209,0.8669,0.2248,-0.2520,-0.147262,0.145728,0.000000,0.607456,-0.598253,0.585981,-0.616660,0.598253,-0.584447
3.1420,0.016773,0.000000,0.000000,0.001445,0.2564,0.0000,0.0000,-0.140506,0.140506,0.000025,0.001494,-0.001173,0.9100,0.1586,-0.2992,-0.147262,0.145728,0.000000,0.608990,-0.599786,0.585981,-0.616660,0.598253,-0.585981
3.1588,0.016741,0.000000,0.000000,0.001454,0.2582,0.0000,0.0000,-0.140426,0.140426,0.000025,0.001494,-0.001173,0.9100,0.1586,-0.2992,-0.147262,0.145728,0.000000,0.608990,-0.599786,0.585981,-0.616660,0.598253,-0.585981
3.1755,0.016743,0.000000,0.000000,0.001462,0.2600,0.0000,0.0000,-0.140349,0.140349,-0.000014,0.001534,-0.001165,0.9552,0.1502,-0.2400,-0.147262,0.145728,0.000000,0.610524,-0.599786,0.585981,-0.616660,0.598253,-0.585981
3.1923,0.016756,0.000000,0.000000,0.001471,0.2618,0.0000,0.0000,-0.140277,0.140277,-0.000010,0.001530,-0.001166,0.9505,0.1511,-0.2462,-0.147262,0.145728,0.000000,0.610524,-0.599786,0.585981,-0.616660,0.598253,-0.585981
3.2090,0.016756,0.000000,0.000000,0.001480,0.2636,0.0000,0.0000,-0.140208,0.140208,-0.000010,0.001530,-0.001166,0.9505,0.1511,-0.2462,-0.147262,0.145728,0.000000,0.610524,-0.599786,0.585981,-0.616660,0.598253,-0.585981
3.2258,0.016756,0.000000,0.000000,0.001488,0.2653,0.0000,0.0000,-0.140143,0.140143,-0.000053,0.001570,-0.001154,1.0006,0.1358,-0.1911,-0.147262,0.145728,0.000000,0.612058,-0.599786,0.585981,-0.616660,0.598253,-0.585981
3.2428,0.017036,0.000000,0.000000,0.001497,0.2672,0.0000,0.0000,-0.140081,0.140081,-0.000006,0.001526,-0.001167,0.9458,0.1526,-0.2512,-0.147262,0.144194,0.000000,0.610524,-0.599786,0.585981,-0.616660,0.598253,-0.585981
3.2600,0.017172,0.000000,0.000000,0.001505,0.2690,0.0000,0.0000,-0.140023,0.140023,-0.000006,0.001526,-0.001167,0.9458,0.1526,-0.2512,-0.147262,0.144194,0.000000,0.610524,-0.599786,0.585981,-0.616660,0.598253,-0.585981
3.2767,0.016741,0.000000,0.000000,0.001513,0.2707,0.0000,0.0000,-0.139969,0.139969,-0.000011,0.001531,-0.001166,0.9515,0.1509,-0.2450,-0.147262,0.145728,0.000000,0.610524,-0.599786,0.585981,-0.616660,0.598253,-0.585981
3.2935,0.016753,0.000000,0.000000,0.001522,0.2725,0.0000,0.0000,-0.139920,0.139920,-0.000011,0.001531,-0.001166,0.9515,0.1509,-0.2450,-0.147262,0.145728,0.000000,0.610524,-0.599786,0.585981,-0.616660,0.598253,-0.585981
3.3102,0.016745,0.000000,0.000000,0.001530,0.2743,0.0000,0.0000,-0.139874,0.139874,-0.000011,0.001531,-0.001166,0.9515,0.1509,-0.2450,-0.147262,0.145728,0.000000,0.610524,-0.599786,0.585981,-0.616660,0.598253,-0.585981
3.3270,0.016759,0.000000,0.000000,0.001538,0.2760,0.0000,0.0000,-0.139832,0.139832,-0.000011,0.001531,-0.001166,0.9515,0.1509,-0.2450,-0.147262,0.145728,0.000000,0.610524,-0.599786,0.585981,-0.616660,0.598253,-0.585981
3.3437,0.016754,0.000000,0.000000,0.001546,0.2778,0.0000,0.0000,-0.139794,0.139794,-0.000011,0.001531,-0.001166,0.9515,0.1509,-0.2450,-0.147262,0.145728,0.000000,0.610524,-0.599786,0.585981,-0.616660,0.598253,-0.585981
3.3605,0.016754,0.000000,0.000000,0.001554,0.2795,0.0000,0.0000,-0.139760,0.139760,-0.000011,0.001531,-0.001166,0.9515,0.1509,-0.2450,-0.147262,0.145728,0.000000,0.610524,-0.599786,0.585981,-0.616660,0.598253,-0.585981
3.3772,0.016745,0.000000,0.000000,0.001562,0.2813,0.0000,0.0000,-0.139730,0.139730,-0.000011,0.001531,-0.001166,0.9515,0.1509,-0.2450,-0.147262,0.144194,0.000000,0.610524,-0.599786,0.585981,-0.616660,0.598253,-0.585981
3.3940,0.016753,0.000000,0.000000,0.001570,0.2830,0.0000,0.0000,-0.139704,0.139704,-0.000011,0.001531,-0.001166,0.9515,0.1509,-0.2450,-0.147262,0.145728,0.000000,0.610524,-0.599786,0.585981,-0.616660,0.598253,-0.585981
3.4108,0.016805,0.000000,0.000000,0.001578,0.2848,0.0000,0.0000,-0.139681,0.139681,-0.000011,0.001531,-0.001166,0.9515,0.1509,-0.2450,-0.147262,0.144194,0.000000,0.610524,-0.599786,0.585981,-0.616660,0.598253,-0.585981
3.4276,0.016800,0.000000,0.000000,0.001585,0.2865,0.0000,0.0000,-0.139662,0.139662,-0.000011,0.001531,-0.001166,0.9515,0.1509,-0.2450,-0.147262,0.144194,0.000000,0.610524,-0.599786,0.585981,-0.616660,0.598253,-0.585981
3.4444,0.016761,0.000000,0.000000,0.001593,0.2882,0.0000,0.0000,-0.139648,0.139648,-0.000011,0.001531,-0.001166,0.9515,0.1509,-0.2450,-0.147262,0.144194,0.000000,0.610524,-0.599786,0.585981,-0.616660,0.598253,-0.585981
3.4611,0.016774,0.000000,0.000000,0.001601,0.2899,0.0000,0.0000,-0.139637,0.139637,-0.000011,0.001531,-0.001166,0.9515,0.1509,-0.2450,-0.147262,0.144194,0.000000,0.610524,-0.599786,0.585981,-0.616660,0.598253,-0.585981
3.4779,0.016738,0.000000,0.000000,0.001608,0.2916,0.0000,0.0000,-0.139630,0.139630,-0.000011,0.001531,-0.001166,0.9515,0.1509,-0.2450,-0.147262,0.144194,0.000000,0.610524,-0.599786,0.585981,-0.616660,0.598253,-0.585981
3.4955,0.017677,0.000000,0.000000,0.001616,0.2934,0.0000,0.0000,-0.139626,0.139626,-0.000011,0.001531,-0.001166,0.9515,0.1509,-0.2450,-0.147262,0.144194,0.000000,0.610524,-0.599786,0.585981,-0.616660,0.598253,-0.585981
3.5123,0.016751,0.000000,0.000000,0.001623,0.2951,0.0000,0.0000,-0.139627,0.139627,-0.000011,0.001531,-0.001166,0.9515,0.1509,-0.2450,-0.147262,0.145728,0.000000,0.610524,-0.599786,0.585981,-0.616660,0.598253,-0.585981
3.5291,0.016760,0.000000,0.000000,0.001631,0.2968,0.0000,0.0000,-0.139632,0.139632,-0.000011,0.001531,-0.001166,0.9515,0.1509,-0.2450,-0.147262,0.145728,0.000000,0.610524,-0.599786,0.585981,-0.616660,0.598253,-0.585981
3.5458,0.016746,0.000000,0.000000,0.001638,0.2985,0.0000,0.0000,-0.139641,0.139641,-0.000011,0.001531,-0.001166,0.9515,0.1509,-0.2450,-0.147262,0.144194,0.000000,0.610524,-0.599786,0.585981,-0.616660,0.598253,-0.585981
3.5626,0.016748,0.000000,0.000000,0.001645,0.3002,0.0000,0.0000,-0.139653,0.139653,-0.000011,0.001531,-0.001166,0.9515,0.1509,-0.2450,-0.147262,0.145728,0.000000,0.610524,-0.599786,0.585981,-0.616660,0.598253,-0.585981
3.5794,0.016818,0.000000,0.000000,0.001652,0.3019,0.0000,0.0000,-0.139670,0.139670,-0.000011,0.001531,-0.001166,0.9515,0.1509,-0.2450,-0.147262,0.145728,0.000000,0.610524,-0.599786,0.585981,-0.616660,0.598253,-0.585981
3.5961,0.016751,0.000000,0.000000,0.001660,0.3036,0.0000,0.0000,-0.139690,0.139690,-0.000011,0.001531,-0.001166,0.9515,0.1509,-0.2450,-0.147262,0.145728,0.000000,0.610524,-0.599786,0.585981,-0.616660,0.598253,-0.585981
3.6129,0.016761,0.000000,0.000000,0.001667,0.3052,0.0000,0.0000,-0.139714,0.139714,-0.000011,0.001531,-0.001166,0.9515,0.1509,-0.2450,-0.147262,0.145728,0.000000,0.612058,-0.599786,0.585981,-0.616660,0.598253,-0.585981
3.6296,0.016750,0.000000,0.000000,0.001674,0.3069,0.0000,0.0000,-0.139742,0.139742,-0.000052,0.001569,-0.001155,1.0005,0.1358,-0.1913,-0.147262,0.145728,0.000000,0.612058,-0.599786,0.585981,-0.616660,0.598253,-0.585981
3.6464,0.016748,0.000000,0.000000,0.001680,0.3086,0.0000,0.0000,-0.139774,0.139774,-0.000048,0.001565,-0.001156,0.9954,0.1374,-0.1969,-0.147262,0.144194,0.000000,0.612058,-0.599786,0.585981,-0.616660,0.598253,-0.585981
3.6631,0.016748,0.000000,0.000000,0.001687,0.3102,0.0000,0.0000,-0.139810,0.139810,-0.000145,0.001622,-0.001157,1.0072,0.1576,-0.0875,-0.147262,0.145728,0.000000,0.613592,-0.598253,0.585981,-0.616660,0.598253,-0.585981
3.6799,0.016750,0.000000,0.000000,0.001694,0.3119,0.0000,0.0000,-0.139849,0.139849,-0.000080,0.001599,-0.001144,1.0443,0.1200,-0.1533,-0.147262,0.145728,0.000000,0.613592,-0.599786,0.585981,-0.616660,0.598253,-0.585981
3.6968,0.016909,0.000000,0.000000,0.001701,0.3135,0.0000,0.0000,-0.139893,0.139893,-0.000129,0.001641,-0.001134,1.0900,0.1088,-0.0920,-0.147262,0.144194,0.000000,0.615126,-0.599786,0.585981,-0.616660,0.598253,-0.585981
3.7135,0.016756,0.000000,0.000000,0.001707,0.3152,0.0000,0.0000,-0.139940,0.139940,-0.000129,0.001641,-0.001134,1.0900,0.1088,-0.0920,-0.147262,0.144194,0.000000,0.615126,-0.599786,0.585981,-0.616660,0.598253,-0.585981
3.7303,0.016755,0.000000,0.000000,0.001714,0.3168,0.0000,0.0000,-0.139991,0.139991,-0.000166,0.001676,-0.001124,1.1348,0.0949,-0.0439,-0.147262,0.144194,0.000000,0.616660,-0.599786,0.585981,-0.616660,0.598253,-0.585981
3.7470,0.016748,0.000000,0.000000,0.001720,0.3184,0.0000,0.0000,-0.140046,0.140046,-0.000162,0.001672,-0.001125,1.1301,0.0964,-0.0490,-0.147262,0.144194,0.000000,0.616660,-0.599786,0.585981,-0.616660,0.598253,-0.585981
3.7638,0.016750,0.000000,0.000000,0.001727,0.3200,0.0000,0.0000,-0.140105,0.140105,-0.000205,0.001712,-0.001113,1.1801,0.0812,0.0060,-0.147262,0.145728,0.000000,0.618194,-0.599786,0.585981,-0.616660,0.598253,-0.585981
3.7805,0.016749,0.000000,0.000000,0.001733,0.3217,0.0000,0.0000,-0.140167,0.140167,-0.000200,0.001708,-0.001114,1.1749,0.0828,0.0003,-0.147262,0.145728,0.000000,0.618194,-0.599786,0.585981,-0.616660,0.598253,-0.585981
3.7973,0.016752,0.000000,0.000000,0.001739,0.3233,0.0000,0.0000,-0.140234,0.140234,-0.000200,0.001708,-0.001114,1.1749,0.0828,0.0003,-0.147262,0.144194,0.000000,0.618194,-0.599786,0.585981,-0.616660,0.598253,-0.585981
3.8140,0.016746,0.000000,0.000000,0.001746,0.3249,0.0000,0.0000,-0.140304,0.140304,-0.000200,0.001708,-0.001114,1.1749,0.0828,0.0003,-0.147262,0.144194,0.000000,0.618194,-0.599786,0.585981,-0.616660,0.598253,-0.585981
3.8308,0.016757,0.000000,0.000000,0.001752,0.3265,0.0000,0.0000,-0.140378,0.140378,-0.000214,0.001654,-0.001101,1.1648,0.1342,0.0553,-0.147262,0.145728,0.000000,0.618194,-0.599786,0.587515,-0.616660,0.598253,-0.585981
3.8475,0.016705,0.000000,0.000000,0.001758,0.3281,0.0000,0.0000,-0.140455,0.140455,-0.000238,0.001551,-0.001076,1.1446,0.2317,0.1584,-0.147262,0.145728,0.000000,0.618194,-0.599786,0.590583,-0.616660,0.598253,-0.585981
3.8642,0.016745,0.000000,0.000000,0.001764,0.3296,0.0000,0.0000,-0.140537,0.140537,-0.000261,0.001452,-0.001052,1.1254,0.3241,0.2566,-0.147262,0.144194,0.000000,0.618194,-0.599786,0.593651,-0.616660,0.598253,-0.585981
3.8810,0.016751,0.000000,0.000000,0.001770,0.3312,0.0000,0.0000,-0.140622,0.140622,-0.000298,0.001299,-0.001015,1.0953,0.4680,0.4100,-0.147262,0.144194,0.000000,0.618194,-0.599786,0.598253,-0.616660,0.598253,-0.585981
3.8979,0.016940,0.000000,0.000000,0.001776,0.3328,0.0000,0.0000,-0.140712,0.140712,-0.000320,0.001205,-0.000993,1.0768,0.5549,0.5032,-0.147262,0.144194,0.000000,0.618194,-0.599786,0.601320,-0.616660,0.598253,-0.585981
3.9147,0.016743,0.000000,0.000000,0.001781,0.3344,0.0000,0.0000,-0.140805,0.140805,-0.000320,0.001205,-0.000993,1.0768,0.5549,0.5032,-0.147262,0.144194,0.000000,0.618194,-0.599786,0.601320,-0.616660,0.598253,-0.585981
3.9314,0.016745,0.000000,0.000000,0.001787,0.3359,0.0000,0.0000,-0.140901,0.140901,-0.000356,0.001050,-0.000957,1.0462,0.6984,0.6576,-0.147262,0.144194,0.000000,0.618194,-0.599786,0.605922,-0.616660,0.598253,-0.585981
3.9482,0.016746,0.000000,0.000000,0.001793,0.3375,0.0000,0.0000,-0.141001,0.141001,-0.000378,0.000957,-0.000935,1.0275,0.7847,0.7510,-0.147262,0.145728,0.000000,0.618194,-0.599786,0.608990,-0.616660,0.598253,-0.585981
3.9652,0.017020,0.000000,0.000000,0.001798,0.3391,0.0000,0.0000,-0.141107,0.141107,-0.000388,0.000911,-0.000925,1.0185,0.8263,0.7960,-0.147262,0.144194,0.000000,0.618194,-0.599786,0.610524,-0.616660,0.598253,-0.585981
3.9819,0.016744,0.000000,0.000000,0.001804,0.3406,0.0000,0.0000,-0.141215,0.141215,-0.000413,0.000806,-0.000901,0.9975,0.9230,0.9010,-0.147262,0.145728,0.000000,0.618194,-0.599786,0.613592,-0.616660,0.598253,-0.585981
3.9989,0.016978,0.000000,0.000000,0.001809,0.3422,0.0000,0.0000,-0.141327,0.141327,-0.000423,0.000762,-0.000891,0.9886,0.9633,0.9450,-0.147262,0.145728,0.000000,0.618194,-0.599786,0.615126,-0.616660,0.598253,-0.585981
4.0157,0.016742,0.000000,0.000000,0.001815,0.3437,0.0000,0.0000,-0.141443,0.141443,-0.000423,0.000762,-0.000891,0.9886,0.9633,0.9450,-0.147262,0.145728,0.000000,0.618194,-0.599786,0.615126,-0.616660,0.598253,-0.585981
4.0324,0.016756,0.000000,0.000000,0.001820,0.3452,0.0000,0.0000,-0.141561,0.141561,-0.000435,0.000711,-0.000880,0.9785,1.0095,0.9953,-0.147262,0.144194,0.000000,0.618194,-0.599786,0.616660,-0.616660,0.598253,-0.585981
4.0492,0.016751,0.000000,0.000000,0.001825,0.3468,0.0000,0.0000,-0.141684,0.141684,-0.000434,0.000716,-0.000881,0.9796,1.0046,0.9900,-0.147262,0.144194,0.000000,0.618194,-0.599786,0.616660,-0.616660,0.598253,-0.585981
4.0659,0.016764,0.000000,0.000000,0.001830,0.3483,0.0000,0.0000,-0.141810,0.141810,-0.000434,0.000716,-0.000881,0.9796,1.0046,0.9900,-0.147262,0.144194,0.000000,0.618194,-0.599786,0.616660,-0.616660,0.598253,-0.585981
4.0827,0.016750,0.000000,0.000000,0.001835,0.3498,0.0000,0.0000,-0.141940,0.141940,-0.000434,0.000716,-0.000881,0.9796,1.0046,0.9900,-0.147262,0.144194,0.000000,0.618194,-0.599786,0.616660,-0.616660,0.598253,-0.585981
4.0994,0.016759,0.000000,0.000000,0.001840,0.3513,0.0000,0.0000,-0.142073,0.142073,-0.000434,0.000716,-0.000881,0.9796,1.0046,0.9900,-0.147262,0.145728,0.000000,0.618194,-0.599786,0.616660,-0.616660,0.598253,-0.585981
4.1162,0.016737,0.000000,0.000000,0.001845,0.3528,0.0000,0.0000,-0.142210,0.142210,-0.000434,0.000716,-0.000881,0.9796,1.0046,0.9900,-0.147262,0.145728,0.000000,0.618194,-0.599786,0.616660,-0.616660,0.598253,-0.585981
4.1329,0.016753,0.000000,0.000000,0.001850,0.3543,0.0000,0.0000,-0.142350,0.142350,-0.000434,0.000716,-0.000881,0.9796,1.0046,0.9900,-0.147262,0.145728,0.000000,0.618194,-0.599786,0.616660,-0.616660,0.598253,-0.585981
4.1497,0.016746,0.000000,0.000000,0.001855,0.3557,0.0000,0.0000,-0.142494,0.142494,-0.000434,0.000716,-0.000881,0.9796,1.0046,0.9900,-0.147262,0.145728,0.000000,0.618194,-0.599786,0.616660,-0.616660,0.598253,-0.585981
4.1664,0.016763,0.000000,0.000000,0.001859,0.3572,0.0000,0.0000,-0.142642,0.142642,-0.000434,0.000716,-0.000881,0.9796,1.0046,0.9900,-0.147262,0.144194,0.000000,0.618194,-0.599786,0.616660,-0.616660,0.598253,-0.585981
4.1832,0.016746,0.000000,0.000000,0.001864,0.3587,0.0000,0.0000,-0.142793,0.142793,-0.000434,0.000716,-0.000881,0.9796,1.0046,0.9900,-0.147262,0.144194,0.000000,0.618194,-0.599786,0.616660,-0.616660,0.598253,-0.585981
4.2000,0.016815,0.000000,0.000000,0.001869,0.3602,0.0000,0.0000,-0.142949,0.142949,-0.000434,0.000716,-0.000881,0.9796,1.0046,0.9900,-0.147262,0.144194,0.000000,0.618194,-0.599786,0.616660,-0.616660,0.598253,-0.585981
4.2168,0.016749,0.000000,0.000000,0.001873,0.3616,0.0000,0.0000,-0.143107,0.143107,-0.000434,0.000716,-0.000881,0.9796,1.0046,0.9900,-0.147262,0.144194,0.000000,0.618194,-0.599786,0.616660,-0.616660,0.598253,-0.585981
4.2335,0.016710,0.000000,0.000000,0.001878,0.3631,0.0000,0.0000,-0.143268,0.143268,-0.000434,0.000716,-0.000881,0.9796,1.0046,0.9900,-0.147262,0.145728,0.000000,0.618194,-0.599786,0.616660,-0.616660,0.598253,-0.585981
4.2503,0.016796,0.000000,0.000000,0.001882,0.3645,0.0000,0.0000,-0.143433,0.143433,-0.000434,0.000716,-0.000881,0.9796,1.0046,0.9900,-0.147262,0.144194,0.000000,0.618194,-0.599786,0.616660,-0.616660,0.598253,-0.585981
4.2670,0.016757,0.000000,0.000000,0.001886,0.3659,0.0000,0.0000,-0.143602,0.143602,-0.000434,0.000716,-0.000881,0.9796,1.0046,0.9900,-0.147262,0.144194,0.000000,0.618194,-0.599786,0.616660,-0.616660,0.598253,-0.585981
4.2838,0.016752,0.000000,0.000000,0.001890,0.3674,0.0000,0.0000,-0.143774,0.143774,-0.000434,0.000716,-0.000881,0.9796,1.0046,0.9900,-0.147262,0.144194,0.000000,0.618194,-0.599786,0.616660,-0.616660,0.598253,-0.585981
4.3005,0.016764,0.000000,0.000000,0.001894,0.3688,0.0000,0.0000,-0.143950,0.143950,-0.000434,0.000716,-0.000881,0.9796,1.0046,0.9900,-0.147262,0.144194,0.000000,0.618194,-0.599786,0.616660,-0.616660,0.598253,-0.585981
4.3173,0.016747,0.000000,0.000000,0.001898,0.3702,0.0000,0.0000,-0.144128,0.144128,-0.000434,0.000716,-0.000881,0.9796,1.0046,0.9900,-0.147262,0.144194,0.000000,0.618194,-0.599786,0.616660,-0.616660,0.598253,-0.585981
4.3340,0.016747,0.000000,0.000000,0.001902,0.3716,0.0000,0.0000,-0.144311,0.144311,-0.000434,0.000716,-0.000881,0.9796,1.0046,0.9900,-0.147262,0.145728,0.000000,0.618194,-0.599786,0.616660,-0.616660,0.598253,-0.585981
4.3508,0.016751,0.000000,0.000000,0.001906,0.3730,0.0000,0.0000,-0.144496,0.144496,-0.000434,0.000716,-0.000881,0.9796,1.0046,0.9900,-0.147262,0.144194,0.000000,0.618194,-0.599786,0.616660,-0.616660,0.598253,-0.585981
4.3675,0.016752,0.000000,0.000000,0.001910,0.3744,0.0000,0.0000,-0.144685,0.144685,-0.000434,0.000716,-0.000881,0.9796,1.0046,0.9900,-0.147262,0.144194,0.000000,0.618194,-0.599786,0.616660,-0.616660,0.598253,-0.585981
4.3843,0.016742,0.000000,0.000000,0.001914,0.3758,0.0000,0.0000,-0.144877,0.144877,-0.000326,0.000684,-0.000855,1.0581,0.9351,0.8822,-0.147262,0.145728,0.000000,0.618194,-0.602854,0.616660,-0.616660,0.598253,-0.585981
4.4010,0.016764,0.000000,0.000000,0.001917,0.3772,0.0000,0.0000,-0.145072,0.145072,-0.000326,0.000684,-0.000855,1.0581,0.9351,0.8822,-0.147262,0.145728,0.000000,0.618194,-0.602854,0.616660,-0.616660,0.598253,-0.585981
4.4178,0.016748,0.000000,0.000000,0.001921,0.3786,0.0000,0.0000,-0.145271,0.145271,-0.000229,0.000655,-0.000832,1.1282,0.8724,0.7849,-0.148796,0.144194,0.000000,0.618194,-0.605922,0.616660,-0.616660,0.598253,-0.585981
4.4345,0.016746,0.000000,0.000000,0.001924,0.3800,0.0000,0.0000,-0.145473,0.145473,-0.000185,0.000642,-0.000822,1.1599,0.8440,0.7406,-0.147262,0.144194,0.000000,0.618194,-0.607456,0.616660,-0.616660,0.598253,-0.585981
4.4513,0.016745,0.000000,0.000000,0.001928,0.3813,0.0000,0.0000,-0.145678,0.145678,-0.000191,0.000611,-0.000823,1.2344,0.8462,0.6373,-0.148796,0.144194,0.000000,0.618194,-0.608990,0.616660,-0.616660,0.596719,-0.585981
4.4680,0.016760,0.000000,0.000000,0.001931,0.3827,0.0000,0.0000,-0.145887,0.145887,-0.000081,0.000614,-0.000798,1.2267,0.7769,0.6471,-0.148796,0.145728,0.000000,0.618194,-0.610524,0.616660,-0.616660,0.598253,-0.585981
4.4849,0.016892,0.000000,0.000000,0.001934,0.3840,0.0000,0.0000,-0.146100,0.146100,0.000015,0.000581,-0.000775,1.3053,0.7143,0.5368,-0.148796,0.144194,0.000000,0.618194,-0.613592,0.616660,-0.616660,0.598253,-0.585981
4.5017,0.016816,0.000000,0.000000,0.001937,0.3854,0.0000,0.0000,-0.146315,0.146315,0.000015,0.000581,-0.000775,1.3053,0.7143,0.5368,-0.148796,0.144194,0.000000,0.618194,-0.613592,0.616660,-0.616660,0.598253,-0.585981
4.5191,0.017389,0.000000,0.000000,0.001941,0.3868,0.0000,0.0000,-0.146542,0.146542,0.000015,0.000581,-0.000775,1.3053,0.7143,0.5368,-0.148796,0.144194,0.000000,0.618194,-0.613592,0.616660,-0.616660,0.598253,-0.585981
4.5359,0.016751,0.000000,0.000000,0.001944,0.3881,0.0000,0.0000,-0.146763,0.146763,0.000015,0.000581,-0.000775,1.3053,0.7143,0.5368,-0.148796,0.144194,0.000000,0.618194,-0.613592,0.616660,-0.616660,0.598253,-0.585981
4.5526,0.016744,0.000000,0.000000,0.001947,0.3894,0.0000,0.0000,-0.146987,0.146987,0.000005,0.000584,-0.000778,1.2970,0.7208,0.5483,-0.148796,0.145728,0.000000,0.618194,-0.613592,0.616660,-0.616660,0.598253,-0.585981
