t,loop_dt,cmd_ant_l,cmd_ant_r,pres_ant_l,pres_ant_r,pres_z,pres_roll,pres_pitch,pres_yaw
0.0000,0.000001,-0.349066,0.349066,-1.903670,1.799359,-0.047116,-1.7633,27.8150,-1.0771
0.0167,0.016743,-0.348523,0.348523,-1.903670,1.799359,-0.047116,-1.7633,27.8150,-1.0771
0.0335,0.016756,-0.346896,0.346896,-1.903670,1.799359,-0.047116,-1.7633,27.8150,-1.0771
0.0503,0.016776,-0.344191,0.344191,-1.903670,1.799359,-0.047116,-1.7633,27.8150,-1.0771
0.0670,0.016758,-0.340430,0.340430,-1.903670,1.799359,-0.047116,-1.7633,27.8150,-1.0771
0.0838,0.016746,-0.335640,0.335640,-1.903670,1.799359,-0.047116,-1.7633,27.8150,-1.0771
0.1005,0.016750,-0.329845,0.329845,-1.903670,1.799359,-0.047116,-1.7633,27.8150,-1.0771
0.1173,0.016741,-0.323087,0.323087,-1.903670,1.799359,-0.047116,-1.7633,27.8150,-1.0771
0.1340,0.016752,-0.315400,0.315400,-1.903670,1.799359,-0.047107,-1.7421,27.8712,-1.1045
0.1508,0.016735,-0.306844,0.306844,-1.903670,1.799359,-0.047117,-1.7657,27.8084,-1.0739
0.1675,0.016751,-0.297456,0.297456,-1.903670,1.799359,-0.047116,-1.7633,27.8150,-1.0771
0.1844,0.016857,-0.287237,0.287237,-1.903670,1.799359,-0.047107,-1.7421,27.8712,-1.1045
0.2011,0.016752,-0.276377,0.276377,-1.903670,1.799359,-0.047107,-1.7421,27.8712,-1.1045
0.2179,0.016744,-0.264888,0.264888,-1.903670,1.799359,-0.047117,-1.7657,27.8084,-1.0739
0.2346,0.016751,-0.252832,0.252832,-1.903670,1.799359,-0.047116,-1.7633,27.8150,-1.0771
0.2514,0.016811,-0.240242,0.240242,-1.903670,1.799359,-0.047116,-1.7633,27.8150,-1.0771
0.2682,0.016762,-0.227279,0.227279,-1.903670,1.799359,-0.047116,-1.7633,27.8150,-1.0771
0.2849,0.016749,-0.213997,0.213997,-1.903670,1.799359,-0.047107,-1.7421,27.8712,-1.1045
0.3017,0.016740,-0.200477,0.200477,-1.903670,1.799359,-0.047107,-1.7421,27.8712,-1.1045
0.3184,0.016746,-0.186790,0.186790,-1.903670,1.799359,-0.047117,-1.7657,27.8084,-1.0739
0.3352,0.016749,-0.173025,0.173025,-1.903670,1.799359,-0.047116,-1.7633,27.8150,-1.0771
0.3519,0.016750,-0.159268,0.159268,-1.903670,1.799359,-0.047116,-1.7633,27.8150,-1.0771
0.3687,0.016763,-0.145596,0.145596,-1.903670,1.799359,-0.047116,-1.7633,27.8150,-1.0771
0.3854,0.016746,-0.132118,0.132118,-1.903670,1.799359,-0.047116,-1.7633,27.8150,-1.0771
0.4022,0.016756,-0.118895,0.118895,-1.903670,1.799359,-0.047116,-1.7633,27.8150,-1.0771
0.4189,0.016743,-0.106030,0.106030,-1.903670,1.799359,-0.047116,-1.7633,27.8150,-1.0771
0.4357,0.016750,-0.093586,0.093586,-1.903670,1.799359,-0.047116,-1.7633,27.8150,-1.0771
0.4524,0.016744,-0.081650,0.081650,-1.903670,1.799359,-0.047116,-1.7633,27.8150,-1.0771
0.4692,0.016752,-0.070286,0.070286,-1.903670,1.799359,-0.047116,-1.7633,27.8150,-1.0771
0.4859,0.016774,-0.059559,0.059559,-1.903670,1.799359,-0.047116,-1.7633,27.8150,-1.0771
0.5027,0.016758,-0.049558,0.049558,-1.903670,1.799359,-0.047116,-1.7633,27.8150,-1.0771
0.5194,0.016743,-0.040344,0.040344,-1.903670,1.799359,-0.047116,-1.7633,27.8150,-1.0771
0.5362,0.016753,-0.031961,0.031961,-1.903670,1.799359,-0.047116,-1.7633,27.8150,-1.0771
0.5529,0.016746,-0.024468,0.024468,-1.903670,1.799359,-0.047107,-1.7421,27.8712,-1.1045
0.5697,0.016760,-0.017905,0.017905,-1.903670,1.799359,-0.047108,-1.7443,27.8653,-1.1017
0.5865,0.016750,-0.012321,0.012321,-1.903670,1.799359,-0.047117,-1.7655,27.8091,-1.0742
0.6032,0.016758,-0.007745,0.007745,-1.903670,1.799359,-0.047117,-1.7655,27.8091,-1.0742
0.6200,0.016742,-0.004212,0.004212,-1.903670,1.799359,-0.047116,-1.7633,27.8149,-1.0771
0.6367,0.016746,-0.001737,0.001737,-1.903670,1.799359,-0.047116,-1.7633,27.8149,-1.0771
0.6535,0.016755,-0.000338,0.000338,-1.903670,1.799359,-0.047116,-1.7633,27.8149,-1.0771
0.6702,0.016746,-0.000024,0.000024,-1.903670,1.799359,-0.047116,-1.7633,27.8149,-1.0771
0.6870,0.016770,-0.000798,0.000798,-1.903670,1.799359,-0.047116,-1.7633,27.8149,-1.0771
0.7037,0.016745,-0.002653,0.002653,-1.903670,1.799359,-0.047116,-1.7633,27.8149,-1.0771
0.7205,0.016745,-0.005578,0.005578,-1.903670,1.799359,-0.047116,-1.7633,27.8149,-1.0771
0.7372,0.016745,-0.009554,0.009554,-1.903670,1.799359,-0.047116,-1.7633,27.8149,-1.0771
0.7540,0.016748,-0.014557,0.014557,-1.903670,1.799359,-0.047116,-1.7633,27.8149,-1.0771
0.7707,0.016748,-0.020557,0.020557,-1.903670,1.799359,-0.047116,-1.7633,27.8149,-1.0771
0.7874,0.016744,-0.027514,0.027514,-1.903670,1.799359,-0.047116,-1.7633,27.8149,-1.0771
0.8042,0.016746,-0.035386,0.035386,-1.903670,1.799359,-0.047116,-1.7633,27.8149,-1.0771
0.8209,0.016745,-0.044124,0.044124,-1.903670,1.799359,-0.047116,-1.7633,27.8149,-1.0771
0.8377,0.016745,-0.053673,0.053673,-1.903670,1.799359,-0.047116,-1.7633,27.8149,-1.0771
0.8544,0.016746,-0.063975,0.063975,-1.903670,1.799359,-0.047107,-1.7421,27.8712,-1.1045
0.8712,0.016751,-0.074969,0.074969,-1.903670,1.799359,-0.047117,-1.7657,27.8084,-1.0739
0.8879,0.016748,-0.086581,0.086581,-1.903670,1.799359,-0.047117,-1.7657,27.8084,-1.0739
0.9047,0.016749,-0.098741,0.098741,-1.903670,1.799359,-0.047116,-1.7633,27.8150,-1.0771
0.9214,0.016744,-0.111369,0.111369,-1.903670,1.799359,-0.047116,-1.7633,27.8150,-1.0771
0.9382,0.016744,-0.124390,0.124390,-1.903670,1.799359,-0.047116,-1.7633,27.8150,-1.0771
0.9549,0.016745,-0.137724,0.137724,-1.903670,1.799359,-0.047116,-1.7633,27.8150,-1.0771
0.9717,0.016755,-0.151295,0.151295,-1.903670,1.799359,-0.047116,-1.7633,27.8150,-1.0771
0.9884,0.016745,-0.165003,0.165003,-1.903670,1.799359,-0.047116,-1.7633,27.8150,-1.0771
1.0052,0.016745,-0.178770,0.178770,-1.903670,1.799359,-0.047116,-1.7633,27.8150,-1.0771
1.0219,0.016742,-0.192508,0.192508,-1.903670,1.799359,-0.047116,-1.7633,27.8150,-1.0771
1.0386,0.016742,-0.206135,0.206135,-1.903670,1.799359,-0.047116,-1.7633,27.8150,-1.0771
1.0554,0.016742,-0.219565,0.219565,-1.903670,1.799359,-0.047107,-1.7421,27.8712,-1.1045
1.0721,0.016755,-0.232725,0.232725,-1.903670,1.799359,-0.047117,-1.7657,27.8084,-1.0739
1.0889,0.016748,-0.245517,0.245517,-1.903670,1.799359,-0.047117,-1.7657,27.8084,-1.0739
1.1056,0.016756,-0.257873,0.257873,-1.903670,1.799359,-0.047116,-1.7633,27.8150,-1.0771
1.1224,0.016746,-0.269702,0.269702,-1.903670,1.799359,-0.047116,-1.7633,27.8150,-1.0771
1.1391,0.016756,-0.280946,0.280946,-1.903670,1.799359,-0.047116,-1.7633,27.8150,-1.0771
1.1559,0.016751,-0.291524,0.291524,-1.903670,1.799359,-0.047116,-1.7633,27.8150,-1.0771
1.1727,0.016761,-0.301378,0.301378,-1.903670,1.799359,-0.047107,-1.7421,27.8712,-1.1045
1.1894,0.016747,-0.310435,0.310435,-1.903670,1.799359,-0.047107,-1.7421,27.8712,-1.1045
1.2062,0.016754,-0.318648,0.318648,-1.903670,1.799359,-0.047117,-1.7657,27.8084,-1.0739
1.2229,0.016745,-0.325960,0.325960,-1.903670,1.799359,-0.047116,-1.7633,27.8150,-1.0771
1.2397,0.016760,-0.332335,0.332335,-1.903670,1.799359,-0.047116,-1.7633,27.8150,-1.0771
1.2564,0.016750,-0.337724,0.337724,-1.903670,1.799359,-0.047116,-1.7633,27.8150,-1.0771
1.2732,0.016764,-0.342099,0.342099,-1.903670,1.799359,-0.047116,-1.7633,27.8150,-1.0771
1.2899,0.016767,-0.345429,0.345429,-1.903670,1.799359,-0.047116,-1.7633,27.8150,-1.0771
1.3067,0.016750,-0.347692,0.347692,-1.903670,1.799359,-0.047116,-1.7633,27.8150,-1.0771
1.3234,0.016740,-0.348876,0.348876,-1.903670,1.799359,-0.047116,-1.7633,27.8150,-1.0771
1.3402,0.016780,-0.348974,0.348974,-1.903670,1.799359,-0.047107,-1.7421,27.8712,-1.1045
1.3570,0.016747,-0.347986,0.347986,-1.903670,1.799359,-0.047117,-1.7657,27.8084,-1.0739
1.3738,0.016795,-0.345910,0.345910,-1.903670,1.799359,-0.047117,-1.7657,27.8084,-1.0739
1.3905,0.016744,-0.342772,0.342772,-1.903670,1.799359,-0.047107,-1.7419,27.8719,-1.1049
1.4073,0.016763,-0.338582,0.338582,-1.903670,1.799359,-0.047117,-1.7658,27.8084,-1.0739
1.4240,0.016747,-0.333375,0.333375,-1.903670,1.799359,-0.047107,-1.7419,27.8719,-1.1049
1.4408,0.016762,-0.327173,0.327173,-1.903670,1.799359,-0.047117,-1.7658,27.8084,-1.0739
1.4575,0.016743,-0.320027,0.320027,-1.903670,1.799359,-0.047107,-1.7419,27.8719,-1.1049
1.4743,0.016769,-0.311963,0.311963,-1.903670,1.799359,-0.047107,-1.7419,27.8719,-1.1049
1.4910,0.016750,-0.303052,0.303052,-1.903670,1.799359,-0.047117,-1.7658,27.8084,-1.0739
1.5078,0.016749,-0.293341,0.293341,-1.903670,1.799359,-0.047116,-1.7633,27.8150,-1.0771
1.5245,0.016742,-0.282895,0.282895,-1.903670,1.799359,-0.047116,-1.7633,27.8150,-1.0771
1.5413,0.016760,-0.271763,0.271763,-1.903670,1.799359,-0.047116,-1.7633,27.8150,-1.0771
1.5580,0.016745,-0.260035,0.260035,-1.903670,1.799359,-0.047116,-1.7633,27.8150,-1.0771
1.5748,0.016763,-0.247761,0.247761,-1.903670,1.799359,-0.047116,-1.7633,27.8150,-1.0771
1.5915,0.016743,-0.235046,0.235046,-1.903670,1.799359,-0.047107,-1.7421,27.8712,-1.1045
1.6083,0.016751,-0.221948,0.221948,-1.903670,1.799359,-0.047117,-1.7657,27.8084,-1.0739
1.6250,0.016744,-0.208561,0.208561,-1.903670,1.799359,-0.047116,-1.7633,27.8150,-1.0771
1.6418,0.016753,-0.194955,0.194955,-1.903670,1.799359,-0.047116,-1.7633,27.8150,-1.0771
1.6585,0.016711,-0.181256,0.181256,-1.903670,1.799359,-0.047107,-1.7421,27.8712,-1.1045
1.6753,0.016761,-0.167473,0.167473,-1.903670,1.799359,-0.047107,-1.7421,27.8712,-1.1045
1.6920,0.016751,-0.153744,0.153744,-1.903670,1.799359,-0.047117,-1.7657,27.8084,-1.0739
1.7087,0.016747,-0.140147,0.140147,-1.903670,1.799359,-0.047116,-1.7633,27.8150,-1.0771
1.7255,0.016748,-0.126763,0.126763,-1.903670,1.799359,-0.047116,-1.7633,27.8150,-1.0771
1.7423,0.016752,-0.113674,0.113674,-1.903670,1.799359,-0.047116,-1.7633,27.8150,-1.0771
1.7590,0.016744,-0.100969,0.100969,-1.903670,1.799359,-0.047116,-1.7633,27.8150,-1.0771
1.7758,0.016763,-0.088709,0.088709,-1.903670,1.799359,-0.047116,-1.7633,27.8150,-1.0771
1.7925,0.016743,-0.076998,0.076998,-1.903670,1.799359,-0.047116,-1.7633,27.8150,-1.0771
1.8093,0.016771,-0.065875,0.065875,-1.903670,1.799359,-0.047116,-1.7633,27.8150,-1.0771
1.8260,0.016748,-0.055445,0.055445,-1.903670,1.799359,-0.047102,-1.8042,27.7846,-1.0661
1.8428,0.016768,-0.045745,0.045745,-1.903670,1.799359,-0.047117,-1.7593,27.8174,-1.0779
1.8595,0.016744,-0.036861,0.036861,-1.903670,1.799359,-0.047107,-1.7426,27.8709,-1.1044
1.8763,0.016763,-0.028825,0.028825,-1.903670,1.799359,-0.047107,-1.7426,27.8709,-1.1044
1.8930,0.016743,-0.021706,0.021706,-1.903670,1.799359,-0.047117,-1.7657,27.8085,-1.0739
1.9098,0.016752,-0.015534,0.015534,-1.903670,1.799359,-0.047107,-1.7419,27.8719,-1.1049
1.9265,0.016750,-0.010353,0.010353,-1.903670,1.799359,-0.047117,-1.7658,27.8084,-1.0739
1.9433,0.016732,-0.006199,0.006199,-1.903670,1.799359,-0.047116,-1.7633,27.8150,-1.0771
1.9600,0.016753,-0.003088,0.003088,-1.903670,1.799359,-0.047116,-1.7633,27.8150,-1.0771
1.9768,0.016762,-0.001043,0.001043,-1.903670,1.799359,-0.047116,-1.7633,27.8150,-1.0771
1.9935,0.016745,-0.000081,0.000081,-1.903670,1.799359,-0.047116,-1.7633,27.8150,-1.0771
2.0103,0.016753,-0.000205,0.000205,-1.903670,1.799359,-0.047116,-1.7633,27.8150,-1.0771
2.0270,0.016748,-0.001414,0.001414,-1.903670,1.799359,-0.047116,-1.7633,27.8150,-1.0771
2.0438,0.016755,-0.003703,0.003703,-1.903670,1.799359,-0.047116,-1.7633,27.8150,-1.0771
2.0606,0.016795,-0.007064,0.007064,-1.903670,1.799359,-0.047116,-1.7633,27.8150,-1.0771
2.0773,0.016743,-0.011460,0.011460,-1.903670,1.799359,-0.047116,-1.7633,27.8150,-1.0771
2.0941,0.016744,-0.016870,0.016870,-1.903670,1.799359,-0.047116,-1.7633,27.8150,-1.0771
2.1108,0.016743,-0.023261,0.023261,-1.903670,1.799359,-0.047116,-1.7633,27.8150,-1.0771
2.1276,0.016831,-0.030634,0.030634,-1.903670,1.799359,-0.047116,-1.7633,27.8150,-1.0771
2.1444,0.016760,-0.038875,0.038875,-1.903670,1.799359,-0.047107,-1.7421,27.8712,-1.1045
2.1612,0.016754,-0.047958,0.047958,-1.903670,1.799359,-0.047108,-1.7443,27.8653,-1.1017
2.1779,0.016760,-0.057833,0.057833,-1.903670,1.799359,-0.047108,-1.7443,27.8653,-1.1017
2.1947,0.016751,-0.068431,0.068431,-1.903670,1.799359,-0.047117,-1.7655,27.8091,-1.0742
2.2114,0.016749,-0.079687,0.079687,-1.903670,1.799359,-0.047116,-1.7633,27.8149,-1.0771
2.2282,0.016745,-0.091531,0.091531,-1.903670,1.799359,-0.047107,-1.7421,27.8712,-1.1045
2.2449,0.016742,-0.103890,0.103890,-1.903670,1.799359,-0.047117,-1.7657,27.8084,-1.0739
2.2617,0.016834,-0.116760,0.116760,-1.903670,1.799359,-0.047116,-1.7633,27.8150,-1.0771
2.2785,0.016751,-0.129926,0.129926,-1.903670,1.799359,-0.047116,-1.7633,27.8150,-1.0771
2.2952,0.016745,-0.143367,0.143367,-1.903670,1.799359,-0.047116,-1.7633,27.8150,-1.0771
2.3120,0.016744,-0.157000,0.157000,-1.903670,1.799359,-0.047116,-1.7633,27.8150,-1.0771
2.3287,0.016753,-0.170749,0.170749,-1.903670,1.799359,-0.047116,-1.7633,27.8150,-1.0771
2.3455,0.016756,-0.184524,0.184524,-1.903670,1.799359,-0.047116,-1.7633,27.8150,-1.0771
2.3624,0.016886,-0.198343,0.198343,-1.903670,1.799359,-0.047116,-1.7633,27.8150,-1.0771
2.3791,0.016756,-0.211907,0.211907,-1.903670,1.799359,-0.047116,-1.7633,27.8150,-1.0771
2.3959,0.016743,-0.225228,0.225228,-1.903670,1.799359,-0.047116,-1.7633,27.8150,-1.0771
2.4126,0.016745,-0.238235,0.238235,-1.903670,1.799359,-0.047116,-1.7633,27.8150,-1.0771
2.4294,0.016749,-0.250848,0.250848,-1.903670,1.799359,-0.047116,-1.7633,27.8150,-1.0771
2.4461,0.016749,-0.262986,0.262986,-1.903670,1.799359,-0.047116,-1.7633,27.8150,-1.0771
2.4634,0.017284,-0.274934,0.274934,-1.903670,1.799359,-0.047116,-1.7633,27.8150,-1.0771
2.4801,0.016745,-0.285875,0.285875,-1.903670,1.799359,-0.047116,-1.7633,27.8150,-1.0771
2.4969,0.016748,-0.296125,0.296125,-1.903670,1.799359,-0.047116,-1.7633,27.8150,-1.0771
2.5136,0.016747,-0.305618,0.305618,-1.903670,1.799359,-0.047116,-1.7633,27.8150,-1.0771
2.5304,0.016742,-0.314291,0.314291,-1.903670,1.799359,-0.047116,-1.7633,27.8150,-1.0771
2.5471,0.016745,-0.322097,0.322097,-1.903670,1.799359,-0.047116,-1.7633,27.8150,-1.0771
2.5640,0.016845,-0.329023,0.329023,-1.903670,1.799359,-0.047116,-1.7633,27.8150,-1.0771
2.5807,0.016744,-0.334943,0.334943,-1.903670,1.799359,-0.047116,-1.7633,27.8150,-1.0771
2.5975,0.016746,-0.339866,0.339866,-1.903670,1.799359,-0.047107,-1.7421,27.8712,-1.1045
2.6142,0.016742,-0.343759,0.343759,-1.903670,1.799359,-0.047117,-1.7657,27.8084,-1.0739
2.6311,0.016866,-0.346616,0.346616,-1.903670,1.799359,-0.047107,-1.7419,27.8719,-1.1049
2.6478,0.016744,-0.348377,0.348377,-1.903670,1.799359,-0.047117,-1.7658,27.8084,-1.0739
2.6646,0.016756,-0.349057,0.349057,-1.903670,1.799359,-0.047117,-1.7658,27.8084,-1.0739
2.6813,0.016741,-0.348651,0.348651,-1.903670,1.799359,-0.047116,-1.7633,27.8150,-1.0771
2.6981,0.016742,-0.347161,0.347161,-1.903670,1.799359,-0.047107,-1.7421,27.8712,-1.1045
2.7148,0.016748,-0.344596,0.344596,-1.903670,1.799359,-0.047117,-1.7657,27.8084,-1.0739
2.7316,0.016835,-0.340950,0.340950,-1.903670,1.799359,-0.047116,-1.7633,27.8150,-1.0771
2.7484,0.016743,-0.336287,0.336287,-1.903670,1.799359,-0.047116,-1.7633,27.8150,-1.0771
2.7651,0.016749,-0.330614,0.330614,-1.903670,1.799359,-0.047116,-1.7633,27.8150,-1.0771
2.7819,0.016741,-0.323974,0.323974,-1.903670,1.799359,-0.047116,-1.7633,27.8150,-1.0771
2.7986,0.016740,-0.316404,0.316404,-1.903670,1.799359,-0.047116,-1.7633,27.8150,-1.0771
2.8153,0.016743,-0.307950,0.307950,-1.903670,1.799359,-0.047116,-1.7633,27.8150,-1.0771
2.8324,0.017077,-0.298473,0.298473,-1.903670,1.799359,-0.047116,-1.7633,27.8150,-1.0771
2.8492,0.016740,-0.288404,0.288404,-1.903670,1.799359,-0.047116,-1.7633,27.8150,-1.0771
2.8660,0.016786,-0.277595,0.277595,-1.903670,1.799359,-0.047116,-1.7633,27.8150,-1.0771
2.8827,0.016746,-0.266171,0.266171,-1.903670,1.799359,-0.047116,-1.7633,27.8150,-1.0771
2.8994,0.016739,-0.254181,0.254181,-1.903670,1.799359,-0.047116,-1.7633,27.8150,-1.0771
2.9162,0.016738,-0.241697,0.241697,-1.903670,1.799359,-0.047116,-1.7633,27.8150,-1.0771
2.9329,0.016749,-0.228786,0.228786,-1.903670,1.799359,-0.047116,-1.7633,27.8150,-1.0771
2.9497,0.016752,-0.215535,0.215535,-1.903670,1.799359,-0.047116,-1.7633,27.8150,-1.0771
2.9664,0.016754,-0.202027,0.202027,-1.903670,1.799359,-0.047116,-1.7633,27.8150,-1.0771
2.9832,0.016745,-0.188356,0.188356,-1.903670,1.799359,-0.047116,-1.7633,27.8150,-1.0771
3.0004,0.017271,-0.174166,0.174166,-1.903670,1.799359,-0.047116,-1.7633,27.8150,-1.0771
3.0172,0.016758,-0.160399,0.160399,-1.903670,1.799359,-0.047116,-1.7633,27.8150,-1.0771
3.0340,0.016793,-0.146691,0.146691,-1.903670,1.799359,-0.047116,-1.7633,27.8150,-1.0771
3.0507,0.016744,-0.133197,0.133197,-1.903670,1.799359,-0.047107,-1.7421,27.8712,-1.1045
3.0676,0.016836,-0.119888,0.119888,-1.903670,1.799359,-0.047107,-1.7421,27.8712,-1.1045
3.0843,0.016747,-0.106990,0.106990,-1.903670,1.799359,-0.047117,-1.7657,27.8084,-1.0739
3.1013,0.016944,-0.094369,0.094369,-1.903670,1.799359,-0.047116,-1.7633,27.8150,-1.0771
3.1180,0.016745,-0.082397,0.082397,-1.903670,1.799359,-0.047116,-1.7633,27.8150,-1.0771
3.1348,0.016757,-0.070991,0.070991,-1.903670,1.799359,-0.047116,-1.7633,27.8150,-1.0771
3.1515,0.016744,-0.060239,0.060239,-1.903670,1.799359,-0.047116,-1.7633,27.8150,-1.0771
3.1683,0.016806,-0.050162,0.050162,-1.903670,1.799359,-0.047116,-1.7633,27.8150,-1.0771
3.1851,0.016748,-0.040895,0.040895,-1.903670,1.799359,-0.047116,-1.7633,27.8150,-1.0771
3.2018,0.016754,-0.032457,0.032457,-1.903670,1.799359,-0.047116,-1.7633,27.8150,-1.0771
3.2186,0.016743,-0.024909,0.024909,-1.903670,1.799359,-0.047116,-1.7633,27.8150,-1.0771
3.2353,0.016759,-0.018286,0.018286,-1.903670,1.799359,-0.047116,-1.7633,27.8150,-1.0771
3.2521,0.016745,-0.012642,0.012642,-1.903670,1.799359,-0.047116,-1.7633,27.8150,-1.0771
3.2688,0.016751,-0.008003,0.008003,-1.903670,1.799359,-0.047116,-1.7633,27.8150,-1.0771
3.2856,0.016747,-0.004403,0.004403,-1.903670,1.799359,-0.047116,-1.7633,27.8150,-1.0771
3.3023,0.016753,-0.001860,0.001860,-1.903670,1.799359,-0.047116,-1.7633,27.8150,-1.0771
3.3191,0.016748,-0.000394,0.000394,-1.903670,1.799359,-0.047107,-1.7421,27.8712,-1.1045
3.3362,0.017118,-0.000016,0.000016,-1.903670,1.799359,-0.047117,-1.7657,27.8084,-1.0739
3.3529,0.016745,-0.000744,0.000744,-1.903670,1.799359,-0.047116,-1.7633,27.8150,-1.0771
3.3697,0.016751,-0.002554,0.002554,-1.903670,1.799359,-0.047116,-1.7633,27.8150,-1.0771
3.3864,0.016744,-0.005435,0.005435,-1.903670,1.799359,-0.047116,-1.7633,27.8150,-1.0771
3.4032,0.016752,-0.009369,0.009369,-1.903670,1.799359,-0.047116,-1.7633,27.8150,-1.0771
3.4199,0.016747,-0.014331,0.014331,-1.903670,1.799359,-0.047116,-1.7633,27.8150,-1.0771
3.4367,0.016750,-0.020291,0.020291,-1.903670,1.799359,-0.047116,-1.7633,27.8150,-1.0771
3.4534,0.016738,-0.027206,0.027206,-1.903670,1.799359,-0.047116,-1.7633,27.8150,-1.0771
3.4702,0.016766,-0.035051,0.035051,-1.903670,1.799359,-0.047116,-1.7633,27.8150,-1.0771
3.4869,0.016749,-0.043758,0.043758,-1.903670,1.799359,-0.047116,-1.7633,27.8150,-1.0771
3.5037,0.016752,-0.053280,0.053280,-1.903670,1.799359,-0.047116,-1.7633,27.8150,-1.0771
3.5204,0.016751,-0.063557,0.063557,-1.903670,1.799359,-0.047116,-1.7633,27.8150,-1.0771
3.5373,0.016832,-0.074579,0.074579,-1.903670,1.799359,-0.047107,-1.7421,27.8712,-1.1045
3.5540,0.016745,-0.086169,0.086169,-1.903670,1.799359,-0.047117,-1.7657,27.8084,-1.0739
3.5708,0.016751,-0.098312,0.098312,-1.903670,1.799359,-0.047117,-1.7657,27.8084,-1.0739
3.5875,0.016750,-0.110930,0.110930,-1.903670,1.799359,-0.047116,-1.7633,27.8150,-1.0771
3.6043,0.016752,-0.123945,0.123945,-1.903670,1.799359,-0.047116,-1.7633,27.8150,-1.0771
3.6210,0.016740,-0.137266,0.137266,-1.903670,1.799359,-0.047116,-1.7633,27.8150,-1.0771
3.6378,0.016748,-0.150825,0.150825,-1.903670,1.799359,-0.047116,-1.7633,27.8150,-1.0771
3.6545,0.016747,-0.164531,0.164531,-1.903670,1.799359,-0.047116,-1.7633,27.8150,-1.0771
3.6713,0.016761,-0.178310,0.178310,-1.903670,1.799359,-0.047116,-1.7633,27.8150,-1.0771
3.6880,0.016744,-0.192053,0.192053,-1.903670,1.799359,-0.047116,-1.7633,27.8150,-1.0771
3.7048,0.016748,-0.205689,0.205689,-1.903670,1.799359,-0.047116,-1.7633,27.8150,-1.0771
3.7215,0.016744,-0.219128,0.219128,-1.903670,1.799359,-0.047107,-1.7421,27.8712,-1.1045
3.7382,0.016747,-0.232292,0.232292,-1.903670,1.799359,-0.047108,-1.7443,27.8653,-1.1017
3.7550,0.016742,-0.245092,0.245092,-1.903670,1.799359,-0.047117,-1.7655,27.8091,-1.0742
3.7717,0.016762,-0.257469,0.257469,-1.903670,1.799359,-0.047117,-1.7655,27.8091,-1.0742
3.7885,0.016745,-0.269316,0.269316,-1.903670,1.799359,-0.047116,-1.7633,27.8149,-1.0771
3.8052,0.016744,-0.280573,0.280573,-1.903670,1.799359,-0.047116,-1.7633,27.8149,-1.0771
3.8220,0.016741,-0.291168,0.291168,-1.903670,1.799359,-0.047116,-1.7633,27.8149,-1.0771
3.8387,0.016748,-0.301041,0.301041,-1.903670,1.799359,-0.047116,-1.7633,27.8149,-1.0771
3.8555,0.016743,-0.310125,0.310125,-1.903670,1.799359,-0.047116,-1.7633,27.8149,-1.0771
3.8722,0.016756,-0.318371,0.318371,-1.903670,1.799359,-0.047116,-1.7633,27.8149,-1.0771
3.8890,0.016745,-0.325715,0.325715,-1.903670,1.799359,-0.047116,-1.7633,27.8149,-1.0771
3.9057,0.016759,-0.332124,0.332124,-1.903670,1.799359,-0.047116,-1.7633,27.8149,-1.0771
3.9225,0.016743,-0.337546,0.337546,-1.903670,1.799359,-0.047116,-1.7633,27.8149,-1.0771
3.9392,0.016754,-0.341956,0.341956,-1.903670,1.799359,-0.047116,-1.7633,27.8149,-1.0771
3.9560,0.016747,-0.345322,0.345322,-1.903670,1.799359,-0.047116,-1.7633,27.8149,-1.0771
3.9727,0.016756,-0.347626,0.347626,-1.903670,1.799359,-0.047116,-1.7633,27.8149,-1.0771
3.9895,0.016746,-0.348851,0.348851,-1.903670,1.799359,-0.047107,-1.7421,27.8712,-1.1045
4.0062,0.016744,-0.348991,0.348991,-1.903670,1.799359,-0.047117,-1.7657,27.8084,-1.0739
4.0230,0.016742,-0.348045,0.348045,-1.903670,1.799359,-0.047116,-1.7633,27.8150,-1.0771
4.0397,0.016752,-0.346019,0.346019,-1.903670,1.799359,-0.047107,-1.7421,27.8712,-1.1045
4.0565,0.016762,-0.342922,0.342922,-1.903670,1.799359,-0.047107,-1.7421,27.8712,-1.1045
4.0732,0.016760,-0.338776,0.338776,-1.903670,1.799359,-0.047117,-1.7657,27.8084,-1.0739
4.0900,0.016745,-0.333611,0.333611,-1.903670,1.799359,-0.047107,-1.7419,27.8719,-1.1049
4.1067,0.016751,-0.327453,0.327453,-1.903670,1.799359,-0.047117,-1.7658,27.8084,-1.0739
4.1235,0.016744,-0.320346,0.320346,-1.903670,1.799359,-0.047107,-1.7419,27.8719,-1.1049
4.1402,0.016751,-0.312329,0.312329,-1.903670,1.799359,-0.047117,-1.7658,27.8084,-1.0739
4.1571,0.016865,-0.303390,0.303390,-1.903670,1.799359,-0.047116,-1.7633,27.8150,-1.0771
4.1738,0.016763,-0.293699,0.293699,-1.903670,1.799359,-0.047116,-1.7633,27.8150,-1.0771
4.1906,0.016747,-0.283275,0.283275,-1.903670,1.799359,-0.047116,-1.7633,27.8150,-1.0771
4.2074,0.016754,-0.272169,0.272169,-1.903670,1.799359,-0.047116,-1.7633,27.8150,-1.0771
4.2241,0.016746,-0.260461,0.260461,-1.903670,1.799359,-0.047107,-1.7421,27.8712,-1.1045
4.2409,0.016756,-0.248210,0.248210,-1.903670,1.799359,-0.047108,-1.7443,27.8653,-1.1017
4.2577,0.016829,-0.235444,0.235444,-1.903670,1.799359,-0.047108,-1.7443,27.8653,-1.1017
4.2744,0.016762,-0.222348,0.222348,-1.903670,1.799359,-0.047108,-1.7443,27.8653,-1.1017
4.2912,0.016756,-0.208959,0.208959,-1.903670,1.799359,-0.047117,-1.7655,27.8091,-1.0742
4.3080,0.016752,-0.195358,0.195358,-1.903670,1.799359,-0.047116,-1.7633,27.8149,-1.0771
4.3247,0.016747,-0.181632,0.181632,-1.903670,1.799359,-0.047116,-1.7633,27.8149,-1.0771
4.3415,0.016755,-0.167855,0.167855,-1.903670,1.799359,-0.047116,-1.7633,27.8149,-1.0771
4.3582,0.016751,-0.154123,0.154123,-1.903670,1.799359,-0.047116,-1.7633,27.8149,-1.0771
4.3750,0.016756,-0.140515,0.140515,-1.903670,1.799359,-0.047107,-1.7421,27.8712,-1.1045
4.3917,0.016746,-0.127126,0.127126,-1.903670,1.799359,-0.047117,-1.7657,27.8084,-1.0739
4.4085,0.016758,-0.114023,0.114023,-1.903670,1.799359,-0.047116,-1.7633,27.8150,-1.0771
4.4252,0.016750,-0.101302,0.101302,-1.903670,1.799359,-0.047116,-1.7633,27.8150,-1.0771
4.4420,0.016753,-0.089036,0.089036,-1.903670,1.799359,-0.047116,-1.7633,27.8150,-1.0771
4.4587,0.016751,-0.077304,0.077304,-1.903670,1.799359,-0.047116,-1.7633,27.8150,-1.0771
4.4755,0.016749,-0.066178,0.066178,-1.903670,1.799359,-0.047116,-1.7633,27.8150,-1.0771
4.4922,0.016750,-0.055727,0.055727,-1.903670,1.799359,-0.047116,-1.7633,27.8150,-1.0771
4.5090,0.016755,-0.046013,0.046013,-1.903670,1.799359,-0.047116,-1.7633,27.8150,-1.0771
4.5257,0.016752,-0.037101,0.037101,-1.903670,1.799359,-0.047107,-1.7421,27.8712,-1.1045
4.5425,0.016760,-0.029041,0.029041,-1.903670,1.799359,-0.047117,-1.7657,27.8084,-1.0739
4.5592,0.016751,-0.021892,0.021892,-1.903670,1.799359,-0.047117,-1.7657,27.8084,-1.0739
4.5760,0.016756,-0.015692,0.015692,-1.903670,1.799359,-0.047116,-1.7633,27.8150,-1.0771
4.5927,0.016750,-0.010483,0.010483,-1.903670,1.799359,-0.047116,-1.7633,27.8150,-1.0771
4.6095,0.016754,-0.006296,0.006296,-1.903670,1.799359,-0.047116,-1.7633,27.8150,-1.0771
4.6262,0.016751,-0.003156,0.003156,-1.903670,1.799359,-0.047116,-1.7633,27.8150,-1.0771
4.6430,0.016767,-0.001083,0.001083,-1.903670,1.799359,-0.047116,-1.7633,27.8150,-1.0771
4.6598,0.016748,-0.000092,0.000092,-1.903670,1.799359,-0.047116,-1.7633,27.8150,-1.0771
4.6765,0.016756,-0.000188,0.000188,-1.903670,1.799359,-0.047107,-1.7421,27.8712,-1.1045
4.6933,0.016753,-0.001370,0.001370,-1.903670,1.799359,-0.047117,-1.7657,27.8084,-1.0739
4.7100,0.016752,-0.003630,0.003630,-1.903670,1.799359,-0.047116,-1.7633,27.8150,-1.0771
4.7268,0.016753,-0.006955,0.006955,-1.903670,1.799359,-0.047116,-1.7633,27.8150,-1.0771
4.7438,0.017036,-0.011407,0.011407,-1.903670,1.799359,-0.047116,-1.7633,27.8150,-1.0771
4.7606,0.016751,-0.016809,0.016809,-1.903670,1.799359,-0.047116,-1.7633,27.8150,-1.0771
4.7773,0.016747,-0.023191,0.023191,-1.903670,1.799359,-0.047116,-1.7633,27.8150,-1.0771
4.7941,0.016748,-0.030516,0.030516,-1.903670,1.799359,-0.047116,-1.7633,27.8150,-1.0771
4.8108,0.016749,-0.038739,0.038739,-1.903670,1.799359,-0.047107,-1.7421,27.8712,-1.1045
4.8276,0.016765,-0.047815,0.047815,-1.903670,1.799359,-0.047117,-1.7657,27.8084,-1.0739
4.8443,0.016770,-0.057686,0.057686,-1.903670,1.799359,-0.047116,-1.7633,27.8150,-1.0771
4.8611,0.016769,-0.068285,0.068285,-1.903670,1.799359,-0.047116,-1.7633,27.8150,-1.0771
4.8779,0.016760,-0.079541,0.079541,-1.903670,1.799359,-0.047116,-1.7633,27.8150,-1.0771
4.8946,0.016751,-0.091382,0.091382,-1.903670,1.799359,-0.047116,-1.7633,27.8150,-1.0771
4.9114,0.016769,-0.103755,0.103755,-1.903670,1.799359,-0.047116,-1.7633,27.8150,-1.0771
4.9281,0.016750,-0.116555,0.116555,-1.903670,1.799359,-0.047116,-1.7633,27.8150,-1.0771
4.9449,0.016770,-0.129732,0.129732,-1.903670,1.799359,-0.047116,-1.7633,27.8150,-1.0771
4.9617,0.016745,-0.143168,0.143168,-1.903670,1.799359,-0.047116,-1.7633,27.8150,-1.0771
4.9784,0.016749,-0.156803,0.156803,-1.903670,1.799359,-0.047116,-1.7633,27.8150,-1.0771
4.9952,0.016752,-0.170551,0.170551,-1.903670,1.799359,-0.047116,-1.7633,27.8150,-1.0771
5.0119,0.016769,-0.184337,0.184337,-1.903670,1.799359,-0.047116,-1.7633,27.8150,-1.0771
5.0287,0.016760,-0.198055,0.198055,-1.903670,1.799359,-0.047116,-1.7633,27.8150,-1.0771
5.0455,0.016787,-0.211648,0.211648,-1.903670,1.799359,-0.047116,-1.7633,27.8150,-1.0771
5.0622,0.016755,-0.224983,0.224983,-1.903670,1.799359,-0.047116,-1.7633,27.8150,-1.0771
5.0790,0.016757,-0.238006,0.238006,-1.903670,1.799359,-0.047116,-1.7633,27.8150,-1.0771
5.0957,0.016750,-0.250628,0.250628,-1.903670,1.799359,-0.047116,-1.7633,27.8150,-1.0771
5.1125,0.016766,-0.262788,0.262788,-1.903670,1.799359,-0.047116,-1.7633,27.8150,-1.0771
5.1293,0.016753,-0.274388,0.274388,-1.903670,1.799359,-0.047116,-1.7633,27.8150,-1.0771
5.1460,0.016770,-0.285377,0.285377,-1.903670,1.799359,-0.047116,-1.7633,27.8150,-1.0771
5.1628,0.016749,-0.295662,0.295662,-1.903670,1.799359,-0.047116,-1.7633,27.8150,-1.0771
5.1795,0.016759,-0.305198,0.305198,-1.903670,1.799359,-0.047107,-1.7421,27.8712,-1.1045
5.1963,0.016748,-0.313913,0.313913,-1.903670,1.799359,-0.047117,-1.7657,27.8084,-1.0739
5.2130,0.016765,-0.321769,0.321769,-1.903670,1.799359,-0.047107,-1.7419,27.8719,-1.1049
5.2298,0.016785,-0.328714,0.328714,-1.903670,1.799359,-0.047108,-1.7444,27.8652,-1.1016
5.2466,0.016772,-0.334690,0.334690,-1.903670,1.799359,-0.047108,-1.7444,27.8652,-1.1016
5.2634,0.016748,-0.339661,0.339661,-1.903670,1.799359,-0.047117,-1.7655,27.8091,-1.0742
5.2801,0.016749,-0.343603,0.343603,-1.903670,1.799359,-0.047116,-1.7633,27.8149,-1.0771
5.2968,0.016748,-0.346493,0.346493,-1.903670,1.799359,-0.047116,-1.7633,27.8149,-1.0771
5.3136,0.016758,-0.348312,0.348312,-1.903670,1.799359,-0.047116,-1.7633,27.8149,-1.0771
5.3304,0.016824,-0.349050,0.349050,-1.903670,1.799359,-0.047116,-1.7633,27.8149,-1.0771
5.3472,0.016767,-0.348693,0.348693,-1.903670,1.799359,-0.047116,-1.7633,27.8149,-1.0771
5.3639,0.016749,-0.347253,0.347253,-1.903670,1.799359,-0.047116,-1.7633,27.8149,-1.0771
5.3807,0.016759,-0.344735,0.344735,-1.903670,1.799359,-0.047116,-1.7633,27.8149,-1.0771
5.3975,0.016766,-0.341154,0.341154,-1.903670,1.799359,-0.047116,-1.7633,27.8149,-1.0771
5.4142,0.016751,-0.336539,0.336539,-1.903670,1.799359,-0.047116,-1.7633,27.8149,-1.0771
5.4312,0.016993,-0.330826,0.330826,-1.903670,1.799359,-0.047116,-1.7633,27.8149,-1.0771
5.4480,0.016763,-0.324209,0.324209,-1.903670,1.799359,-0.047116,-1.7633,27.8149,-1.0771
5.4647,0.016746,-0.316666,0.316666,-1.903670,1.799359,-0.047116,-1.7633,27.8149,-1.0771
5.4815,0.016758,-0.308232,0.308232,-1.903670,1.799359,-0.047116,-1.7633,27.8149,-1.0771
5.4984,0.016919,-0.298873,0.298873,-1.903670,1.799359,-0.047116,-1.7633,27.8149,-1.0771
5.5152,0.016757,-0.288824,0.288824,-1.903670,1.799359,-0.047116,-1.7633,27.8149,-1.0771
5.5320,0.016879,-0.277982,0.277982,-1.903670,1.799359,-0.047116,-1.7633,27.8149,-1.0771
5.5489,0.016851,-0.266505,0.266505,-1.903670,1.799359,-0.047116,-1.7633,27.8149,-1.0771
5.5656,0.016761,-0.254515,0.254515,-1.903670,1.799359,-0.047107,-1.7421,27.8712,-1.1045
5.5824,0.016759,-0.242027,0.242027,-1.903670,1.799359,-0.047117,-1.7657,27.8084,-1.0739
5.5992,0.016759,-0.229118,0.229118,-1.903670,1.799359,-0.047117,-1.7657,27.8084,-1.0739
5.6159,0.016748,-0.215878,0.215878,-1.903670,1.799359,-0.047116,-1.7633,27.8150,-1.0771
5.6327,0.016739,-0.202388,0.202388,-1.903670,1.799359,-0.047116,-1.7633,27.8150,-1.0771
5.6494,0.016760,-0.188707,0.188707,-1.903670,1.799359,-0.047116,-1.7633,27.8150,-1.0771
5.6662,0.016767,-0.174932,0.174932,-1.903670,1.799359,-0.047107,-1.7421,27.8712,-1.1045
5.6829,0.016763,-0.161158,0.161158,-1.903670,1.799359,-0.047117,-1.7657,27.8084,-1.0739
5.6997,0.016761,-0.147469,0.147469,-1.903670,1.799359,-0.047117,-1.7657,27.8084,-1.0739
5.7165,0.016763,-0.133947,0.133947,-1.903670,1.799359,-0.047116,-1.7633,27.8150,-1.0771
5.7332,0.016754,-0.120686,0.120686,-1.903670,1.799359,-0.047116,-1.7633,27.8150,-1.0771
5.7500,0.016750,-0.107763,0.107763,-1.903670,1.799359,-0.047107,-1.7421,27.8712,-1.1045
5.7667,0.016754,-0.095253,0.095253,-1.903670,1.799359,-0.047117,-1.7657,27.8084,-1.0739
5.7835,0.016783,-0.083216,0.083216,-1.903670,1.799359,-0.047117,-1.7657,27.8084,-1.0739
5.8004,0.016889,-0.071680,0.071680,-1.903670,1.799359,-0.047116,-1.7633,27.8150,-1.0771
5.8172,0.016757,-0.060878,0.060878,-1.903670,1.799359,-0.047116,-1.7633,27.8150,-1.0771
5.8339,0.016755,-0.050784,0.050784,-1.903670,1.799359,-0.047116,-1.7633,27.8150,-1.0771
5.8507,0.016825,-0.041425,0.041425,-1.903670,1.799359,-0.047116,-1.7633,27.8150,-1.0771
5.8676,0.016829,-0.032900,0.032900,-1.903670,1.799359,-0.047116,-1.7633,27.8150,-1.0771
5.8843,0.016764,-0.025293,0.025293,-1.903670,1.799359,-0.047116,-1.7633,27.8150,-1.0771
5.9011,0.016765,-0.018617,0.018617,-1.903670,1.799359,-0.047116,-1.7633,27.8150,-1.0771
5.9178,0.016756,-0.012916,0.012916,-1.903670,1.799359,-0.047116,-1.7633,27.8150,-1.0771
5.9346,0.016761,-0.008221,0.008221,-1.903670,1.799359,-0.047116,-1.7633,27.8150,-1.0771
5.9514,0.016753,-0.004564,0.004564,-1.903670,1.799359,-0.047107,-1.7421,27.8712,-1.1045
5.9681,0.016761,-0.001965,0.001965,-1.903670,1.799359,-0.047117,-1.7657,27.8084,-1.0739
5.9849,0.016767,-0.000442,0.000442,-1.903670,1.799359,-0.047116,-1.7633,27.8150,-1.0771
6.0017,0.016772,-0.000005,0.000005,-1.903670,1.799359,-0.047116,-1.7633,27.8150,-1.0771
6.0184,0.016757,-0.000657,0.000657,-1.903670,1.799359,-0.047116,-1.7633,27.8150,-1.0771
6.0352,0.016761,-0.002393,0.002393,-1.903670,1.799359,-0.047116,-1.7633,27.8150,-1.0771
6.0519,0.016760,-0.005202,0.005202,-1.903670,1.799359,-0.047116,-1.7633,27.8150,-1.0771
6.0687,0.016767,-0.009069,0.009069,-1.903670,1.799359,-0.047116,-1.7633,27.8150,-1.0771
6.0855,0.016753,-0.013963,0.013963,-1.903670,1.799359,-0.047116,-1.7633,27.8150,-1.0771
6.1022,0.016765,-0.019863,0.019863,-1.903670,1.799359,-0.047116,-1.7633,27.8150,-1.0771
6.1190,0.016751,-0.026721,0.026721,-1.903670,1.799359,-0.047116,-1.7633,27.8150,-1.0771
6.1357,0.016763,-0.034505,0.034505,-1.903670,1.799359,-0.047116,-1.7633,27.8150,-1.0771
6.1525,0.016751,-0.043157,0.043157,-1.903670,1.799359,-0.047116,-1.7633,27.8150,-1.0771
6.1693,0.016776,-0.052641,0.052641,-1.903670,1.799359,-0.047116,-1.7633,27.8150,-1.0771
6.1860,0.016750,-0.062870,0.062870,-1.903670,1.799359,-0.047116,-1.7633,27.8150,-1.0771
6.2028,0.016763,-0.073804,0.073804,-1.903670,1.799359,-0.047116,-1.7633,27.8150,-1.0771
6.2195,0.016747,-0.085354,0.085354,-1.903670,1.799359,-0.047116,-1.7633,27.8150,-1.0771
6.2363,0.016771,-0.097477,0.097477,-1.903670,1.799359,-0.047116,-1.7633,27.8150,-1.0771
6.2530,0.016752,-0.110066,0.110066,-1.903670,1.799359,-0.047116,-1.7633,27.8150,-1.0771
6.2698,0.016771,-0.123072,0.123072,-1.903670,1.799359,-0.047116,-1.7633,27.8150,-1.0771
6.2866,0.016763,-0.136393,0.136393,-1.903670,1.799359,-0.047107,-1.7421,27.8712,-1.1045
6.3034,0.016768,-0.149955,0.149955,-1.903670,1.799359,-0.047117,-1.7657,27.8084,-1.0739
6.3201,0.016751,-0.163658,0.163658,-1.903670,1.799359,-0.047116,-1.7633,27.8150,-1.0771
6.3369,0.016767,-0.177440,0.177440,-1.903670,1.799359,-0.047116,-1.7633,27.8150,-1.0771
6.3536,0.016750,-0.191191,0.191191,-1.903670,1.799359,-0.047116,-1.7633,27.8150,-1.0771
6.3704,0.016768,-0.204853,0.204853,-1.903670,1.799359,-0.047116,-1.7633,27.8150,-1.0771
6.3871,0.016758,-0.218317,0.218317,-1.903670,1.799359,-0.047107,-1.7421,27.8712,-1.1045
6.4039,0.016766,-0.231516,0.231516,-1.903670,1.799359,-0.047117,-1.7657,27.8084,-1.0739
6.4207,0.016751,-0.244347,0.244347,-1.903670,1.799359,-0.047116,-1.7633,27.8150,-1.0771
6.4374,0.016760,-0.256750,0.256750,-1.903670,1.799359,-0.047116,-1.7633,27.8150,-1.0771
6.4542,0.016800,-0.268668,0.268668,-1.903670,1.799359,-0.047116,-1.7633,27.8150,-1.0771
6.4710,0.016771,-0.279978,0.279978,-1.903670,1.799359,-0.047116,-1.7633,27.8150,-1.0771
6.4878,0.016773,-0.290630,0.290630,-1.903670,1.799359,-0.047116,-1.7633,27.8150,-1.0771
6.5045,0.016760,-0.300550,0.300550,-1.903670,1.799359,-0.047107,-1.7421,27.8712,-1.1045
6.5213,0.016758,-0.309684,0.309684,-1.903670,1.799359,-0.047117,-1.7657,27.8084,-1.0739
6.5381,0.016776,-0.317983,0.317983,-1.903670,1.799359,-0.047116,-1.7633,27.8150,-1.0771
6.5548,0.016751,-0.325376,0.325376,-1.903670,1.799359,-0.047116,-1.7633,27.8150,-1.0771
6.5716,0.016774,-0.331838,0.331838,-1.903670,1.799359,-0.047116,-1.7633,27.8150,-1.0771
6.5883,0.016764,-0.337314,0.337314,-1.903670,1.799359,-0.047116,-1.7633,27.8150,-1.0771
6.6054,0.017083,-0.341850,0.341850,-1.903670,1.799359,-0.047116,-1.7633,27.8150,-1.0771
6.6222,0.016750,-0.345245,0.345245,-1.903670,1.799359,-0.047116,-1.7633,27.8150,-1.0771
6.6389,0.016762,-0.347579,0.347579,-1.903670,1.799359,-0.047116,-1.7633,27.8150,-1.0771
6.6557,0.016761,-0.348833,0.348833,-1.903670,1.799359,-0.047116,-1.7633,27.8150,-1.0771
6.6725,0.016767,-0.349001,0.349001,-1.903670,1.799359,-0.047116,-1.7633,27.8150,-1.0771
6.6892,0.016750,-0.348081,0.348081,-1.903670,1.799359,-0.047116,-1.7633,27.8150,-1.0771
6.7060,0.016770,-0.346078,0.346078,-1.903670,1.799359,-0.047116,-1.7633,27.8150,-1.0771
6.7228,0.016759,-0.343006,0.343006,-1.903670,1.799359,-0.047116,-1.7633,27.8150,-1.0771
6.7396,0.016835,-0.338863,0.338863,-1.903670,1.799359,-0.047116,-1.7633,27.8150,-1.0771
6.7563,0.016751,-0.333714,0.333714,-1.903670,1.799359,-0.047116,-1.7633,27.8150,-1.0771
6.7731,0.016761,-0.327570,0.327570,-1.903670,1.799359,-0.047116,-1.7633,27.8150,-1.0771
6.7898,0.016751,-0.320477,0.320477,-1.903670,1.799359,-0.047116,-1.7633,27.8150,-1.0771
6.8070,0.017146,-0.312275,0.312275,-1.903670,1.799359,-0.047116,-1.7633,27.8150,-1.0771
6.8237,0.016754,-0.303392,0.303392,-1.903670,1.799359,-0.047116,-1.7633,27.8150,-1.0771
6.8406,0.016824,-0.293665,0.293665,-1.903670,1.799359,-0.047116,-1.7633,27.8150,-1.0771
6.8573,0.016767,-0.283226,0.283226,-1.903670,1.799359,-0.047116,-1.7633,27.8150,-1.0771
6.8741,0.016757,-0.272115,0.272115,-1.903670,1.799359,-0.047116,-1.7633,27.8150,-1.0771
6.8909,0.016789,-0.260373,0.260373,-1.903670,1.799359,-0.047116,-1.7633,27.8150,-1.0771
6.9079,0.016990,-0.247945,0.247945,-1.903670,1.799359,-0.047107,-1.7421,27.8712,-1.1045
6.9246,0.016763,-0.235220,0.235220,-1.903670,1.799359,-0.047117,-1.7657,27.8084,-1.0739
6.9420,0.017356,-0.221648,0.221648,-1.903670,1.799359,-0.047117,-1.7657,27.8084,-1.0739
6.9588,0.016757,-0.208245,0.208245,-1.903670,1.799359,-0.047116,-1.7633,27.8150,-1.0771
6.9755,0.016760,-0.194629,0.194629,-1.903670,1.799359,-0.047116,-1.7633,27.8150,-1.0771
6.9923,0.016760,-0.180888,0.180888,-1.903670,1.799359,-0.047116,-1.7633,27.8150,-1.0771
7.0090,0.016764,-0.167104,0.167104,-1.903670,1.799359,-0.047116,-1.7633,27.8150,-1.0771
7.0258,0.016761,-0.153369,0.153369,-1.903670,1.799359,-0.047116,-1.7633,27.8150,-1.0771
7.0426,0.016803,-0.139731,0.139731,-1.903670,1.799359,-0.047116,-1.7633,27.8150,-1.0771
7.0594,0.016753,-0.126352,0.126352,-1.903670,1.799359,-0.047116,-1.7633,27.8150,-1.0771
7.0761,0.016749,-0.113276,0.113276,-1.903670,1.799359,-0.047116,-1.7633,27.8150,-1.0771
7.0929,0.016753,-0.100578,0.100578,-1.903670,1.799359,-0.047116,-1.7633,27.8150,-1.0771
7.1096,0.016749,-0.088344,0.088344,-1.903670,1.799359,-0.047116,-1.7633,27.8150,-1.0771
7.1264,0.016753,-0.076643,0.076643,-1.903670,1.799359,-0.047116,-1.7633,27.8150,-1.0771
7.1431,0.016762,-0.065546,0.065546,-1.903670,1.799359,-0.047116,-1.7633,27.8150,-1.0771
7.1599,0.016753,-0.055134,0.055134,-1.903670,1.799359,-0.047116,-1.7633,27.8150,-1.0771
7.1767,0.016789,-0.045447,0.045447,-1.903670,1.799359,-0.047107,-1.7421,27.8712,-1.1045
7.1934,0.016760,-0.036582,0.036582,-1.903670,1.799359,-0.047117,-1.7657,27.8084,-1.0739
7.2102,0.016756,-0.028578,0.028578,-1.903670,1.799359,-0.047116,-1.7633,27.8150,-1.0771
7.2269,0.016766,-0.021480,0.021480,-1.903670,1.799359,-0.047116,-1.7633,27.8150,-1.0771
7.2437,0.016763,-0.015338,0.015338,-1.903670,1.799359,-0.047116,-1.7633,27.8150,-1.0771
7.2605,0.016762,-0.010189,0.010189,-1.903670,1.799359,-0.047116,-1.7633,27.8150,-1.0771
7.2772,0.016760,-0.006065,0.006065,-1.903670,1.799359,-0.047116,-1.7633,27.8150,-1.0771
7.2940,0.016772,-0.002990,0.002990,-1.903670,1.799359,-0.047116,-1.7633,27.8150,-1.0771
7.3108,0.016763,-0.000986,0.000986,-1.903670,1.799359,-0.047116,-1.7633,27.8150,-1.0771
7.3276,0.016874,-0.000063,0.000063,-1.903670,1.799359,-0.047116,-1.7633,27.8150,-1.0771
7.3444,0.016761,-0.000237,0.000237,-1.903670,1.799359,-0.047116,-1.7633,27.8150,-1.0771
7.3612,0.016756,-0.001497,0.001497,-1.903670,1.799359,-0.047116,-1.7633,27.8150,-1.0771
7.3779,0.016756,-0.003836,0.003836,-1.903670,1.799359,-0.047116,-1.7633,27.8150,-1.0771
7.3947,0.016763,-0.007240,0.007240,-1.903670,1.799359,-0.047116,-1.7633,27.8150,-1.0771
7.4114,0.016772,-0.011690,0.011690,-1.903670,1.799359,-0.047116,-1.7633,27.8150,-1.0771
7.4282,0.016764,-0.017154,0.017154,-1.903670,1.799359,-0.047116,-1.7633,27.8150,-1.0771
7.4450,0.016754,-0.023595,0.023595,-1.903670,1.799359,-0.047116,-1.7633,27.8150,-1.0771
7.4617,0.016757,-0.030979,0.030979,-1.903670,1.799359,-0.047116,-1.7633,27.8150,-1.0771
7.4785,0.016755,-0.039256,0.039256,-1.903670,1.799359,-0.047116,-1.7633,27.8150,-1.0771
7.4952,0.016765,-0.048381,0.048381,-1.903670,1.799359,-0.047116,-1.7633,27.8150,-1.0771
7.5120,0.016761,-0.058291,0.058291,-1.903670,1.799359,-0.047116,-1.7633,27.8150,-1.0771
7.5288,0.016780,-0.068938,0.068938,-1.903670,1.799359,-0.047107,-1.7421,27.8712,-1.1045
7.5455,0.016760,-0.080231,0.080231,-1.903670,1.799359,-0.047107,-1.7421,27.8712,-1.1045
7.5623,0.016756,-0.092109,0.092109,-1.903670,1.799359,-0.047117,-1.7657,27.8084,-1.0739
7.5791,0.016765,-0.104508,0.104508,-1.903670,1.799359,-0.047116,-1.7633,27.8150,-1.0771
7.5958,0.016766,-0.117344,0.117344,-1.903670,1.799359,-0.047116,-1.7633,27.8150,-1.0771
7.6126,0.016791,-0.130557,0.130557,-1.903670,1.799359,-0.047116,-1.7633,27.8150,-1.0771
7.6294,0.016759,-0.144019,0.144019,-1.903670,1.799359,-0.047107,-1.7421,27.8712,-1.1045
7.6461,0.016762,-0.157674,0.157674,-1.903670,1.799359,-0.047117,-1.7657,27.8084,-1.0739
7.6629,0.016765,-0.171437,0.171437,-1.903670,1.799359,-0.047116,-1.7633,27.8150,-1.0771
7.6797,0.016760,-0.185214,0.185214,-1.903670,1.799359,-0.047107,-1.7421,27.8712,-1.1045
7.6964,0.016766,-0.198931,0.198931,-1.903670,1.799359,-0.047107,-1.7421,27.8712,-1.1045
7.7132,0.016755,-0.212486,0.212486,-1.903670,1.799359,-0.047117,-1.7657,27.8084,-1.0739
7.7300,0.016768,-0.225814,0.225814,-1.903670,1.799359,-0.047116,-1.7633,27.8150,-1.0771
7.7468,0.016812,-0.238857,0.238857,-1.903670,1.799359,-0.047116,-1.7633,27.8150,-1.0771
7.7635,0.016751,-0.251450,0.251450,-1.903670,1.799359,-0.047116,-1.7633,27.8150,-1.0771
7.7803,0.016816,-0.263611,0.263611,-1.903670,1.799359,-0.047116,-1.7633,27.8150,-1.0771
7.7971,0.016745,-0.275165,0.275165,-1.903670,1.799359,-0.047107,-1.7421,27.8712,-1.1045
7.8138,0.016764,-0.286104,0.286104,-1.903670,1.799359,-0.047108,-1.7443,27.8653,-1.1017
7.8307,0.016878,-0.296415,0.296415,-1.903670,1.799359,-0.047117,-1.7655,27.8091,-1.0742
7.8475,0.016754,-0.305888,0.305888,-1.903670,1.799359,-0.047116,-1.7633,27.8149,-1.0771
7.8642,0.016762,-0.314547,0.314547,-1.903670,1.799359,-0.047107,-1.7421,27.8712,-1.1045
7.8810,0.016776,-0.322339,0.322339,-1.903670,1.799359,-0.047107,-1.7421,27.8712,-1.1045
7.8978,0.016750,-0.329197,0.329197,-1.903670,1.799359,-0.047117,-1.7657,27.8084,-1.0739
7.9145,0.016755,-0.335094,0.335094,-1.903670,1.799359,-0.047116,-1.7633,27.8150,-1.0771
7.9314,0.016840,-0.340013,0.340013,-1.903670,1.799359,-0.047116,-1.7633,27.8150,-1.0771
7.9481,0.016761,-0.343875,0.343875,-1.903670,1.799359,-0.047107,-1.7421,27.8712,-1.1045
7.9651,0.017026,-0.346716,0.346716,-1.903670,1.799359,-0.047117,-1.7657,27.8084,-1.0739
7.9819,0.016770,-0.348432,0.348432,-1.903670,1.799359,-0.047117,-1.7657,27.8084,-1.0739
7.9987,0.016753,-0.349062,0.349062,-1.903670,1.799359,-0.047116,-1.7633,27.8150,-1.0771
8.0154,0.016756,-0.348605,0.348605,-1.903670,1.799359,-0.047116,-1.7633,27.8150,-1.0771
8.0322,0.016764,-0.347062,0.347062,-1.903670,1.799359,-0.047116,-1.7633,27.8150,-1.0771
8.0489,0.016758,-0.344444,0.344444,-1.903670,1.799359,-0.047116,-1.7633,27.8150,-1.0771
8.0663,0.017349,-0.340619,0.340619,-1.903670,1.799359,-0.047116,-1.7633,27.8150,-1.0771
8.0831,0.016779,-0.335863,0.335863,-1.903670,1.799359,-0.047116,-1.7633,27.8150,-1.0771
8.0998,0.016772,-0.330102,0.330102,-1.903670,1.799359,-0.047116,-1.7633,27.8150,-1.0771
8.1166,0.016746,-0.323380,0.323380,-1.903670,1.799359,-0.047116,-1.7633,27.8150,-1.0771
8.1333,0.016760,-0.315726,0.315726,-1.903670,1.799359,-0.047116,-1.7633,27.8150,-1.0771
8.1501,0.016757,-0.307192,0.307192,-1.903670,1.799359,-0.047116,-1.7633,27.8150,-1.0771
8.1669,0.016767,-0.297826,0.297826,-1.903670,1.799359,-0.047116,-1.7633,27.8150,-1.0771
8.1836,0.016765,-0.287692,0.287692,-1.903670,1.799359,-0.047116,-1.7633,27.8150,-1.0771
8.2004,0.016767,-0.276851,0.276851,-1.903670,1.799359,-0.047116,-1.7633,27.8150,-1.0771
8.2172,0.016750,-0.265383,0.265383,-1.903670,1.799359,-0.047116,-1.7633,27.8150,-1.0771
8.2339,0.016784,-0.253325,0.253325,-1.903670,1.799359,-0.047116,-1.7633,27.8150,-1.0771
8.2507,0.016752,-0.240799,0.240799,-1.903670,1.799359,-0.047116,-1.7633,27.8150,-1.0771
8.2689,0.018234,-0.226697,0.226697,-1.903670,1.799359,-0.047116,-1.7633,27.8150,-1.0771
8.2857,0.016754,-0.213398,0.213398,-1.903670,1.799359,-0.047116,-1.7633,27.8150,-1.0771
8.3024,0.016768,-0.199846,0.199846,-1.903670,1.799359,-0.047107,-1.7421,27.8712,-1.1045
8.3192,0.016756,-0.186146,0.186146,-1.903670,1.799359,-0.047117,-1.7657,27.8084,-1.0739
8.3361,0.016896,-0.172258,0.172258,-1.903670,1.799359,-0.047116,-1.7633,27.8150,-1.0771
8.3529,0.016761,-0.158496,0.158496,-1.903670,1.799359,-0.047116,-1.7633,27.8150,-1.0771
8.3697,0.016821,-0.144785,0.144785,-1.903670,1.799359,-0.047116,-1.7633,27.8150,-1.0771
8.3864,0.016757,-0.131311,0.131311,-1.903670,1.799359,-0.047116,-1.7633,27.8150,-1.0771
8.4032,0.016777,-0.118091,0.118091,-1.903670,1.799359,-0.047116,-1.7633,27.8150,-1.0771
8.4200,0.016761,-0.105236,0.105236,-1.903670,1.799359,-0.047116,-1.7633,27.8150,-1.0771
8.4367,0.016770,-0.092806,0.092806,-1.903670,1.799359,-0.047116,-1.7633,27.8150,-1.0771
8.4535,0.016757,-0.080895,0.080895,-1.903670,1.799359,-0.047116,-1.7633,27.8150,-1.0771
8.4703,0.016751,-0.069572,0.069572,-1.903670,1.799359,-0.047116,-1.7633,27.8150,-1.0771
8.4870,0.016758,-0.058899,0.058899,-1.903670,1.799359,-0.047116,-1.7633,27.8150,-1.0771
8.5038,0.016771,-0.048939,0.048939,-1.903670,1.799359,-0.047116,-1.7633,27.8150,-1.0771
8.5205,0.016749,-0.039775,0.039775,-1.903670,1.799359,-0.047116,-1.7633,27.8150,-1.0771
8.5373,0.016774,-0.031437,0.031437,-1.903670,1.799359,-0.047116,-1.7633,27.8150,-1.0771
8.5541,0.016753,-0.024002,0.024002,-1.903670,1.799359,-0.047116,-1.7633,27.8150,-1.0771
8.5708,0.016760,-0.017503,0.017503,-1.903670,1.799359,-0.047116,-1.7633,27.8150,-1.0771
8.5876,0.016754,-0.011983,0.011983,-1.903670,1.799359,-0.047116,-1.7633,27.8150,-1.0771
8.6043,0.016757,-0.007476,0.007476,-1.903670,1.799359,-0.047116,-1.7633,27.8150,-1.0771
8.6211,0.016753,-0.004011,0.004011,-1.903670,1.799359,-0.047116,-1.7633,27.8150,-1.0771
8.6378,0.016761,-0.001607,0.001607,-1.903670,1.799359,-0.047116,-1.7633,27.8150,-1.0771
8.6546,0.016770,-0.000281,0.000281,-1.903670,1.799359,-0.047116,-1.7633,27.8150,-1.0771
8.6714,0.016798,-0.000044,0.000044,-1.903670,1.799359,-0.047116,-1.7633,27.8150,-1.0771
8.6882,0.016751,-0.000895,0.000895,-1.903670,1.799359,-0.047116,-1.7633,27.8150,-1.0771
8.7049,0.016763,-0.002829,0.002829,-1.903670,1.799359,-0.047116,-1.7633,27.8150,-1.0771
8.7217,0.016754,-0.005832,0.005832,-1.903670,1.799359,-0.047116,-1.7633,27.8150,-1.0771
8.7384,0.016770,-0.009891,0.009891,-1.903670,1.799359,-0.047116,-1.7633,27.8150,-1.0771
8.7552,0.016749,-0.014970,0.014970,-1.903670,1.799359,-0.047116,-1.7633,27.8150,-1.0771
8.7720,0.016769,-0.021051,0.021051,-1.903670,1.799359,-0.047116,-1.7633,27.8150,-1.0771
8.7887,0.016748,-0.028080,0.028080,-1.903670,1.799359,-0.047107,-1.7421,27.8712,-1.1045
8.8055,0.016753,-0.036023,0.036023,-1.903670,1.799359,-0.047117,-1.7657,27.8084,-1.0739
8.8222,0.016764,-0.044835,0.044835,-1.903670,1.799359,-0.047107,-1.7419,27.8719,-1.1049
8.8390,0.016801,-0.054478,0.054478,-1.903670,1.799359,-0.047117,-1.7658,27.8084,-1.0739
8.8559,0.016879,-0.064924,0.064924,-1.903670,1.799359,-0.047116,-1.7633,27.8150,-1.0771
8.8727,0.016748,-0.075974,0.075974,-1.903670,1.799359,-0.047116,-1.7633,27.8150,-1.0771
8.8894,0.016762,-0.087647,0.087647,-1.903670,1.799359,-0.047116,-1.7633,27.8150,-1.0771
8.9062,0.016754,-0.099856,0.099856,-1.903670,1.799359,-0.047116,-1.7633,27.8150,-1.0771
8.9230,0.016858,-0.112610,0.112610,-1.903670,1.799359,-0.047116,-1.7633,27.8150,-1.0771
8.9398,0.016761,-0.125678,0.125678,-1.903670,1.799359,-0.047116,-1.7633,27.8150,-1.0771
8.9566,0.016774,-0.139062,0.139062,-1.903670,1.799359,-0.047116,-1.7633,27.8150,-1.0771
8.9733,0.016758,-0.152654,0.152654,-1.903670,1.799359,-0.047116,-1.7633,27.8150,-1.0771
8.9901,0.016767,-0.166389,0.166389,-1.903670,1.799359,-0.047116,-1.7633,27.8150,-1.0771
9.0069,0.016759,-0.180169,0.180169,-1.903670,1.799359,-0.047116,-1.7633,27.8150,-1.0771
9.0236,0.016754,-0.193909,0.193909,-1.903670,1.799359,-0.047116,-1.7633,27.8150,-1.0771
9.0404,0.016756,-0.207530,0.207530,-1.903670,1.799359,-0.047116,-1.7633,27.8150,-1.0771
9.0571,0.016767,-0.220955,0.220955,-1.903670,1.799359,-0.047107,-1.7421,27.8712,-1.1045
9.0739,0.016760,-0.234085,0.234085,-1.903670,1.799359,-0.047107,-1.7421,27.8712,-1.1045
9.0907,0.016762,-0.246844,0.246844,-1.903670,1.799359,-0.047117,-1.7657,27.8084,-1.0739
9.1074,0.016757,-0.259149,0.259149,-1.903670,1.799359,-0.047116,-1.7633,27.8150,-1.0771
9.1242,0.016768,-0.270935,0.270935,-1.903670,1.799359,-0.047116,-1.7633,27.8150,-1.0771
9.1409,0.016755,-0.282111,0.282111,-1.903670,1.799359,-0.047116,-1.7633,27.8150,-1.0771
9.1577,0.016771,-0.292625,0.292625,-1.903670,1.799359,-0.047116,-1.7633,27.8150,-1.0771
9.1745,0.016756,-0.302394,0.302394,-1.903670,1.799359,-0.047116,-1.7633,27.8150,-1.0771
9.1912,0.016756,-0.311366,0.311366,-1.903670,1.799359,-0.047116,-1.7633,27.8150,-1.0771
9.2080,0.016759,-0.319487,0.319487,-1.903670,1.799359,-0.047116,-1.7633,27.8150,-1.0771
9.2247,0.016754,-0.326703,0.326703,-1.903670,1.799359,-0.047116,-1.7633,27.8150,-1.0771
9.2416,0.016833,-0.332997,0.332997,-1.903670,1.799359,-0.047107,-1.7421,27.8712,-1.1045
9.2583,0.016769,-0.338277,0.338277,-1.903670,1.799359,-0.047107,-1.7421,27.8712,-1.1045
9.2751,0.016754,-0.342532,0.342532,-1.903670,1.799359,-0.047117,-1.7657,27.8084,-1.0739
9.2918,0.016763,-0.345741,0.345741,-1.903670,1.799359,-0.047107,-1.7419,27.8719,-1.1049
9.3086,0.016763,-0.347883,0.347883,-1.903670,1.799359,-0.047117,-1.7658,27.8084,-1.0739
9.3254,0.016765,-0.348943,0.348943,-1.903670,1.799359,-0.047116,-1.7633,27.8150,-1.0771
9.3423,0.016974,-0.348908,0.348908,-1.903670,1.799359,-0.047116,-1.7633,27.8150,-1.0771
9.3591,0.016763,-0.347780,0.347780,-1.903670,1.799359,-0.047116,-1.7633,27.8150,-1.0771
9.3759,0.016756,-0.345572,0.345572,-1.903670,1.799359,-0.047116,-1.7633,27.8150,-1.0771
9.3926,0.016761,-0.342297,0.342297,-1.903670,1.799359,-0.047116,-1.7633,27.8150,-1.0771
9.4094,0.016760,-0.337976,0.337976,-1.903670,1.799359,-0.047116,-1.7633,27.8150,-1.0771
9.4261,0.016758,-0.332637,0.332637,-1.903670,1.799359,-0.047116,-1.7633,27.8150,-1.0771
9.4429,0.016776,-0.326304,0.326304,-1.903670,1.799359,-0.047107,-1.7421,27.8712,-1.1045
9.4597,0.016755,-0.319034,0.319034,-1.903670,1.799359,-0.047107,-1.7421,27.8712,-1.1045
9.4764,0.016756,-0.310863,0.310863,-1.903670,1.799359,-0.047117,-1.7657,27.8084,-1.0739
9.4932,0.016759,-0.301841,0.301841,-1.903670,1.799359,-0.047116,-1.7633,27.8150,-1.0771
9.5100,0.016767,-0.292020,0.292020,-1.903670,1.799359,-0.047116,-1.7633,27.8150,-1.0771
9.5267,0.016754,-0.281474,0.281474,-1.903670,1.799359,-0.047116,-1.7633,27.8150,-1.0771
9.5435,0.016769,-0.270252,0.270252,-1.903670,1.799359,-0.047116,-1.7633,27.8150,-1.0771
9.5602,0.016759,-0.258440,0.258440,-1.903670,1.799359,-0.047116,-1.7633,27.8150,-1.0771
9.5770,0.016756,-0.246107,0.246107,-1.903670,1.799359,-0.047107,-1.7421,27.8712,-1.1045
9.5938,0.016757,-0.233327,0.233327,-1.903670,1.799359,-0.047117,-1.7657,27.8084,-1.0739
9.6105,0.016768,-0.220172,0.220172,-1.903670,1.799359,-0.047116,-1.7633,27.8150,-1.0771
9.6273,0.016761,-0.206738,0.206738,-1.903670,1.799359,-0.047116,-1.7633,27.8150,-1.0771
9.6440,0.016764,-0.193101,0.193101,-1.903670,1.799359,-0.047116,-1.7633,27.8150,-1.0771
9.6608,0.016765,-0.179347,0.179347,-1.903670,1.799359,-0.047107,-1.7421,27.8712,-1.1045
9.6776,0.016761,-0.165566,0.165566,-1.903670,1.799359,-0.047117,-1.7657,27.8084,-1.0739
9.6946,0.017061,-0.151596,0.151596,-1.903670,1.799359,-0.047116,-1.7633,27.8150,-1.0771
9.7116,0.016997,-0.137826,0.137826,-1.903670,1.799359,-0.047107,-1.7421,27.8712,-1.1045
9.7284,0.016770,-0.124470,0.124470,-1.903670,1.799359,-0.047107,-1.7421,27.8712,-1.1045
9.7452,0.016772,-0.111426,0.111426,-1.903670,1.799359,-0.047117,-1.7657,27.8084,-1.0739
9.7619,0.016773,-0.098774,0.098774,-1.903670,1.799359,-0.047116,-1.7633,27.8150,-1.0771
9.7787,0.016762,-0.086604,0.086604,-1.903670,1.799359,-0.047116,-1.7633,27.8150,-1.0771
9.7955,0.016771,-0.074975,0.074975,-1.903670,1.799359,-0.047116,-1.7633,27.8150,-1.0771
9.8123,0.016833,-0.063929,0.063929,-1.903670,1.799359,-0.047107,-1.7421,27.8712,-1.1045
9.8291,0.016768,-0.053617,0.053617,-1.903670,1.799359,-0.047107,-1.7421,27.8712,-1.1045
9.8458,0.016755,-0.044066,0.044066,-1.903670,1.799359,-0.047108,-1.7443,27.8653,-1.1017
9.8626,0.016750,-0.035331,0.035331,-1.903670,1.799359,-0.047117,-1.7655,27.8091,-1.0742
9.8794,0.016767,-0.027455,0.027455,-1.903670,1.799359,-0.047116,-1.7633,27.8149,-1.0771
9.8961,0.016750,-0.020504,0.020504,-1.903670,1.799359,-0.047116,-1.7633,27.8149,-1.0771
9.9129,0.016769,-0.014505,0.014505,-1.903670,1.799359,-0.047116,-1.7633,27.8149,-1.0771
9.9296,0.016757,-0.009509,0.009509,-1.903670,1.799359,-0.047116,-1.7633,27.8149,-1.0771
9.9464,0.016758,-0.005540,0.005540,-1.903670,1.799359,-0.047116,-1.7633,27.8149,-1.0771
9.9631,0.016755,-0.002626,0.002626,-1.903670,1.799359,-0.047116,-1.7633,27.8149,-1.0771
9.9799,0.016762,-0.000782,0.000782,-1.903670,1.799359,-0.047116,-1.7633,27.8149,-1.0771
9.9967,0.016756,-0.000022,0.000022,-1.903670,1.799359,-0.047116,-1.7633,27.8149,-1.0771
10.0134,0.016770,-0.000350,0.000350,-1.903670,1.799359,-0.047116,-1.7633,27.8149,-1.0771
10.0302,0.016762,-0.001764,0.001764,-1.903670,1.799359,-0.047116,-1.7633,27.8149,-1.0771
10.0469,0.016754,-0.004254,0.004254,-1.903670,1.799359,-0.047116,-1.7633,27.8149,-1.0771
10.0637,0.016749,-0.007804,0.007804,-1.903670,1.799359,-0.047116,-1.7633,27.8149,-1.0771
10.0805,0.016758,-0.012394,0.012394,-1.903670,1.799359,-0.047116,-1.7633,27.8149,-1.0771
10.0972,0.016754,-0.017994,0.017994,-1.903670,1.799359,-0.047116,-1.7633,27.8149,-1.0771
10.1140,0.016788,-0.024583,0.024583,-1.903670,1.799359,-0.047116,-1.7633,27.8149,-1.0771
10.1308,0.016755,-0.032095,0.032095,-1.903670,1.799359,-0.047116,-1.7633,27.8149,-1.0771
10.1475,0.016760,-0.040497,0.040497,-1.903670,1.799359,-0.047116,-1.7633,27.8149,-1.0771
10.1643,0.016817,-0.049767,0.049767,-1.903670,1.799359,-0.047116,-1.7633,27.8149,-1.0771
10.1811,0.016761,-0.059786,0.059786,-1.903670,1.799359,-0.047116,-1.7633,27.8149,-1.0771
10.1983,0.017254,-0.070846,0.070846,-1.903670,1.799359,-0.047116,-1.7633,27.8149,-1.0771
10.2151,0.016764,-0.082249,0.082249,-1.903670,1.799359,-0.047116,-1.7633,27.8149,-1.0771
10.2319,0.016757,-0.094222,0.094222,-1.903670,1.799359,-0.047116,-1.7633,27.8149,-1.0771
10.2486,0.016769,-0.106705,0.106705,-1.903670,1.799359,-0.047116,-1.7633,27.8149,-1.0771
10.2654,0.016756,-0.119602,0.119602,-1.903670,1.799359,-0.047116,-1.7633,27.8149,-1.0771
10.2821,0.016737,-0.132825,0.132825,-1.903670,1.799359,-0.047116,-1.7633,27.8149,-1.0771
10.2996,0.017464,-0.146898,0.146898,-1.903670,1.799359,-0.047116,-1.7633,27.8149,-1.0771
10.3180,0.018439,-0.161958,0.161958,-1.903670,1.799359,-0.047116,-1.7633,27.8149,-1.0771
10.3348,0.016765,-0.175735,0.175735,-1.903670,1.799359,-0.047116,-1.7633,27.8149,-1.0771
10.3515,0.016754,-0.189496,0.189496,-1.903670,1.799359,-0.047116,-1.7633,27.8149,-1.0771
10.3683,0.016776,-0.203182,0.203182,-1.903670,1.799359,-0.047116,-1.7633,27.8149,-1.0771
10.3851,0.016758,-0.216674,0.216674,-1.903670,1.799359,-0.047116,-1.7633,27.8149,-1.0771
10.4019,0.016780,-0.229921,0.229921,-1.903670,1.799359,-0.047116,-1.7633,27.8149,-1.0771
10.4186,0.016748,-0.242798,0.242798,-1.903670,1.799359,-0.047116,-1.7633,27.8149,-1.0771
10.4354,0.016769,-0.255265,0.255265,-1.903670,1.799359,-0.047116,-1.7633,27.8149,-1.0771
10.4521,0.016756,-0.267219,0.267219,-1.903670,1.799359,-0.047116,-1.7633,27.8149,-1.0771
10.4689,0.016782,-0.278613,0.278613,-1.903670,1.799359,-0.047116,-1.7633,27.8149,-1.0771
10.4857,0.016755,-0.289339,0.289339,-1.903670,1.799359,-0.047116,-1.7633,27.8149,-1.0771
10.5024,0.016774,-0.299362,0.299362,-1.903670,1.799359,-0.047116,-1.7633,27.8149,-1.0771
10.5192,0.016764,-0.308599,0.308599,-1.903670,1.799359,-0.047116,-1.7633,27.8149,-1.0771
10.5360,0.016771,-0.317003,0.317003,-1.903670,1.799359,-0.047107,-1.7421,27.8712,-1.1045
10.5527,0.016752,-0.324510,0.324510,-1.903670,1.799359,-0.047108,-1.7443,27.8653,-1.1017
10.5695,0.016765,-0.331087,0.331087,-1.903670,1.799359,-0.047117,-1.7655,27.8091,-1.0742
10.5863,0.016759,-0.336686,0.336686,-1.903670,1.799359,-0.047116,-1.7633,27.8149,-1.0771
10.6030,0.016790,-0.341281,0.341281,-1.903670,1.799359,-0.047116,-1.7633,27.8149,-1.0771
10.6198,0.016750,-0.344826,0.344826,-1.903670,1.799359,-0.047116,-1.7633,27.8149,-1.0771
10.6366,0.016765,-0.347313,0.347313,-1.903670,1.799359,-0.047116,-1.7633,27.8149,-1.0771
10.6533,0.016760,-0.348721,0.348721,-1.903670,1.799359,-0.047116,-1.7633,27.8149,-1.0771
10.6701,0.016756,-0.349043,0.349043,-1.903670,1.799359,-0.047116,-1.7633,27.8149,-1.0771
10.6869,0.016853,-0.348271,0.348271,-1.903670,1.799359,-0.047116,-1.7633,27.8149,-1.0771
10.7037,0.016770,-0.346415,0.346415,-1.903670,1.799359,-0.047116,-1.7633,27.8149,-1.0771
10.7205,0.016752,-0.343489,0.343489,-1.903670,1.799359,-0.047107,-1.7421,27.8712,-1.1045
10.7372,0.016757,-0.339511,0.339511,-1.903670,1.799359,-0.047117,-1.7657,27.8084,-1.0739
10.7540,0.016762,-0.334502,0.334502,-1.903670,1.799359,-0.047116,-1.7633,27.8150,-1.0771
10.7707,0.016757,-0.328498,0.328498,-1.903670,1.799359,-0.047116,-1.7633,27.8150,-1.0771
10.7875,0.016775,-0.321526,0.321526,-1.903670,1.799359,-0.047116,-1.7633,27.8150,-1.0771
10.8043,0.016762,-0.313643,0.313643,-1.903670,1.799359,-0.047116,-1.7633,27.8150,-1.0771
10.8210,0.016750,-0.304898,0.304898,-1.903670,1.799359,-0.047116,-1.7633,27.8150,-1.0771
10.8378,0.016757,-0.295337,0.295337,-1.903670,1.799359,-0.047116,-1.7633,27.8150,-1.0771
10.8545,0.016751,-0.285028,0.285028,-1.903670,1.799359,-0.047116,-1.7633,27.8150,-1.0771
10.8713,0.016758,-0.274025,0.274025,-1.903670,1.799359,-0.047116,-1.7633,27.8150,-1.0771
10.8880,0.016767,-0.262397,0.262397,-1.903670,1.799359,-0.047116,-1.7633,27.8150,-1.0771
10.9048,0.016763,-0.250223,0.250223,-1.903670,1.799359,-0.047116,-1.7633,27.8150,-1.0771
10.9216,0.016749,-0.237587,0.237587,-1.903670,1.799359,-0.047116,-1.7633,27.8150,-1.0771
10.9383,0.016755,-0.224554,0.224554,-1.903670,1.799359,-0.047116,-1.7633,27.8150,-1.0771
10.9551,0.016748,-0.211215,0.211215,-1.903670,1.799359,-0.047116,-1.7633,27.8150,-1.0771
10.9718,0.016759,-0.197639,0.197639,-1.903670,1.799359,-0.047116,-1.7633,27.8150,-1.0771
10.9886,0.016758,-0.183920,0.183920,-1.903670,1.799359,-0.047116,-1.7633,27.8150,-1.0771
11.0053,0.016757,-0.170142,0.170142,-1.903670,1.799359,-0.047116,-1.7633,27.8150,-1.0771
11.0221,0.016757,-0.156393,0.156393,-1.903670,1.799359,-0.047116,-1.7633,27.8150,-1.0771
11.0388,0.016750,-0.142762,0.142762,-1.903670,1.799359,-0.047116,-1.7633,27.8150,-1.0771
11.0560,0.017118,-0.129037,0.129037,-1.903670,1.799359,-0.047116,-1.7633,27.8150,-1.0771
11.0727,0.016763,-0.115882,0.115882,-1.903670,1.799359,-0.047116,-1.7633,27.8150,-1.0771
11.0895,0.016769,-0.103088,0.103088,-1.903670,1.799359,-0.047116,-1.7633,27.8150,-1.0771
11.1063,0.016758,-0.090748,0.090748,-1.903670,1.799359,-0.047107,-1.7421,27.8712,-1.1045
11.1230,0.016767,-0.078925,0.078925,-1.903670,1.799359,-0.047117,-1.7657,27.8084,-1.0739
11.1398,0.016755,-0.067706,0.067706,-1.903670,1.799359,-0.047116,-1.7633,27.8150,-1.0771
11.1565,0.016760,-0.057149,0.057149,-1.903670,1.799359,-0.047116,-1.7633,27.8150,-1.0771
11.1733,0.016751,-0.047330,0.047330,-1.903670,1.799359,-0.047116,-1.7633,27.8150,-1.0771
11.1901,0.016763,-0.038296,0.038296,-1.903670,1.799359,-0.047116,-1.7633,27.8150,-1.0771
11.2068,0.016757,-0.030115,0.030115,-1.903670,1.799359,-0.047116,-1.7633,27.8150,-1.0771
11.2236,0.016756,-0.022834,0.022834,-1.903670,1.799359,-0.047116,-1.7633,27.8150,-1.0771
11.2406,0.017037,-0.016401,0.016401,-1.903670,1.799359,-0.047116,-1.7633,27.8150,-1.0771
11.2574,0.016766,-0.011065,0.011065,-1.903670,1.799359,-0.047116,-1.7633,27.8150,-1.0771
