t,loop_dt,cmd_ant_l,cmd_ant_r,pres_ant_l,pres_ant_r,pres_z,pres_roll,pres_pitch,pres_yaw
0.0000,0.000001,-0.349066,0.349066,-3.048020,3.041884,-0.046082,1.1519,26.7804,1.1906
0.0168,0.016768,-0.348521,0.348521,-3.048020,3.041884,-0.046082,1.1519,26.7804,1.1906
0.0335,0.016750,-0.346893,0.346893,-3.048020,3.041884,-0.046082,1.1519,26.7804,1.1906
0.0503,0.016748,-0.344192,0.344192,-3.048020,3.041884,-0.046082,1.1519,26.7804,1.1906
0.0670,0.016748,-0.340435,0.340435,-3.048020,3.041884,-0.046082,1.1519,26.7804,1.1906
0.0838,0.016743,-0.335646,0.335646,-3.048020,3.041884,-0.046082,1.1519,26.7804,1.1906
0.1005,0.016743,-0.329855,0.329855,-3.048020,3.041884,-0.046082,1.1519,26.7804,1.1906
0.1172,0.016747,-0.323097,0.323097,-3.048020,3.041884,-0.046082,1.1519,26.7804,1.1906
0.1340,0.016797,-0.315388,0.315388,-3.048020,3.041884,-0.046082,1.1519,26.7804,1.1906
0.1508,0.016742,-0.306828,0.306828,-3.048020,3.041884,-0.046082,1.1519,26.7804,1.1906
0.1675,0.016747,-0.297441,0.297441,-3.048020,3.041884,-0.046082,1.1519,26.7804,1.1906
0.1843,0.016754,-0.287285,0.287285,-3.048020,3.041884,-0.046082,1.1519,26.7804,1.1906
0.2010,0.016744,-0.276433,0.276433,-3.048020,3.041884,-0.046082,1.1519,26.7804,1.1906
0.2178,0.016740,-0.264950,0.264950,-3.048020,3.041884,-0.046082,1.1519,26.7804,1.1906
0.2353,0.017545,-0.252312,0.252312,-3.048020,3.041884,-0.046082,1.1519,26.7804,1.1906
0.2521,0.016748,-0.239752,0.239752,-3.048020,3.041884,-0.046082,1.1519,26.7804,1.1906
0.2688,0.016718,-0.226809,0.226809,-3.048020,3.041884,-0.046082,1.1519,26.7804,1.1906
0.2855,0.016743,-0.213522,0.213522,-3.048020,3.041884,-0.046082,1.1519,26.7804,1.1906
0.3023,0.016744,-0.199991,0.199991,-3.048020,3.041884,-0.046082,1.1519,26.7804,1.1906
0.3190,0.016743,-0.186302,0.186302,-3.048020,3.041884,-0.046082,1.1519,26.7804,1.1906
0.3358,0.016749,-0.172536,0.172536,-3.048020,3.041884,-0.046082,1.1519,26.7804,1.1906
0.3525,0.016746,-0.158784,0.158784,-3.048020,3.041884,-0.046082,1.1519,26.7804,1.1906
0.3693,0.016750,-0.145128,0.145128,-3.048020,3.041884,-0.046082,1.1519,26.7804,1.1906
0.3860,0.016750,-0.131653,0.131653,-3.048020,3.041884,-0.046075,1.1747,26.8367,1.1644
0.4028,0.016752,-0.118445,0.118445,-3.048020,3.041884,-0.046083,1.1493,26.7738,1.1937
0.4195,0.016757,-0.105582,0.105582,-3.048020,3.041884,-0.046082,1.1519,26.7804,1.1906
0.4363,0.016745,-0.093158,0.093158,-3.048020,3.041884,-0.046082,1.1519,26.7804,1.1906
0.4530,0.016744,-0.081241,0.081241,-3.048020,3.041884,-0.046082,1.1519,26.7804,1.1906
0.4697,0.016743,-0.069905,0.069905,-3.048020,3.041884,-0.046075,1.1747,26.8367,1.1644
0.4865,0.016749,-0.059216,0.059216,-3.048020,3.041884,-0.046083,1.1493,26.7738,1.1937
0.5032,0.016745,-0.049248,0.049248,-3.048020,3.041884,-0.046082,1.1519,26.7804,1.1906
0.5200,0.016754,-0.040055,0.040055,-3.048020,3.041884,-0.046082,1.1519,26.7804,1.1906
0.5367,0.016739,-0.031706,0.031706,-3.048020,3.041884,-0.046082,1.1519,26.7804,1.1906
0.5535,0.016739,-0.024246,0.024246,-3.048020,3.041884,-0.046082,1.1519,26.7804,1.1906
0.5702,0.016737,-0.017721,0.017721,-3.048020,3.041884,-0.046082,1.1519,26.7804,1.1906
0.5870,0.016750,-0.012167,0.012167,-3.048020,3.041884,-0.046082,1.1519,26.7804,1.1906
0.6037,0.016747,-0.007625,0.007625,-3.048020,3.041884,-0.046082,1.1519,26.7804,1.1906
0.6205,0.016750,-0.004121,0.004121,-3.048020,3.041884,-0.046082,1.1519,26.7804,1.1906
0.6372,0.016746,-0.001680,0.001680,-3.048020,3.041884,-0.046082,1.1519,26.7804,1.1906
0.6539,0.016744,-0.000313,0.000313,-3.048020,3.041884,-0.046082,1.1519,26.7804,1.1906
0.6708,0.016813,-0.000032,0.000032,-3.048020,3.041884,-0.046082,1.1519,26.7804,1.1906
0.6875,0.016744,-0.000841,0.000841,-3.048020,3.041884,-0.046082,1.1519,26.7804,1.1906
0.7043,0.016753,-0.002731,0.002731,-3.048020,3.041884,-0.046082,1.1519,26.7804,1.1906
0.7210,0.016743,-0.005690,0.005690,-3.048020,3.041884,-0.046082,1.1519,26.7804,1.1906
0.7378,0.016752,-0.009701,0.009701,-3.048020,3.041884,-0.046082,1.1519,26.7804,1.1906
0.7545,0.016744,-0.014737,0.014737,-3.048020,3.041884,-0.046082,1.1519,26.7804,1.1906
0.7713,0.016763,-0.020774,0.020774,-3.048020,3.041884,-0.046082,1.1519,26.7804,1.1906
0.7880,0.016751,-0.027765,0.027765,-3.048020,3.041884,-0.046082,1.1519,26.7804,1.1906
0.8048,0.016764,-0.035677,0.035677,-3.048020,3.041884,-0.046082,1.1519,26.7804,1.1906
0.8215,0.016744,-0.044444,0.044444,-3.048020,3.041884,-0.046082,1.1519,26.7804,1.1906
0.8383,0.016759,-0.054029,0.054029,-3.048020,3.041884,-0.046082,1.1519,26.7804,1.1906
0.8550,0.016740,-0.064353,0.064353,-3.048020,3.041884,-0.046082,1.1519,26.7804,1.1906
0.8718,0.016762,-0.075377,0.075377,-3.048020,3.041884,-0.046082,1.1519,26.7804,1.1906
0.8885,0.016750,-0.087011,0.087011,-3.048020,3.041884,-0.046082,1.1519,26.7804,1.1906
0.9053,0.016770,-0.099205,0.099205,-3.048020,3.041884,-0.046082,1.1519,26.7804,1.1906
0.9220,0.016735,-0.111842,0.111842,-3.048020,3.041884,-0.046082,1.1519,26.7804,1.1906
0.9388,0.016750,-0.124882,0.124882,-3.048020,3.041884,-0.046082,1.1519,26.7804,1.1906
0.9555,0.016745,-0.138225,0.138225,-3.048020,3.041884,-0.046082,1.1519,26.7804,1.1906
0.9723,0.016720,-0.151775,0.151775,-3.048020,3.041884,-0.046075,1.1747,26.8367,1.1644
0.9890,0.016745,-0.165486,0.165486,-3.048020,3.041884,-0.046083,1.1493,26.7738,1.1937
1.0058,0.016761,-0.179267,0.179267,-3.048020,3.041884,-0.046083,1.1493,26.7738,1.1937
1.0225,0.016742,-0.193003,0.193003,-3.048020,3.041884,-0.046082,1.1519,26.7804,1.1906
1.0393,0.016766,-0.206643,0.206643,-3.048020,3.041884,-0.046082,1.1519,26.7804,1.1906
1.0560,0.016742,-0.220063,0.220063,-3.048020,3.041884,-0.046082,1.1519,26.7804,1.1906
1.0728,0.016756,-0.233212,0.233212,-3.048020,3.041884,-0.046082,1.1519,26.7804,1.1906
1.0895,0.016746,-0.245987,0.245987,-3.048020,3.041884,-0.046082,1.1519,26.7804,1.1906
1.1063,0.016755,-0.258324,0.258324,-3.048020,3.041884,-0.046082,1.1519,26.7804,1.1906
1.1230,0.016742,-0.270130,0.270130,-3.048020,3.041884,-0.046082,1.1519,26.7804,1.1906
1.1398,0.016754,-0.281349,0.281349,-3.048020,3.041884,-0.046082,1.1519,26.7804,1.1906
1.1565,0.016741,-0.291895,0.291895,-3.048020,3.041884,-0.046082,1.1519,26.7804,1.1906
1.1733,0.016757,-0.301720,0.301720,-3.048020,3.041884,-0.046082,1.1519,26.7804,1.1906
1.1900,0.016750,-0.310748,0.310748,-3.048020,3.041884,-0.046082,1.1519,26.7804,1.1906
1.2068,0.016754,-0.318930,0.318930,-3.048020,3.041884,-0.046082,1.1519,26.7804,1.1906
1.2235,0.016744,-0.326208,0.326208,-3.048020,3.041884,-0.046082,1.1519,26.7804,1.1906
1.2403,0.016754,-0.332546,0.332546,-3.048020,3.041884,-0.046082,1.1519,26.7804,1.1906
1.2570,0.016748,-0.337898,0.337898,-3.048020,3.041884,-0.046082,1.1519,26.7804,1.1906
1.2738,0.016753,-0.342234,0.342234,-3.048020,3.041884,-0.046082,1.1519,26.7804,1.1906
1.2905,0.016747,-0.345524,0.345524,-3.048020,3.041884,-0.046082,1.1519,26.7804,1.1906
1.3073,0.016759,-0.347751,0.347751,-3.048020,3.041884,-0.046082,1.1519,26.7804,1.1906
1.3240,0.016748,-0.348898,0.348898,-3.048020,3.041884,-0.046082,1.1519,26.7804,1.1906
1.3408,0.016754,-0.348959,0.348959,-3.048020,3.041884,-0.046082,1.1519,26.7804,1.1906
1.3575,0.016744,-0.347934,0.347934,-3.048020,3.041884,-0.046082,1.1519,26.7804,1.1906
1.3743,0.016747,-0.345830,0.345830,-3.048020,3.041884,-0.046082,1.1519,26.7804,1.1906
1.3910,0.016746,-0.342660,0.342660,-3.048020,3.041884,-0.046082,1.1519,26.7804,1.1906
1.4078,0.016754,-0.338441,0.338441,-3.048020,3.041884,-0.046082,1.1519,26.7804,1.1906
1.4245,0.016749,-0.333203,0.333203,-3.048020,3.041884,-0.046082,1.1519,26.7804,1.1906
1.4413,0.016747,-0.326977,0.326977,-3.048020,3.041884,-0.046082,1.1519,26.7804,1.1906
1.4580,0.016744,-0.319804,0.319804,-3.048020,3.041884,-0.046082,1.1519,26.7804,1.1906
1.4747,0.016747,-0.311726,0.311726,-3.048020,3.041884,-0.046082,1.1519,26.7804,1.1906
1.4915,0.016753,-0.302789,0.302789,-3.048020,3.041884,-0.046082,1.1519,26.7804,1.1906
1.5083,0.016759,-0.293051,0.293051,-3.048020,3.041884,-0.046082,1.1519,26.7804,1.1906
1.5250,0.016744,-0.282584,0.282584,-3.048020,3.041884,-0.046082,1.1519,26.7804,1.1906
1.5417,0.016742,-0.271445,0.271445,-3.048020,3.041884,-0.046082,1.1519,26.7804,1.1906
1.5585,0.016745,-0.259701,0.259701,-3.048020,3.041884,-0.046082,1.1519,26.7804,1.1906
1.5752,0.016749,-0.247424,0.247424,-3.048020,3.041884,-0.046082,1.1519,26.7804,1.1906
1.5920,0.016764,-0.234682,0.234682,-3.048020,3.041884,-0.046082,1.1519,26.7804,1.1906
1.6088,0.016754,-0.221572,0.221572,-3.048020,3.041884,-0.046082,1.1519,26.7804,1.1906
1.6255,0.016751,-0.208172,0.208172,-3.048020,3.041884,-0.046082,1.1519,26.7804,1.1906
1.6423,0.016777,-0.194541,0.194541,-3.048020,3.041884,-0.046082,1.1519,26.7804,1.1906
1.6590,0.016753,-0.180805,0.180805,-3.048020,3.041884,-0.046084,1.1414,26.7759,1.1585
1.6758,0.016771,-0.167015,0.167015,-3.048020,3.041884,-0.046084,1.1414,26.7759,1.1585
1.6926,0.016748,-0.153290,0.153290,-3.048020,3.041884,-0.046082,1.1527,26.7801,1.1943
1.7093,0.016756,-0.139692,0.139692,-3.048020,3.041884,-0.046082,1.1519,26.7798,1.1916
1.7261,0.016742,-0.126322,0.126322,-3.048020,3.041884,-0.046082,1.1519,26.7798,1.1916
1.7430,0.016921,-0.113114,0.113114,-3.048020,3.041884,-0.046082,1.1519,26.7798,1.1916
1.7597,0.016741,-0.100430,0.100430,-3.048020,3.041884,-0.046084,1.1414,26.7760,1.1584
1.7765,0.016759,-0.088194,0.088194,-3.048020,3.041884,-0.046084,1.1414,26.7760,1.1584
1.7932,0.016745,-0.076506,0.076506,-3.048020,3.041884,-0.046082,1.1527,26.7801,1.1943
1.8100,0.016755,-0.065422,0.065422,-3.048020,3.041884,-0.046082,1.1519,26.7798,1.1916
1.8267,0.016740,-0.055027,0.055027,-3.048020,3.041884,-0.046082,1.1519,26.7798,1.1916
1.8435,0.016747,-0.045371,0.045371,-3.048020,3.041884,-0.046082,1.1519,26.7798,1.1916
1.8602,0.016744,-0.036520,0.036520,-3.048020,3.041884,-0.046082,1.1519,26.7798,1.1916
1.8770,0.016755,-0.028524,0.028524,-3.048020,3.041884,-0.046082,1.1519,26.7798,1.1916
1.8937,0.016741,-0.021442,0.021442,-3.048020,3.041884,-0.046082,1.1519,26.7798,1.1916
1.9105,0.016750,-0.015310,0.015310,-3.048020,3.041884,-0.046082,1.1519,26.7798,1.1916
1.9272,0.016737,-0.010173,0.010173,-3.048020,3.041884,-0.046082,1.1519,26.7798,1.1916
1.9440,0.016765,-0.006052,0.006052,-3.048020,3.041884,-0.046082,1.1519,26.7798,1.1916
1.9607,0.016742,-0.002985,0.002985,-3.048020,3.041884,-0.046082,1.1519,26.7798,1.1916
1.9775,0.016755,-0.000984,0.000984,-3.048020,3.041884,-0.046082,1.1519,26.7798,1.1916
1.9942,0.016742,-0.000065,0.000065,-3.048020,3.041884,-0.046082,1.1519,26.7798,1.1916
2.0109,0.016739,-0.000232,0.000232,-3.048020,3.041884,-0.046082,1.1519,26.7798,1.1916
2.0277,0.016748,-0.001483,0.001483,-3.048020,3.041884,-0.046082,1.1519,26.7798,1.1916
2.0444,0.016768,-0.003815,0.003815,-3.048020,3.041884,-0.046082,1.1519,26.7798,1.1916
2.0612,0.016746,-0.007207,0.007207,-3.048020,3.041884,-0.046082,1.1519,26.7798,1.1916
2.0780,0.016765,-0.011646,0.011646,-3.048020,3.041884,-0.046082,1.1519,26.7798,1.1916
2.0947,0.016748,-0.017096,0.017096,-3.048020,3.041884,-0.046082,1.1519,26.7798,1.1916
2.1115,0.016752,-0.023527,0.023527,-3.048020,3.041884,-0.046082,1.1519,26.7798,1.1916
2.1282,0.016747,-0.030897,0.030897,-3.048020,3.041884,-0.046082,1.1519,26.7798,1.1916
2.1451,0.016880,-0.039229,0.039229,-3.048020,3.041884,-0.046082,1.1519,26.7798,1.1916
2.1618,0.016745,-0.048341,0.048341,-3.048020,3.041884,-0.046082,1.1519,26.7798,1.1916
2.1786,0.016746,-0.058238,0.058238,-3.048020,3.041884,-0.046082,1.1519,26.7798,1.1916
2.1953,0.016745,-0.068859,0.068859,-3.048020,3.041884,-0.046082,1.1519,26.7798,1.1916
2.2121,0.016743,-0.080136,0.080136,-3.048020,3.041884,-0.046082,1.1519,26.7798,1.1916
2.2288,0.016741,-0.091999,0.091999,-3.048020,3.041884,-0.046082,1.1519,26.7798,1.1916
2.2456,0.016755,-0.104385,0.104385,-3.048020,3.041884,-0.046082,1.1519,26.7798,1.1916
2.2623,0.016744,-0.117201,0.117201,-3.048020,3.041884,-0.046082,1.1519,26.7798,1.1916
2.2791,0.016749,-0.130376,0.130376,-3.048020,3.041884,-0.046082,1.1519,26.7798,1.1916
2.2959,0.016801,-0.143869,0.143869,-3.048020,3.041884,-0.046082,1.1519,26.7798,1.1916
2.3126,0.016751,-0.157514,0.157514,-3.048020,3.041884,-0.046082,1.1519,26.7798,1.1916
2.3294,0.016748,-0.171262,0.171262,-3.048020,3.041884,-0.046082,1.1519,26.7798,1.1916
2.3461,0.016763,-0.185042,0.185042,-3.048020,3.041884,-0.046082,1.1519,26.7798,1.1916
2.3629,0.016748,-0.198745,0.198745,-3.048020,3.041884,-0.046082,1.1519,26.7798,1.1916
2.3796,0.016755,-0.212303,0.212303,-3.048020,3.041884,-0.046082,1.1519,26.7798,1.1916
2.3964,0.016746,-0.225618,0.225618,-3.048020,3.041884,-0.046082,1.1519,26.7798,1.1916
2.4131,0.016750,-0.238618,0.238618,-3.048020,3.041884,-0.046082,1.1519,26.7798,1.1916
2.4299,0.016749,-0.251218,0.251218,-3.048020,3.041884,-0.046082,1.1519,26.7798,1.1916
2.4466,0.016758,-0.263348,0.263348,-3.048020,3.041884,-0.046082,1.1519,26.7798,1.1916
2.4635,0.016857,-0.274991,0.274991,-3.048020,3.041884,-0.046082,1.1519,26.7798,1.1916
2.4802,0.016754,-0.285934,0.285934,-3.048020,3.041884,-0.046082,1.1519,26.7798,1.1916
2.4970,0.016751,-0.296182,0.296182,-3.048020,3.041884,-0.046084,1.1414,26.7760,1.1584
2.5137,0.016751,-0.305672,0.305672,-3.048020,3.041884,-0.046082,1.1527,26.7801,1.1943
2.5305,0.016749,-0.314345,0.314345,-3.048020,3.041884,-0.046082,1.1519,26.7798,1.1916
2.5472,0.016759,-0.322151,0.322151,-3.048020,3.041884,-0.046082,1.1519,26.7798,1.1916
2.5640,0.016751,-0.329034,0.329034,-3.048020,3.041884,-0.046082,1.1519,26.7798,1.1916
2.5808,0.016754,-0.334956,0.334956,-3.048020,3.041884,-0.046082,1.1519,26.7798,1.1916
2.5975,0.016747,-0.339876,0.339876,-3.048020,3.041884,-0.046082,1.1519,26.7798,1.1916
2.6142,0.016748,-0.343768,0.343768,-3.048020,3.041884,-0.046082,1.1519,26.7798,1.1916
2.6310,0.016751,-0.346606,0.346606,-3.048020,3.041884,-0.046082,1.1519,26.7798,1.1916
2.6478,0.016758,-0.348373,0.348373,-3.048020,3.041884,-0.046082,1.1519,26.7798,1.1916
2.6645,0.016751,-0.349057,0.349057,-3.048020,3.041884,-0.046082,1.1519,26.7798,1.1916
2.6813,0.016760,-0.348653,0.348653,-3.048020,3.041884,-0.046082,1.1519,26.7798,1.1916
2.6980,0.016750,-0.347165,0.347165,-3.048020,3.041884,-0.046082,1.1519,26.7798,1.1916
2.7148,0.016750,-0.344602,0.344602,-3.048020,3.041884,-0.046082,1.1519,26.7798,1.1916
2.7315,0.016749,-0.340980,0.340980,-3.048020,3.041884,-0.046082,1.1519,26.7798,1.1916
2.7486,0.017101,-0.336213,0.336213,-3.048020,3.041884,-0.046082,1.1519,26.7798,1.1916
2.7654,0.016755,-0.330524,0.330524,-3.048020,3.041884,-0.046082,1.1519,26.7798,1.1916
2.7821,0.016750,-0.323865,0.323865,-3.048020,3.041884,-0.046082,1.1519,26.7798,1.1916
2.7989,0.016751,-0.316277,0.316277,-3.048020,3.041884,-0.046082,1.1519,26.7798,1.1916
2.8156,0.016755,-0.307803,0.307803,-3.048020,3.041884,-0.046082,1.1519,26.7798,1.1916
2.8324,0.016752,-0.298500,0.298500,-3.048020,3.041884,-0.046082,1.1519,26.7798,1.1916
2.8493,0.016884,-0.288344,0.288344,-3.048020,3.041884,-0.046082,1.1519,26.7798,1.1916
2.8660,0.016753,-0.277554,0.277554,-3.048020,3.041884,-0.046082,1.1519,26.7798,1.1916
2.8828,0.016751,-0.266124,0.266124,-3.048020,3.041884,-0.046082,1.1519,26.7798,1.1916
2.8995,0.016751,-0.254123,0.254123,-3.048020,3.041884,-0.046082,1.1519,26.7798,1.1916
2.9163,0.016742,-0.241633,0.241633,-3.048020,3.041884,-0.046082,1.1519,26.7798,1.1916
2.9330,0.016748,-0.228721,0.228721,-3.048020,3.041884,-0.046075,1.1747,26.8367,1.1643
2.9498,0.016754,-0.215467,0.215467,-3.048020,3.041884,-0.046083,1.1493,26.7738,1.1937
2.9665,0.016754,-0.201958,0.201958,-3.048020,3.041884,-0.046083,1.1493,26.7738,1.1937
2.9833,0.016751,-0.188280,0.188280,-3.048020,3.041884,-0.046082,1.1519,26.7804,1.1906
3.0000,0.016754,-0.174516,0.174516,-3.048020,3.041884,-0.046082,1.1519,26.7804,1.1906
3.0168,0.016745,-0.160758,0.160758,-3.048020,3.041884,-0.046082,1.1519,26.7804,1.1906
3.0335,0.016746,-0.147085,0.147085,-3.048020,3.041884,-0.046082,1.1519,26.7804,1.1906
3.0504,0.016892,-0.133466,0.133466,-3.048020,3.041884,-0.046082,1.1519,26.7804,1.1906
3.0671,0.016743,-0.120224,0.120224,-3.048020,3.041884,-0.046082,1.1519,26.7804,1.1906
3.0839,0.016743,-0.107319,0.107319,-3.048020,3.041884,-0.046082,1.1519,26.7804,1.1906
3.1006,0.016754,-0.094825,0.094825,-3.048020,3.041884,-0.046082,1.1519,26.7804,1.1906
3.1174,0.016748,-0.082831,0.082831,-3.048020,3.041884,-0.046082,1.1519,26.7804,1.1906
3.1343,0.016884,-0.071319,0.071319,-3.048020,3.041884,-0.046084,1.1414,26.7759,1.1585
3.1514,0.017145,-0.060297,0.060297,-3.048020,3.041884,-0.046082,1.1527,26.7801,1.1943
3.1682,0.016750,-0.050248,0.050248,-3.048020,3.041884,-0.046082,1.1527,26.7801,1.1943
3.1849,0.016745,-0.040975,0.040975,-3.048020,3.041884,-0.046082,1.1519,26.7798,1.1916
3.2017,0.016749,-0.032532,0.032532,-3.048020,3.041884,-0.046082,1.1519,26.7798,1.1916
3.2184,0.016750,-0.024973,0.024973,-3.048020,3.041884,-0.046082,1.1519,26.7798,1.1916
3.2352,0.016756,-0.018342,0.018342,-3.048020,3.041884,-0.046082,1.1519,26.7798,1.1916
3.2519,0.016750,-0.012687,0.012687,-3.048020,3.041884,-0.046082,1.1519,26.7798,1.1916
3.2687,0.016748,-0.008040,0.008040,-3.048020,3.041884,-0.046082,1.1519,26.7798,1.1916
3.2854,0.016747,-0.004430,0.004430,-3.048020,3.041884,-0.046082,1.1519,26.7798,1.1916
3.3022,0.016746,-0.001879,0.001879,-3.048020,3.041884,-0.046082,1.1519,26.7798,1.1916
3.3189,0.016746,-0.000403,0.000403,-3.048020,3.041884,-0.046082,1.1519,26.7798,1.1916
3.3357,0.016752,-0.000011,0.000011,-3.048020,3.041884,-0.046082,1.1519,26.7798,1.1916
3.3524,0.016746,-0.000705,0.000705,-3.048020,3.041884,-0.046082,1.1519,26.7798,1.1916
3.3692,0.016747,-0.002481,0.002481,-3.048020,3.041884,-0.046082,1.1519,26.7798,1.1916
3.3859,0.016746,-0.005328,0.005328,-3.048020,3.041884,-0.046082,1.1519,26.7798,1.1916
3.4026,0.016744,-0.009227,0.009227,-3.048020,3.041884,-0.046082,1.1519,26.7798,1.1916
3.4194,0.016746,-0.014156,0.014156,-3.048020,3.041884,-0.046082,1.1519,26.7798,1.1916
3.4361,0.016752,-0.020085,0.020085,-3.048020,3.041884,-0.046082,1.1519,26.7798,1.1916
3.4530,0.016824,-0.027009,0.027009,-3.048020,3.041884,-0.046082,1.1519,26.7798,1.1916
3.4697,0.016743,-0.034819,0.034819,-3.048020,3.041884,-0.046082,1.1519,26.7798,1.1916
3.4865,0.016746,-0.043500,0.043500,-3.048020,3.041884,-0.046082,1.1519,26.7798,1.1916
3.5032,0.016745,-0.052995,0.052995,-3.048020,3.041884,-0.046082,1.1519,26.7798,1.1916
3.5199,0.016742,-0.063245,0.063245,-3.048020,3.041884,-0.046082,1.1519,26.7798,1.1916
3.5367,0.016762,-0.074201,0.074201,-3.048020,3.041884,-0.046082,1.1519,26.7798,1.1916
3.5535,0.016752,-0.085776,0.085776,-3.048020,3.041884,-0.046082,1.1519,26.7798,1.1916
3.5702,0.016743,-0.097897,0.097897,-3.048020,3.041884,-0.046082,1.1519,26.7798,1.1916
3.5869,0.016749,-0.110499,0.110499,-3.048020,3.041884,-0.046082,1.1519,26.7798,1.1916
3.6037,0.016757,-0.123506,0.123506,-3.048020,3.041884,-0.046082,1.1519,26.7798,1.1916
3.6205,0.016747,-0.136823,0.136823,-3.048020,3.041884,-0.046082,1.1519,26.7798,1.1916
3.6374,0.016941,-0.150533,0.150533,-3.048020,3.041884,-0.046082,1.1519,26.7798,1.1916
3.6542,0.016814,-0.164291,0.164291,-3.048020,3.041884,-0.046082,1.1519,26.7798,1.1916
3.6710,0.016753,-0.178064,0.178064,-3.048020,3.041884,-0.046082,1.1519,26.7798,1.1916
3.6877,0.016745,-0.191808,0.191808,-3.048020,3.041884,-0.046082,1.1519,26.7798,1.1916
3.7045,0.016752,-0.205450,0.205450,-3.048020,3.041884,-0.046082,1.1519,26.7798,1.1916
3.7212,0.016751,-0.218899,0.218899,-3.048020,3.041884,-0.046082,1.1519,26.7798,1.1916
3.7380,0.016755,-0.232075,0.232075,-3.048020,3.041884,-0.046082,1.1519,26.7798,1.1916
3.7547,0.016747,-0.244886,0.244886,-3.048020,3.041884,-0.046082,1.1519,26.7798,1.1916
3.7715,0.016756,-0.257266,0.257266,-3.048020,3.041884,-0.046082,1.1519,26.7798,1.1916
3.7882,0.016744,-0.269122,0.269122,-3.048020,3.041884,-0.046082,1.1519,26.7798,1.1916
3.8050,0.016758,-0.280398,0.280398,-3.048020,3.041884,-0.046082,1.1519,26.7798,1.1916
3.8224,0.017397,-0.291406,0.291406,-3.048020,3.041884,-0.046082,1.1519,26.7798,1.1916
3.8393,0.016915,-0.301356,0.301356,-3.048020,3.041884,-0.046082,1.1519,26.7798,1.1916
3.8560,0.016753,-0.310418,0.310418,-3.048020,3.041884,-0.046082,1.1519,26.7798,1.1916
3.8728,0.016755,-0.318633,0.318633,-3.048020,3.041884,-0.046082,1.1519,26.7798,1.1916
3.8895,0.016747,-0.325948,0.325948,-3.048020,3.041884,-0.046082,1.1519,26.7798,1.1916
3.9063,0.016758,-0.332324,0.332324,-3.048020,3.041884,-0.046082,1.1519,26.7798,1.1916
3.9230,0.016754,-0.337716,0.337716,-3.048020,3.041884,-0.046082,1.1519,26.7798,1.1916
3.9398,0.016749,-0.342089,0.342089,-3.048020,3.041884,-0.046082,1.1519,26.7798,1.1916
3.9566,0.016760,-0.345421,0.345421,-3.048020,3.041884,-0.046082,1.1519,26.7798,1.1916
3.9733,0.016757,-0.347688,0.347688,-3.048020,3.041884,-0.046082,1.1519,26.7798,1.1916
3.9901,0.016746,-0.348874,0.348874,-3.048020,3.041884,-0.046082,1.1519,26.7798,1.1916
4.0068,0.016753,-0.348976,0.348976,-3.048020,3.041884,-0.046082,1.1519,26.7798,1.1916
4.0236,0.016750,-0.347991,0.347991,-3.048020,3.041884,-0.046082,1.1519,26.7798,1.1916
4.0403,0.016754,-0.345925,0.345925,-3.048020,3.041884,-0.046082,1.1519,26.7798,1.1916
4.0571,0.016756,-0.342791,0.342791,-3.048020,3.041884,-0.046082,1.1519,26.7798,1.1916
4.0738,0.016755,-0.338609,0.338609,-3.048020,3.041884,-0.046082,1.1519,26.7798,1.1916
4.0906,0.016747,-0.333407,0.333407,-3.048020,3.041884,-0.046082,1.1519,26.7798,1.1916
4.1073,0.016748,-0.327216,0.327216,-3.048020,3.041884,-0.046075,1.1747,26.8367,1.1643
4.1241,0.016750,-0.320074,0.320074,-3.048020,3.041884,-0.046085,1.1390,26.7701,1.1613
4.1408,0.016759,-0.312020,0.312020,-3.048020,3.041884,-0.046082,1.1530,26.7808,1.1940
4.1576,0.016753,-0.303113,0.303113,-3.048020,3.041884,-0.046082,1.1530,26.7808,1.1940
4.1743,0.016755,-0.293403,0.293403,-3.048020,3.041884,-0.046082,1.1520,26.7800,1.1916
4.1911,0.016750,-0.282956,0.282956,-3.048020,3.041884,-0.046082,1.1520,26.7800,1.1916
4.2078,0.016749,-0.271835,0.271835,-3.048020,3.041884,-0.046082,1.1520,26.7800,1.1916
4.2246,0.016760,-0.260100,0.260100,-3.048020,3.041884,-0.046082,1.1520,26.7800,1.1916
4.2414,0.016758,-0.247833,0.247833,-3.048020,3.041884,-0.046082,1.1520,26.7800,1.1916
4.2581,0.016746,-0.235118,0.235118,-3.048020,3.041884,-0.046082,1.1520,26.7800,1.1916
4.2749,0.016755,-0.222020,0.222020,-3.048020,3.041884,-0.046082,1.1520,26.7800,1.1916
4.2916,0.016749,-0.208630,0.208630,-3.048020,3.041884,-0.046082,1.1520,26.7800,1.1916
4.3084,0.016743,-0.195033,0.195033,-3.048020,3.041884,-0.046082,1.1520,26.7800,1.1916
4.3251,0.016748,-0.181304,0.181304,-3.048020,3.041884,-0.046082,1.1520,26.7800,1.1916
4.3421,0.017005,-0.167322,0.167322,-3.048020,3.041884,-0.046082,1.1520,26.7800,1.1916
4.3589,0.016763,-0.153584,0.153584,-3.048020,3.041884,-0.046082,1.1520,26.7800,1.1916
4.3756,0.016757,-0.139981,0.139981,-3.048020,3.041884,-0.046082,1.1520,26.7800,1.1916
4.3924,0.016749,-0.126599,0.126599,-3.048020,3.041884,-0.046082,1.1520,26.7800,1.1916
4.4091,0.016748,-0.113517,0.113517,-3.048020,3.041884,-0.046082,1.1520,26.7800,1.1916
4.4259,0.016747,-0.100816,0.100816,-3.048020,3.041884,-0.046082,1.1520,26.7800,1.1916
4.4426,0.016747,-0.088574,0.088574,-3.048020,3.041884,-0.046082,1.1520,26.7800,1.1916
4.4594,0.016744,-0.076868,0.076868,-3.048020,3.041884,-0.046082,1.1520,26.7800,1.1916
4.4761,0.016755,-0.065763,0.065763,-3.048020,3.041884,-0.046082,1.1520,26.7800,1.1916
4.4929,0.016753,-0.055337,0.055337,-3.048020,3.041884,-0.046082,1.1520,26.7800,1.1916
4.5097,0.016828,-0.045613,0.045613,-3.048020,3.041884,-0.046082,1.1520,26.7800,1.1916
4.5267,0.017022,-0.036600,0.036600,-3.048020,3.041884,-0.046082,1.1520,26.7800,1.1916
4.5437,0.016972,-0.028497,0.028497,-3.048020,3.041884,-0.046075,1.1747,26.8367,1.1643
4.5604,0.016742,-0.021418,0.021418,-3.048020,3.041884,-0.046075,1.1747,26.8367,1.1643
4.5772,0.016748,-0.015290,0.015290,-3.048020,3.041884,-0.046083,1.1493,26.7738,1.1937
4.5939,0.016741,-0.010155,0.010155,-3.048020,3.041884,-0.046082,1.1519,26.7804,1.1906
4.6107,0.016753,-0.006041,0.006041,-3.048020,3.041884,-0.046082,1.1519,26.7804,1.1906
4.6274,0.016747,-0.002977,0.002977,-3.048020,3.041884,-0.046082,1.1519,26.7804,1.1906
4.6446,0.017148,-0.000946,0.000946,-3.048020,3.041884,-0.046082,1.1519,26.7804,1.1906
4.6613,0.016743,-0.000056,0.000056,-3.048020,3.041884,-0.046082,1.1519,26.7804,1.1906
4.6781,0.016750,-0.000251,0.000251,-3.048020,3.041884,-0.046082,1.1519,26.7804,1.1906
4.6948,0.016741,-0.001532,0.001532,-3.048020,3.041884,-0.046082,1.1519,26.7804,1.1906
4.7115,0.016745,-0.003889,0.003889,-3.048020,3.041884,-0.046082,1.1519,26.7804,1.1906
4.7283,0.016796,-0.007320,0.007320,-3.048020,3.041884,-0.046082,1.1519,26.7804,1.1906
4.7455,0.017116,-0.011893,0.011893,-3.048020,3.041884,-0.046082,1.1519,26.7804,1.1906
4.7622,0.016751,-0.017393,0.017393,-3.048020,3.041884,-0.046082,1.1519,26.7804,1.1906
4.7790,0.016752,-0.023872,0.023872,-3.048020,3.041884,-0.046082,1.1519,26.7804,1.1906
4.7957,0.016747,-0.031287,0.031287,-3.048020,3.041884,-0.046082,1.1519,26.7804,1.1906
4.8125,0.016752,-0.039596,0.039596,-3.048020,3.041884,-0.046082,1.1519,26.7804,1.1906
4.8292,0.016747,-0.048743,0.048743,-3.048020,3.041884,-0.046082,1.1519,26.7804,1.1906
4.8460,0.016766,-0.058685,0.058685,-3.048020,3.041884,-0.046082,1.1519,26.7804,1.1906
4.8627,0.016745,-0.069335,0.069335,-3.048020,3.041884,-0.046082,1.1519,26.7804,1.1906
4.8795,0.016754,-0.080647,0.080647,-3.048020,3.041884,-0.046082,1.1519,26.7804,1.1906
4.8962,0.016743,-0.092535,0.092535,-3.048020,3.041884,-0.046082,1.1519,26.7804,1.1906
4.9133,0.017070,-0.105181,0.105181,-3.048020,3.041884,-0.046082,1.1519,26.7804,1.1906
4.9300,0.016745,-0.118021,0.118021,-3.048020,3.041884,-0.046082,1.1519,26.7804,1.1906
4.9468,0.016771,-0.131235,0.131235,-3.048020,3.041884,-0.046082,1.1519,26.7804,1.1906
4.9635,0.016708,-0.144668,0.144668,-3.048020,3.041884,-0.046082,1.1519,26.7804,1.1906
4.9803,0.016751,-0.158320,0.158320,-3.048020,3.041884,-0.046082,1.1519,26.7804,1.1906
4.9970,0.016745,-0.172069,0.172069,-3.048020,3.041884,-0.046082,1.1519,26.7804,1.1906
5.0138,0.016753,-0.185840,0.185840,-3.048020,3.041884,-0.046082,1.1519,26.7804,1.1906
5.0305,0.016751,-0.199539,0.199539,-3.048020,3.041884,-0.046082,1.1519,26.7804,1.1906
5.0473,0.016774,-0.213100,0.213100,-3.048020,3.041884,-0.046082,1.1519,26.7804,1.1906
5.0640,0.016747,-0.226400,0.226400,-3.048020,3.041884,-0.046082,1.1519,26.7804,1.1906
5.0808,0.016753,-0.239381,0.239381,-3.048020,3.041884,-0.046082,1.1519,26.7804,1.1906
5.0975,0.016747,-0.251954,0.251954,-3.048020,3.041884,-0.046082,1.1519,26.7804,1.1906
5.1143,0.016762,-0.264055,0.264055,-3.048020,3.041884,-0.046082,1.1519,26.7804,1.1906
5.1310,0.016743,-0.275585,0.275585,-3.048020,3.041884,-0.046082,1.1519,26.7804,1.1906
5.1478,0.016763,-0.286500,0.286500,-3.048020,3.041884,-0.046082,1.1519,26.7804,1.1906
5.1645,0.016736,-0.296700,0.296700,-3.048020,3.041884,-0.046082,1.1519,26.7804,1.1906
5.1813,0.016758,-0.306152,0.306152,-3.048020,3.041884,-0.046082,1.1519,26.7804,1.1906
5.1980,0.016742,-0.314777,0.314777,-3.048020,3.041884,-0.046082,1.1519,26.7804,1.1906
5.2148,0.016768,-0.322540,0.322540,-3.048020,3.041884,-0.046082,1.1519,26.7804,1.1906
5.2315,0.016741,-0.329369,0.329369,-3.048020,3.041884,-0.046082,1.1519,26.7804,1.1906
5.2483,0.016770,-0.335244,0.335244,-3.048020,3.041884,-0.046082,1.1519,26.7804,1.1906
5.2651,0.016755,-0.340113,0.340113,-3.048020,3.041884,-0.046082,1.1519,26.7804,1.1906
5.2818,0.016754,-0.343949,0.343949,-3.048020,3.041884,-0.046082,1.1519,26.7804,1.1906
5.2986,0.016749,-0.346729,0.346729,-3.048020,3.041884,-0.046082,1.1519,26.7804,1.1906
5.3153,0.016764,-0.348438,0.348438,-3.048020,3.041884,-0.046082,1.1519,26.7804,1.1906
5.3321,0.016754,-0.349063,0.349063,-3.048020,3.041884,-0.046082,1.1519,26.7804,1.1906
5.3489,0.016773,-0.348599,0.348599,-3.048020,3.041884,-0.046082,1.1519,26.7804,1.1906
5.3656,0.016754,-0.347050,0.347050,-3.048020,3.041884,-0.046082,1.1519,26.7804,1.1906
5.3824,0.016753,-0.344427,0.344427,-3.048020,3.041884,-0.046082,1.1519,26.7804,1.1906
5.3991,0.016751,-0.340746,0.340746,-3.048020,3.041884,-0.046082,1.1519,26.7804,1.1906
5.4159,0.016756,-0.336028,0.336028,-3.048020,3.041884,-0.046082,1.1519,26.7804,1.1906
5.4326,0.016753,-0.330305,0.330305,-3.048020,3.041884,-0.046082,1.1519,26.7804,1.1906
5.4494,0.016778,-0.323600,0.323600,-3.048020,3.041884,-0.046082,1.1519,26.7804,1.1906
5.4662,0.016757,-0.315975,0.315975,-3.048020,3.041884,-0.046075,1.1747,26.8367,1.1644
5.4829,0.016761,-0.307466,0.307466,-3.048020,3.041884,-0.046083,1.1493,26.7738,1.1937
5.4997,0.016754,-0.298132,0.298132,-3.048020,3.041884,-0.046082,1.1519,26.7804,1.1906
5.5164,0.016765,-0.288021,0.288021,-3.048020,3.041884,-0.046082,1.1519,26.7804,1.1906
5.5332,0.016763,-0.277204,0.277204,-3.048020,3.041884,-0.046082,1.1519,26.7804,1.1906
5.5500,0.016759,-0.265749,0.265749,-3.048020,3.041884,-0.046082,1.1519,26.7804,1.1906
5.5667,0.016758,-0.253726,0.253726,-3.048020,3.041884,-0.046082,1.1519,26.7804,1.1906
5.5844,0.017692,-0.240499,0.240499,-3.048020,3.041884,-0.046082,1.1519,26.7804,1.1906
5.6012,0.016755,-0.227548,0.227548,-3.048020,3.041884,-0.046082,1.1519,26.7804,1.1906
5.6182,0.017033,-0.214044,0.214044,-3.048020,3.041884,-0.046082,1.1519,26.7804,1.1906
5.6350,0.016754,-0.200513,0.200513,-3.048020,3.041884,-0.046082,1.1519,26.7804,1.1906
5.6517,0.016758,-0.186817,0.186817,-3.048020,3.041884,-0.046084,1.1414,26.7759,1.1585
5.6685,0.016749,-0.173052,0.173052,-3.048020,3.041884,-0.046082,1.1527,26.7801,1.1943
5.6855,0.017036,-0.159060,0.159060,-3.048020,3.041884,-0.046075,1.1746,26.8367,1.1640
5.7023,0.016751,-0.145400,0.145400,-3.048020,3.041884,-0.046075,1.1724,26.8308,1.1672
5.7190,0.016773,-0.131903,0.131903,-3.048020,3.041884,-0.046075,1.1724,26.8308,1.1672
5.7358,0.016764,-0.118680,0.118680,-3.048020,3.041884,-0.046083,1.1495,26.7744,1.1934
5.7525,0.016758,-0.105810,0.105810,-3.048020,3.041884,-0.046082,1.1519,26.7803,1.1906
5.7693,0.016754,-0.093370,0.093370,-3.048020,3.041884,-0.046082,1.1519,26.7803,1.1906
5.7861,0.016774,-0.081423,0.081423,-3.048020,3.041884,-0.046075,1.1747,26.8367,1.1644
5.8028,0.016758,-0.070067,0.070067,-3.048020,3.041884,-0.046083,1.1493,26.7738,1.1937
5.8196,0.016777,-0.059351,0.059351,-3.048020,3.041884,-0.046083,1.1493,26.7738,1.1937
5.8364,0.016751,-0.049370,0.049370,-3.048020,3.041884,-0.046082,1.1519,26.7804,1.1906
5.8531,0.016760,-0.040163,0.040163,-3.048020,3.041884,-0.046082,1.1519,26.7804,1.1906
5.8699,0.016751,-0.031798,0.031798,-3.048020,3.041884,-0.046082,1.1519,26.7804,1.1906
5.8866,0.016769,-0.024315,0.024315,-3.048020,3.041884,-0.046082,1.1519,26.7804,1.1906
5.9036,0.016984,-0.017691,0.017691,-3.048020,3.041884,-0.046082,1.1519,26.7804,1.1906
5.9204,0.016812,-0.012124,0.012124,-3.048020,3.041884,-0.046082,1.1519,26.7804,1.1906
5.9372,0.016759,-0.007588,0.007588,-3.048020,3.041884,-0.046084,1.1414,26.7759,1.1585
5.9540,0.016759,-0.004092,0.004092,-3.048020,3.041884,-0.046082,1.1527,26.7801,1.1943
5.9707,0.016760,-0.001659,0.001659,-3.048020,3.041884,-0.046082,1.1519,26.7798,1.1916
5.9875,0.016775,-0.000303,0.000303,-3.048020,3.041884,-0.046082,1.1519,26.7798,1.1916
6.0042,0.016755,-0.000035,0.000035,-3.048020,3.041884,-0.046082,1.1519,26.7798,1.1916
6.0210,0.016786,-0.000857,0.000857,-3.048020,3.041884,-0.046082,1.1519,26.7798,1.1916
6.0378,0.016763,-0.002761,0.002761,-3.048020,3.041884,-0.046084,1.1414,26.7760,1.1584
6.0546,0.016759,-0.005736,0.005736,-3.048020,3.041884,-0.046074,1.1758,26.8371,1.1678
6.0713,0.016759,-0.009763,0.009763,-3.048020,3.041884,-0.046083,1.1491,26.7738,1.1933
6.0881,0.016758,-0.014817,0.014817,-3.048020,3.041884,-0.046082,1.1519,26.7804,1.1906
6.1049,0.016802,-0.020884,0.020884,-3.048020,3.041884,-0.046082,1.1519,26.7804,1.1906
6.1217,0.016784,-0.027905,0.027905,-3.048020,3.041884,-0.046082,1.1519,26.7804,1.1906
6.1384,0.016780,-0.035841,0.035841,-3.048020,3.041884,-0.046082,1.1519,26.7804,1.1906
6.1552,0.016755,-0.044630,0.044630,-3.048020,3.041884,-0.046082,1.1519,26.7804,1.1906
6.1721,0.016868,-0.054296,0.054296,-3.048020,3.041884,-0.046082,1.1519,26.7804,1.1906
6.1888,0.016758,-0.064651,0.064651,-3.048020,3.041884,-0.046082,1.1519,26.7804,1.1906
6.2058,0.017021,-0.075869,0.075869,-3.048020,3.041884,-0.046082,1.1519,26.7804,1.1906
6.2226,0.016759,-0.087535,0.087535,-3.048020,3.041884,-0.046082,1.1519,26.7804,1.1906
6.2394,0.016761,-0.099744,0.099744,-3.048020,3.041884,-0.046082,1.1519,26.7804,1.1906
6.2561,0.016753,-0.112414,0.112414,-3.048020,3.041884,-0.046082,1.1519,26.7804,1.1906
6.2729,0.016765,-0.125480,0.125480,-3.048020,3.041884,-0.046082,1.1519,26.7804,1.1906
6.2896,0.016757,-0.138845,0.138845,-3.048020,3.041884,-0.046082,1.1519,26.7804,1.1906
6.3066,0.016922,-0.152568,0.152568,-3.048020,3.041884,-0.046082,1.1519,26.7804,1.1906
6.3233,0.016758,-0.166295,0.166295,-3.048020,3.041884,-0.046082,1.1519,26.7804,1.1906
6.3401,0.016771,-0.180085,0.180085,-3.048020,3.041884,-0.046082,1.1519,26.7804,1.1906
6.3568,0.016752,-0.193824,0.193824,-3.048020,3.041884,-0.046082,1.1519,26.7804,1.1906
6.3736,0.016775,-0.207462,0.207462,-3.048020,3.041884,-0.046082,1.1519,26.7804,1.1906
6.3904,0.016766,-0.220888,0.220888,-3.048020,3.041884,-0.046082,1.1519,26.7804,1.1906
6.4072,0.016774,-0.234030,0.234030,-3.048020,3.041884,-0.046082,1.1519,26.7804,1.1906
6.4239,0.016757,-0.246788,0.246788,-3.048020,3.041884,-0.046082,1.1519,26.7804,1.1906
6.4407,0.016770,-0.259104,0.259104,-3.048020,3.041884,-0.046082,1.1519,26.7804,1.1906
6.4574,0.016751,-0.270881,0.270881,-3.048020,3.041884,-0.046082,1.1519,26.7804,1.1906
6.4742,0.016770,-0.282068,0.282068,-3.048020,3.041884,-0.046082,1.1519,26.7804,1.1906
6.4910,0.016753,-0.292575,0.292575,-3.048020,3.041884,-0.046082,1.1519,26.7804,1.1906
6.5077,0.016763,-0.302352,0.302352,-3.048020,3.041884,-0.046082,1.1519,26.7804,1.1906
6.5245,0.016763,-0.311332,0.311332,-3.048020,3.041884,-0.046082,1.1519,26.7804,1.1906
6.5413,0.016771,-0.319462,0.319462,-3.048020,3.041884,-0.046082,1.1519,26.7804,1.1906
6.5580,0.016754,-0.326680,0.326680,-3.048020,3.041884,-0.046082,1.1519,26.7804,1.1906
6.5750,0.016985,-0.333031,0.333031,-3.048020,3.041884,-0.046082,1.1519,26.7804,1.1906
6.5918,0.016768,-0.338304,0.338304,-3.048020,3.041884,-0.046082,1.1519,26.7804,1.1906
6.6085,0.016771,-0.342557,0.342557,-3.048020,3.041884,-0.046082,1.1519,26.7804,1.1906
6.6253,0.016752,-0.345757,0.345757,-3.048020,3.041884,-0.046082,1.1519,26.7804,1.1906
6.6420,0.016748,-0.347891,0.347891,-3.048020,3.041884,-0.046084,1.1414,26.7759,1.1585
6.6588,0.016754,-0.348945,0.348945,-3.048020,3.041884,-0.046082,1.1527,26.7801,1.1943
6.6758,0.016975,-0.348906,0.348906,-3.048020,3.041884,-0.046082,1.1527,26.7801,1.1943
6.6925,0.016750,-0.347773,0.347773,-3.048020,3.041884,-0.046082,1.1519,26.7798,1.1916
6.7093,0.016765,-0.345560,0.345560,-3.048020,3.041884,-0.046082,1.1519,26.7798,1.1916
6.7260,0.016755,-0.342282,0.342282,-3.048020,3.041884,-0.046082,1.1519,26.7798,1.1916
6.7428,0.016769,-0.337954,0.337954,-3.048020,3.041884,-0.046082,1.1519,26.7798,1.1916
6.7596,0.016755,-0.332612,0.332612,-3.048020,3.041884,-0.046082,1.1519,26.7798,1.1916
6.7763,0.016773,-0.326277,0.326277,-3.048020,3.041884,-0.046082,1.1519,26.7798,1.1916
6.7931,0.016764,-0.318999,0.318999,-3.048020,3.041884,-0.046082,1.1519,26.7798,1.1916
6.8098,0.016753,-0.310825,0.310825,-3.048020,3.041884,-0.046082,1.1519,26.7798,1.1916
6.8266,0.016753,-0.301803,0.301803,-3.048020,3.041884,-0.046082,1.1519,26.7798,1.1916
6.8434,0.016767,-0.291978,0.291978,-3.048020,3.041884,-0.046082,1.1519,26.7798,1.1916
6.8601,0.016750,-0.281432,0.281432,-3.048020,3.041884,-0.046082,1.1519,26.7798,1.1916
6.8769,0.016768,-0.270209,0.270209,-3.048020,3.041884,-0.046082,1.1519,26.7798,1.1916
6.8936,0.016748,-0.258403,0.258403,-3.048020,3.041884,-0.046082,1.1519,26.7798,1.1916
6.9104,0.016757,-0.246067,0.246067,-3.048020,3.041884,-0.046082,1.1519,26.7798,1.1916
6.9271,0.016756,-0.233287,0.233287,-3.048020,3.041884,-0.046082,1.1519,26.7798,1.1916
6.9439,0.016765,-0.220133,0.220133,-3.048020,3.041884,-0.046084,1.1414,26.7760,1.1584
6.9608,0.016922,-0.206568,0.206568,-3.048020,3.041884,-0.046082,1.1527,26.7801,1.1943
6.9786,0.017736,-0.192134,0.192134,-3.048020,3.041884,-0.046082,1.1519,26.7798,1.1916
6.9953,0.016764,-0.178376,0.178376,-3.048020,3.041884,-0.046082,1.1519,26.7798,1.1916
7.0121,0.016757,-0.164600,0.164600,-3.048020,3.041884,-0.046082,1.1519,26.7798,1.1916
7.0288,0.016759,-0.150884,0.150884,-3.048020,3.041884,-0.046082,1.1519,26.7798,1.1916
7.0458,0.016991,-0.137128,0.137128,-3.048020,3.041884,-0.046082,1.1519,26.7798,1.1916
7.0626,0.016808,-0.123756,0.123756,-3.048020,3.041884,-0.046082,1.1519,26.7798,1.1916
7.0794,0.016758,-0.110742,0.110742,-3.048020,3.041884,-0.046082,1.1519,26.7798,1.1916
7.0962,0.016754,-0.098127,0.098127,-3.048020,3.041884,-0.046082,1.1519,26.7798,1.1916
7.1129,0.016756,-0.085987,0.085987,-3.048020,3.041884,-0.046082,1.1519,26.7798,1.1916
7.1297,0.016753,-0.074401,0.074401,-3.048020,3.041884,-0.046082,1.1519,26.7798,1.1916
7.1464,0.016769,-0.063429,0.063429,-3.048020,3.041884,-0.046082,1.1519,26.7798,1.1916
7.1632,0.016750,-0.053161,0.053161,-3.048020,3.041884,-0.046082,1.1519,26.7798,1.1916
7.1800,0.016768,-0.043640,0.043640,-3.048020,3.041884,-0.046082,1.1519,26.7798,1.1916
7.1967,0.016757,-0.034941,0.034941,-3.048020,3.041884,-0.046082,1.1519,26.7798,1.1916
7.2135,0.016752,-0.027113,0.027113,-3.048020,3.041884,-0.046082,1.1519,26.7798,1.1916
7.2302,0.016758,-0.020202,0.020202,-3.048020,3.041884,-0.046082,1.1519,26.7798,1.1916
7.2470,0.016773,-0.014248,0.014248,-3.048020,3.041884,-0.046082,1.1519,26.7798,1.1916
7.2637,0.016752,-0.009301,0.009301,-3.048020,3.041884,-0.046082,1.1519,26.7798,1.1916
7.2810,0.017292,-0.005273,0.005273,-3.048020,3.041884,-0.046082,1.1519,26.7798,1.1916
7.2978,0.016762,-0.002441,0.002441,-3.048020,3.041884,-0.046082,1.1519,26.7798,1.1916
7.3146,0.016763,-0.000682,0.000682,-3.048020,3.041884,-0.046082,1.1519,26.7798,1.1916
7.3313,0.016759,-0.000008,0.000008,-3.048020,3.041884,-0.046082,1.1519,26.7798,1.1916
7.3481,0.016769,-0.000422,0.000422,-3.048020,3.041884,-0.046082,1.1519,26.7798,1.1916
7.3648,0.016754,-0.001921,0.001921,-3.048020,3.041884,-0.046082,1.1519,26.7798,1.1916
7.3822,0.017335,-0.004603,0.004603,-3.048020,3.041884,-0.046082,1.1519,26.7798,1.1916
7.3989,0.016762,-0.008275,0.008275,-3.048020,3.041884,-0.046082,1.1519,26.7798,1.1916
7.4157,0.016762,-0.012984,0.012984,-3.048020,3.041884,-0.046082,1.1519,26.7798,1.1916
7.4325,0.016763,-0.018701,0.018701,-3.048020,3.041884,-0.046082,1.1519,26.7798,1.1916
7.4492,0.016772,-0.025393,0.025393,-3.048020,3.041884,-0.046082,1.1519,26.7798,1.1916
7.4660,0.016775,-0.033018,0.033018,-3.048020,3.041884,-0.046082,1.1519,26.7798,1.1916
7.4828,0.016774,-0.041527,0.041527,-3.048020,3.041884,-0.046082,1.1519,26.7798,1.1916
7.4996,0.016781,-0.050870,0.050870,-3.048020,3.041884,-0.046082,1.1519,26.7798,1.1916
7.5163,0.016754,-0.060969,0.060969,-3.048020,3.041884,-0.046082,1.1519,26.7798,1.1916
7.5331,0.016765,-0.071782,0.071782,-3.048020,3.041884,-0.046082,1.1519,26.7798,1.1916
7.5500,0.016865,-0.083307,0.083307,-3.048020,3.041884,-0.046082,1.1519,26.7798,1.1916
7.5667,0.016765,-0.095335,0.095335,-3.048020,3.041884,-0.046082,1.1519,26.7798,1.1916
7.5835,0.016768,-0.107859,0.107859,-3.048020,3.041884,-0.046082,1.1519,26.7798,1.1916
7.6002,0.016761,-0.120793,0.120793,-3.048020,3.041884,-0.046082,1.1519,26.7798,1.1916
7.6170,0.016755,-0.134058,0.134058,-3.048020,3.041884,-0.046082,1.1519,26.7798,1.1916
7.6338,0.016761,-0.147580,0.147580,-3.048020,3.041884,-0.046082,1.1519,26.7798,1.1916
7.6505,0.016761,-0.161270,0.161270,-3.048020,3.041884,-0.046082,1.1519,26.7798,1.1916
7.6673,0.016758,-0.175041,0.175041,-3.048020,3.041884,-0.046082,1.1519,26.7798,1.1916
7.6841,0.016774,-0.188821,0.188821,-3.048020,3.041884,-0.046082,1.1519,26.7798,1.1916
7.7008,0.016748,-0.202490,0.202490,-3.048020,3.041884,-0.046082,1.1519,26.7798,1.1916
7.7177,0.016911,-0.216117,0.216117,-3.048020,3.041884,-0.046082,1.1519,26.7798,1.1916
7.7346,0.016911,-0.229479,0.229479,-3.048020,3.041884,-0.046082,1.1519,26.7798,1.1916
7.7514,0.016760,-0.242378,0.242378,-3.048020,3.041884,-0.046082,1.1519,26.7798,1.1916
7.7682,0.016772,-0.254862,0.254862,-3.048020,3.041884,-0.046082,1.1519,26.7798,1.1916
7.7849,0.016763,-0.266839,0.266839,-3.048020,3.041884,-0.046082,1.1519,26.7798,1.1916
7.8017,0.016752,-0.278232,0.278232,-3.048020,3.041884,-0.046082,1.1519,26.7798,1.1916
7.8184,0.016753,-0.288981,0.288981,-3.048020,3.041884,-0.046082,1.1519,26.7798,1.1916
7.8352,0.016756,-0.299018,0.299018,-3.048020,3.041884,-0.046082,1.1519,26.7798,1.1916
7.8519,0.016758,-0.308281,0.308281,-3.048020,3.041884,-0.046082,1.1519,26.7798,1.1916
7.8687,0.016774,-0.316717,0.316717,-3.048020,3.041884,-0.046082,1.1519,26.7798,1.1916
7.8855,0.016759,-0.324259,0.324259,-3.048020,3.041884,-0.046082,1.1519,26.7798,1.1916
7.9022,0.016756,-0.330867,0.330867,-3.048020,3.041884,-0.046082,1.1519,26.7798,1.1916
7.9190,0.016757,-0.336501,0.336501,-3.048020,3.041884,-0.046082,1.1519,26.7798,1.1916
7.9357,0.016756,-0.341125,0.341125,-3.048020,3.041884,-0.046082,1.1519,26.7798,1.1916
7.9525,0.016758,-0.344712,0.344712,-3.048020,3.041884,-0.046082,1.1519,26.7798,1.1916
7.9693,0.016773,-0.347240,0.347240,-3.048020,3.041884,-0.046082,1.1519,26.7798,1.1916
7.9860,0.016753,-0.348688,0.348688,-3.048020,3.041884,-0.046082,1.1519,26.7798,1.1916
8.0028,0.016749,-0.349051,0.349051,-3.048020,3.041884,-0.046082,1.1519,26.7798,1.1916
8.0195,0.016755,-0.348327,0.348327,-3.048020,3.041884,-0.046082,1.1519,26.7798,1.1916
8.0363,0.016757,-0.346520,0.346520,-3.048020,3.041884,-0.046082,1.1519,26.7798,1.1916
8.0533,0.017015,-0.343589,0.343589,-3.048020,3.041884,-0.046082,1.1519,26.7798,1.1916
8.0701,0.016788,-0.339632,0.339632,-3.048020,3.041884,-0.046082,1.1519,26.7798,1.1916
8.0868,0.016757,-0.334652,0.334652,-3.048020,3.041884,-0.046082,1.1519,26.7798,1.1916
8.1036,0.016715,-0.328691,0.328691,-3.048020,3.041884,-0.046082,1.1519,26.7798,1.1916
8.1203,0.016784,-0.321743,0.321743,-3.048020,3.041884,-0.046082,1.1519,26.7798,1.1916
8.1371,0.016771,-0.313882,0.313882,-3.048020,3.041884,-0.046082,1.1519,26.7798,1.1916
8.1545,0.017382,-0.304816,0.304816,-3.048020,3.041884,-0.046082,1.1519,26.7798,1.1916
8.1713,0.016758,-0.295248,0.295248,-3.048020,3.041884,-0.046082,1.1519,26.7798,1.1916
8.1880,0.016766,-0.284923,0.284923,-3.048020,3.041884,-0.046082,1.1519,26.7798,1.1916
8.2048,0.016759,-0.273913,0.273913,-3.048020,3.041884,-0.046082,1.1519,26.7798,1.1916
8.2215,0.016765,-0.262280,0.262280,-3.048020,3.041884,-0.046082,1.1519,26.7798,1.1916
8.2383,0.016755,-0.250107,0.250107,-3.048020,3.041884,-0.046082,1.1519,26.7798,1.1916
8.2551,0.016753,-0.237464,0.237464,-3.048020,3.041884,-0.046082,1.1519,26.7798,1.1916
8.2743,0.019281,-0.222434,0.222434,-3.048020,3.041884,-0.046082,1.1519,26.7798,1.1916
8.2911,0.016748,-0.209053,0.209053,-3.048020,3.041884,-0.046082,1.1519,26.7798,1.1916
8.3078,0.016762,-0.195445,0.195445,-3.048020,3.041884,-0.046082,1.1519,26.7798,1.1916
8.3246,0.016753,-0.181715,0.181715,-3.048020,3.041884,-0.046082,1.1519,26.7798,1.1916
8.3414,0.016764,-0.167930,0.167930,-3.048020,3.041884,-0.046082,1.1519,26.7798,1.1916
8.3582,0.016787,-0.154168,0.154168,-3.048020,3.041884,-0.046082,1.1519,26.7798,1.1916
8.3749,0.016789,-0.140532,0.140532,-3.048020,3.041884,-0.046082,1.1519,26.7798,1.1916
8.3917,0.016753,-0.127137,0.127137,-3.048020,3.041884,-0.046082,1.1519,26.7798,1.1916
8.4085,0.016776,-0.114020,0.114020,-3.048020,3.041884,-0.046082,1.1519,26.7798,1.1916
8.4252,0.016757,-0.101295,0.101295,-3.048020,3.041884,-0.046082,1.1519,26.7798,1.1916
8.4421,0.016899,-0.088924,0.088924,-3.048020,3.041884,-0.046082,1.1519,26.7798,1.1916
8.4589,0.016752,-0.077196,0.077196,-3.048020,3.041884,-0.046082,1.1519,26.7798,1.1916
8.4759,0.017036,-0.065892,0.065892,-3.048020,3.041884,-0.046082,1.1519,26.7798,1.1916
8.4927,0.016749,-0.055460,0.055460,-3.048020,3.041884,-0.046082,1.1519,26.7798,1.1916
8.5094,0.016763,-0.045762,0.045762,-3.048020,3.041884,-0.046082,1.1519,26.7798,1.1916
8.5262,0.016750,-0.036873,0.036873,-3.048020,3.041884,-0.046082,1.1519,26.7798,1.1916
8.5429,0.016775,-0.028831,0.028831,-3.048020,3.041884,-0.046082,1.1519,26.7798,1.1916
8.5597,0.016751,-0.021707,0.021707,-3.048020,3.041884,-0.046082,1.1519,26.7798,1.1916
8.5765,0.016793,-0.015522,0.015522,-3.048020,3.041884,-0.046082,1.1519,26.7798,1.1916
8.5932,0.016753,-0.010343,0.010343,-3.048020,3.041884,-0.046082,1.1519,26.7798,1.1916
8.6100,0.016752,-0.006186,0.006186,-3.048020,3.041884,-0.046082,1.1519,26.7798,1.1916
8.6268,0.016759,-0.003077,0.003077,-3.048020,3.041884,-0.046082,1.1519,26.7798,1.1916
8.6435,0.016758,-0.001038,0.001038,-3.048020,3.041884,-0.046082,1.1519,26.7798,1.1916
8.6603,0.016747,-0.000079,0.000079,-3.048020,3.041884,-0.046082,1.1519,26.7798,1.1916
8.6770,0.016761,-0.000208,0.000208,-3.048020,3.041884,-0.046082,1.1519,26.7798,1.1916
8.6938,0.016748,-0.001422,0.001422,-3.048020,3.041884,-0.046082,1.1519,26.7798,1.1916
8.7105,0.016758,-0.003715,0.003715,-3.048020,3.041884,-0.046082,1.1519,26.7798,1.1916
8.7273,0.016751,-0.007072,0.007072,-3.048020,3.041884,-0.046082,1.1519,26.7798,1.1916
8.7445,0.017215,-0.011608,0.011608,-3.048020,3.041884,-0.046082,1.1519,26.7798,1.1916
8.7614,0.016929,-0.017113,0.017113,-3.048020,3.041884,-0.046082,1.1519,26.7798,1.1916
8.7782,0.016760,-0.023551,0.023551,-3.048020,3.041884,-0.046082,1.1519,26.7798,1.1916
8.7949,0.016757,-0.030928,0.030928,-3.048020,3.041884,-0.046082,1.1519,26.7798,1.1916
8.8117,0.016769,-0.039207,0.039207,-3.048020,3.041884,-0.046082,1.1519,26.7798,1.1916
8.8286,0.016906,-0.048408,0.048408,-3.048020,3.041884,-0.046082,1.1519,26.7798,1.1916
8.8454,0.016760,-0.058319,0.058319,-3.048020,3.041884,-0.046082,1.1519,26.7798,1.1916
8.8621,0.016771,-0.068962,0.068962,-3.048020,3.041884,-0.046082,1.1519,26.7798,1.1916
8.8789,0.016798,-0.080283,0.080283,-3.048020,3.041884,-0.046082,1.1519,26.7798,1.1916
8.8957,0.016776,-0.092179,0.092179,-3.048020,3.041884,-0.046082,1.1519,26.7798,1.1916
8.9125,0.016752,-0.104570,0.104570,-3.048020,3.041884,-0.046082,1.1519,26.7798,1.1916
8.9292,0.016750,-0.117396,0.117396,-3.048020,3.041884,-0.046082,1.1519,26.7798,1.1916
8.9460,0.016816,-0.130630,0.130630,-3.048020,3.041884,-0.046082,1.1519,26.7798,1.1916
8.9630,0.016973,-0.144267,0.144267,-3.048020,3.041884,-0.046082,1.1519,26.7798,1.1916
8.9798,0.016764,-0.157926,0.157926,-3.048020,3.041884,-0.046082,1.1519,26.7798,1.1916
8.9965,0.016750,-0.171677,0.171677,-3.048020,3.041884,-0.046082,1.1519,26.7798,1.1916
9.0133,0.016752,-0.185448,0.185448,-3.048020,3.041884,-0.046082,1.1519,26.7798,1.1916
9.0300,0.016749,-0.199148,0.199148,-3.048020,3.041884,-0.046082,1.1519,26.7798,1.1916
9.0468,0.016756,-0.212700,0.212700,-3.048020,3.041884,-0.046075,1.1747,26.8367,1.1643
9.0635,0.016744,-0.226006,0.226006,-3.048020,3.041884,-0.046083,1.1493,26.7738,1.1937
9.0803,0.016758,-0.239002,0.239002,-3.048020,3.041884,-0.046083,1.1493,26.7738,1.1937
9.0970,0.016750,-0.251590,0.251590,-3.048020,3.041884,-0.046082,1.1519,26.7804,1.1906
9.1138,0.016747,-0.263696,0.263696,-3.048020,3.041884,-0.046082,1.1519,26.7804,1.1906
9.1305,0.016743,-0.275244,0.275244,-3.048020,3.041884,-0.046082,1.1519,26.7804,1.1906
9.1473,0.016745,-0.286167,0.286167,-3.048020,3.041884,-0.046082,1.1519,26.7804,1.1906
9.1640,0.016749,-0.296398,0.296398,-3.048020,3.041884,-0.046082,1.1519,26.7804,1.1906
9.1808,0.016748,-0.305869,0.305869,-3.048020,3.041884,-0.046082,1.1519,26.7804,1.1906
9.1975,0.016748,-0.314523,0.314523,-3.048020,3.041884,-0.046082,1.1519,26.7804,1.1906
9.2143,0.016747,-0.322305,0.322305,-3.048020,3.041884,-0.046084,1.1414,26.7759,1.1585
9.2310,0.016744,-0.329165,0.329165,-3.048020,3.041884,-0.046082,1.1527,26.7801,1.1943
9.2478,0.016744,-0.335064,0.335064,-3.048020,3.041884,-0.046082,1.1519,26.7798,1.1916
9.2645,0.016770,-0.339970,0.339970,-3.048020,3.041884,-0.046082,1.1519,26.7798,1.1916
9.2813,0.016743,-0.343838,0.343838,-3.048020,3.041884,-0.046082,1.1519,26.7798,1.1916
9.2980,0.016754,-0.346655,0.346655,-3.048020,3.041884,-0.046082,1.1519,26.7798,1.1916
9.3148,0.016742,-0.348398,0.348398,-3.048020,3.041884,-0.046082,1.1519,26.7798,1.1916
9.3315,0.016744,-0.349059,0.349059,-3.048020,3.041884,-0.046082,1.1519,26.7798,1.1916
9.3482,0.016743,-0.348635,0.348635,-3.048020,3.041884,-0.046082,1.1519,26.7798,1.1916
9.3654,0.017181,-0.347073,0.347073,-3.048020,3.041884,-0.046082,1.1519,26.7798,1.1916
9.3822,0.016744,-0.344464,0.344464,-3.048020,3.041884,-0.046082,1.1519,26.7798,1.1916
9.3989,0.016751,-0.340795,0.340795,-3.048020,3.041884,-0.046082,1.1519,26.7798,1.1916
9.4157,0.016742,-0.336094,0.336094,-3.048020,3.041884,-0.046082,1.1519,26.7798,1.1916
9.4324,0.016742,-0.330387,0.330387,-3.048020,3.041884,-0.046082,1.1519,26.7798,1.1916
9.4492,0.016743,-0.323710,0.323710,-3.048020,3.041884,-0.046082,1.1519,26.7798,1.1916
9.4662,0.017074,-0.315946,0.315946,-3.048020,3.041884,-0.046082,1.1519,26.7798,1.1916
9.4830,0.016743,-0.307444,0.307444,-3.048020,3.041884,-0.046082,1.1519,26.7798,1.1916
9.4997,0.016745,-0.298113,0.298113,-3.048020,3.041884,-0.046082,1.1519,26.7798,1.1916
9.5165,0.016741,-0.288016,0.288016,-3.048020,3.041884,-0.046082,1.1519,26.7798,1.1916
9.5332,0.016744,-0.277211,0.277211,-3.048020,3.041884,-0.046082,1.1519,26.7798,1.1916
9.5499,0.016743,-0.265767,0.265767,-3.048020,3.041884,-0.046082,1.1519,26.7798,1.1916
9.5669,0.016991,-0.253575,0.253575,-3.048020,3.041884,-0.046082,1.1519,26.7798,1.1916
9.5837,0.016743,-0.241064,0.241064,-3.048020,3.041884,-0.046082,1.1519,26.7798,1.1916
9.6004,0.016747,-0.228137,0.228137,-3.048020,3.041884,-0.046082,1.1519,26.7798,1.1916
9.6172,0.016744,-0.214878,0.214878,-3.048020,3.041884,-0.046082,1.1519,26.7798,1.1916
9.6339,0.016742,-0.201370,0.201370,-3.048020,3.041884,-0.046082,1.1519,26.7798,1.1916
9.6507,0.016744,-0.187692,0.187692,-3.048020,3.041884,-0.046082,1.1519,26.7798,1.1916
9.6677,0.017094,-0.173646,0.173646,-3.048020,3.041884,-0.046082,1.1519,26.7798,1.1916
9.6845,0.016747,-0.159889,0.159889,-3.048020,3.041884,-0.046082,1.1519,26.7798,1.1916
9.7012,0.016750,-0.146221,0.146221,-3.048020,3.041884,-0.046075,1.1747,26.8367,1.1643
9.7180,0.016745,-0.132734,0.132734,-3.048020,3.041884,-0.046083,1.1493,26.7738,1.1937
9.7349,0.016878,-0.119403,0.119403,-3.048020,3.041884,-0.046082,1.1519,26.7804,1.1906
9.7516,0.016745,-0.106521,0.106521,-3.048020,3.041884,-0.046082,1.1519,26.7804,1.1906
9.7687,0.017111,-0.093795,0.093795,-3.048020,3.041884,-0.046082,1.1519,26.7804,1.1906
9.7855,0.016749,-0.081846,0.081846,-3.048020,3.041884,-0.046082,1.1519,26.7804,1.1906
9.8022,0.016713,-0.070498,0.070498,-3.048020,3.041884,-0.046082,1.1519,26.7804,1.1906
9.8189,0.016747,-0.059774,0.059774,-3.048020,3.041884,-0.046082,1.1519,26.7804,1.1906
9.8357,0.016757,-0.049759,0.049759,-3.048020,3.041884,-0.046082,1.1519,26.7804,1.1906
9.8524,0.016748,-0.040526,0.040526,-3.048020,3.041884,-0.046082,1.1519,26.7804,1.1906
9.8692,0.016766,-0.032118,0.032118,-3.048020,3.041884,-0.046082,1.1519,26.7804,1.1906
9.8859,0.016746,-0.024608,0.024608,-3.048020,3.041884,-0.046082,1.1519,26.7804,1.1906
9.9027,0.016763,-0.018024,0.018024,-3.048020,3.041884,-0.046082,1.1519,26.7804,1.1906
9.9195,0.016745,-0.012422,0.012422,-3.048020,3.041884,-0.046082,1.1519,26.7804,1.1906
9.9362,0.016757,-0.007826,0.007826,-3.048020,3.041884,-0.046082,1.1519,26.7804,1.1906
9.9530,0.016745,-0.004271,0.004271,-3.048020,3.041884,-0.046082,1.1519,26.7804,1.1906
9.9699,0.016944,-0.001753,0.001753,-3.048020,3.041884,-0.046082,1.1519,26.7804,1.1906
9.9866,0.016748,-0.000345,0.000345,-3.048020,3.041884,-0.046082,1.1519,26.7804,1.1906
10.0034,0.016758,-0.000022,0.000022,-3.048020,3.041884,-0.046082,1.1519,26.7804,1.1906
10.0201,0.016744,-0.000786,0.000786,-3.048020,3.041884,-0.046082,1.1519,26.7804,1.1906
10.0369,0.016766,-0.002634,0.002634,-3.048020,3.041884,-0.046082,1.1519,26.7804,1.1906
10.0537,0.016748,-0.005551,0.005551,-3.048020,3.041884,-0.046082,1.1519,26.7804,1.1906
10.0710,0.017342,-0.009680,0.009680,-3.048020,3.041884,-0.046082,1.1519,26.7804,1.1906
10.0878,0.016747,-0.014711,0.014711,-3.048020,3.041884,-0.046082,1.1519,26.7804,1.1906
10.1045,0.016762,-0.020744,0.020744,-3.048020,3.041884,-0.046082,1.1519,26.7804,1.1906
10.1213,0.016742,-0.027727,0.027727,-3.048020,3.041884,-0.046082,1.1519,26.7804,1.1906
10.1380,0.016754,-0.035628,0.035628,-3.048020,3.041884,-0.046082,1.1519,26.7804,1.1906
10.1548,0.016740,-0.044388,0.044388,-3.048020,3.041884,-0.046082,1.1519,26.7804,1.1906
10.1715,0.016763,-0.053971,0.053971,-3.048020,3.041884,-0.046082,1.1519,26.7804,1.1906
10.1883,0.016743,-0.064293,0.064293,-3.048020,3.041884,-0.046082,1.1519,26.7804,1.1906
10.2050,0.016753,-0.075308,0.075308,-3.048020,3.041884,-0.046082,1.1519,26.7804,1.1906
10.2218,0.016741,-0.086932,0.086932,-3.048020,3.041884,-0.046082,1.1519,26.7804,1.1906
10.2385,0.016760,-0.099115,0.099115,-3.048020,3.041884,-0.046082,1.1519,26.7804,1.1906
10.2553,0.016744,-0.111756,0.111756,-3.048020,3.041884,-0.046082,1.1519,26.7804,1.1906
10.2720,0.016759,-0.124799,0.124799,-3.048020,3.041884,-0.046082,1.1519,26.7804,1.1906
10.2888,0.016744,-0.138140,0.138140,-3.048020,3.041884,-0.046082,1.1519,26.7804,1.1906
10.3055,0.016710,-0.151680,0.151680,-3.048020,3.041884,-0.046082,1.1519,26.7804,1.1906
10.3222,0.016745,-0.165391,0.165391,-3.048020,3.041884,-0.046082,1.1519,26.7804,1.1906
10.3390,0.016761,-0.179171,0.179171,-3.048020,3.041884,-0.046084,1.1414,26.7759,1.1585
10.3557,0.016750,-0.192914,0.192914,-3.048020,3.041884,-0.046082,1.1527,26.7801,1.1943
10.3737,0.017985,-0.207541,0.207541,-3.048020,3.041884,-0.046082,1.1519,26.7798,1.1916
10.3905,0.016745,-0.220948,0.220948,-3.048020,3.041884,-0.046082,1.1519,26.7798,1.1916
10.4072,0.016753,-0.234072,0.234072,-3.048020,3.041884,-0.046082,1.1519,26.7798,1.1916
10.4240,0.016744,-0.246819,0.246819,-3.048020,3.041884,-0.046082,1.1519,26.7798,1.1916
10.4407,0.016755,-0.259123,0.259123,-3.048020,3.041884,-0.046082,1.1519,26.7798,1.1916
10.4575,0.016748,-0.270896,0.270896,-3.048020,3.041884,-0.046082,1.1519,26.7798,1.1916
10.4742,0.016749,-0.282070,0.282070,-3.048020,3.041884,-0.046082,1.1519,26.7798,1.1916
10.4910,0.016749,-0.292574,0.292574,-3.048020,3.041884,-0.046082,1.1519,26.7798,1.1916
10.5077,0.016749,-0.302343,0.302343,-3.048020,3.041884,-0.046082,1.1519,26.7798,1.1916
10.5244,0.016741,-0.311313,0.311313,-3.048020,3.041884,-0.046082,1.1519,26.7798,1.1916
10.5412,0.016744,-0.319432,0.319432,-3.048020,3.041884,-0.046082,1.1519,26.7798,1.1916
10.5579,0.016743,-0.326650,0.326650,-3.048020,3.041884,-0.046082,1.1519,26.7798,1.1916
10.5747,0.016773,-0.332931,0.332931,-3.048020,3.041884,-0.046082,1.1519,26.7798,1.1916
10.5914,0.016740,-0.338215,0.338215,-3.048020,3.041884,-0.046082,1.1519,26.7798,1.1916
10.6082,0.016748,-0.342481,0.342481,-3.048020,3.041884,-0.046082,1.1519,26.7798,1.1916
10.6249,0.016742,-0.345702,0.345702,-3.048020,3.041884,-0.046084,1.1414,26.7760,1.1584
10.6417,0.016756,-0.347858,0.347858,-3.048020,3.041884,-0.046082,1.1527,26.7801,1.1943
10.6584,0.016743,-0.348934,0.348934,-3.048020,3.041884,-0.046082,1.1519,26.7798,1.1916
10.6752,0.016769,-0.348925,0.348925,-3.048020,3.041884,-0.046082,1.1519,26.7798,1.1916
10.6919,0.016743,-0.347829,0.347829,-3.048020,3.041884,-0.046082,1.1519,26.7798,1.1916
10.7087,0.016753,-0.345653,0.345653,-3.048020,3.041884,-0.046082,1.1519,26.7798,1.1916
10.7254,0.016740,-0.342415,0.342415,-3.048020,3.041884,-0.046082,1.1519,26.7798,1.1916
10.7422,0.016750,-0.338129,0.338129,-3.048020,3.041884,-0.046082,1.1519,26.7798,1.1916
10.7589,0.016748,-0.332825,0.332825,-3.048020,3.041884,-0.046082,1.1519,26.7798,1.1916
10.7757,0.016765,-0.326529,0.326529,-3.048020,3.041884,-0.046082,1.1519,26.7798,1.1916
10.7924,0.016741,-0.319296,0.319296,-3.048020,3.041884,-0.046082,1.1519,26.7798,1.1916
10.8092,0.016759,-0.311153,0.311153,-3.048020,3.041884,-0.046082,1.1519,26.7798,1.1916
10.8259,0.016740,-0.302169,0.302169,-3.048020,3.041884,-0.046082,1.1519,26.7798,1.1916
10.8427,0.016763,-0.292377,0.292377,-3.048020,3.041884,-0.046082,1.1519,26.7798,1.1916
10.8594,0.016740,-0.281865,0.281865,-3.048020,3.041884,-0.046082,1.1519,26.7798,1.1916
10.8762,0.016760,-0.270673,0.270673,-3.048020,3.041884,-0.046082,1.1519,26.7798,1.1916
10.8929,0.016739,-0.258895,0.258895,-3.048020,3.041884,-0.046082,1.1519,26.7798,1.1916
10.9097,0.016747,-0.246588,0.246588,-3.048020,3.041884,-0.046082,1.1519,26.7798,1.1916
10.9264,0.016741,-0.233836,0.233836,-3.048020,3.041884,-0.046082,1.1519,26.7798,1.1916
10.9432,0.016758,-0.220702,0.220702,-3.048020,3.041884,-0.046082,1.1519,26.7798,1.1916
10.9599,0.016744,-0.207291,0.207291,-3.048020,3.041884,-0.046082,1.1519,26.7798,1.1916
10.9767,0.016757,-0.193666,0.193666,-3.048020,3.041884,-0.046082,1.1519,26.7798,1.1916
10.9934,0.016747,-0.179930,0.179930,-3.048020,3.041884,-0.046082,1.1519,26.7798,1.1916
11.0102,0.016751,-0.166157,0.166157,-3.048020,3.041884,-0.046082,1.1519,26.7798,1.1916
11.0269,0.016747,-0.152439,0.152439,-3.048020,3.041884,-0.046082,1.1519,26.7798,1.1916
11.0437,0.016749,-0.138857,0.138857,-3.048020,3.041884,-0.046082,1.1519,26.7798,1.1916
11.0604,0.016745,-0.125501,0.125501,-3.048020,3.041884,-0.046082,1.1519,26.7798,1.1916
11.0772,0.016757,-0.112440,0.112440,-3.048020,3.041884,-0.046082,1.1519,26.7798,1.1916
11.0939,0.016744,-0.099776,0.099776,-3.048020,3.041884,-0.046082,1.1519,26.7798,1.1916
11.1107,0.016749,-0.087573,0.087573,-3.048020,3.041884,-0.046082,1.1519,26.7798,1.1916
11.1274,0.016742,-0.075917,0.075917,-3.048020,3.041884,-0.046082,1.1519,26.7798,1.1916
11.1442,0.016754,-0.064867,0.064867,-3.048020,3.041884,-0.046082,1.1519,26.7798,1.1916
11.1612,0.017047,-0.054325,0.054325,-3.048020,3.041884,-0.046082,1.1519,26.7798,1.1916
11.1780,0.016756,-0.044719,0.044719,-3.048020,3.041884,-0.046082,1.1519,26.7798,1.1916
11.1947,0.016741,-0.035928,0.035928,-3.048020,3.041884,-0.046082,1.1519,26.7798,1.1916
11.2115,0.016749,-0.027997,0.027997,-3.048020,3.041884,-0.046082,1.1519,26.7798,1.1916
11.2282,0.016738,-0.020982,0.020982,-3.048020,3.041884,-0.046082,1.1519,26.7798,1.1916
11.2450,0.016756,-0.014916,0.014916,-3.048020,3.041884,-0.046082,1.1519,26.7798,1.1916
11.2617,0.016745,-0.009847,0.009847,-3.048020,3.041884,-0.046082,1.1519,26.7798,1.1916
11.2785,0.016747,-0.005803,0.005803,-3.048020,3.041884,-0.046082,1.1519,26.7798,1.1916
11.2952,0.016749,-0.002810,0.002810,-3.048020,3.041884,-0.046082,1.1519,26.7798,1.1916
11.3120,0.016747,-0.000885,0.000885,-3.048020,3.041884,-0.046082,1.1519,26.7798,1.1916
11.3287,0.016742,-0.000042,0.000042,-3.048020,3.041884,-0.046082,1.1519,26.7798,1.1916
11.3454,0.016754,-0.000284,0.000284,-3.048020,3.041884,-0.046082,1.1519,26.7798,1.1916
11.3622,0.016744,-0.001611,0.001611,-3.048020,3.041884,-0.046082,1.1519,26.7798,1.1916
11.3789,0.016738,-0.004014,0.004014,-3.048020,3.041884,-0.046082,1.1519,26.7798,1.1916
11.3957,0.016758,-0.007481,0.007481,-3.048020,3.041884,-0.046082,1.1519,26.7798,1.1916
11.4124,0.016752,-0.011987,0.011987,-3.048020,3.041884,-0.046082,1.1519,26.7798,1.1916
11.4294,0.016941,-0.017574,0.017574,-3.048020,3.041884,-0.046082,1.1519,26.7798,1.1916
11.4461,0.016748,-0.024081,0.024081,-3.048020,3.041884,-0.046082,1.1519,26.7798,1.1916
11.4629,0.016801,-0.031548,0.031548,-3.048020,3.041884,-0.046082,1.1519,26.7798,1.1916
11.4797,0.016740,-0.039880,0.039880,-3.048020,3.041884,-0.046082,1.1519,26.7798,1.1916
11.4964,0.016745,-0.049052,0.049052,-3.048020,3.041884,-0.046082,1.1519,26.7798,1.1916
11.5132,0.016744,-0.059005,0.059005,-3.048020,3.041884,-0.046082,1.1519,26.7798,1.1916
