t,loop_dt,cmd_ant_l,cmd_ant_r,pres_ant_l,pres_ant_r,pres_z,pres_roll,pres_pitch,pres_yaw
0.0000,0.000001,-0.349065,0.349065,-0.176408,0.173340,-0.002282,2.3344,2.3402,0.6936
0.0201,0.020096,-0.335912,0.335912,-0.176408,0.173340,-0.002282,2.3344,2.3402,0.6936
0.0419,0.021784,-0.321654,0.321654,-0.177942,0.174874,-0.002272,2.3461,2.3897,0.6408
0.0621,0.020200,-0.308433,0.308433,-0.216291,0.211689,-0.002283,2.3330,2.3344,0.6998
0.0822,0.020086,-0.295287,0.295287,-0.282252,0.283786,-0.002282,2.3344,2.3402,0.6936
0.1023,0.020086,-0.282141,0.282141,-0.349748,0.345146,-0.002269,2.2846,2.3203,0.6403
0.1224,0.020109,-0.268979,0.268979,-0.355884,0.349748,-0.002260,2.3016,2.3725,0.5924
0.1426,0.020194,-0.255762,0.255762,-0.339010,0.332874,-0.002247,2.2503,2.3478,0.5434
0.1628,0.020271,-0.242495,0.242495,-0.311398,0.308330,-0.002259,2.2438,2.3003,0.6021
0.1830,0.020177,-0.229289,0.229289,-0.282252,0.286854,-0.002234,2.2445,2.2719,0.5969
0.2032,0.020190,-0.216075,0.216075,-0.257709,0.262311,-0.002223,2.1948,2.2557,0.5435
0.2234,0.020220,-0.202841,0.202841,-0.242369,0.245437,-0.002210,2.1505,2.2383,0.4950
0.2435,0.020101,-0.189685,0.189685,-0.228563,0.231631,-0.002188,2.1552,2.2067,0.5010
0.2639,0.020361,-0.176359,0.176359,-0.217825,0.222427,-0.002190,2.1548,2.2100,0.5004
0.2840,0.020085,-0.163213,0.163213,-0.205553,0.211689,-0.002190,2.1548,2.2100,0.5004
0.3040,0.020081,-0.150070,0.150070,-0.194816,0.200951,-0.002177,2.1054,2.1906,0.4464
0.3241,0.020087,-0.136923,0.136923,-0.184078,0.188680,-0.002178,2.1105,2.1926,0.4520
0.3442,0.020083,-0.123778,0.123778,-0.170272,0.173340,-0.002164,2.0606,2.1734,0.3973
0.3644,0.020175,-0.110574,0.110574,-0.154932,0.158000,-0.002179,2.1152,2.1944,0.4571
0.3845,0.020120,-0.097405,0.097405,-0.144194,0.145728,-0.002178,2.1095,2.1922,0.4509
0.4046,0.020100,-0.084250,0.084250,-0.128854,0.131922,-0.002154,2.0728,2.2235,0.3438
0.4247,0.020067,-0.071116,0.071116,-0.115049,0.116583,-0.002167,2.0646,2.1702,0.4086
0.4448,0.020102,-0.057959,0.057959,-0.102777,0.102777,-0.002169,2.1643,2.1803,0.5109
0.4649,0.020092,-0.044809,0.044809,-0.088971,0.088971,-0.002179,2.1044,2.1937,0.4453
0.4850,0.020151,-0.031621,0.031621,-0.073631,0.073631,-0.002178,2.1106,2.1923,0.4521
0.5052,0.020213,-0.018391,0.018391,-0.061359,0.061359,-0.002164,2.0606,2.1734,0.3973
0.5255,0.020301,-0.005104,0.005104,-0.046019,0.049087,-0.002166,2.0659,2.1754,0.4030
0.5456,0.020101,0.000000,0.000000,-0.032214,0.035282,-0.002179,2.1147,2.1942,0.4565
0.5657,0.020056,0.000000,0.000000,-0.018408,0.023010,-0.002164,2.0602,2.1732,0.3969
0.5860,0.020299,0.000000,0.000000,-0.004602,0.009204,-0.002166,2.0659,2.1754,0.4031
0.6062,0.020206,0.000000,0.000000,0.006136,-0.001534,-0.002179,2.1147,2.1942,0.4565
0.6264,0.020160,0.000000,0.000000,0.004602,-0.003068,-0.002178,2.1096,2.1922,0.4509
0.6465,0.020106,0.000000,0.000000,-0.006136,0.001534,-0.002164,2.0607,2.1734,0.3975
0.6667,0.020244,-0.000026,0.000026,-0.003068,0.001534,-0.002166,2.0658,2.1754,0.4030
0.6869,0.020156,-0.013217,0.013217,0.004602,-0.001534,-0.002179,2.1147,2.1942,0.4565
0.7075,0.020684,-0.026755,0.026755,0.003068,-0.001534,-0.002164,2.1492,2.1562,0.3978
0.7276,0.020086,-0.039901,0.039901,-0.006136,0.001534,-0.002166,2.0566,2.1772,0.4030
0.7480,0.020360,-0.053226,0.053226,-0.012272,0.004602,-0.002166,2.0663,2.1750,0.4025
0.7681,0.020084,-0.066371,0.066371,-0.018408,0.013806,-0.002166,2.0663,2.1750,0.4025
0.7882,0.020090,-0.079520,0.079520,-0.032214,0.030680,-0.002166,2.0663,2.1750,0.4025
0.8083,0.020088,-0.092668,0.092668,-0.053689,0.049087,-0.002166,2.0663,2.1750,0.4025
0.8283,0.020086,-0.105814,0.105814,-0.070563,0.067495,-0.002166,2.0663,2.1750,0.4025
0.8485,0.020140,-0.118996,0.118996,-0.082835,0.081301,-0.002166,2.0663,2.1750,0.4025
0.8686,0.020085,-0.132141,0.132141,-0.090505,0.090505,-0.002166,2.0663,2.1750,0.4025
0.8889,0.020370,-0.145473,0.145473,-0.102777,0.101243,-0.002166,2.0663,2.1750,0.4025
0.9090,0.020087,-0.158620,0.158620,-0.116583,0.116583,-0.002166,2.0663,2.1750,0.4025
0.9292,0.020179,-0.171827,0.171827,-0.134990,0.133456,-0.002166,2.0663,2.1750,0.4025
0.9493,0.020097,-0.184980,0.184980,-0.150330,0.147262,-0.002166,2.0663,2.1750,0.4025
0.9694,0.020091,-0.198130,0.198130,-0.164136,0.158000,-0.002152,2.1049,2.1392,0.3493
0.9895,0.020090,-0.211279,0.211279,-0.174874,0.171806,-0.002180,2.1106,2.1979,0.4621
1.0096,0.020095,-0.224431,0.224431,-0.187146,0.185612,-0.002164,2.0606,2.1728,0.3963
1.0297,0.020100,-0.237587,0.237587,-0.191748,0.187146,-0.002179,2.1152,2.1945,0.4572
1.0498,0.020101,-0.250743,0.250743,-0.191748,0.188680,-0.002164,2.0602,2.1732,0.3968
1.0700,0.020201,-0.263964,0.263964,-0.204019,0.202485,-0.002165,2.1548,2.1584,0.4040
1.0901,0.020098,-0.277119,0.277119,-0.227029,0.225495,-0.002179,2.1054,2.1960,0.4564
1.1102,0.020112,-0.290282,0.290282,-0.253107,0.250039,-0.002164,2.0612,2.1730,0.3969
1.1303,0.020099,-0.303436,0.303436,-0.269981,0.268447,-0.002166,2.0658,2.1755,0.4031
1.1504,0.020117,-0.316603,0.316603,-0.276117,0.277651,-0.002179,2.1147,2.1942,0.4565
1.1705,0.020091,-0.329752,0.329752,-0.280718,0.283786,-0.002150,2.0998,2.1372,0.3437
1.1907,0.020194,-0.342969,0.342969,-0.296058,0.296058,-0.002167,2.0618,2.1792,0.4086
1.2109,0.020249,-0.349066,0.349066,-0.319068,0.316000,-0.002166,2.0657,2.1748,0.4019
1.2310,0.020093,-0.349066,0.349066,-0.335942,0.329806,-0.002179,2.1147,2.1943,0.4566
1.2512,0.020166,-0.349066,0.349066,-0.345146,0.343612,-0.002178,2.1096,2.1922,0.4509
1.2713,0.020092,-0.349066,0.349066,-0.354350,0.348214,-0.002164,2.0607,2.1734,0.3975
1.2914,0.020106,-0.349066,0.349066,-0.354350,0.349748,-0.002179,2.1152,2.1944,0.4571
1.3115,0.020107,-0.349066,0.349066,-0.351282,0.349748,-0.002178,2.1095,2.1922,0.4509
1.3316,0.020092,-0.349066,0.349066,-0.352816,0.348214,-0.002178,2.1095,2.1922,0.4509
1.3521,0.020524,-0.336774,0.336774,-0.352816,0.348214,-0.002164,2.0607,2.1734,0.3975
1.3722,0.020111,-0.323611,0.323611,-0.352816,0.348214,-0.002156,2.0779,2.2255,0.3494
1.3924,0.020189,-0.310397,0.310397,-0.351282,0.348214,-0.002180,2.1134,2.1890,0.4621
1.4125,0.020102,-0.297241,0.297241,-0.349748,0.346680,-0.002164,2.0603,2.1738,0.3963
1.4326,0.020096,-0.284088,0.284088,-0.343612,0.340544,-0.002166,2.0659,2.1754,0.4032
1.4528,0.020154,-0.270897,0.270897,-0.334408,0.329806,-0.002179,2.1147,2.1942,0.4565
1.4730,0.020188,-0.257684,0.257684,-0.319068,0.319068,-0.002167,2.1591,2.1779,0.5059
1.4931,0.020152,-0.244495,0.244495,-0.302194,0.305262,-0.002165,2.0556,2.1749,0.3917
1.5134,0.020336,-0.231185,0.231185,-0.285320,0.288388,-0.002166,2.0664,2.1753,0.4036
1.5335,0.020092,-0.218035,0.218035,-0.271515,0.274583,-0.002179,2.1146,2.1942,0.4565
1.5538,0.020270,-0.204768,0.204768,-0.257709,0.260777,-0.002164,2.0602,2.1732,0.3969
1.5739,0.020087,-0.191621,0.191621,-0.243903,0.246971,-0.002166,2.0659,2.1754,0.4031
1.5940,0.020115,-0.178456,0.178456,-0.231631,0.234699,-0.002179,2.1147,2.1942,0.4565
1.6141,0.020096,-0.165303,0.165303,-0.217825,0.223961,-0.002164,2.0602,2.1732,0.3969
1.6342,0.020085,-0.152158,0.152158,-0.202485,0.210155,-0.002156,2.0780,2.2255,0.3495
1.6543,0.020101,-0.139002,0.139002,-0.191748,0.197884,-0.002167,2.0640,2.1700,0.4080
1.6744,0.020103,-0.125845,0.125845,-0.177942,0.184078,-0.002169,2.1269,2.2448,0.4024
1.6945,0.020090,-0.112696,0.112696,-0.151864,0.154932,-0.002179,2.1083,2.1870,0.4566
1.7146,0.020097,-0.099542,0.099542,-0.151864,0.154932,-0.002178,2.1102,2.1930,0.4509
1.7347,0.020096,-0.086389,0.086389,-0.124252,0.124252,-0.002178,2.1102,2.1930,0.4509
1.7548,0.020089,-0.073241,0.073241,-0.111981,0.111981,-0.002178,2.1102,2.1930,0.4509
1.7749,0.020093,-0.060091,0.060091,-0.096641,0.098175,-0.002168,2.1221,2.2424,0.3979
1.7952,0.020371,-0.046758,0.046758,-0.084369,0.084369,-0.002152,2.0990,2.1322,0.3498
1.8153,0.020100,-0.033603,0.033603,-0.069029,0.070563,-0.002181,2.1112,2.1987,0.4621
1.8354,0.020104,-0.020444,0.020444,-0.058291,0.058291,-0.002164,2.0606,2.1728,0.3963
1.8555,0.020100,-0.007289,0.007289,-0.042951,0.044485,-0.002179,2.1152,2.1945,0.4572
1.8756,0.020105,0.000000,0.000000,-0.027612,0.032214,-0.002164,2.0602,2.1732,0.3968
1.8957,0.020095,0.000000,0.000000,-0.013806,0.018408,-0.002156,2.0780,2.2255,0.3495
1.9158,0.020101,0.000000,0.000000,0.000000,0.006136,-0.002180,2.1134,2.1890,0.4621
1.9359,0.020092,0.000000,0.000000,0.006136,-0.003068,-0.002164,2.0603,2.1738,0.3963
1.9560,0.020093,0.000000,0.000000,0.001534,-0.003068,-0.002179,2.1152,2.1944,0.4572
1.9761,0.020102,0.000000,0.000000,-0.006136,0.001534,-0.002164,2.0602,2.1732,0.3968
1.9962,0.020096,0.000000,0.000000,-0.001534,0.001534,-0.002166,2.0659,2.1754,0.4031
2.0163,0.020092,-0.010672,0.010672,0.004602,-0.001534,-0.002166,2.0659,2.1754,0.4031
2.0364,0.020141,-0.023854,0.023854,0.001534,0.000000,-0.002155,2.0774,2.2253,0.3488
2.0565,0.020092,-0.037004,0.037004,-0.004602,0.001534,-0.002167,2.0641,2.1700,0.4081
2.0766,0.020095,-0.050156,0.050156,-0.009204,0.004602,-0.002166,2.0655,2.1758,0.4019
2.0967,0.020099,-0.063311,0.063311,-0.016874,0.016874,-0.002166,2.0655,2.1758,0.4019
2.1170,0.020254,-0.076567,0.076567,-0.032214,0.032214,-0.002166,2.0655,2.1758,0.4019
2.1372,0.020190,-0.089781,0.089781,-0.053689,0.052155,-0.002166,2.0655,2.1758,0.4019
2.1573,0.020086,-0.102928,0.102928,-0.070563,0.069029,-0.002169,2.1642,2.1797,0.5116
2.1773,0.020077,-0.116068,0.116068,-0.081301,0.081301,-0.002179,2.1044,2.1937,0.4452
2.1974,0.020093,-0.129219,0.129219,-0.090505,0.090505,-0.002164,2.0613,2.1733,0.3981
2.2175,0.020106,-0.142379,0.142379,-0.104311,0.104311,-0.002179,2.1151,2.1944,0.4570
2.2376,0.020101,-0.155535,0.155535,-0.121184,0.119651,-0.002164,2.0602,2.1732,0.3968
2.2578,0.020190,-0.168749,0.168749,-0.136524,0.133456,-0.002169,2.1647,2.1800,0.5121
2.2779,0.020112,-0.181913,0.181913,-0.148796,0.144194,-0.002179,2.1044,2.1937,0.4452
2.2981,0.020111,-0.195075,0.195075,-0.161068,0.156466,-0.002178,2.1107,2.1923,0.4521
2.3182,0.020098,-0.208230,0.208230,-0.171806,0.168738,-0.002178,2.1107,2.1923,0.4521
2.3383,0.020101,-0.221386,0.221386,-0.171806,0.168738,-0.002164,2.0606,2.1734,0.3973
2.3583,0.020095,-0.234538,0.234538,-0.199418,0.197884,-0.002179,2.1147,2.1942,0.4565
2.3784,0.020085,-0.247684,0.247684,-0.214757,0.211689,-0.002179,2.1147,2.1942,0.4565
2.3985,0.020090,-0.260833,0.260833,-0.223961,0.222427,-0.002164,2.0602,2.1732,0.3969
2.4186,0.020092,-0.273983,0.273983,-0.223961,0.222427,-0.002166,2.0659,2.1754,0.4031
2.4387,0.020097,-0.287136,0.287136,-0.236233,0.236233,-0.002179,2.1147,2.1942,0.4565
2.4588,0.020120,-0.300305,0.300305,-0.263845,0.262311,-0.002164,2.1492,2.1562,0.3978
2.4789,0.020111,-0.313468,0.313468,-0.263845,0.262311,-0.002166,2.0566,2.1772,0.4030
2.4990,0.020101,-0.326624,0.326624,-0.288388,0.289922,-0.002166,2.0663,2.1750,0.4025
2.5191,0.020104,-0.339782,0.339782,-0.288388,0.289922,-0.002166,2.0663,2.1750,0.4025
2.5393,0.020110,-0.349066,0.349066,-0.305262,0.300660,-0.002179,2.1146,2.1942,0.4566
2.5594,0.020103,-0.349066,0.349066,-0.320602,0.314466,-0.002164,2.0602,2.1732,0.3969
2.5795,0.020107,-0.349066,0.349066,-0.331340,0.328272,-0.002166,2.0659,2.1754,0.4031
2.5996,0.020092,-0.349066,0.349066,-0.339010,0.340544,-0.002166,2.0659,2.1754,0.4031
2.6197,0.020116,-0.349066,0.349066,-0.352816,0.351282,-0.002166,2.0659,2.1754,0.4031
2.6398,0.020116,-0.349066,0.349066,-0.357418,0.351282,-0.002166,2.0659,2.1754,0.4031
2.6599,0.020097,-0.349066,0.349066,-0.352816,0.346680,-0.002179,2.1147,2.1942,0.4565
2.6800,0.020107,-0.340341,0.340341,-0.351282,0.348214,-0.002178,2.1096,2.1922,0.4509
2.7001,0.020104,-0.327183,0.327183,-0.352816,0.348214,-0.002164,2.0607,2.1734,0.3975
2.7202,0.020102,-0.314026,0.314026,-0.351282,0.348214,-0.002166,2.0658,2.1754,0.4030
2.7417,0.021459,-0.299981,0.299981,-0.351282,0.346680,-0.002166,2.0658,2.1754,0.4030
2.7618,0.020098,-0.286827,0.286827,-0.345146,0.339010,-0.002169,2.1641,2.1798,0.5115
2.7819,0.020119,-0.273659,0.273659,-0.337476,0.331340,-0.002165,2.0551,2.1747,0.3912
2.8020,0.020095,-0.260507,0.260507,-0.322136,0.320602,-0.002152,2.1049,2.1392,0.3492
2.8221,0.020108,-0.247346,0.247346,-0.306796,0.308330,-0.002152,2.1049,2.1392,0.3492
2.8422,0.020107,-0.234187,0.234187,-0.285320,0.289922,-0.002180,2.1106,2.1980,0.4621
2.8623,0.020106,-0.221027,0.221027,-0.273049,0.277651,-0.002165,2.1548,2.1584,0.4040
2.8824,0.020100,-0.207872,0.207872,-0.273049,0.277651,-0.002165,2.1548,2.1584,0.4040
2.9025,0.020106,-0.194713,0.194713,-0.246971,0.248505,-0.002166,2.0663,2.1750,0.4025
2.9226,0.020093,-0.181562,0.181562,-0.246971,0.248505,-0.002166,2.0663,2.1750,0.4025
2.9427,0.020104,-0.168404,0.168404,-0.231631,0.234699,-0.002166,2.0649,2.1753,0.4025
2.9628,0.020087,-0.155257,0.155257,-0.219359,0.223961,-0.002166,2.0649,2.1753,0.4025
2.9829,0.020098,-0.142103,0.142103,-0.204019,0.208621,-0.002179,2.1148,2.1942,0.4566
3.0030,0.020092,-0.128952,0.128952,-0.190214,0.196350,-0.002164,2.0602,2.1732,0.3969
3.0231,0.020093,-0.115802,0.115802,-0.179476,0.185612,-0.002169,2.1273,2.2445,0.4036
3.0432,0.020088,-0.102654,0.102654,-0.153398,0.154932,-0.002179,2.1083,2.1870,0.4565
3.0632,0.020092,-0.089504,0.089504,-0.136524,0.138058,-0.002178,2.1102,2.1930,0.4509
3.0833,0.020090,-0.076356,0.076356,-0.121184,0.122718,-0.002178,2.1102,2.1930,0.4509
3.1034,0.020091,-0.063206,0.063206,-0.102777,0.102777,-0.002164,2.0607,2.1734,0.3975
3.1235,0.020092,-0.050056,0.050056,-0.088971,0.088971,-0.002166,2.0658,2.1754,0.4030
3.1436,0.020093,-0.036905,0.036905,-0.075165,0.075165,-0.002179,2.1147,2.1942,0.4565
3.1637,0.020089,-0.023757,0.023757,-0.062893,0.061359,-0.002164,2.0602,2.1732,0.3969
3.1838,0.020103,-0.010599,0.010599,-0.049087,0.049087,-0.002166,2.0659,2.1754,0.4031
3.2044,0.020601,0.000000,0.000000,-0.033748,0.036816,-0.002166,2.0659,2.1754,0.4031
3.2245,0.020090,0.000000,0.000000,-0.023010,0.026078,-0.002179,2.1147,2.1942,0.4565
3.2446,0.020091,0.000000,0.000000,-0.009204,0.013806,-0.002164,2.0602,2.1732,0.3969
3.2647,0.020088,0.000000,0.000000,0.004602,0.000000,-0.002166,2.0659,2.1754,0.4031
3.2848,0.020088,0.000000,0.000000,0.006136,-0.003068,-0.002179,2.1147,2.1942,0.4565
3.3049,0.020089,0.000000,0.000000,-0.003068,-0.001534,-0.002164,2.0602,2.1732,0.3969
3.3249,0.020093,0.000000,0.000000,-0.004602,0.001534,-0.002166,2.0659,2.1754,0.4031
3.3450,0.020081,-0.007654,0.007654,0.000000,0.000000,-0.002179,2.1147,2.1942,0.4565
3.3651,0.020091,-0.020803,0.020803,0.004602,-0.001534,-0.002178,2.1096,2.1922,0.4509
3.3852,0.020127,-0.033976,0.033976,-0.004602,0.000000,-0.002178,2.1096,2.1922,0.4509
3.4054,0.020120,-0.047145,0.047145,-0.009204,0.006136,-0.002154,2.1102,2.1590,0.4524
3.4254,0.020084,-0.060290,0.060290,-0.013806,0.013806,-0.002153,2.1003,2.1409,0.3441
3.4455,0.020084,-0.073435,0.073435,-0.026078,0.029146,-0.002167,2.0617,2.1788,0.4086
3.4656,0.020081,-0.086578,0.086578,-0.046019,0.044485,-0.002179,2.1151,2.1938,0.4559
3.4857,0.020091,-0.099728,0.099728,-0.064427,0.061359,-0.002178,2.1095,2.1923,0.4510
3.5058,0.020095,-0.112880,0.112880,-0.078233,0.075165,-0.002164,2.0607,2.1734,0.3974
3.5259,0.020090,-0.126029,0.126029,-0.088971,0.087437,-0.002179,2.1152,2.1944,0.4571
3.5460,0.020094,-0.139181,0.139181,-0.099709,0.099709,-0.002178,2.1095,2.1922,0.4509
3.5661,0.020085,-0.152326,0.152326,-0.115049,0.115049,-0.002178,2.1095,2.1922,0.4509
3.5862,0.020087,-0.165473,0.165473,-0.131922,0.128854,-0.002164,2.0607,2.1734,0.3975
3.6063,0.020104,-0.178631,0.178631,-0.145728,0.139592,-0.002166,2.0658,2.1754,0.4030
3.6264,0.020091,-0.191780,0.191780,-0.158000,0.153398,-0.002166,2.0658,2.1754,0.4030
3.6464,0.020090,-0.204929,0.204929,-0.170272,0.167204,-0.002166,2.0658,2.1754,0.4030
3.6665,0.020087,-0.218076,0.218076,-0.182544,0.181010,-0.002166,2.0658,2.1754,0.4030
3.6866,0.020086,-0.231223,0.231223,-0.197884,0.191748,-0.002152,2.1049,2.1392,0.3493
3.7069,0.020330,-0.244529,0.244529,-0.211689,0.207087,-0.002167,2.0613,2.1790,0.4080
3.7270,0.020094,-0.257680,0.257680,-0.220893,0.220893,-0.002166,2.0658,2.1748,0.4019
3.7471,0.020089,-0.270828,0.270828,-0.231631,0.234699,-0.002166,2.0658,2.1748,0.4019
3.7672,0.020091,-0.283977,0.283977,-0.248505,0.245437,-0.002166,2.0658,2.1748,0.4019
3.7873,0.020093,-0.297128,0.297128,-0.262311,0.259243,-0.002166,2.0658,2.1748,0.4019
3.8075,0.020150,-0.310316,0.310316,-0.274583,0.273049,-0.002179,2.1147,2.1942,0.4566
3.8279,0.020400,-0.323668,0.323668,-0.283786,0.285320,-0.002178,2.1096,2.1922,0.4509
3.8479,0.020086,-0.336814,0.336814,-0.299126,0.297592,-0.002164,2.0607,2.1734,0.3975
3.8680,0.020087,-0.349066,0.349066,-0.316000,0.309864,-0.002179,2.1152,2.1944,0.4571
3.8882,0.020161,-0.349066,0.349066,-0.329806,0.323670,-0.002164,2.0602,2.1732,0.3968
3.9083,0.020150,-0.349066,0.349066,-0.339010,0.339010,-0.002166,2.0659,2.1754,0.4031
3.9286,0.020215,-0.349066,0.349066,-0.351282,0.351282,-0.002166,2.0659,2.1754,0.4031
3.9487,0.020097,-0.349066,0.349066,-0.357418,0.351282,-0.002179,2.1147,2.1942,0.4565
3.9688,0.020188,-0.349066,0.349066,-0.352816,0.346680,-0.002167,2.1216,2.2423,0.3973
3.9889,0.020088,-0.349066,0.349066,-0.351282,0.348214,-0.002179,2.1088,2.1872,0.4571
4.0090,0.020099,-0.343154,0.343154,-0.352816,0.348214,-0.002178,2.1102,2.1930,0.4509
4.0291,0.020090,-0.330005,0.330005,-0.351282,0.348214,-0.002178,2.1102,2.1930,0.4509
4.0492,0.020096,-0.316853,0.316853,-0.352816,0.348214,-0.002154,2.1992,2.1419,0.4533
4.0693,0.020111,-0.303690,0.303690,-0.352816,0.346680,-0.002167,2.0514,2.1787,0.3972
4.0896,0.020233,-0.290447,0.290447,-0.348214,0.340544,-0.002179,2.1162,2.1938,0.4571
4.1097,0.020099,-0.277292,0.277292,-0.340544,0.334408,-0.002164,2.0601,2.1733,0.3968
4.1298,0.020102,-0.264136,0.264136,-0.326738,0.325204,-0.002166,2.0659,2.1754,0.4031
4.1499,0.020098,-0.250981,0.250981,-0.311398,0.311398,-0.002166,2.0659,2.1754,0.4031
4.1700,0.020093,-0.237830,0.237830,-0.291456,0.296058,-0.002166,2.0659,2.1754,0.4031
4.1901,0.020095,-0.224678,0.224678,-0.277651,0.282252,-0.002166,2.0659,2.1754,0.4031
4.2101,0.020092,-0.211528,0.211528,-0.262311,0.266913,-0.002179,2.1147,2.1942,0.4565
4.2302,0.020089,-0.198379,0.198379,-0.251573,0.253107,-0.002178,2.1096,2.1922,0.4509
4.2503,0.020087,-0.185232,0.185232,-0.237767,0.239301,-0.002178,2.1096,2.1922,0.4509
4.2704,0.020096,-0.172080,0.172080,-0.223961,0.225495,-0.002178,2.1096,2.1922,0.4509
4.2905,0.020089,-0.158931,0.158931,-0.208621,0.214757,-0.002154,2.0728,2.2235,0.3438
4.3106,0.020092,-0.145781,0.145781,-0.194816,0.200951,-0.002167,2.0646,2.1702,0.4086
4.3307,0.020096,-0.132628,0.132628,-0.181010,0.187146,-0.002155,2.0775,2.2258,0.3483
4.3508,0.020144,-0.119444,0.119444,-0.170272,0.171806,-0.002167,2.0641,2.1700,0.4082
4.3709,0.020098,-0.106290,0.106290,-0.156466,0.158000,-0.002166,2.0655,2.1758,0.4019
4.3910,0.020090,-0.093141,0.093141,-0.142660,0.142660,-0.002166,2.0655,2.1758,0.4019
4.4111,0.020088,-0.079993,0.079993,-0.128854,0.128854,-0.002179,2.1147,2.1942,0.4566
4.4312,0.020091,-0.066844,0.066844,-0.115049,0.113515,-0.002178,2.1096,2.1923,0.4509
4.4513,0.020094,-0.053692,0.053692,-0.102777,0.102777,-0.002164,2.0607,2.1734,0.3975
4.4714,0.020099,-0.040537,0.040537,-0.088971,0.087437,-0.002156,2.0779,2.2255,0.3494
4.4915,0.020090,-0.027388,0.027388,-0.075165,0.075165,-0.002180,2.1134,2.1890,0.4621
4.5116,0.020095,-0.014236,0.014236,-0.061359,0.061359,-0.002154,2.0724,2.2238,0.3427
4.5317,0.020092,-0.001086,0.001086,-0.049087,0.050621,-0.002167,2.0646,2.1702,0.4087
4.5518,0.020105,0.000000,0.000000,-0.036816,0.036816,-0.002166,2.0654,2.1758,0.4019
4.5719,0.020105,0.000000,0.000000,-0.021476,0.024544,-0.002166,2.0654,2.1758,0.4019
4.5920,0.020094,0.000000,0.000000,-0.007670,0.010738,-0.002166,2.0654,2.1758,0.4019
4.6121,0.020094,0.000000,0.000000,0.004602,-0.001534,-0.002156,2.0774,2.2252,0.3490
4.6322,0.020089,0.000000,0.000000,0.006136,-0.004602,-0.002167,2.0641,2.1700,0.4081
4.6523,0.020095,0.000000,0.000000,-0.004602,0.000000,-0.002166,2.0655,2.1758,0.4019
4.6732,0.020961,-0.004288,0.004288,-0.004602,0.001534,-0.002166,2.0655,2.1758,0.4019
4.6933,0.020087,-0.017434,0.017434,0.003068,-0.001534,-0.002166,2.0655,2.1758,0.4019
4.7134,0.020091,-0.030584,0.030584,0.004602,-0.001534,-0.002166,2.0655,2.1758,0.4019
4.7335,0.020093,-0.043734,0.043734,-0.010738,0.006136,-0.002166,2.0655,2.1758,0.4019
4.7536,0.020094,-0.056886,0.056886,-0.013806,0.012272,-0.002179,2.1147,2.1942,0.4566
4.7737,0.020099,-0.070041,0.070041,-0.027612,0.027612,-0.002164,2.0602,2.1732,0.3969
4.7938,0.020098,-0.083195,0.083195,-0.049087,0.046019,-0.002179,2.1152,2.1944,0.4572
4.8139,0.020097,-0.096349,0.096349,-0.069029,0.064427,-0.002164,2.0601,2.1732,0.3968
4.8340,0.020091,-0.109498,0.109498,-0.081301,0.079767,-0.002166,2.0659,2.1754,0.4031
4.8541,0.020099,-0.122653,0.122653,-0.090505,0.090505,-0.002166,2.0659,2.1754,0.4031
4.8742,0.020092,-0.135803,0.135803,-0.102777,0.101243,-0.002179,2.1147,2.1942,0.4565
4.8943,0.020148,-0.148990,0.148990,-0.116583,0.115049,-0.002178,2.1096,2.1922,0.4509
4.9144,0.020093,-0.162141,0.162141,-0.133456,0.130388,-0.002178,2.1096,2.1922,0.4509
4.9345,0.020095,-0.175294,0.175294,-0.148796,0.144194,-0.002164,2.0607,2.1734,0.3975
4.9546,0.020090,-0.188443,0.188443,-0.161068,0.156466,-0.002179,2.1152,2.1944,0.4571
4.9747,0.020095,-0.201595,0.201595,-0.171806,0.168738,-0.002167,2.1590,2.1778,0.5058
4.9948,0.020097,-0.214748,0.214748,-0.182544,0.181010,-0.002165,2.0556,2.1749,0.3917
5.0149,0.020087,-0.227895,0.227895,-0.197884,0.193282,-0.002166,2.0664,2.1753,0.4036
5.0349,0.020085,-0.241041,0.241041,-0.208621,0.202485,-0.002179,2.1146,2.1942,0.4565
5.0550,0.020087,-0.254187,0.254187,-0.222427,0.217825,-0.002164,2.0602,2.1732,0.3969
5.0751,0.020097,-0.267341,0.267341,-0.222427,0.217825,-0.002164,2.0602,2.1732,0.3969
5.0952,0.020105,-0.280499,0.280499,-0.237767,0.236233,-0.002179,2.1152,2.1944,0.4572
5.1153,0.020110,-0.293661,0.293661,-0.248505,0.245437,-0.002178,2.1095,2.1922,0.4509
5.1354,0.020098,-0.306815,0.306815,-0.256175,0.254641,-0.002164,2.0607,2.1734,0.3975
5.1561,0.020625,-0.320314,0.320314,-0.265379,0.265379,-0.002179,2.1152,2.1944,0.4571
5.1762,0.020100,-0.333470,0.333470,-0.282252,0.282252,-0.002164,2.0602,2.1732,0.3968
5.1963,0.020100,-0.346625,0.346625,-0.314466,0.308330,-0.002166,2.0659,2.1754,0.4031
5.2164,0.020102,-0.349066,0.349066,-0.314466,0.308330,-0.002166,2.0659,2.1754,0.4031
5.2365,0.020107,-0.349066,0.349066,-0.326738,0.323670,-0.002166,2.0659,2.1754,0.4031
5.2566,0.020097,-0.349066,0.349066,-0.337476,0.335942,-0.002179,2.1147,2.1942,0.4565
5.2767,0.020111,-0.349066,0.349066,-0.351282,0.348214,-0.002164,2.0602,2.1732,0.3969
5.2968,0.020100,-0.349066,0.349066,-0.355884,0.349748,-0.002156,2.0780,2.2255,0.3495
5.3169,0.020107,-0.349066,0.349066,-0.352816,0.346680,-0.002167,2.0640,2.1700,0.4080
5.3371,0.020203,-0.346602,0.346602,-0.351282,0.349748,-0.002165,2.1544,2.1587,0.4028
5.3572,0.020099,-0.333447,0.333447,-0.352816,0.349748,-0.002179,2.1055,2.1959,0.4565
5.3773,0.020138,-0.320267,0.320267,-0.351282,0.348214,-0.002178,2.1105,2.1921,0.4509
5.3974,0.020099,-0.307112,0.307112,-0.352816,0.349748,-0.002164,2.0606,2.1735,0.3975
5.4175,0.020113,-0.293948,0.293948,-0.351282,0.348214,-0.002179,2.1152,2.1944,0.4571
5.4377,0.020124,-0.280777,0.280777,-0.346680,0.342078,-0.002164,2.0602,2.1732,0.3968
5.4578,0.020096,-0.267624,0.267624,-0.340544,0.337476,-0.002179,2.1152,2.1944,0.4572
5.4779,0.020109,-0.254462,0.254462,-0.328272,0.326738,-0.002164,2.0601,2.1732,0.3968
5.4980,0.020102,-0.241305,0.241305,-0.312932,0.314466,-0.002179,2.1152,2.1944,0.4572
5.5181,0.020113,-0.228141,0.228141,-0.296058,0.297592,-0.002164,2.0601,2.1732,0.3968
5.5382,0.020107,-0.214981,0.214981,-0.279185,0.283786,-0.002166,2.0659,2.1754,0.4031
5.5583,0.020115,-0.201816,0.201816,-0.263845,0.268447,-0.002166,2.0659,2.1754,0.4031
5.5784,0.020107,-0.188656,0.188656,-0.251573,0.254641,-0.002179,2.1147,2.1942,0.4565
5.5985,0.020098,-0.175502,0.175502,-0.237767,0.242369,-0.002164,2.0602,2.1732,0.3969
5.6186,0.020118,-0.162335,0.162335,-0.223961,0.228563,-0.002166,2.0659,2.1754,0.4031
5.6388,0.020135,-0.149157,0.149157,-0.210155,0.217825,-0.002166,2.0659,2.1754,0.4031
5.6589,0.020111,-0.135994,0.135994,-0.196350,0.202485,-0.002179,2.1147,2.1942,0.4565
5.6791,0.020194,-0.122777,0.122777,-0.182544,0.190214,-0.002178,2.1096,2.1922,0.4509
5.6992,0.020099,-0.109622,0.109622,-0.170272,0.174874,-0.002164,2.0607,2.1734,0.3975
5.7194,0.020205,-0.096398,0.096398,-0.156466,0.159534,-0.002179,2.1152,2.1944,0.4571
5.7395,0.020162,-0.083202,0.083202,-0.144194,0.144194,-0.002178,2.1095,2.1922,0.4509
5.7597,0.020119,-0.070034,0.070034,-0.130388,0.130388,-0.002154,2.0728,2.2235,0.3438
5.7798,0.020182,-0.056825,0.056825,-0.116583,0.115049,-0.002180,2.1139,2.1892,0.4627
5.8000,0.020125,-0.043653,0.043653,-0.102777,0.102777,-0.002164,2.0603,2.1738,0.3962
5.8202,0.020195,-0.030436,0.030436,-0.088971,0.088971,-0.002179,2.1152,2.1944,0.4572
5.8403,0.020136,-0.017257,0.017257,-0.076699,0.078233,-0.002164,2.0602,2.1732,0.3968
5.8604,0.020107,-0.004097,0.004097,-0.064427,0.061359,-0.002166,2.0659,2.1754,0.4031
5.8805,0.020112,0.000000,0.000000,-0.049087,0.050621,-0.002155,2.1148,2.1608,0.4574
5.9006,0.020089,0.000000,0.000000,-0.035282,0.036816,-0.002167,2.0602,2.1767,0.3968
5.9207,0.020090,0.000000,0.000000,-0.021476,0.026078,-0.002179,2.1152,2.1940,0.4572
5.9408,0.020098,0.000000,0.000000,-0.007670,0.012272,-0.002164,2.0601,2.1732,0.3968
5.9609,0.020095,0.000000,0.000000,0.004602,-0.001534,-0.002166,2.0659,2.1754,0.4031
5.9810,0.020088,0.000000,0.000000,0.004602,-0.003068,-0.002166,2.0659,2.1754,0.4031
6.0011,0.020088,-0.000698,0.000698,-0.006136,0.001534,-0.002159,2.1762,2.2299,0.4579
6.0212,0.020104,-0.013856,0.013856,-0.003068,0.001534,-0.002166,2.0538,2.1695,0.3967
6.0413,0.020123,-0.027026,0.027026,0.004602,-0.001534,-0.002166,2.0666,2.1758,0.4031
6.0614,0.020091,-0.040176,0.040176,0.003068,-0.001534,-0.002169,2.1266,2.2442,0.4029
6.0815,0.020095,-0.053328,0.053328,-0.016874,0.013806,-0.002165,2.0590,2.1680,0.4025
6.1016,0.020084,-0.066473,0.066473,-0.032214,0.027612,-0.002166,2.0660,2.1760,0.4025
6.1216,0.020082,-0.079616,0.079616,-0.050621,0.042951,-0.002179,2.1146,2.1941,0.4566
6.1417,0.020088,-0.092764,0.092764,-0.061359,0.059825,-0.002178,2.1096,2.1923,0.4509
6.1618,0.020085,-0.105910,0.105910,-0.065961,0.070563,-0.002178,2.1096,2.1923,0.4509
6.1819,0.020093,-0.119060,0.119060,-0.075165,0.084369,-0.002164,2.0607,2.1734,0.3975
6.2020,0.020097,-0.132214,0.132214,-0.095107,0.096641,-0.002166,2.0658,2.1754,0.4030
6.2222,0.020206,-0.145439,0.145439,-0.115049,0.110447,-0.002166,2.0658,2.1754,0.4030
6.2423,0.020092,-0.158589,0.158589,-0.130388,0.124252,-0.002179,2.1147,2.1942,0.4565
6.2624,0.020094,-0.171741,0.171741,-0.141126,0.136524,-0.002178,2.1096,2.1922,0.4509
6.2825,0.020096,-0.184894,0.184894,-0.151864,0.150330,-0.002164,2.0607,2.1734,0.3975
6.3026,0.020099,-0.198049,0.198049,-0.162602,0.161068,-0.002166,2.0658,2.1754,0.4030
6.3227,0.020092,-0.211198,0.211198,-0.181010,0.177942,-0.002166,2.0658,2.1754,0.4030
6.3428,0.020093,-0.224349,0.224349,-0.194816,0.188680,-0.002169,2.1641,2.1798,0.5115
6.3629,0.020092,-0.237499,0.237499,-0.207087,0.204019,-0.002165,2.0551,2.1747,0.3912
6.3830,0.020096,-0.250652,0.250652,-0.217825,0.216291,-0.002179,2.1158,2.1943,0.4578
6.4031,0.020095,-0.263804,0.263804,-0.228563,0.230097,-0.002164,2.0601,2.1732,0.3967
6.4232,0.020113,-0.276969,0.276969,-0.242369,0.242369,-0.002166,2.0659,2.1754,0.4031
6.4433,0.020094,-0.290120,0.290120,-0.256175,0.254641,-0.002166,2.0659,2.1754,0.4031
6.4634,0.020082,-0.303264,0.303264,-0.268447,0.266913,-0.002166,2.0659,2.1754,0.4031
6.4834,0.020090,-0.316413,0.316413,-0.280718,0.282252,-0.002166,2.0659,2.1754,0.4031
6.5035,0.020102,-0.329569,0.329569,-0.296058,0.294524,-0.002166,2.0659,2.1754,0.4031
6.5236,0.020086,-0.342715,0.342715,-0.311398,0.306796,-0.002179,2.1147,2.1942,0.4565
6.5437,0.020089,-0.349066,0.349066,-0.325204,0.320602,-0.002178,2.1096,2.1922,0.4509
6.5638,0.020087,-0.349066,0.349066,-0.335942,0.332874,-0.002164,2.0607,2.1734,0.3975
6.5839,0.020093,-0.349066,0.349066,-0.346680,0.345146,-0.002166,2.0658,2.1754,0.4030
6.6040,0.020088,-0.349066,0.349066,-0.355884,0.351282,-0.002166,2.0658,2.1754,0.4030
6.6241,0.020087,-0.349066,0.349066,-0.355884,0.348214,-0.002166,2.0658,2.1754,0.4030
6.6442,0.020102,-0.349066,0.349066,-0.349748,0.348214,-0.002166,2.0658,2.1754,0.4030
6.6643,0.020085,-0.349066,0.349066,-0.352816,0.348214,-0.002166,2.0658,2.1754,0.4030
6.6844,0.020092,-0.337490,0.337490,-0.352816,0.348214,-0.002166,2.0658,2.1754,0.4030
6.7046,0.020254,-0.324233,0.324233,-0.351282,0.348214,-0.002166,2.0658,2.1754,0.4030
6.7247,0.020083,-0.311089,0.311089,-0.352816,0.348214,-0.002166,2.0658,2.1754,0.4030
6.7448,0.020097,-0.297935,0.297935,-0.349748,0.343612,-0.002166,2.0658,2.1754,0.4030
6.7649,0.020082,-0.284791,0.284791,-0.342078,0.337476,-0.002166,2.0658,2.1754,0.4030
6.7850,0.020086,-0.271645,0.271645,-0.331340,0.328272,-0.002166,2.0658,2.1754,0.4030
6.8069,0.021901,-0.257310,0.257310,-0.316000,0.316000,-0.002155,2.0774,2.2253,0.3488
6.8269,0.020088,-0.244163,0.244163,-0.299126,0.300660,-0.002167,2.0641,2.1700,0.4081
6.8470,0.020090,-0.231014,0.231014,-0.282252,0.286854,-0.002179,2.1148,2.1947,0.4560
6.8671,0.020089,-0.217866,0.217866,-0.266913,0.271515,-0.002178,2.1096,2.1922,0.4510
6.8872,0.020089,-0.204717,0.204717,-0.253107,0.257709,-0.002164,2.0607,2.1734,0.3974
6.9073,0.020098,-0.191563,0.191563,-0.237767,0.243903,-0.002166,2.0658,2.1754,0.4030
6.9276,0.020305,-0.178273,0.178273,-0.225495,0.228563,-0.002166,2.0658,2.1754,0.4030
6.9477,0.020089,-0.165125,0.165125,-0.211689,0.217825,-0.002152,2.1049,2.1392,0.3493
6.9678,0.020100,-0.151970,0.151970,-0.197884,0.204019,-0.002167,2.0613,2.1790,0.4080
6.9879,0.020091,-0.138820,0.138820,-0.182544,0.191748,-0.002166,2.0658,2.1748,0.4019
7.0080,0.020087,-0.125673,0.125673,-0.170272,0.176408,-0.002166,2.0658,2.1748,0.4019
7.0281,0.020083,-0.112529,0.112529,-0.158000,0.161068,-0.002179,2.1147,2.1942,0.4566
7.0482,0.020083,-0.099384,0.099384,-0.144194,0.147262,-0.002178,2.1096,2.1922,0.4509
7.0683,0.020100,-0.086229,0.086229,-0.133456,0.133456,-0.002164,2.0607,2.1734,0.3975
7.0883,0.020081,-0.073086,0.073086,-0.118117,0.116583,-0.002179,2.1152,2.1944,0.4571
7.1084,0.020092,-0.059936,0.059936,-0.105845,0.107379,-0.002164,2.0602,2.1732,0.3968
7.1285,0.020093,-0.046785,0.046785,-0.092039,0.092039,-0.002166,2.0659,2.1754,0.4031
7.1486,0.020107,-0.033625,0.033625,-0.078233,0.079767,-0.002179,2.1147,2.1942,0.4565
7.1690,0.020360,-0.020299,0.020299,-0.069029,0.069029,-0.002178,2.1096,2.1922,0.4509
7.1891,0.020084,-0.007155,0.007155,-0.062893,0.061359,-0.002164,2.0607,2.1734,0.3975
7.2093,0.020259,0.000000,0.000000,-0.052155,0.050621,-0.002166,2.0658,2.1754,0.4030
7.2294,0.020087,0.000000,0.000000,-0.030680,0.033748,-0.002166,2.0658,2.1754,0.4030
7.2495,0.020089,0.000000,0.000000,-0.012272,0.016874,-0.002179,2.1147,2.1942,0.4565
7.2697,0.020162,0.000000,0.000000,0.003068,0.000000,-0.002164,2.0602,2.1732,0.3969
7.2898,0.020087,0.000000,0.000000,0.007670,-0.004602,-0.002166,2.0659,2.1754,0.4031
7.3098,0.020090,0.000000,0.000000,0.000000,-0.001534,-0.002166,2.0659,2.1754,0.4031
7.3299,0.020089,0.000000,0.000000,-0.004602,0.001534,-0.002179,2.1147,2.1942,0.4565
7.3503,0.020388,-0.011118,0.011118,0.001534,0.000000,-0.002178,2.1096,2.1922,0.4509
7.3704,0.020096,-0.024270,0.024270,0.004602,-0.001534,-0.002178,2.1096,2.1922,0.4509
7.3905,0.020086,-0.037417,0.037417,-0.003068,0.001534,-0.002164,2.0607,2.1734,0.3975
7.4110,0.020502,-0.050836,0.050836,-0.010738,0.006136,-0.002179,2.1152,2.1944,0.4571
7.4311,0.020087,-0.063983,0.063983,-0.016874,0.015340,-0.002164,2.0602,2.1732,0.3968
7.4512,0.020099,-0.077137,0.077137,-0.029146,0.029146,-0.002166,2.0659,2.1754,0.4031
7.4713,0.020089,-0.090285,0.090285,-0.047553,0.042951,-0.002166,2.0659,2.1754,0.4031
7.4914,0.020113,-0.103449,0.103449,-0.064427,0.059825,-0.002179,2.1147,2.1942,0.4565
7.5117,0.020357,-0.116773,0.116773,-0.078233,0.076699,-0.002178,2.1096,2.1922,0.4509
7.5318,0.020098,-0.129927,0.129927,-0.088971,0.088971,-0.002164,2.0607,2.1734,0.3975
7.5521,0.020219,-0.143160,0.143160,-0.101243,0.101243,-0.002166,2.0658,2.1754,0.4030
7.5724,0.020354,-0.156482,0.156482,-0.113515,0.111981,-0.002166,2.0658,2.1754,0.4030
7.5925,0.020091,-0.169632,0.169632,-0.130388,0.125786,-0.002166,2.0658,2.1754,0.4030
7.6126,0.020099,-0.182786,0.182786,-0.145728,0.141126,-0.002166,2.0658,2.1754,0.4030
7.6328,0.020141,-0.195968,0.195968,-0.159534,0.156466,-0.002166,2.0658,2.1754,0.4030
7.6529,0.020179,-0.209175,0.209175,-0.171806,0.168738,-0.002166,2.0658,2.1754,0.4030
7.6731,0.020206,-0.222400,0.222400,-0.184078,0.181010,-0.002152,2.1049,2.1392,0.3493
7.6932,0.020098,-0.235554,0.235554,-0.196350,0.191748,-0.002180,2.1106,2.1980,0.4621
7.7137,0.020489,-0.248964,0.248964,-0.211689,0.207087,-0.002164,2.0606,2.1728,0.3963
7.7338,0.020091,-0.262113,0.262113,-0.222427,0.219359,-0.002166,2.0659,2.1755,0.4032
7.7539,0.020087,-0.275260,0.275260,-0.231631,0.233165,-0.002179,2.1147,2.1942,0.4565
7.7740,0.020086,-0.288406,0.288406,-0.245437,0.246971,-0.002164,2.0602,2.1732,0.3969
7.7941,0.020085,-0.301552,0.301552,-0.262311,0.262311,-0.002166,2.0659,2.1754,0.4031
7.8142,0.020114,-0.314716,0.314716,-0.276117,0.271515,-0.002179,2.1147,2.1942,0.4565
7.8343,0.020090,-0.327866,0.327866,-0.286854,0.283786,-0.002164,2.0602,2.1732,0.3969
7.8544,0.020085,-0.341011,0.341011,-0.300660,0.300660,-0.002166,2.0659,2.1754,0.4031
7.8745,0.020095,-0.349066,0.349066,-0.314466,0.311398,-0.002166,2.0659,2.1754,0.4031
7.8945,0.020090,-0.349066,0.349066,-0.328272,0.322136,-0.002166,2.0659,2.1754,0.4031
7.9146,0.020098,-0.349066,0.349066,-0.337476,0.334408,-0.002166,2.0659,2.1754,0.4031
7.9348,0.020204,-0.349066,0.349066,-0.348214,0.349748,-0.002166,2.0659,2.1754,0.4031
7.9549,0.020083,-0.349066,0.349066,-0.357418,0.351282,-0.002166,2.0659,2.1754,0.4031
7.9750,0.020086,-0.349066,0.349066,-0.354350,0.348214,-0.002179,2.1147,2.1942,0.4565
7.9951,0.020086,-0.349066,0.349066,-0.349748,0.349748,-0.002164,2.0602,2.1732,0.3969
8.0152,0.020083,-0.339128,0.339128,-0.354350,0.349748,-0.002179,2.1152,2.1944,0.4572
8.0352,0.020058,-0.326000,0.326000,-0.354350,0.348214,-0.002164,2.0601,2.1732,0.3968
8.0557,0.020481,-0.312595,0.312595,-0.351282,0.349748,-0.002166,2.0659,2.1754,0.4031
8.0759,0.020163,-0.299398,0.299398,-0.352816,0.348214,-0.002166,2.0659,2.1754,0.4031
8.0960,0.020084,-0.286254,0.286254,-0.349748,0.343612,-0.002166,2.0659,2.1754,0.4031
8.1161,0.020101,-0.273098,0.273098,-0.340544,0.337476,-0.002179,2.1147,2.1942,0.4565
8.1362,0.020101,-0.259941,0.259941,-0.309864,0.311398,-0.002167,2.1216,2.2423,0.3973
8.1563,0.020107,-0.246781,0.246781,-0.309864,0.311398,-0.002169,2.1209,2.2373,0.4035
8.1764,0.020107,-0.233621,0.233621,-0.277651,0.282252,-0.002169,2.1209,2.2373,0.4035
8.1967,0.020339,-0.220309,0.220309,-0.262311,0.265379,-0.002165,2.0596,2.1688,0.4024
8.2168,0.020101,-0.207153,0.207153,-0.251573,0.254641,-0.002166,2.0660,2.1759,0.4025
8.2369,0.020093,-0.194003,0.194003,-0.236233,0.240835,-0.002179,2.1146,2.1941,0.4566
8.2570,0.020098,-0.180848,0.180848,-0.222427,0.227029,-0.002164,2.0602,2.1732,0.3969
8.2771,0.020098,-0.167694,0.167694,-0.207087,0.213223,-0.002179,2.1152,2.1944,0.4572
8.2972,0.020104,-0.154536,0.154536,-0.193282,0.199418,-0.002178,2.1095,2.1922,0.4509
8.3173,0.020097,-0.141383,0.141383,-0.181010,0.187146,-0.002178,2.1095,2.1922,0.4509
8.3374,0.020102,-0.128227,0.128227,-0.170272,0.173340,-0.002178,2.1095,2.1922,0.4509
8.3575,0.020099,-0.115072,0.115072,-0.156466,0.159534,-0.002178,2.1095,2.1922,0.4509
8.3777,0.020144,-0.101888,0.101888,-0.144194,0.144194,-0.002164,2.0607,2.1734,0.3975
8.3978,0.020099,-0.088733,0.088733,-0.128854,0.128854,-0.002166,2.0658,2.1754,0.4030
8.4179,0.020136,-0.075553,0.075553,-0.115049,0.113515,-0.002166,2.0658,2.1754,0.4030
8.4380,0.020103,-0.062396,0.062396,-0.102777,0.102777,-0.002179,2.1147,2.1942,0.4565
8.4581,0.020087,-0.049249,0.049249,-0.088971,0.088971,-0.002164,2.0602,2.1732,0.3969
8.4782,0.020098,-0.036095,0.036095,-0.075165,0.075165,-0.002166,2.0659,2.1754,0.4031
8.4983,0.020092,-0.022945,0.022945,-0.064427,0.062893,-0.002166,2.0659,2.1754,0.4031
8.5184,0.020090,-0.009795,0.009795,-0.049087,0.050621,-0.002166,2.0659,2.1754,0.4031
8.5385,0.020094,0.000000,0.000000,-0.035282,0.036816,-0.002179,2.1147,2.1942,0.4565
8.5586,0.020128,0.000000,0.000000,-0.019942,0.026078,-0.002164,2.0602,2.1732,0.3969
8.5787,0.020098,0.000000,0.000000,-0.006136,0.012272,-0.002166,2.0659,2.1754,0.4031
8.5988,0.020092,0.000000,0.000000,0.004602,-0.001534,-0.002166,2.0659,2.1754,0.4031
8.6189,0.020098,0.000000,0.000000,0.006136,-0.003068,-0.002166,2.0659,2.1754,0.4031
8.6390,0.020087,0.000000,0.000000,-0.004602,0.000000,-0.002179,2.1147,2.1942,0.4565
8.6590,0.020086,0.000000,0.000000,-0.004602,0.003068,-0.002154,2.0723,2.2233,0.3433
8.6791,0.020098,-0.008168,0.008168,0.004602,-0.001534,-0.002167,2.0646,2.1702,0.4087
8.6992,0.020089,-0.021317,0.021317,0.003068,-0.001534,-0.002179,2.1148,2.1947,0.4559
8.7193,0.020090,-0.034465,0.034465,-0.006136,0.001534,-0.002164,2.0602,2.1732,0.3969
8.7394,0.020087,-0.047612,0.047612,-0.010738,0.007670,-0.002166,2.0659,2.1754,0.4031
8.7595,0.020091,-0.060762,0.060762,-0.013806,0.013806,-0.002166,2.0659,2.1754,0.4031
8.7796,0.020084,-0.073907,0.073907,-0.024544,0.026078,-0.002166,2.0659,2.1754,0.4031
8.7997,0.020086,-0.087053,0.087053,-0.046019,0.044485,-0.002179,2.1147,2.1942,0.4565
8.8198,0.020091,-0.100202,0.100202,-0.064427,0.061359,-0.002164,2.0602,2.1732,0.3969
8.8399,0.020119,-0.113370,0.113370,-0.081301,0.076699,-0.002179,2.1152,2.1944,0.4572
8.8600,0.020090,-0.126519,0.126519,-0.088971,0.090505,-0.002164,2.0601,2.1732,0.3968
8.8801,0.020092,-0.139669,0.139669,-0.095107,0.101243,-0.002166,2.0659,2.1754,0.4031
8.9002,0.020113,-0.152833,0.152833,-0.108913,0.113515,-0.002166,2.0659,2.1754,0.4031
8.9203,0.020089,-0.165981,0.165981,-0.127320,0.128854,-0.002166,2.0659,2.1754,0.4031
8.9404,0.020097,-0.179135,0.179135,-0.145728,0.142660,-0.002166,2.0659,2.1754,0.4031
8.9605,0.020088,-0.192282,0.192282,-0.161068,0.153398,-0.002166,2.0659,2.1754,0.4031
8.9806,0.020168,-0.205482,0.205482,-0.168738,0.165670,-0.002179,2.1147,2.1942,0.4565
9.0007,0.020091,-0.218631,0.218631,-0.176408,0.177942,-0.002178,2.1096,2.1922,0.4509
9.0208,0.020086,-0.231778,0.231778,-0.193282,0.193282,-0.002178,2.1096,2.1922,0.4509
9.0409,0.020089,-0.244926,0.244926,-0.211689,0.208621,-0.002164,2.0607,2.1734,0.3975
9.0611,0.020224,-0.258163,0.258163,-0.223961,0.217825,-0.002179,2.1152,2.1944,0.4571
9.0815,0.020417,-0.271526,0.271526,-0.233165,0.230097,-0.002178,2.1095,2.1922,0.4509
9.1016,0.020094,-0.284678,0.284678,-0.245437,0.243903,-0.002164,2.0607,2.1734,0.3975
9.1217,0.020086,-0.297824,0.297824,-0.262311,0.262311,-0.002179,2.1152,2.1944,0.4571
9.1418,0.020090,-0.310973,0.310973,-0.274583,0.273049,-0.002164,2.0602,2.1732,0.3968
9.1620,0.020203,-0.324196,0.324196,-0.285320,0.285320,-0.002166,2.0659,2.1754,0.4031
9.1821,0.020121,-0.337366,0.337366,-0.302194,0.297592,-0.002166,2.0659,2.1754,0.4031
9.2022,0.020105,-0.349066,0.349066,-0.316000,0.312932,-0.002145,2.1269,2.2108,0.4038
9.2223,0.020099,-0.349066,0.349066,-0.329806,0.325204,-0.002177,2.1102,2.1926,0.4510
9.2426,0.020224,-0.349066,0.349066,-0.340544,0.339010,-0.002177,2.1102,2.1926,0.4510
9.2626,0.020090,-0.349066,0.349066,-0.354350,0.349748,-0.002167,2.0617,2.1792,0.4086
9.2831,0.020416,-0.349066,0.349066,-0.355884,0.351282,-0.002155,2.1152,2.1604,0.4568
9.3033,0.020209,-0.349066,0.349066,-0.352816,0.348214,-0.002167,2.0602,2.1768,0.3969
9.3235,0.020241,-0.349066,0.349066,-0.351282,0.348214,-0.002166,2.0659,2.1751,0.4031
9.3436,0.020107,-0.342337,0.342337,-0.352816,0.348214,-0.002179,2.1147,2.1942,0.4565
9.3638,0.020225,-0.329100,0.329100,-0.351282,0.348214,-0.002178,2.1096,2.1922,0.4509
9.3839,0.020092,-0.315950,0.315950,-0.352816,0.349748,-0.002178,2.1096,2.1922,0.4509
9.4046,0.020681,-0.302414,0.302414,-0.351282,0.346680,-0.002178,2.1096,2.1922,0.4509
9.4248,0.020209,-0.289187,0.289187,-0.348214,0.342078,-0.002178,2.1096,2.1922,0.4509
9.4452,0.020420,-0.275823,0.275823,-0.340544,0.334408,-0.002164,2.0607,2.1734,0.3975
9.4653,0.020086,-0.262676,0.262676,-0.325204,0.323670,-0.002166,2.0658,2.1754,0.4030
9.4856,0.020243,-0.249427,0.249427,-0.309864,0.311398,-0.002166,2.0658,2.1754,0.4030
9.5057,0.020087,-0.236281,0.236281,-0.289922,0.294524,-0.002166,2.0658,2.1754,0.4030
9.5259,0.020249,-0.223028,0.223028,-0.276117,0.280718,-0.002179,2.1147,2.1942,0.4565
9.5464,0.020462,-0.209636,0.209636,-0.260777,0.265379,-0.002179,2.1147,2.1942,0.4565
9.5665,0.020174,-0.196432,0.196432,-0.248505,0.251573,-0.002166,2.0659,2.1754,0.4031
9.5866,0.020085,-0.183286,0.183286,-0.234699,0.237767,-0.002166,2.0659,2.1754,0.4031
9.6067,0.020104,-0.170128,0.170128,-0.222427,0.225495,-0.002179,2.1147,2.1942,0.4565
9.6272,0.020456,-0.156740,0.156740,-0.207087,0.211689,-0.002164,2.0602,2.1732,0.3969
9.6473,0.020083,-0.143595,0.143595,-0.194816,0.199418,-0.002166,2.0659,2.1754,0.4031
9.6674,0.020097,-0.130442,0.130442,-0.181010,0.185612,-0.002166,2.0659,2.1754,0.4031
9.6875,0.020089,-0.117293,0.117293,-0.168738,0.170272,-0.002166,2.0659,2.1754,0.4031
9.7075,0.020075,-0.104154,0.104154,-0.153398,0.154932,-0.002166,2.0659,2.1754,0.4031
9.7276,0.020090,-0.091005,0.091005,-0.139592,0.139592,-0.002166,2.0659,2.1754,0.4031
9.7477,0.020093,-0.077855,0.077855,-0.127320,0.125786,-0.002166,2.0659,2.1754,0.4031
9.7678,0.020085,-0.064709,0.064709,-0.113515,0.111981,-0.002179,2.1147,2.1942,0.4565
9.7879,0.020082,-0.051565,0.051565,-0.099709,0.099709,-0.002164,2.0602,2.1732,0.3969
9.8080,0.020134,-0.038388,0.038388,-0.085903,0.085903,-0.002166,2.0659,2.1754,0.4031
9.8281,0.020088,-0.025240,0.025240,-0.075165,0.073631,-0.002166,2.0659,2.1754,0.4031
9.8482,0.020089,-0.012092,0.012092,-0.059825,0.059825,-0.002166,2.0659,2.1754,0.4031
9.8685,0.020308,0.000000,0.000000,-0.044485,0.046019,-0.002179,2.1147,2.1942,0.4565
9.8886,0.020089,0.000000,0.000000,-0.033748,0.035282,-0.002178,2.1096,2.1922,0.4509
9.9087,0.020092,0.000000,0.000000,-0.018408,0.023010,-0.002164,2.0607,2.1734,0.3975
9.9289,0.020213,0.000000,0.000000,-0.006136,0.009204,-0.002179,2.1152,2.1944,0.4571
9.9490,0.020154,0.000000,0.000000,0.006136,-0.001534,-0.002178,2.1095,2.1922,0.4509
9.9691,0.020098,0.000000,0.000000,0.004602,-0.003068,-0.002178,2.1095,2.1922,0.4509
9.9892,0.020095,0.000000,0.000000,-0.006136,0.000000,-0.002164,2.0607,2.1734,0.3975
10.0096,0.020399,-0.006310,0.006310,-0.003068,0.001534,-0.002166,2.0658,2.1754,0.4030
10.0297,0.020094,-0.019462,0.019462,0.004602,-0.001534,-0.002166,2.0658,2.1754,0.4030
10.0498,0.020099,-0.032616,0.032616,0.003068,-0.001534,-0.002166,2.0658,2.1754,0.4030
10.0699,0.020093,-0.045767,0.045767,-0.006136,0.004602,-0.002179,2.1147,2.1942,0.4565
10.0900,0.020095,-0.058919,0.058919,-0.012272,0.009204,-0.002164,2.0602,2.1732,0.3969
10.1102,0.020128,-0.072093,0.072093,-0.032214,0.032214,-0.002179,2.1152,2.1944,0.4572
10.1302,0.020093,-0.085244,0.085244,-0.053689,0.049087,-0.002164,2.0601,2.1732,0.3968
10.1504,0.020180,-0.098452,0.098452,-0.070563,0.065961,-0.002179,2.1152,2.1944,0.4572
10.1716,0.021181,-0.112315,0.112315,-0.081301,0.079767,-0.002150,2.0998,2.1372,0.3436
10.1918,0.020162,-0.125511,0.125511,-0.081301,0.079767,-0.002150,2.0998,2.1372,0.3436
10.2119,0.020105,-0.138669,0.138669,-0.090505,0.093573,-0.002167,2.0618,2.1792,0.4086
10.2320,0.020099,-0.151824,0.151824,-0.104311,0.102777,-0.002166,2.0657,2.1748,0.4019
10.2521,0.020102,-0.164981,0.164981,-0.119651,0.111981,-0.002166,2.0657,2.1748,0.4019
10.2722,0.020101,-0.178137,0.178137,-0.133456,0.125786,-0.002179,2.1147,2.1943,0.4566
10.2923,0.020097,-0.191290,0.191290,-0.144194,0.142660,-0.002164,2.0602,2.1732,0.3969
10.3124,0.020100,-0.204446,0.204446,-0.158000,0.156466,-0.002166,2.0659,2.1754,0.4031
10.3325,0.020097,-0.217599,0.217599,-0.171806,0.167204,-0.002166,2.0659,2.1754,0.4031
10.3526,0.020104,-0.230757,0.230757,-0.185612,0.179476,-0.002165,2.1543,2.1581,0.4033
10.3736,0.021044,-0.244531,0.244531,-0.197884,0.194816,-0.002179,2.1055,2.1960,0.4565
10.3937,0.020102,-0.257687,0.257687,-0.210155,0.208621,-0.002178,2.1105,2.1921,0.4509
10.4138,0.020109,-0.270849,0.270849,-0.220893,0.219359,-0.002164,2.0606,2.1735,0.3975
10.4339,0.020095,-0.284001,0.284001,-0.237767,0.234699,-0.002179,2.1152,2.1944,0.4571
10.4540,0.020091,-0.297151,0.297151,-0.250039,0.248505,-0.002178,2.1095,2.1922,0.4509
10.4749,0.020867,-0.310808,0.310808,-0.263845,0.263845,-0.002164,2.0607,2.1734,0.3975
10.4950,0.020091,-0.323957,0.323957,-0.274583,0.274583,-0.002179,2.1152,2.1944,0.4571
10.5151,0.020112,-0.337121,0.337121,-0.286854,0.288388,-0.002178,2.1095,2.1922,0.4509
10.5352,0.020105,-0.349066,0.349066,-0.303728,0.300660,-0.002164,2.0607,2.1734,0.3975
10.5553,0.020095,-0.349066,0.349066,-0.319068,0.316000,-0.002166,2.0658,2.1754,0.4030
10.5754,0.020104,-0.349066,0.349066,-0.331340,0.326738,-0.002166,2.0658,2.1754,0.4030
10.5955,0.020105,-0.349066,0.349066,-0.343612,0.340544,-0.002179,2.1147,2.1942,0.4565
10.6156,0.020096,-0.349066,0.349066,-0.354350,0.351282,-0.002178,2.1096,2.1922,0.4509
10.6357,0.020104,-0.349066,0.349066,-0.354350,0.351282,-0.002164,2.0607,2.1734,0.3975
10.6558,0.020102,-0.349066,0.349066,-0.352816,0.346680,-0.002179,2.1152,2.1944,0.4571
10.6759,0.020108,-0.343022,0.343022,-0.351282,0.348214,-0.002178,2.1095,2.1922,0.4509
10.6960,0.020107,-0.329862,0.329862,-0.352816,0.348214,-0.002164,2.0607,2.1734,0.3975
10.7161,0.020108,-0.316701,0.316701,-0.352816,0.348214,-0.002156,2.0779,2.2255,0.3494
10.7362,0.020106,-0.303542,0.303542,-0.352816,0.348214,-0.002167,2.0640,2.1700,0.4080
10.7563,0.020096,-0.290389,0.290389,-0.351282,0.345146,-0.002179,2.1148,2.1948,0.4560
10.7764,0.020107,-0.277229,0.277229,-0.346680,0.340544,-0.002154,2.0722,2.2232,0.3433
10.7965,0.020100,-0.264073,0.264073,-0.337476,0.332874,-0.002167,2.0646,2.1702,0.4087
10.8185,0.021924,-0.249724,0.249724,-0.322136,0.322136,-0.002166,2.0654,2.1757,0.4019
10.8386,0.020122,-0.236554,0.236554,-0.305262,0.306796,-0.002152,2.1050,2.1391,0.3494
10.8587,0.020107,-0.223395,0.223395,-0.273049,0.277651,-0.002180,2.1106,2.1980,0.4621
10.8788,0.020152,-0.210205,0.210205,-0.273049,0.277651,-0.002164,2.0606,2.1728,0.3963
10.8989,0.020104,-0.197047,0.197047,-0.260777,0.265379,-0.002166,2.0659,2.1755,0.4032
10.9197,0.020735,-0.183476,0.183476,-0.233165,0.236233,-0.002164,2.0602,2.1732,0.3969
10.9398,0.020099,-0.170321,0.170321,-0.220893,0.223961,-0.002164,2.0602,2.1732,0.3969
10.9599,0.020094,-0.157170,0.157170,-0.204019,0.208621,-0.002166,2.0659,2.1754,0.4031
10.9800,0.020099,-0.144015,0.144015,-0.191748,0.197884,-0.002166,2.0659,2.1754,0.4031
11.0000,0.020085,-0.130869,0.130869,-0.177942,0.184078,-0.002164,2.0602,2.1732,0.3969
11.0201,0.020099,-0.117714,0.117714,-0.164136,0.167204,-0.002164,2.0602,2.1732,0.3969
11.0403,0.020116,-0.104549,0.104549,-0.164136,0.167204,-0.002179,2.1152,2.1944,0.4572
11.0604,0.020099,-0.091394,0.091394,-0.138058,0.138058,-0.002178,2.1095,2.1922,0.4509
11.0805,0.020112,-0.078231,0.078231,-0.124252,0.122718,-0.002178,2.1095,2.1922,0.4509
11.1006,0.020102,-0.065074,0.065074,-0.124252,0.122718,-0.002164,2.0607,2.1734,0.3975
11.1207,0.020096,-0.051921,0.051921,-0.111981,0.110447,-0.002179,2.1152,2.1944,0.4571
11.1408,0.020095,-0.038769,0.038769,-0.096641,0.098175,-0.002164,2.0602,2.1732,0.3968
11.1609,0.020097,-0.025615,0.025615,-0.070563,0.070563,-0.002179,2.1147,2.1942,0.4565
11.1810,0.020102,-0.012459,0.012459,-0.070563,0.070563,-0.002179,2.1147,2.1942,0.4565
11.2011,0.020092,0.000000,0.000000,-0.042951,0.042951,-0.002178,2.1096,2.1922,0.4509
11.2211,0.020088,0.000000,0.000000,-0.042951,0.042951,-0.002164,2.0607,2.1734,0.3975
11.2412,0.020097,0.000000,0.000000,-0.027612,0.030680,-0.002179,2.1152,2.1944,0.4571
11.2613,0.020104,0.000000,0.000000,-0.015340,0.018408,-0.002164,2.0602,2.1732,0.3968
11.2818,0.020463,0.000000,0.000000,-0.003068,0.006136,-0.002166,2.0659,2.1754,0.4031
11.3020,0.020206,0.000000,0.000000,0.006136,-0.003068,-0.002179,2.1147,2.1942,0.4565
11.3221,0.020093,0.000000,0.000000,-0.006136,0.001534,-0.002166,2.0659,2.1754,0.4031
11.3422,0.020108,-0.005813,0.005813,-0.001534,0.000000,-0.002166,2.0659,2.1754,0.4031
11.3623,0.020112,-0.018976,0.018976,0.004602,-0.001534,-0.002166,2.0659,2.1754,0.4031
11.3824,0.020101,-0.032132,0.032132,0.004602,-0.001534,-0.002165,2.1543,2.1581,0.4033
11.4029,0.020445,-0.045513,0.045513,0.000000,0.000000,-0.002179,2.1055,2.1960,0.4565
11.4230,0.020096,-0.058666,0.058666,-0.012272,0.007670,-0.002164,2.0612,2.1730,0.3969
11.4431,0.020108,-0.071826,0.071826,-0.012272,0.007670,-0.002166,2.0658,2.1755,0.4031
11.4632,0.020089,-0.084974,0.084974,-0.018408,0.021476,-0.002166,2.0658,2.1755,0.4031
11.4838,0.020606,-0.098461,0.098461,-0.056757,0.055223,-0.002179,2.1147,2.1942,0.4565
11.5039,0.020147,-0.111646,0.111646,-0.056757,0.055223,-0.002164,2.0602,2.1732,0.3969
11.5241,0.020141,-0.124829,0.124829,-0.075165,0.070563,-0.002166,2.0659,2.1754,0.4031
11.5442,0.020146,-0.138014,0.138014,-0.092039,0.093573,-0.002152,2.1049,2.1392,0.3493
11.5643,0.020117,-0.151180,0.151180,-0.105845,0.108913,-0.002167,2.0613,2.1790,0.4080
11.5844,0.020103,-0.164338,0.164338,-0.122718,0.124252,-0.002166,2.0658,2.1748,0.4019
11.6045,0.020099,-0.177493,0.177493,-0.122718,0.124252,-0.002166,2.0658,2.1748,0.4019
11.6246,0.020107,-0.190652,0.190652,-0.153398,0.145728,-0.002166,2.0658,2.1748,0.4019
11.6447,0.020104,-0.203810,0.203810,-0.153398,0.145728,-0.002155,2.1148,2.1608,0.4575
11.6649,0.020154,-0.217001,0.217001,-0.177942,0.177942,-0.002166,2.0659,2.1751,0.4031
11.6850,0.020130,-0.230176,0.230176,-0.191748,0.188680,-0.002166,2.0659,2.1751,0.4031
11.7051,0.020125,-0.243348,0.243348,-0.191748,0.188680,-0.002166,2.0659,2.1751,0.4031
11.7252,0.020100,-0.256503,0.256503,-0.205553,0.200951,-0.002156,2.0774,2.2253,0.3488
11.7454,0.020121,-0.269672,0.269672,-0.216291,0.213223,-0.002167,2.0641,2.1700,0.4081
11.7655,0.020094,-0.282824,0.282824,-0.227029,0.227029,-0.002179,2.1148,2.1947,0.4560
11.7856,0.020110,-0.295986,0.295986,-0.237767,0.239301,-0.002164,2.0602,2.1732,0.3969
11.8057,0.020116,-0.309151,0.309151,-0.253107,0.251573,-0.002179,2.1152,2.1944,0.4571
11.8258,0.020097,-0.322305,0.322305,-0.266913,0.265379,-0.002164,2.0601,2.1732,0.3968
11.8459,0.020124,-0.335476,0.335476,-0.277651,0.276117,-0.002166,2.0659,2.1754,0.4031
11.8660,0.020098,-0.348631,0.348631,-0.289922,0.288388,-0.002166,2.0659,2.1754,0.4031
11.8861,0.020100,-0.349066,0.349066,-0.305262,0.303728,-0.002166,2.0659,2.1754,0.4031
11.9062,0.020097,-0.349066,0.349066,-0.322136,0.319068,-0.002179,2.1147,2.1942,0.4565
11.9263,0.020094,-0.349066,0.349066,-0.335942,0.331340,-0.002178,2.1096,2.1922,0.4509
11.9464,0.020105,-0.349066,0.349066,-0.348214,0.345146,-0.002164,2.0607,2.1734,0.3975
11.9665,0.020103,-0.349066,0.349066,-0.355884,0.351282,-0.002179,2.1152,2.1944,0.4571
11.9866,0.020096,-0.349066,0.349066,-0.354350,0.349748,-0.002178,2.1095,2.1922,0.4509
12.0067,0.020104,-0.344679,0.344679,-0.351282,0.348214,-0.002178,2.1095,2.1922,0.4509
12.0269,0.020174,-0.331475,0.331475,-0.351282,0.348214,-0.002164,2.0607,2.1734,0.3975
12.0470,0.020098,-0.318321,0.318321,-0.351282,0.348214,-0.002166,2.0658,2.1754,0.4030
12.0671,0.020107,-0.305161,0.305161,-0.352816,0.348214,-0.002166,2.0658,2.1754,0.4030
12.0872,0.020097,-0.292008,0.292008,-0.349748,0.343612,-0.002166,2.0658,2.1754,0.4030
12.1073,0.020095,-0.278856,0.278856,-0.343612,0.337476,-0.002166,2.0658,2.1754,0.4030
12.1274,0.020100,-0.265700,0.265700,-0.332874,0.329806,-0.002166,2.0658,2.1754,0.4030
12.1475,0.020102,-0.252544,0.252544,-0.317534,0.317534,-0.002179,2.1147,2.1942,0.4565
12.1676,0.020103,-0.239386,0.239386,-0.300660,0.302194,-0.002178,2.1096,2.1922,0.4509
12.1877,0.020096,-0.226234,0.226234,-0.282252,0.286854,-0.002164,2.0607,2.1734,0.3975
12.2078,0.020109,-0.213073,0.213073,-0.266913,0.273049,-0.002166,2.0658,2.1754,0.4030
12.2279,0.020096,-0.199920,0.199920,-0.254641,0.257709,-0.002166,2.0658,2.1754,0.4030
12.2480,0.020090,-0.186771,0.186771,-0.242369,0.243903,-0.002169,2.1641,2.1798,0.5115
12.2681,0.020177,-0.173565,0.173565,-0.230097,0.231631,-0.002165,2.0551,2.1747,0.3912
12.2882,0.020094,-0.160414,0.160414,-0.216291,0.222427,-0.002166,2.0664,2.1753,0.4037
12.3083,0.020094,-0.147263,0.147263,-0.200951,0.205553,-0.002166,2.0649,2.1752,0.4019
12.3284,0.020086,-0.134116,0.134116,-0.182544,0.188680,-0.002179,2.1148,2.1942,0.4566
12.3485,0.020094,-0.120965,0.120965,-0.167204,0.171806,-0.002164,2.0602,2.1732,0.3969
12.3686,0.020099,-0.107810,0.107810,-0.150330,0.154932,-0.002166,2.0659,2.1754,0.4031
12.3887,0.020090,-0.094661,0.094661,-0.136524,0.138058,-0.002166,2.0659,2.1754,0.4031
12.4088,0.020097,-0.081507,0.081507,-0.124252,0.122718,-0.002155,2.0774,2.2253,0.3488
12.4289,0.020088,-0.068360,0.068360,-0.111981,0.110447,-0.002167,2.0641,2.1700,0.4081
12.4490,0.020092,-0.055210,0.055210,-0.099709,0.098175,-0.002166,2.0655,2.1758,0.4019
12.4691,0.020100,-0.042054,0.042054,-0.085903,0.082835,-0.002166,2.0655,2.1758,0.4019
12.4892,0.020092,-0.028904,0.028904,-0.072097,0.070563,-0.002179,2.1147,2.1942,0.4566
12.5093,0.020095,-0.015752,0.015752,-0.058291,0.059825,-0.002164,2.0602,2.1732,0.3969
12.5294,0.020093,-0.002601,0.002601,-0.044485,0.046019,-0.002179,2.1152,2.1944,0.4572
12.5495,0.020092,0.000000,0.000000,-0.029146,0.032214,-0.002164,2.0601,2.1732,0.3968
12.5695,0.020090,0.000000,0.000000,-0.015340,0.019942,-0.002166,2.0659,2.1754,0.4031
12.5898,0.020287,0.000000,0.000000,-0.003068,0.007670,-0.002166,2.0659,2.1754,0.4031
12.6099,0.020088,0.000000,0.000000,0.006136,-0.003068,-0.002166,2.0659,2.1754,0.4031
12.6300,0.020085,0.000000,0.000000,0.004602,-0.003068,-0.002179,2.1147,2.1942,0.4565
12.6501,0.020086,0.000000,0.000000,-0.006136,0.001534,-0.002164,2.0602,2.1732,0.3969
12.6702,0.020088,-0.002296,0.002296,-0.003068,0.001534,-0.002156,2.1154,2.1610,0.4580
12.6903,0.020090,-0.015445,0.015445,0.004602,-0.001534,-0.002157,2.0722,2.2268,0.3431
12.7104,0.020096,-0.028598,0.028598,0.003068,0.000000,-0.002167,2.0646,2.1699,0.4087
12.7305,0.020094,-0.041750,0.041750,-0.006136,0.001534,-0.002166,2.0654,2.1758,0.4019
12.7505,0.020084,-0.054895,0.054895,-0.010738,0.004602,-0.002155,2.1148,2.1607,0.4575
12.7706,0.020085,-0.068041,0.068041,-0.016874,0.016874,-0.002180,2.1096,2.1957,0.4508
12.7907,0.020082,-0.081185,0.081185,-0.033748,0.033748,-0.002178,2.1101,2.1921,0.4515
12.8108,0.020075,-0.094324,0.094324,-0.056757,0.053689,-0.002164,2.0607,2.1735,0.3974
12.8309,0.020086,-0.107470,0.107470,-0.072097,0.070563,-0.002179,2.1152,2.1944,0.4571
12.8509,0.020074,-0.120608,0.120608,-0.084369,0.081301,-0.002164,2.0602,2.1732,0.3968
12.8710,0.020081,-0.133751,0.133751,-0.092039,0.092039,-0.002179,2.1152,2.1944,0.4572
12.8911,0.020082,-0.146895,0.146895,-0.105845,0.104311,-0.002164,2.0601,2.1732,0.3968
12.9112,0.020075,-0.160034,0.160034,-0.122718,0.121184,-0.002166,2.0659,2.1754,0.4031
12.9313,0.020085,-0.173179,0.173179,-0.138058,0.134990,-0.002169,2.1267,2.2443,0.4029
12.9513,0.020082,-0.186323,0.186323,-0.151864,0.145728,-0.002179,2.1083,2.1870,0.4565
12.9714,0.020092,-0.199473,0.199473,-0.164136,0.159534,-0.002164,2.0609,2.1740,0.3969
12.9915,0.020087,-0.212620,0.212620,-0.174874,0.171806,-0.002156,2.0779,2.2254,0.3495
13.0116,0.020078,-0.225761,0.225761,-0.187146,0.185612,-0.002167,2.0640,2.1700,0.4080
13.0317,0.020091,-0.238910,0.238910,-0.199418,0.199418,-0.002166,2.0655,2.1758,0.4019
13.0518,0.020076,-0.252050,0.252050,-0.214757,0.211689,-0.002179,2.1147,2.1942,0.4566
13.0719,0.020084,-0.265195,0.265195,-0.225495,0.222427,-0.002154,2.1097,2.1588,0.4518
13.0919,0.020086,-0.278341,0.278341,-0.239301,0.236233,-0.002167,2.0608,2.1769,0.3974
13.1120,0.020077,-0.291481,0.291481,-0.251573,0.251573,-0.002166,2.0658,2.1751,0.4030
13.1321,0.020092,-0.304631,0.304631,-0.265379,0.265379,-0.002179,2.1147,2.1942,0.4565
13.1522,0.020081,-0.317774,0.317774,-0.277651,0.273049,-0.002178,2.1096,2.1922,0.4509
13.1723,0.020088,-0.330921,0.330921,-0.289922,0.285320,-0.002164,2.0607,2.1734,0.3975
13.1924,0.020087,-0.344068,0.344068,-0.306796,0.303728,-0.002166,2.0658,2.1754,0.4030
13.2124,0.020079,-0.349066,0.349066,-0.320602,0.320602,-0.002179,2.1147,2.1942,0.4565
13.2325,0.020092,-0.349066,0.349066,-0.332874,0.329806,-0.002164,2.0602,2.1732,0.3969
13.2526,0.020088,-0.349066,0.349066,-0.343612,0.340544,-0.002166,2.0659,2.1754,0.4031
13.2727,0.020079,-0.349066,0.349066,-0.355884,0.351282,-0.002166,2.0659,2.1754,0.4031
13.2928,0.020077,-0.349066,0.349066,-0.355884,0.349748,-0.002166,2.0659,2.1754,0.4031
13.3129,0.020076,-0.349066,0.349066,-0.349748,0.346680,-0.002179,2.1147,2.1942,0.4565
13.3329,0.020087,-0.349066,0.349066,-0.352816,0.348214,-0.002164,2.0602,2.1732,0.3969
13.3530,0.020077,-0.336181,0.336181,-0.352816,0.348214,-0.002166,2.0659,2.1754,0.4031
13.3731,0.020087,-0.323034,0.323034,-0.351282,0.348214,-0.002166,2.0659,2.1754,0.4031
13.3932,0.020078,-0.309893,0.309893,-0.352816,0.348214,-0.002166,2.0659,2.1754,0.4031
13.4133,0.020075,-0.296754,0.296754,-0.351282,0.345146,-0.002166,2.0659,2.1754,0.4031
13.4333,0.020079,-0.283612,0.283612,-0.343612,0.339010,-0.002166,2.0659,2.1754,0.4031
13.4534,0.020075,-0.270473,0.270473,-0.334408,0.329806,-0.002166,2.0659,2.1754,0.4031
13.4735,0.020083,-0.257329,0.257329,-0.319068,0.319068,-0.002166,2.0659,2.1754,0.4031
13.4936,0.020078,-0.244188,0.244188,-0.303728,0.303728,-0.002166,2.0659,2.1754,0.4031
13.5137,0.020076,-0.231048,0.231048,-0.285320,0.289922,-0.002166,2.0659,2.1754,0.4031
13.5337,0.020077,-0.217908,0.217908,-0.269981,0.274583,-0.002166,2.0659,2.1754,0.4031
13.5538,0.020074,-0.204769,0.204769,-0.256175,0.260777,-0.002166,2.0659,2.1754,0.4031
13.5739,0.020102,-0.191612,0.191612,-0.243903,0.246971,-0.002166,2.0659,2.1754,0.4031
13.5940,0.020078,-0.178471,0.178471,-0.231631,0.234699,-0.002166,2.0659,2.1754,0.4031
13.6141,0.020079,-0.165330,0.165330,-0.217825,0.223961,-0.002166,2.0659,2.1754,0.4031
13.6341,0.020085,-0.152184,0.152184,-0.204019,0.211689,-0.002166,2.0659,2.1754,0.4031
13.6542,0.020082,-0.139041,0.139041,-0.191748,0.197884,-0.002155,2.0774,2.2253,0.3488
13.6743,0.020082,-0.125897,0.125897,-0.177942,0.184078,-0.002180,2.1134,2.1890,0.4622
13.6944,0.020079,-0.112755,0.112755,-0.164136,0.168738,-0.002164,2.0603,2.1738,0.3963
13.7145,0.020148,-0.099568,0.099568,-0.151864,0.153398,-0.002179,2.1152,2.1944,0.4572
13.7346,0.020083,-0.086424,0.086424,-0.138058,0.138058,-0.002164,2.0602,2.1732,0.3968
13.7547,0.020079,-0.073282,0.073282,-0.111981,0.111981,-0.002166,2.0659,2.1754,0.4031
13.7749,0.020230,-0.060041,0.060041,-0.099709,0.099709,-0.002179,2.1147,2.1942,0.4565
13.7950,0.020077,-0.046901,0.046901,-0.084369,0.085903,-0.002164,2.0602,2.1732,0.3969
13.8152,0.020195,-0.033683,0.033683,-0.070563,0.070563,-0.002166,2.0659,2.1754,0.4031
13.8353,0.020079,-0.020542,0.020542,-0.056757,0.058291,-0.002166,2.0659,2.1754,0.4031
13.8554,0.020080,-0.007399,0.007399,-0.041417,0.044485,-0.002166,2.0659,2.1754,0.4031
13.8755,0.020092,0.000000,0.000000,-0.027612,0.030680,-0.002166,2.0659,2.1754,0.4031
13.8955,0.020074,0.000000,0.000000,-0.012272,0.018408,-0.002169,2.1267,2.2443,0.4029
13.9156,0.020111,0.000000,0.000000,-0.001534,0.006136,-0.002152,2.0986,2.1320,0.3493
13.9357,0.020096,0.000000,0.000000,0.006136,-0.003068,-0.002181,2.1113,2.1987,0.4621
13.9558,0.020082,0.000000,0.000000,0.001534,-0.001534,-0.002178,2.1099,2.1918,0.4504
13.9760,0.020145,0.000000,0.000000,-0.006136,0.003068,-0.002164,2.0607,2.1735,0.3975
