t,loop_dt,cmd_ant_l,cmd_ant_r,pres_ant_l,pres_ant_r,pres_z,pres_roll,pres_pitch,pres_yaw
0.0000,0.000001,-0.349066,0.349066,-0.170272,0.167204,-0.002093,3.1221,1.9284,0.3614
0.0201,0.020102,-0.348974,0.348974,-0.170272,0.173340,-0.002103,3.1106,1.8791,0.4140
0.0402,0.020096,-0.348368,0.348368,-0.184078,0.182544,-0.002102,3.1118,1.8842,0.4086
0.0603,0.020109,-0.346820,0.346820,-0.245437,0.237767,-0.002092,3.1233,1.9336,0.3559
0.0804,0.020091,-0.343997,0.343997,-0.328272,0.322136,-0.002103,3.1105,1.8785,0.4146
0.1005,0.020093,-0.339651,0.339651,-0.380427,0.372757,-0.002102,3.1118,1.8842,0.4085
0.1206,0.020089,-0.333610,0.333610,-0.385029,0.377359,-0.002078,3.0734,1.9144,0.3021
0.1407,0.020103,-0.325770,0.325770,-0.368155,0.365087,-0.002077,2.9778,1.9061,0.2045
0.1608,0.020112,-0.316098,0.316098,-0.351282,0.355884,-0.002077,3.0260,1.8430,0.3228
0.1809,0.020097,-0.304634,0.304634,-0.339010,0.345146,-0.002077,3.0210,1.8496,0.3105
0.2010,0.020107,-0.291446,0.291446,-0.325204,0.329806,-0.002063,2.9718,1.8298,0.2579
0.2211,0.020095,-0.276678,0.276678,-0.317534,0.320602,-0.002051,2.9272,1.8129,0.2095
0.2412,0.020102,-0.260487,0.260487,-0.309864,0.308330,-0.002052,2.9318,1.8147,0.2146
0.2613,0.020110,-0.243075,0.243075,-0.300660,0.299126,-0.002038,2.8817,1.7955,0.1602
0.2814,0.020091,-0.224702,0.224702,-0.286854,0.286854,-0.002039,2.8869,1.7975,0.1659
0.3015,0.020122,-0.205577,0.205577,-0.271515,0.273049,-0.002039,2.8869,1.7975,0.1659
0.3216,0.020095,-0.186028,0.186028,-0.254641,0.254641,-0.002026,2.8367,1.7783,0.1114
0.3417,0.020098,-0.166310,0.166310,-0.236233,0.236233,-0.002013,2.7924,1.7615,0.0631
0.3618,0.020108,-0.146701,0.146701,-0.214757,0.217825,-0.002015,2.7970,1.7632,0.0682
0.3819,0.020095,-0.127508,0.127508,-0.191748,0.197884,-0.002015,2.7970,1.7632,0.0682
0.4020,0.020098,-0.108990,0.108990,-0.170272,0.177942,-0.002015,2.7970,1.7632,0.0682
0.4221,0.020091,-0.091415,0.091415,-0.150330,0.156466,-0.002015,2.7970,1.7632,0.0682
0.4422,0.020096,-0.075009,0.075009,-0.130388,0.131922,-0.002015,2.7970,1.7632,0.0682
0.4623,0.020111,-0.059979,0.059979,-0.111981,0.110447,-0.002015,2.7970,1.7632,0.0682
0.4824,0.020096,-0.046523,0.046523,-0.092039,0.090505,-0.002015,2.7970,1.7632,0.0682
0.5025,0.020090,-0.034768,0.034768,-0.075165,0.072097,-0.002015,2.7970,1.7632,0.0682
0.5226,0.020089,-0.024801,0.024801,-0.059825,0.056757,-0.002015,2.7970,1.7632,0.0682
0.5427,0.020090,-0.016658,0.016658,-0.046019,0.044485,-0.002015,2.7970,1.7632,0.0682
0.5628,0.020101,-0.010314,0.010314,-0.029146,0.030680,-0.002015,2.7970,1.7632,0.0682
0.5829,0.020094,-0.005690,0.005690,-0.018408,0.019942,-0.002015,2.7970,1.7632,0.0682
0.6030,0.020091,-0.002626,0.002626,-0.013806,0.012272,-0.002015,2.7970,1.7632,0.0682
0.6231,0.020089,-0.000884,0.000884,-0.010738,0.006136,-0.002015,2.7970,1.7632,0.0682
0.6431,0.020085,-0.000145,0.000145,-0.003068,0.004602,-0.002015,2.7970,1.7632,0.0682
0.6632,0.020086,-0.000000,0.000000,0.001534,0.003068,-0.002015,2.7970,1.7632,0.0682
0.6833,0.020086,-0.000052,0.000052,-0.001534,0.000000,-0.002015,2.7970,1.7632,0.0682
0.7034,0.020108,-0.000537,0.000537,-0.006136,0.000000,-0.002015,2.7970,1.7632,0.0682
0.7235,0.020130,-0.001900,0.001900,-0.003068,0.000000,-0.002015,2.7970,1.7632,0.0682
0.7454,0.021857,-0.004780,0.004780,0.001534,0.000000,-0.002015,2.7970,1.7632,0.0682
0.7655,0.020098,-0.008995,0.008995,-0.003068,0.000000,-0.002015,2.7970,1.7632,0.0682
0.7856,0.020097,-0.014894,0.014894,-0.004602,0.000000,-0.002015,2.7970,1.7632,0.0682
0.8057,0.020100,-0.022583,0.022583,-0.001534,0.003068,-0.002015,2.7970,1.7632,0.0682
0.8260,0.020331,-0.032219,0.032219,-0.003068,0.010738,-0.002015,2.7970,1.7632,0.0682
0.8461,0.020090,-0.043553,0.043553,-0.012272,0.013806,-0.002004,2.8083,1.8129,0.0143
0.8662,0.020085,-0.056607,0.056607,-0.021476,0.015340,-0.002016,2.7954,1.7579,0.0732
0.8863,0.020093,-0.071263,0.071263,-0.036816,0.023010,-0.002014,2.7967,1.7636,0.0671
0.9068,0.020538,-0.087721,0.087721,-0.047553,0.033748,-0.002014,2.7967,1.7636,0.0671
0.9269,0.020104,-0.105070,0.105070,-0.055223,0.049087,-0.002014,2.7967,1.7636,0.0671
0.9470,0.020103,-0.123411,0.123411,-0.062893,0.069029,-0.002004,2.8083,1.8129,0.0144
0.9674,0.020354,-0.142729,0.142729,-0.078233,0.085903,-0.002016,2.7954,1.7579,0.0732
0.9876,0.020164,-0.162333,0.162333,-0.102777,0.102777,-0.002014,2.7967,1.7636,0.0671
1.0076,0.020087,-0.182039,0.182039,-0.124252,0.121184,-0.002014,2.7967,1.7636,0.0671
1.0281,0.020491,-0.202028,0.202028,-0.144194,0.139592,-0.002014,2.7967,1.7636,0.0671
1.0482,0.020084,-0.221220,0.221220,-0.164136,0.156466,-0.002014,2.7967,1.7636,0.0671
1.0683,0.020093,-0.239748,0.239748,-0.184078,0.179476,-0.002014,2.7967,1.7636,0.0671
1.0884,0.020083,-0.257336,0.257336,-0.200951,0.197884,-0.002014,2.7967,1.7636,0.0671
1.1088,0.020362,-0.273973,0.273973,-0.220893,0.217825,-0.002014,2.7967,1.7636,0.0671
1.1289,0.020176,-0.289057,0.289057,-0.242369,0.239301,-0.002014,2.7967,1.7636,0.0671
1.1490,0.020106,-0.302523,0.302523,-0.259243,0.257709,-0.002014,2.7967,1.7636,0.0671
1.1691,0.020088,-0.314280,0.314280,-0.274583,0.273049,-0.002014,2.7967,1.7636,0.0671
1.1892,0.020093,-0.324252,0.324252,-0.288388,0.289922,-0.002014,2.7967,1.7636,0.0671
1.2096,0.020421,-0.332517,0.332517,-0.305262,0.300660,-0.002014,2.7967,1.7636,0.0671
1.2298,0.020186,-0.338856,0.338856,-0.319068,0.312932,-0.002014,2.7967,1.7636,0.0671
1.2499,0.020085,-0.343447,0.343447,-0.328272,0.325204,-0.002014,2.7967,1.7636,0.0671
1.2700,0.020095,-0.346485,0.346485,-0.334408,0.332874,-0.002014,2.7967,1.7636,0.0671
1.2901,0.020084,-0.348204,0.348204,-0.340544,0.337476,-0.002014,2.7967,1.7636,0.0671
1.3104,0.020317,-0.348931,0.348931,-0.346680,0.342078,-0.002014,2.7967,1.7636,0.0671
1.3307,0.020278,-0.349066,0.349066,-0.346680,0.345146,-0.002014,2.7967,1.7636,0.0671
1.3508,0.020087,-0.349006,0.349006,-0.346680,0.345146,-0.002004,2.8083,1.8129,0.0144
1.3710,0.020253,-0.348487,0.348487,-0.354350,0.346680,-0.002016,2.7954,1.7579,0.0732
1.3911,0.020106,-0.347076,0.347076,-0.354350,0.346680,-0.002014,2.7967,1.7636,0.0671
1.4112,0.020092,-0.344428,0.344428,-0.351282,0.346680,-0.002014,2.7967,1.7636,0.0671
1.4314,0.020124,-0.340274,0.340274,-0.352816,0.346680,-0.002014,2.7967,1.7636,0.0671
1.4519,0.020524,-0.334303,0.334303,-0.351282,0.346680,-0.002014,2.7967,1.7636,0.0671
1.4721,0.020256,-0.326582,0.326582,-0.349748,0.343612,-0.002014,2.7967,1.7636,0.0671
1.4922,0.020098,-0.317088,0.317088,-0.348214,0.342078,-0.002014,2.7967,1.7636,0.0671
1.5123,0.020088,-0.305797,0.305797,-0.343612,0.340544,-0.002014,2.7967,1.7636,0.0671
1.5324,0.020085,-0.292782,0.292782,-0.340544,0.337476,-0.002014,2.7967,1.7636,0.0671
1.5525,0.020088,-0.278165,0.278165,-0.335942,0.332874,-0.002014,2.7967,1.7636,0.0671
1.5726,0.020096,-0.262106,0.262106,-0.325204,0.326738,-0.002014,2.7967,1.7636,0.0671
1.5928,0.020248,-0.244680,0.244680,-0.312932,0.314466,-0.002014,2.7967,1.7636,0.0671
1.6129,0.020092,-0.226384,0.226384,-0.297592,0.300660,-0.002014,2.7967,1.7636,0.0671
1.6330,0.020085,-0.207348,0.207348,-0.280718,0.285320,-0.002014,2.7967,1.7636,0.0671
1.6531,0.020084,-0.187840,0.187840,-0.263845,0.268447,-0.002014,2.7967,1.7636,0.0671
1.6735,0.020448,-0.167782,0.167782,-0.250039,0.251573,-0.002014,2.7967,1.7636,0.0671
1.6942,0.020677,-0.147604,0.147604,-0.233165,0.236233,-0.002014,2.7967,1.7636,0.0671
1.7143,0.020082,-0.128399,0.128399,-0.233165,0.236233,-0.002014,2.7967,1.7636,0.0671
1.7344,0.020091,-0.109849,0.109849,-0.191748,0.194816,-0.002014,2.7967,1.7636,0.0671
1.7545,0.020097,-0.092218,0.092218,-0.170272,0.174874,-0.002014,2.7967,1.7636,0.0671
1.7746,0.020088,-0.075759,0.075759,-0.150330,0.153398,-0.002014,2.7967,1.7636,0.0671
1.7947,0.020100,-0.060666,0.060666,-0.133456,0.133456,-0.002014,2.7967,1.7636,0.0671
1.8148,0.020088,-0.047136,0.047136,-0.113515,0.111981,-0.002014,2.7967,1.7636,0.0671
1.8349,0.020088,-0.035298,0.035298,-0.096641,0.096641,-0.002014,2.7967,1.7636,0.0671
1.8549,0.020089,-0.025242,0.025242,-0.076699,0.075165,-0.002014,2.7967,1.7636,0.0671
1.8750,0.020085,-0.017012,0.017012,-0.056757,0.052155,-0.002014,2.7967,1.7636,0.0671
1.8951,0.020093,-0.010585,0.010585,-0.036816,0.033748,-0.002014,2.7967,1.7636,0.0671
1.9152,0.020086,-0.005881,0.005881,-0.019942,0.021476,-0.002014,2.7967,1.7636,0.0671
1.9353,0.020089,-0.002744,0.002744,-0.013806,0.013806,-0.002014,2.7967,1.7636,0.0671
1.9554,0.020085,-0.000944,0.000944,-0.013806,0.009204,-0.002014,2.7967,1.7636,0.0671
1.9755,0.020105,-0.000164,0.000164,-0.012272,0.004602,-0.002014,2.7967,1.7636,0.0671
1.9956,0.020089,-0.000001,0.000001,-0.003068,0.001534,-0.002014,2.7967,1.7636,0.0671
2.0157,0.020087,-0.000044,0.000044,0.001534,0.000000,-0.002004,2.8083,1.8129,0.0144
2.0358,0.020088,-0.000496,0.000496,0.001534,0.000000,-0.002016,2.7954,1.7579,0.0732
2.0558,0.020084,-0.001802,0.001802,-0.006136,0.000000,-0.002014,2.7967,1.7636,0.0671
2.0759,0.020082,-0.004315,0.004315,-0.003068,0.000000,-0.002014,2.7967,1.7636,0.0671
2.0960,0.020089,-0.008303,0.008303,0.003068,0.000000,-0.002014,2.7967,1.7636,0.0671
2.1161,0.020091,-0.013955,0.013955,0.000000,0.000000,-0.002014,2.7967,1.7636,0.0671
2.1362,0.020086,-0.021383,0.021383,-0.006136,0.003068,-0.002014,2.7967,1.7636,0.0671
2.1563,0.020087,-0.030634,0.030634,-0.009204,0.009204,-0.002014,2.7967,1.7636,0.0671
2.1764,0.020095,-0.041697,0.041697,-0.007670,0.013806,-0.002014,2.7967,1.7636,0.0671
2.1965,0.020105,-0.054506,0.054506,-0.015340,0.016874,-0.002014,2.7967,1.7636,0.0671
2.2166,0.020094,-0.068930,0.068930,-0.029146,0.023010,-0.002014,2.7967,1.7636,0.0671
2.2367,0.020088,-0.084807,0.084807,-0.046019,0.033748,-0.002014,2.7967,1.7636,0.0671
2.2567,0.020091,-0.101947,0.101947,-0.058291,0.049087,-0.002014,2.7967,1.7636,0.0671
2.2768,0.020086,-0.120116,0.120116,-0.064427,0.065961,-0.002014,2.7967,1.7636,0.0671
2.2969,0.020085,-0.139064,0.139064,-0.073631,0.081301,-0.002014,2.7967,1.7636,0.0671
2.3170,0.020088,-0.158528,0.158528,-0.092039,0.099709,-0.002014,2.7967,1.7636,0.0671
2.3371,0.020089,-0.178224,0.178224,-0.116583,0.118117,-0.002004,2.8083,1.8129,0.0144
2.3573,0.020184,-0.197959,0.197959,-0.139592,0.136524,-0.002005,2.8071,1.8077,0.0199
2.3774,0.020086,-0.217259,0.217259,-0.161068,0.154932,-0.002015,2.7955,1.7584,0.0727
2.3975,0.020094,-0.235950,0.235950,-0.182544,0.174874,-0.002014,2.7967,1.7635,0.0672
2.4176,0.020093,-0.253762,0.253762,-0.199418,0.191748,-0.002014,2.7967,1.7635,0.0672
2.4376,0.020098,-0.270454,0.270454,-0.217825,0.213223,-0.002014,2.7967,1.7635,0.0672
2.4577,0.020093,-0.285802,0.285802,-0.234699,0.234699,-0.002014,2.7967,1.7635,0.0672
2.4778,0.020090,-0.299623,0.299623,-0.250039,0.250039,-0.002014,2.7967,1.7635,0.0672
2.4979,0.020079,-0.311768,0.311768,-0.266913,0.268447,-0.002014,2.7967,1.7635,0.0672
2.5180,0.020088,-0.322148,0.322148,-0.283786,0.285320,-0.002014,2.7967,1.7635,0.0672
2.5381,0.020074,-0.330702,0.330702,-0.303728,0.300660,-0.002014,2.7967,1.7635,0.0672
2.5582,0.020095,-0.337452,0.337452,-0.316000,0.311398,-0.002014,2.7967,1.7635,0.0672
2.5782,0.020078,-0.342456,0.342456,-0.325204,0.322136,-0.002014,2.7967,1.7635,0.0672
2.5983,0.020083,-0.345860,0.345860,-0.334408,0.331340,-0.002014,2.7967,1.7635,0.0672
2.6184,0.020080,-0.347881,0.347881,-0.337476,0.337476,-0.002014,2.7967,1.7635,0.0672
2.6385,0.020074,-0.348819,0.348819,-0.345146,0.342078,-0.002014,2.7967,1.7635,0.0672
2.6586,0.020091,-0.349060,0.349060,-0.349748,0.345146,-0.002014,2.7967,1.7635,0.0672
2.6787,0.020079,-0.349046,0.349046,-0.349748,0.345146,-0.002014,2.7967,1.7635,0.0672
2.6987,0.020091,-0.348705,0.348705,-0.349748,0.346680,-0.002014,2.7967,1.7635,0.0672
2.7188,0.020080,-0.347584,0.347584,-0.349748,0.346680,-0.002014,2.7967,1.7635,0.0672
2.7389,0.020076,-0.345316,0.345316,-0.349748,0.346680,-0.002014,2.7967,1.7635,0.0672
2.7590,0.020086,-0.341615,0.341615,-0.349748,0.346680,-0.002014,2.7967,1.7635,0.0672
2.7791,0.020076,-0.336284,0.336284,-0.349748,0.346680,-0.002014,2.7967,1.7635,0.0672
2.7991,0.020086,-0.329189,0.329189,-0.348214,0.345146,-0.002014,2.7967,1.7635,0.0672
2.8192,0.020077,-0.320280,0.320280,-0.346680,0.343612,-0.002014,2.7967,1.7635,0.0672
2.8393,0.020078,-0.309557,0.309557,-0.343612,0.340544,-0.002014,2.7967,1.7635,0.0672
2.8594,0.020086,-0.297076,0.297076,-0.342078,0.337476,-0.002014,2.7967,1.7635,0.0672
2.8795,0.020078,-0.282957,0.282957,-0.339010,0.334408,-0.002014,2.7967,1.7635,0.0672
2.8996,0.020086,-0.267340,0.267340,-0.331340,0.329806,-0.002014,2.7967,1.7635,0.0672
2.9196,0.020076,-0.250433,0.250433,-0.320602,0.320602,-0.002014,2.7967,1.7635,0.0672
2.9397,0.020076,-0.232450,0.232450,-0.306796,0.308330,-0.002014,2.7967,1.7635,0.0672
2.9598,0.020079,-0.213635,0.213635,-0.289922,0.294524,-0.002014,2.7967,1.7635,0.0672
2.9799,0.020079,-0.194256,0.194256,-0.274583,0.277651,-0.002014,2.7967,1.7635,0.0672
2.9999,0.020087,-0.174584,0.174584,-0.257709,0.260777,-0.002014,2.7967,1.7635,0.0672
3.0200,0.020077,-0.154921,0.154921,-0.239301,0.242369,-0.002014,2.7967,1.7635,0.0672
3.0401,0.020079,-0.135539,0.135539,-0.219359,0.220893,-0.002014,2.7967,1.7635,0.0672
3.0602,0.020079,-0.116719,0.116719,-0.197884,0.202485,-0.002014,2.7967,1.7635,0.0672
3.0803,0.020075,-0.098732,0.098732,-0.156466,0.159534,-0.002014,2.7967,1.7635,0.0672
3.1003,0.020083,-0.081812,0.081812,-0.136524,0.136524,-0.002014,2.7967,1.7635,0.0672
3.1204,0.020074,-0.066198,0.066198,-0.116583,0.115049,-0.002014,2.7967,1.7635,0.0672
3.1405,0.020097,-0.052056,0.052056,-0.096641,0.095107,-0.002014,2.7967,1.7635,0.0672
3.1606,0.020078,-0.039571,0.039571,-0.079767,0.076699,-0.002014,2.7967,1.7635,0.0672
3.1809,0.020311,-0.028725,0.028725,-0.064427,0.059825,-0.002014,2.7967,1.7635,0.0672
3.2010,0.020085,-0.019824,0.019824,-0.047553,0.046019,-0.002014,2.7967,1.7635,0.0672
3.2211,0.020078,-0.012744,0.012744,-0.032214,0.032214,-0.002014,2.7967,1.7635,0.0672
3.2411,0.020083,-0.007421,0.007421,-0.019942,0.023010,-0.002014,2.7967,1.7635,0.0672
3.2612,0.020075,-0.003732,0.003732,-0.013806,0.013806,-0.002014,2.7967,1.7635,0.0672
3.2813,0.020075,-0.001472,0.001472,-0.012272,0.006136,-0.002014,2.7967,1.7635,0.0672
3.3014,0.020075,-0.000358,0.000358,-0.007670,0.004602,-0.002004,2.8083,1.8129,0.0144
3.3214,0.020073,-0.000019,0.000019,-0.001534,0.003068,-0.002016,2.7954,1.7579,0.0732
3.3415,0.020082,-0.000006,0.000006,0.003068,0.000000,-0.002014,2.7967,1.7636,0.0671
3.3616,0.020078,-0.000250,0.000250,-0.001534,0.000000,-0.002014,2.7967,1.7636,0.0671
3.3817,0.020077,-0.001191,0.001191,-0.004602,0.000000,-0.002014,2.7967,1.7636,0.0671
3.4018,0.020079,-0.003217,0.003217,-0.001534,0.000000,-0.002014,2.7967,1.7636,0.0671
3.4218,0.020082,-0.006628,0.006628,0.001534,0.000000,-0.002014,2.7967,1.7636,0.0671
3.4419,0.020081,-0.011640,0.011640,-0.003068,0.000000,-0.002014,2.7967,1.7636,0.0671
3.4621,0.020134,-0.018413,0.018413,-0.007670,0.004602,-0.002014,2.7967,1.7636,0.0671
3.4821,0.020084,-0.026983,0.026983,-0.009204,0.009204,-0.002014,2.7967,1.7636,0.0671
3.5022,0.020083,-0.037374,0.037374,-0.009204,0.010738,-0.002014,2.7967,1.7636,0.0671
3.5223,0.020089,-0.049537,0.049537,-0.018408,0.013806,-0.002014,2.7967,1.7636,0.0671
3.5424,0.020089,-0.063370,0.063370,-0.032214,0.024544,-0.002014,2.7967,1.7636,0.0671
3.5625,0.020112,-0.078743,0.078743,-0.047553,0.036816,-0.002014,2.7967,1.7636,0.0671
3.5826,0.020084,-0.095434,0.095434,-0.056757,0.053689,-0.002014,2.7967,1.7636,0.0671
3.6027,0.020094,-0.113253,0.113253,-0.064427,0.069029,-0.002014,2.7967,1.7636,0.0671
3.6228,0.020094,-0.131950,0.131950,-0.076699,0.084369,-0.002014,2.7967,1.7636,0.0671
3.6429,0.020090,-0.151257,0.151257,-0.095107,0.101243,-0.002014,2.7967,1.7636,0.0671
3.6630,0.020098,-0.170910,0.170910,-0.121184,0.118117,-0.002014,2.7967,1.7636,0.0671
3.6831,0.020085,-0.190602,0.190602,-0.142660,0.136524,-0.002014,2.7967,1.7636,0.0671
3.7031,0.020085,-0.210061,0.210061,-0.164136,0.156466,-0.002014,2.7967,1.7636,0.0671
3.7232,0.020080,-0.229003,0.229003,-0.184078,0.173340,-0.002014,2.7967,1.7636,0.0671
3.7433,0.020085,-0.247168,0.247168,-0.199418,0.193282,-0.002004,2.8083,1.8129,0.0144
3.7634,0.020098,-0.264310,0.264310,-0.219359,0.216291,-0.002016,2.7954,1.7579,0.0732
3.7835,0.020092,-0.280186,0.280186,-0.234699,0.234699,-0.002004,2.8085,1.8135,0.0137
3.8036,0.020072,-0.294590,0.294590,-0.237767,0.236233,-0.002016,2.7954,1.7578,0.0733
3.8237,0.020118,-0.307403,0.307403,-0.243903,0.242369,-0.002014,2.7967,1.7636,0.0671
3.8438,0.020084,-0.318456,0.318456,-0.268447,0.266913,-0.002014,2.7967,1.7636,0.0671
3.8639,0.020080,-0.327699,0.327699,-0.300660,0.297592,-0.002014,2.7967,1.7636,0.0671
3.8839,0.020081,-0.335121,0.335121,-0.320602,0.317534,-0.002014,2.7967,1.7636,0.0671
3.9040,0.020081,-0.340768,0.340768,-0.328272,0.320602,-0.002014,2.7967,1.7636,0.0671
3.9241,0.020083,-0.344754,0.344754,-0.328272,0.323670,-0.002014,2.7967,1.7636,0.0671
3.9442,0.020079,-0.347265,0.347265,-0.334408,0.339010,-0.002014,2.7967,1.7636,0.0671
3.9643,0.020108,-0.348571,0.348571,-0.348214,0.345146,-0.002014,2.7967,1.7636,0.0671
3.9844,0.020078,-0.349022,0.349022,-0.349748,0.342078,-0.002014,2.7967,1.7636,0.0671
4.0044,0.020073,-0.349065,0.349065,-0.349748,0.346680,-0.002014,2.7967,1.7636,0.0671
4.0245,0.020088,-0.348901,0.348901,-0.351282,0.349748,-0.002014,2.7967,1.7636,0.0671
4.0446,0.020081,-0.348122,0.348122,-0.351282,0.348214,-0.002004,2.8083,1.8129,0.0144
4.0647,0.020107,-0.346320,0.346320,-0.349748,0.348214,-0.002016,2.7954,1.7579,0.0732
4.0848,0.020084,-0.343183,0.343183,-0.351282,0.348214,-0.002014,2.7967,1.7636,0.0671
4.1049,0.020085,-0.338479,0.338479,-0.349748,0.346680,-0.002014,2.7967,1.7636,0.0671
4.1250,0.020090,-0.332052,0.332052,-0.348214,0.345146,-0.002014,2.7967,1.7636,0.0671
4.1451,0.020082,-0.323823,0.323823,-0.346680,0.342078,-0.002014,2.7967,1.7636,0.0671
4.1651,0.020088,-0.313768,0.313768,-0.343612,0.340544,-0.002014,2.7967,1.7636,0.0671
4.1852,0.020054,-0.301951,0.301951,-0.342078,0.339010,-0.002004,2.8083,1.8129,0.0144
4.2053,0.020077,-0.288431,0.288431,-0.339010,0.334408,-0.002016,2.7954,1.7579,0.0732
4.2254,0.020091,-0.273349,0.273349,-0.331340,0.329806,-0.002014,2.7967,1.7636,0.0671
4.2455,0.020088,-0.256894,0.256894,-0.317534,0.319068,-0.002014,2.7967,1.7636,0.0671
4.2655,0.020091,-0.239271,0.239271,-0.305262,0.306796,-0.002014,2.7967,1.7636,0.0671
4.2856,0.020081,-0.220733,0.220733,-0.286854,0.291456,-0.002014,2.7967,1.7636,0.0671
4.3057,0.020082,-0.201530,0.201530,-0.271515,0.274583,-0.002014,2.7967,1.7636,0.0671
4.3258,0.020091,-0.181927,0.181927,-0.253107,0.256175,-0.002014,2.7967,1.7636,0.0671
4.3459,0.020088,-0.162220,0.162220,-0.234699,0.237767,-0.002014,2.7967,1.7636,0.0671
4.3660,0.020097,-0.142683,0.142683,-0.211689,0.214757,-0.002014,2.7967,1.7636,0.0671
4.3861,0.020077,-0.123625,0.123625,-0.193282,0.199418,-0.002014,2.7967,1.7636,0.0671
4.4061,0.020077,-0.105298,0.105298,-0.171806,0.176408,-0.002004,2.8083,1.8129,0.0144
4.4262,0.020080,-0.087955,0.087955,-0.153398,0.154932,-0.002016,2.7954,1.7579,0.0732
4.4463,0.020086,-0.071825,0.071825,-0.131922,0.133456,-0.002014,2.7967,1.7636,0.0671
4.4664,0.020094,-0.057113,0.057113,-0.113515,0.111981,-0.002014,2.7967,1.7636,0.0671
4.4865,0.020087,-0.043997,0.043997,-0.093573,0.092039,-0.002014,2.7967,1.7636,0.0671
4.5066,0.020084,-0.032603,0.032603,-0.076699,0.073631,-0.002014,2.7967,1.7636,0.0671
4.5266,0.020078,-0.023009,0.023009,-0.061359,0.056757,-0.002014,2.7967,1.7636,0.0671
4.5467,0.020089,-0.015233,0.015233,-0.046019,0.044485,-0.002014,2.7967,1.7636,0.0671
4.5668,0.020092,-0.009248,0.009248,-0.030680,0.030680,-0.002014,2.7967,1.7636,0.0671
4.5869,0.020075,-0.004957,0.004957,-0.019942,0.023010,-0.002014,2.7967,1.7636,0.0671
4.6070,0.020082,-0.002180,0.002180,-0.012272,0.013806,-0.002014,2.7967,1.7636,0.0671
4.6271,0.020087,-0.000668,0.000668,-0.010738,0.006136,-0.002014,2.7967,1.7636,0.0671
4.6472,0.020083,-0.000084,0.000084,-0.010738,0.004602,-0.002014,2.7967,1.7636,0.0671
4.6672,0.020077,-0.000000,0.000000,-0.003068,0.004602,-0.002014,2.7967,1.7636,0.0671
4.6873,0.020084,-0.000099,0.000099,0.003068,0.003068,-0.002014,2.7967,1.7636,0.0671
4.7074,0.020075,-0.000725,0.000725,0.001534,0.000000,-0.002014,2.7967,1.7636,0.0671
4.7275,0.020074,-0.002299,0.002299,-0.006136,0.000000,-0.002014,2.7967,1.7636,0.0671
4.7476,0.020088,-0.005155,0.005155,-0.003068,0.000000,-0.002014,2.7967,1.7636,0.0671
4.7676,0.020090,-0.009541,0.009541,0.001534,0.000000,-0.002014,2.7967,1.7636,0.0671
4.7877,0.020077,-0.015620,0.015620,0.000000,0.000000,-0.002014,2.7967,1.7636,0.0671
4.8078,0.020081,-0.023493,0.023493,-0.009204,0.004602,-0.002014,2.7967,1.7636,0.0671
4.8279,0.020089,-0.033194,0.033194,-0.010738,0.010738,-0.002014,2.7967,1.7636,0.0671
4.8480,0.020082,-0.044686,0.044686,-0.012272,0.015340,-0.002014,2.7967,1.7636,0.0671
4.8681,0.020079,-0.057889,0.057889,-0.018408,0.016874,-0.002014,2.7967,1.7636,0.0671
4.8882,0.020194,-0.072762,0.072762,-0.032214,0.023010,-0.002014,2.7967,1.7636,0.0671
4.9083,0.020081,-0.088967,0.088967,-0.047553,0.035282,-0.002014,2.7967,1.7636,0.0671
4.9284,0.020037,-0.106338,0.106338,-0.061359,0.052155,-0.002014,2.7967,1.7636,0.0671
4.9484,0.020083,-0.124721,0.124721,-0.067495,0.070563,-0.002014,2.7967,1.7636,0.0671
4.9685,0.020074,-0.143811,0.143811,-0.076699,0.084369,-0.002014,2.7967,1.7636,0.0671
4.9886,0.020083,-0.163352,0.163352,-0.093573,0.099709,-0.002014,2.7967,1.7636,0.0671
5.0087,0.020078,-0.183051,0.183051,-0.118117,0.118117,-0.002004,2.8083,1.8129,0.0144
5.0288,0.020082,-0.202630,0.202630,-0.141126,0.136524,-0.002016,2.7954,1.7579,0.0732
5.0488,0.020082,-0.221804,0.221804,-0.164136,0.156466,-0.002014,2.7967,1.7636,0.0671
5.0689,0.020074,-0.240290,0.240290,-0.184078,0.176408,-0.002014,2.7967,1.7636,0.0671
5.0890,0.020088,-0.257850,0.257850,-0.204019,0.197884,-0.002014,2.7967,1.7636,0.0671
5.1091,0.020074,-0.274223,0.274223,-0.220893,0.219359,-0.002004,2.8083,1.8129,0.0144
5.1294,0.020275,-0.289354,0.289354,-0.239301,0.239301,-0.002016,2.7954,1.7579,0.0732
5.1494,0.020073,-0.302765,0.302765,-0.254641,0.254641,-0.002014,2.7967,1.7636,0.0671
5.1695,0.020108,-0.314499,0.314499,-0.273049,0.271515,-0.002014,2.7967,1.7636,0.0671
5.1896,0.020099,-0.324437,0.324437,-0.288388,0.288388,-0.002014,2.7967,1.7636,0.0671
5.2097,0.020078,-0.332541,0.332541,-0.306796,0.303728,-0.002014,2.7967,1.7636,0.0671
5.2301,0.020394,-0.338931,0.338931,-0.317534,0.316000,-0.002014,2.7967,1.7636,0.0671
5.2502,0.020132,-0.343508,0.343508,-0.329806,0.323670,-0.002004,2.8083,1.8129,0.0144
5.2703,0.020076,-0.346520,0.346520,-0.334408,0.331340,-0.002016,2.7954,1.7579,0.0732
5.2906,0.020250,-0.348231,0.348231,-0.337476,0.339010,-0.002014,2.7967,1.7636,0.0671
5.3106,0.020081,-0.348935,0.348935,-0.346680,0.340544,-0.002014,2.7967,1.7636,0.0671
5.3310,0.020319,-0.349066,0.349066,-0.348214,0.340544,-0.002014,2.7967,1.7636,0.0671
5.3510,0.020075,-0.349003,0.349003,-0.348214,0.349748,-0.002014,2.7967,1.7636,0.0671
5.3711,0.020084,-0.348483,0.348483,-0.354350,0.349748,-0.002014,2.7967,1.7636,0.0671
5.3912,0.020086,-0.347069,0.347069,-0.354350,0.348214,-0.002004,2.8083,1.8129,0.0144
5.4113,0.020075,-0.344418,0.344418,-0.351282,0.348214,-0.002016,2.7954,1.7579,0.0732
5.4314,0.020090,-0.340268,0.340268,-0.352816,0.348214,-0.002014,2.7967,1.7636,0.0671
5.4515,0.020078,-0.334444,0.334444,-0.351282,0.348214,-0.002004,2.8083,1.8129,0.0144
5.4715,0.020078,-0.326838,0.326838,-0.351282,0.346680,-0.002016,2.7954,1.7579,0.0732
5.4918,0.020250,-0.317320,0.317320,-0.349748,0.342078,-0.002014,2.7967,1.7636,0.0671
5.5119,0.020085,-0.306070,0.306070,-0.345146,0.340544,-0.002004,2.8083,1.8129,0.0144
5.5320,0.020097,-0.293085,0.293085,-0.342078,0.337476,-0.002016,2.7954,1.7579,0.0732
5.5520,0.020082,-0.278505,0.278505,-0.337476,0.332874,-0.002014,2.7967,1.7636,0.0671
5.5721,0.020079,-0.262491,0.262491,-0.328272,0.328272,-0.002014,2.7967,1.7636,0.0671
5.5923,0.020125,-0.245199,0.245199,-0.316000,0.319068,-0.002004,2.8083,1.8129,0.0144
5.6123,0.020080,-0.226939,0.226939,-0.302194,0.303728,-0.002016,2.7954,1.7579,0.0732
5.6326,0.020238,-0.207775,0.207775,-0.283786,0.289922,-0.002004,2.8085,1.8135,0.0137
5.6526,0.020076,-0.188281,0.188281,-0.268447,0.273049,-0.002016,2.7954,1.7578,0.0733
5.6727,0.020077,-0.168589,0.168589,-0.253107,0.254641,-0.002014,2.7967,1.7636,0.0671
5.6931,0.020412,-0.148657,0.148657,-0.233165,0.234699,-0.002014,2.7967,1.7636,0.0671
5.7133,0.020125,-0.129383,0.129383,-0.213223,0.216291,-0.002014,2.7967,1.7636,0.0671
5.7335,0.020267,-0.110633,0.110633,-0.190214,0.194816,-0.002014,2.7967,1.7636,0.0671
5.7536,0.020079,-0.092973,0.092973,-0.148796,0.151864,-0.002014,2.7967,1.7636,0.0671
5.7737,0.020078,-0.076466,0.076466,-0.148796,0.151864,-0.002014,2.7967,1.7636,0.0671
5.7938,0.020087,-0.061317,0.061317,-0.130388,0.130388,-0.002014,2.7967,1.7636,0.0671
5.8139,0.020081,-0.047718,0.047718,-0.110447,0.108913,-0.002014,2.7967,1.7636,0.0671
5.8339,0.020055,-0.035818,0.035818,-0.073631,0.072097,-0.002014,2.7967,1.7636,0.0671
5.8540,0.020084,-0.025680,0.025680,-0.058291,0.055223,-0.002014,2.7967,1.7636,0.0671
5.8741,0.020078,-0.017365,0.017365,-0.042951,0.039884,-0.002004,2.8083,1.8129,0.0144
5.8942,0.020095,-0.010852,0.010852,-0.027612,0.029146,-0.002016,2.7954,1.7579,0.0732
5.9143,0.020118,-0.006062,0.006062,-0.016874,0.019942,-0.002014,2.7967,1.7636,0.0671
5.9345,0.020250,-0.002838,0.002838,-0.012272,0.012272,-0.002014,2.7967,1.7636,0.0671
5.9547,0.020204,-0.000984,0.000984,-0.012272,0.006136,-0.002014,2.7967,1.7636,0.0671
5.9748,0.020075,-0.000178,0.000178,-0.012272,0.004602,-0.002014,2.7967,1.7636,0.0671
5.9949,0.020077,-0.000002,0.000002,-0.004602,0.001534,-0.002014,2.7967,1.7636,0.0671
6.0150,0.020082,-0.000038,0.000038,0.003068,0.000000,-0.002014,2.7967,1.7636,0.0671
6.0351,0.020085,-0.000468,0.000468,0.001534,0.000000,-0.002014,2.7967,1.7636,0.0671
6.0551,0.020092,-0.001739,0.001739,0.001534,0.000000,-0.002014,2.7967,1.7636,0.0671
6.0752,0.020085,-0.004206,0.004206,-0.003068,0.000000,-0.002014,2.7967,1.7636,0.0671
6.0953,0.020080,-0.008138,0.008138,0.003068,0.000000,-0.002014,2.7967,1.7636,0.0671
6.1154,0.020081,-0.013727,0.013727,0.001534,0.000000,-0.002014,2.7967,1.7636,0.0671
6.1355,0.020111,-0.021101,0.021101,-0.006136,0.004602,-0.002014,2.7967,1.7636,0.0671
6.1557,0.020234,-0.030364,0.030364,-0.013806,0.012272,-0.002014,2.7967,1.7636,0.0671
6.1758,0.020078,-0.041370,0.041370,-0.016874,0.013806,-0.002016,2.7954,1.7579,0.0732
6.1959,0.020107,-0.054134,0.054134,-0.018408,0.016874,-0.002014,2.7967,1.7636,0.0671
6.2161,0.020145,-0.068554,0.068554,-0.029146,0.026078,-0.002014,2.7967,1.7636,0.0671
6.2361,0.020040,-0.084357,0.084357,-0.046019,0.039884,-0.002014,2.7967,1.7636,0.0671
6.2562,0.020082,-0.101458,0.101458,-0.046019,0.039884,-0.002014,2.7967,1.7636,0.0671
6.2763,0.020158,-0.119668,0.119668,-0.076699,0.075165,-0.002014,2.7967,1.7636,0.0671
6.2964,0.020102,-0.138616,0.138616,-0.088971,0.090505,-0.002004,2.8083,1.8129,0.0144
6.3168,0.020315,-0.158293,0.158293,-0.108913,0.105845,-0.002016,2.7954,1.7579,0.0732
6.3369,0.020135,-0.178034,0.178034,-0.127320,0.125786,-0.002004,2.8085,1.8135,0.0137
6.3570,0.020062,-0.197652,0.197652,-0.147262,0.144194,-0.002004,2.8085,1.8135,0.0137
6.3772,0.020233,-0.217099,0.217099,-0.168738,0.164136,-0.002015,2.7955,1.7584,0.0727
6.3973,0.020110,-0.235811,0.235811,-0.190214,0.184078,-0.002014,2.7967,1.7635,0.0672
6.4177,0.020377,-0.253874,0.253874,-0.210155,0.204019,-0.002014,2.7967,1.7635,0.0672
6.4378,0.020082,-0.270545,0.270545,-0.227029,0.223961,-0.002014,2.7967,1.7635,0.0672
6.4579,0.020097,-0.285888,0.285888,-0.245437,0.243903,-0.002014,2.7967,1.7635,0.0672
6.4779,0.020082,-0.299695,0.299695,-0.262311,0.263845,-0.002014,2.7967,1.7635,0.0672
6.4981,0.020109,-0.311847,0.311847,-0.279185,0.279185,-0.002014,2.7967,1.7635,0.0672
6.5181,0.020092,-0.322217,0.322217,-0.291456,0.291456,-0.002014,2.7967,1.7635,0.0672
6.5382,0.020077,-0.330759,0.330759,-0.308330,0.303728,-0.002014,2.7967,1.7635,0.0672
6.5584,0.020170,-0.337517,0.337517,-0.320602,0.317534,-0.002014,2.7967,1.7635,0.0672
6.5785,0.020079,-0.342502,0.342502,-0.329806,0.328272,-0.002014,2.7967,1.7635,0.0672
6.5986,0.020108,-0.345893,0.345893,-0.332874,0.332874,-0.002014,2.7967,1.7635,0.0672
6.6187,0.020079,-0.347899,0.347899,-0.339010,0.340544,-0.002014,2.7967,1.7635,0.0672
6.6387,0.020080,-0.348825,0.348825,-0.349748,0.343612,-0.002014,2.7967,1.7635,0.0672
6.6588,0.020095,-0.349060,0.349060,-0.351282,0.343612,-0.002014,2.7967,1.7635,0.0672
6.6794,0.020583,-0.349042,0.349042,-0.348214,0.346680,-0.002014,2.7967,1.7635,0.0672
6.6995,0.020103,-0.348679,0.348679,-0.352816,0.346680,-0.002014,2.7967,1.7635,0.0672
6.7197,0.020204,-0.347510,0.347510,-0.352816,0.346680,-0.002014,2.7967,1.7635,0.0672
6.7399,0.020146,-0.345173,0.345173,-0.351282,0.346680,-0.002014,2.7967,1.7635,0.0672
6.7600,0.020092,-0.341396,0.341396,-0.351282,0.346680,-0.002014,2.7967,1.7635,0.0672
6.7800,0.020084,-0.335979,0.335979,-0.351282,0.346680,-0.002014,2.7967,1.7635,0.0672
6.8001,0.020105,-0.328789,0.328789,-0.348214,0.345146,-0.002014,2.7967,1.7635,0.0672
6.8204,0.020234,-0.319712,0.319712,-0.345146,0.340544,-0.002014,2.7967,1.7635,0.0672
6.8405,0.020086,-0.308881,0.308881,-0.343612,0.339010,-0.002014,2.7967,1.7635,0.0672
6.8606,0.020090,-0.296299,0.296299,-0.340544,0.335942,-0.002014,2.7967,1.7635,0.0672
6.8807,0.020096,-0.282074,0.282074,-0.340544,0.335942,-0.002014,2.7967,1.7635,0.0672
6.9007,0.020088,-0.266374,0.266374,-0.325204,0.323670,-0.002014,2.7967,1.7635,0.0672
6.9208,0.020100,-0.249376,0.249376,-0.325204,0.323670,-0.002014,2.7967,1.7635,0.0672
6.9412,0.020334,-0.231098,0.231098,-0.296058,0.297592,-0.002014,2.7967,1.7635,0.0672
6.9613,0.020098,-0.212213,0.212213,-0.280718,0.283786,-0.002014,2.7967,1.7635,0.0672
6.9816,0.020288,-0.192599,0.192599,-0.263845,0.266913,-0.002014,2.7967,1.7635,0.0672
7.0017,0.020090,-0.172913,0.172913,-0.246971,0.248505,-0.002014,2.7967,1.7635,0.0672
7.0219,0.020295,-0.153050,0.153050,-0.225495,0.228563,-0.002014,2.7967,1.7635,0.0672
7.0420,0.020084,-0.133705,0.133705,-0.205553,0.208621,-0.002014,2.7967,1.7635,0.0672
7.0621,0.020115,-0.114921,0.114921,-0.184078,0.188680,-0.002014,2.7967,1.7635,0.0672
7.0823,0.020120,-0.096989,0.096989,-0.164136,0.167204,-0.002014,2.7967,1.7635,0.0672
7.1025,0.020265,-0.080043,0.080043,-0.142660,0.145728,-0.002014,2.7967,1.7635,0.0672
7.1227,0.020169,-0.064513,0.064513,-0.122718,0.121184,-0.002014,2.7967,1.7635,0.0672
7.1428,0.020076,-0.050564,0.050564,-0.102777,0.102777,-0.002014,2.7967,1.7635,0.0672
7.1629,0.020112,-0.038253,0.038253,-0.085903,0.082835,-0.002014,2.7967,1.7635,0.0672
7.1830,0.020078,-0.027725,0.027725,-0.069029,0.065961,-0.002014,2.7967,1.7635,0.0672
7.2030,0.020077,-0.019016,0.019016,-0.053689,0.050621,-0.002014,2.7967,1.7635,0.0672
7.2231,0.020091,-0.012116,0.012116,-0.038350,0.036816,-0.002014,2.7967,1.7635,0.0672
7.2432,0.020076,-0.006970,0.006970,-0.024544,0.026078,-0.002014,2.7967,1.7635,0.0672
7.2633,0.020115,-0.003433,0.003433,-0.015340,0.016874,-0.002014,2.7967,1.7635,0.0672
7.2834,0.020081,-0.001307,0.001307,-0.012272,0.007670,-0.002014,2.7967,1.7635,0.0672
7.3035,0.020142,-0.000291,0.000291,-0.009204,0.004602,-0.002004,2.8083,1.8129,0.0144
7.3236,0.020096,-0.000010,0.000010,-0.003068,0.004602,-0.002016,2.7954,1.7579,0.0732
7.3439,0.020222,-0.000013,0.000013,0.001534,0.003068,-0.002014,2.7967,1.7636,0.0671
7.3640,0.020103,-0.000316,0.000316,-0.003068,0.000000,-0.002014,2.7967,1.7636,0.0671
7.3841,0.020125,-0.001370,0.001370,-0.004602,0.000000,-0.002014,2.7967,1.7636,0.0671
7.4041,0.020057,-0.003545,0.003545,-0.001534,0.000000,-0.002014,2.7967,1.7636,0.0671
7.4243,0.020101,-0.007141,0.007141,0.001534,0.000000,-0.002014,2.7967,1.7636,0.0671
7.4446,0.020317,-0.012427,0.012427,-0.003068,0.000000,-0.002014,2.7967,1.7636,0.0671
7.4647,0.020103,-0.019424,0.019424,-0.006136,0.001534,-0.002014,2.7967,1.7636,0.0671
7.4849,0.020198,-0.028288,0.028288,-0.006136,0.001534,-0.002014,2.7967,1.7636,0.0671
7.5050,0.020105,-0.038935,0.038935,-0.004602,0.012272,-0.002014,2.7967,1.7636,0.0671
7.5251,0.020110,-0.051348,0.051348,-0.012272,0.016874,-0.002014,2.7967,1.7636,0.0671
7.5452,0.020112,-0.065417,0.065417,-0.012272,0.016874,-0.002014,2.7967,1.7636,0.0671
7.5653,0.020119,-0.080994,0.080994,-0.027612,0.024544,-0.002014,2.7967,1.7636,0.0671
7.5854,0.020127,-0.097892,0.097892,-0.042951,0.032214,-0.002014,2.7967,1.7636,0.0671
7.6056,0.020112,-0.115867,0.115867,-0.055223,0.046019,-0.002014,2.7967,1.7636,0.0671
7.6257,0.020105,-0.134678,0.134678,-0.069029,0.076699,-0.002004,2.8083,1.8129,0.0144
7.6458,0.020114,-0.154074,0.154074,-0.069029,0.076699,-0.002016,2.7954,1.7579,0.0732
7.6659,0.020121,-0.173774,0.173774,-0.108913,0.108913,-0.002014,2.7967,1.7636,0.0671
7.6860,0.020094,-0.193458,0.193458,-0.108913,0.108913,-0.002014,2.7967,1.7636,0.0671
7.7061,0.020103,-0.212878,0.212878,-0.131922,0.127320,-0.002014,2.7967,1.7636,0.0671
7.7262,0.020125,-0.231763,0.231763,-0.156466,0.150330,-0.002014,2.7967,1.7636,0.0671
7.7463,0.020110,-0.249811,0.249811,-0.176408,0.167204,-0.002014,2.7967,1.7636,0.0671
7.7664,0.020115,-0.266792,0.266792,-0.197884,0.190214,-0.002014,2.7967,1.7636,0.0671
7.7870,0.020535,-0.282789,0.282789,-0.228563,0.228563,-0.002014,2.7967,1.7636,0.0671
7.8071,0.020100,-0.296942,0.296942,-0.246971,0.246971,-0.002014,2.7967,1.7636,0.0671
7.8272,0.020116,-0.309457,0.309457,-0.265379,0.265379,-0.002014,2.7967,1.7636,0.0671
7.8473,0.020095,-0.320204,0.320204,-0.265379,0.265379,-0.002014,2.7967,1.7636,0.0671
7.8674,0.020107,-0.329139,0.329139,-0.282252,0.280718,-0.002014,2.7967,1.7636,0.0671
7.8875,0.020121,-0.336255,0.336255,-0.300660,0.297592,-0.002014,2.7967,1.7636,0.0671
7.9076,0.020100,-0.341600,0.341600,-0.312932,0.308330,-0.002014,2.7967,1.7636,0.0671
7.9277,0.020099,-0.345308,0.345308,-0.331340,0.328272,-0.002014,2.7967,1.7636,0.0671
7.9478,0.020100,-0.347582,0.347582,-0.340544,0.337476,-0.002014,2.7967,1.7636,0.0671
7.9679,0.020104,-0.348704,0.348704,-0.340544,0.337476,-0.002014,2.7967,1.7636,0.0671
7.9889,0.020963,-0.349050,0.349050,-0.343612,0.340544,-0.002014,2.7967,1.7636,0.0671
8.0090,0.020094,-0.349058,0.349058,-0.349748,0.349748,-0.002014,2.7967,1.7636,0.0671
8.0291,0.020097,-0.348795,0.348795,-0.349748,0.349748,-0.002014,2.7967,1.7636,0.0671
8.0492,0.020096,-0.347816,0.347816,-0.349748,0.349748,-0.002014,2.7967,1.7636,0.0671
8.0693,0.020107,-0.345734,0.345734,-0.349748,0.345146,-0.002004,2.8083,1.8129,0.0144
8.0894,0.020100,-0.342256,0.342256,-0.349748,0.349748,-0.002016,2.7954,1.7579,0.0732
8.1095,0.020093,-0.337169,0.337169,-0.349748,0.348214,-0.002014,2.7967,1.7636,0.0671
8.1296,0.020105,-0.330329,0.330329,-0.349748,0.346680,-0.002014,2.7967,1.7636,0.0671
8.1497,0.020097,-0.321675,0.321675,-0.346680,0.342078,-0.002014,2.7967,1.7636,0.0671
8.1698,0.020099,-0.311199,0.311199,-0.346680,0.342078,-0.002014,2.7967,1.7636,0.0671
8.1899,0.020106,-0.298949,0.298949,-0.345146,0.340544,-0.002004,2.8083,1.8129,0.0144
8.2100,0.020095,-0.285042,0.285042,-0.343612,0.339010,-0.002016,2.7954,1.7579,0.0732
8.2300,0.020074,-0.269635,0.269635,-0.340544,0.335942,-0.002014,2.7967,1.7636,0.0671
8.2501,0.020099,-0.252879,0.252879,-0.335942,0.331340,-0.002014,2.7967,1.7636,0.0671
8.2712,0.021064,-0.234130,0.234130,-0.323670,0.323670,-0.002014,2.7967,1.7636,0.0671
8.2913,0.020124,-0.215337,0.215337,-0.309864,0.309864,-0.002004,2.8083,1.8129,0.0144
8.3114,0.020107,-0.195969,0.195969,-0.291456,0.294524,-0.002016,2.7954,1.7579,0.0732
8.3315,0.020111,-0.176288,0.176288,-0.257709,0.260777,-0.002004,2.8085,1.8135,0.0137
8.3516,0.020101,-0.156589,0.156589,-0.240835,0.243903,-0.002005,2.8071,1.8077,0.0199
8.3717,0.020097,-0.137156,0.137156,-0.240835,0.243903,-0.002015,2.7955,1.7584,0.0727
8.3918,0.020101,-0.118258,0.118258,-0.220893,0.223961,-0.002014,2.7967,1.7635,0.0672
8.4119,0.020098,-0.100172,0.100172,-0.199418,0.204019,-0.002014,2.7967,1.7635,0.0672
8.4320,0.020104,-0.083138,0.083138,-0.179476,0.184078,-0.002014,2.7967,1.7635,0.0672
8.4521,0.020103,-0.067389,0.067389,-0.158000,0.159534,-0.002014,2.7967,1.7635,0.0672
8.4725,0.020375,-0.052936,0.052936,-0.119651,0.118117,-0.002014,2.7967,1.7635,0.0672
8.4926,0.020106,-0.040322,0.040322,-0.099709,0.098175,-0.002014,2.7967,1.7635,0.0672
8.5127,0.020097,-0.029465,0.029465,-0.079767,0.079767,-0.002014,2.7967,1.7635,0.0672
8.5328,0.020111,-0.020417,0.020417,-0.064427,0.061359,-0.002014,2.7967,1.7635,0.0672
8.5529,0.020095,-0.013199,0.013199,-0.033748,0.033748,-0.002014,2.7967,1.7635,0.0672
8.5730,0.020101,-0.007747,0.007747,-0.033748,0.033748,-0.002014,2.7967,1.7635,0.0672
8.5932,0.020116,-0.003941,0.003941,-0.021476,0.024544,-0.002014,2.7967,1.7635,0.0672
8.6133,0.020103,-0.001586,0.001586,-0.013806,0.013806,-0.002014,2.7967,1.7635,0.0672
8.6334,0.020102,-0.000403,0.000403,-0.012272,0.006136,-0.002014,2.7967,1.7635,0.0672
8.6535,0.020098,-0.000026,0.000026,-0.004602,0.004602,-0.002004,2.8083,1.8129,0.0144
8.6736,0.020095,-0.000004,0.000004,-0.004602,0.004602,-0.002016,2.7954,1.7579,0.0732
8.6937,0.020103,-0.000218,0.000218,0.003068,0.001534,-0.002014,2.7967,1.7636,0.0671
8.7138,0.020101,-0.001103,0.001103,0.001534,0.000000,-0.002014,2.7967,1.7636,0.0671
8.7339,0.020107,-0.003056,0.003056,-0.006136,0.000000,-0.002014,2.7967,1.7636,0.0671
8.7542,0.020310,-0.006421,0.006421,-0.003068,0.000000,-0.002014,2.7967,1.7636,0.0671
8.7753,0.021162,-0.011662,0.011662,0.000000,0.000000,-0.002014,2.7967,1.7636,0.0671
8.7954,0.020098,-0.018428,0.018428,-0.006136,0.000000,-0.002014,2.7967,1.7636,0.0671
8.8155,0.020086,-0.027003,0.027003,-0.009204,0.006136,-0.002014,2.7967,1.7636,0.0671
8.8356,0.020108,-0.037411,0.037411,-0.009204,0.006136,-0.002014,2.7967,1.7636,0.0671
8.8557,0.020101,-0.049588,0.049588,-0.010738,0.016874,-0.002014,2.7967,1.7636,0.0671
8.8759,0.020213,-0.063516,0.063516,-0.015340,0.019942,-0.002014,2.7967,1.7636,0.0671
8.8960,0.020095,-0.078891,0.078891,-0.027612,0.023010,-0.002014,2.7967,1.7636,0.0671
8.9161,0.020092,-0.095599,0.095599,-0.042951,0.030680,-0.002014,2.7967,1.7636,0.0671
8.9362,0.020089,-0.113424,0.113424,-0.058291,0.047553,-0.002014,2.7967,1.7636,0.0671
8.9563,0.020087,-0.132122,0.132122,-0.067495,0.064427,-0.002014,2.7967,1.7636,0.0671
8.9764,0.020089,-0.151433,0.151433,-0.076699,0.081301,-0.002014,2.7967,1.7636,0.0671
8.9965,0.020100,-0.171089,0.171089,-0.092039,0.099709,-0.002014,2.7967,1.7636,0.0671
9.0166,0.020096,-0.190791,0.190791,-0.115049,0.116583,-0.002014,2.7967,1.7636,0.0671
9.0367,0.020093,-0.210254,0.210254,-0.136524,0.134990,-0.002014,2.7967,1.7636,0.0671
9.0569,0.020186,-0.229287,0.229287,-0.158000,0.154932,-0.002014,2.7967,1.7636,0.0671
9.0770,0.020092,-0.247444,0.247444,-0.179476,0.174874,-0.002004,2.8083,1.8129,0.0144
9.0971,0.020100,-0.264571,0.264571,-0.200951,0.194816,-0.002016,2.7954,1.7579,0.0732
9.1172,0.020100,-0.280431,0.280431,-0.217825,0.213223,-0.002014,2.7967,1.7636,0.0671
9.1372,0.020089,-0.294820,0.294820,-0.234699,0.233165,-0.002014,2.7967,1.7636,0.0671
9.1596,0.022312,-0.308895,0.308895,-0.253107,0.253107,-0.002014,2.7967,1.7636,0.0671
9.1797,0.020101,-0.319731,0.319731,-0.271515,0.269981,-0.002014,2.7967,1.7636,0.0671
9.1998,0.020104,-0.328752,0.328752,-0.285320,0.285320,-0.002014,2.7967,1.7636,0.0671
9.2199,0.020103,-0.335950,0.335950,-0.316000,0.312932,-0.002014,2.7967,1.7636,0.0671
9.2400,0.020093,-0.341377,0.341377,-0.316000,0.312932,-0.002014,2.7967,1.7636,0.0671
9.2601,0.020099,-0.345161,0.345161,-0.326738,0.322136,-0.002004,2.8083,1.8129,0.0144
9.2802,0.020096,-0.347499,0.347499,-0.331340,0.329806,-0.002016,2.7954,1.7579,0.0732
9.3003,0.020107,-0.348671,0.348671,-0.337476,0.339010,-0.002014,2.7967,1.7636,0.0671
9.3204,0.020102,-0.349041,0.349041,-0.346680,0.342078,-0.002014,2.7967,1.7636,0.0671
9.3421,0.021721,-0.349058,0.349058,-0.348214,0.345146,-0.002014,2.7967,1.7636,0.0671
9.3622,0.020113,-0.348801,0.348801,-0.348214,0.345146,-0.002014,2.7967,1.7636,0.0671
9.3823,0.020105,-0.347830,0.347830,-0.351282,0.346680,-0.002004,2.8083,1.8129,0.0144
9.4024,0.020112,-0.345761,0.345761,-0.351282,0.346680,-0.002016,2.7954,1.7579,0.0732
9.4225,0.020098,-0.342297,0.342297,-0.351282,0.346680,-0.002014,2.7967,1.7636,0.0671
9.4426,0.020089,-0.337228,0.337228,-0.349748,0.346680,-0.002014,2.7967,1.7636,0.0671
9.4627,0.020103,-0.330406,0.330406,-0.348214,0.345146,-0.002004,2.8083,1.8129,0.0144
9.4828,0.020098,-0.321770,0.321770,-0.346680,0.342078,-0.002004,2.8083,1.8129,0.0144
9.5029,0.020139,-0.311290,0.311290,-0.346680,0.342078,-0.002016,2.7954,1.7579,0.0732
9.5232,0.020296,-0.298930,0.298930,-0.342078,0.337476,-0.002014,2.7967,1.7636,0.0671
9.5433,0.020090,-0.285024,0.285024,-0.342078,0.337476,-0.002014,2.7967,1.7636,0.0671
9.5634,0.020110,-0.269586,0.269586,-0.337476,0.332874,-0.002014,2.7967,1.7636,0.0671
9.5835,0.020104,-0.252822,0.252822,-0.316000,0.317534,-0.002014,2.7967,1.7636,0.0671
9.6037,0.020111,-0.234940,0.234940,-0.316000,0.317534,-0.002004,2.8083,1.8129,0.0144
9.6238,0.020114,-0.216189,0.216189,-0.302194,0.303728,-0.002016,2.7954,1.7579,0.0732
9.6439,0.020106,-0.196843,0.196843,-0.285320,0.289922,-0.002014,2.7967,1.7636,0.0671
9.6642,0.020320,-0.176964,0.176964,-0.268447,0.273049,-0.002014,2.7967,1.7636,0.0671
9.6843,0.020107,-0.157256,0.157256,-0.253107,0.254641,-0.002014,2.7967,1.7636,0.0671
9.7044,0.020098,-0.137808,0.137808,-0.233165,0.234699,-0.002014,2.7967,1.7636,0.0671
9.7245,0.020109,-0.118881,0.118881,-0.213223,0.216291,-0.002014,2.7967,1.7636,0.0671
9.7446,0.020102,-0.100759,0.100759,-0.191748,0.196350,-0.002014,2.7967,1.7636,0.0671
9.7647,0.020116,-0.083676,0.083676,-0.170272,0.174874,-0.002014,2.7967,1.7636,0.0671
9.7848,0.020093,-0.067890,0.067890,-0.150330,0.153398,-0.002014,2.7967,1.7636,0.0671
9.8049,0.020092,-0.053574,0.053574,-0.130388,0.131922,-0.002014,2.7967,1.7636,0.0671
9.8250,0.020104,-0.040882,0.040882,-0.111981,0.110447,-0.002014,2.7967,1.7636,0.0671
9.8451,0.020091,-0.029943,0.029943,-0.090505,0.088971,-0.002014,2.7967,1.7636,0.0671
9.8655,0.020419,-0.020681,0.020681,-0.073631,0.070563,-0.002014,2.7967,1.7636,0.0671
9.8857,0.020131,-0.013393,0.013393,-0.059825,0.055223,-0.002014,2.7967,1.7636,0.0671
9.9057,0.020088,-0.007892,0.007892,-0.042951,0.041417,-0.002014,2.7967,1.7636,0.0671
9.9258,0.020104,-0.004038,0.004038,-0.029146,0.030680,-0.002014,2.7967,1.7636,0.0671
9.9459,0.020087,-0.001643,0.001643,-0.018408,0.021476,-0.002014,2.7967,1.7636,0.0671
9.9660,0.020087,-0.000428,0.000428,-0.013806,0.012272,-0.002014,2.7967,1.7636,0.0671
9.9861,0.020090,-0.000031,0.000031,-0.012272,0.006136,-0.002014,2.7967,1.7636,0.0671
10.0062,0.020090,-0.000003,0.000003,-0.007670,0.004602,-0.002014,2.7967,1.7636,0.0671
10.0263,0.020066,-0.000201,0.000201,0.000000,0.003068,-0.002014,2.7967,1.7636,0.0671
10.0464,0.020095,-0.001055,0.001055,0.003068,0.000000,-0.002014,2.7967,1.7636,0.0671
10.0664,0.020087,-0.002960,0.002960,-0.003068,0.000000,-0.002014,2.7967,1.7636,0.0671
10.0865,0.020091,-0.006226,0.006226,-0.001534,0.000000,-0.002014,2.7967,1.7636,0.0671
10.1066,0.020093,-0.011076,0.011076,-0.001534,0.000000,-0.002014,2.7967,1.7636,0.0671
10.1267,0.020093,-0.017659,0.017659,-0.003068,0.000000,-0.002014,2.7967,1.7636,0.0671
10.1468,0.020096,-0.026053,0.026053,-0.010738,0.006136,-0.002014,2.7967,1.7636,0.0671
10.1669,0.020096,-0.036272,0.036272,-0.018408,0.016874,-0.002014,2.7967,1.7636,0.0671
10.1870,0.020091,-0.048266,0.048266,-0.023010,0.018408,-0.002014,2.7967,1.7636,0.0671
10.2071,0.020090,-0.061941,0.061941,-0.027612,0.021476,-0.002014,2.7967,1.7636,0.0671
10.2272,0.020089,-0.077154,0.077154,-0.036816,0.032214,-0.002014,2.7967,1.7636,0.0671
10.2473,0.020088,-0.093725,0.093725,-0.052155,0.047553,-0.002014,2.7967,1.7636,0.0671
10.2674,0.020086,-0.111437,0.111437,-0.070563,0.067495,-0.002014,2.7967,1.7636,0.0671
10.2874,0.020077,-0.130042,0.130042,-0.088971,0.085903,-0.002014,2.7967,1.7636,0.0671
10.3075,0.020087,-0.149298,0.149298,-0.107379,0.102777,-0.002014,2.7967,1.7636,0.0671
10.3276,0.020085,-0.168916,0.168916,-0.121184,0.119651,-0.002014,2.7967,1.7636,0.0671
10.3477,0.020094,-0.188625,0.188625,-0.136524,0.136524,-0.002014,2.7967,1.7636,0.0671
10.3678,0.020084,-0.208119,0.208119,-0.156466,0.154932,-0.002014,2.7967,1.7636,0.0671
10.3879,0.020092,-0.227137,0.227137,-0.156466,0.154932,-0.002014,2.7967,1.7636,0.0671
10.4080,0.020085,-0.245392,0.245392,-0.181010,0.177942,-0.002014,2.7967,1.7636,0.0671
10.4281,0.020088,-0.262640,0.262640,-0.219359,0.213223,-0.002014,2.7967,1.7636,0.0671
10.4481,0.020092,-0.278652,0.278652,-0.237767,0.234699,-0.002014,2.7967,1.7636,0.0671
10.4682,0.020088,-0.293220,0.293220,-0.253107,0.254641,-0.002014,2.7967,1.7636,0.0671
10.4883,0.020095,-0.306188,0.306188,-0.269981,0.271515,-0.002014,2.7967,1.7636,0.0671
10.5084,0.020086,-0.317421,0.317421,-0.286854,0.286854,-0.002014,2.7967,1.7636,0.0671
10.5285,0.020087,-0.326852,0.326852,-0.305262,0.300660,-0.002014,2.7967,1.7636,0.0671
10.5486,0.020086,-0.334458,0.334458,-0.317534,0.312932,-0.002004,2.8083,1.8129,0.0144
10.5687,0.020085,-0.340280,0.340280,-0.323670,0.319068,-0.002016,2.7954,1.7579,0.0732
10.5888,0.020089,-0.344426,0.344426,-0.331340,0.326738,-0.002014,2.7967,1.7636,0.0671
10.6088,0.020082,-0.347074,0.347074,-0.343612,0.340544,-0.002014,2.7967,1.7636,0.0671
10.6289,0.020091,-0.348485,0.348485,-0.345146,0.343612,-0.002014,2.7967,1.7636,0.0671
10.6490,0.020090,-0.349004,0.349004,-0.346680,0.340544,-0.002014,2.7967,1.7636,0.0671
10.6691,0.020083,-0.349066,0.349066,-0.352816,0.348214,-0.002014,2.7967,1.7636,0.0671
10.6892,0.020099,-0.348938,0.348938,-0.352816,0.349748,-0.002004,2.8083,1.8129,0.0144
10.7093,0.020088,-0.348239,0.348239,-0.351282,0.348214,-0.002016,2.7954,1.7579,0.0732
10.7294,0.020081,-0.346555,0.346555,-0.352816,0.348214,-0.002014,2.7967,1.7636,0.0671
10.7495,0.020080,-0.343565,0.343565,-0.351282,0.348214,-0.002004,2.8083,1.8129,0.0144
10.7695,0.020080,-0.339027,0.339027,-0.352816,0.348214,-0.002016,2.7954,1.7579,0.0732
10.7896,0.020087,-0.332779,0.332779,-0.351282,0.348214,-0.002014,2.7967,1.7636,0.0671
10.8097,0.020073,-0.324737,0.324737,-0.348214,0.345146,-0.002014,2.7967,1.7636,0.0671
10.8298,0.020077,-0.314871,0.314871,-0.345146,0.342078,-0.002004,2.8083,1.8129,0.0144
10.8498,0.020071,-0.303221,0.303221,-0.342078,0.337476,-0.002016,2.7954,1.7579,0.0732
10.8699,0.020073,-0.289869,0.289869,-0.337476,0.334408,-0.002014,2.7967,1.7636,0.0671
10.8900,0.020078,-0.274946,0.274946,-0.329806,0.328272,-0.002014,2.7967,1.7636,0.0671
10.9101,0.020072,-0.258635,0.258635,-0.317534,0.319068,-0.002014,2.7967,1.7636,0.0671
10.9302,0.020086,-0.241126,0.241126,-0.300660,0.303728,-0.002004,2.8083,1.8129,0.0144
10.9502,0.020073,-0.222679,0.222679,-0.285320,0.289922,-0.002016,2.7954,1.7579,0.0732
10.9703,0.020077,-0.203536,0.203536,-0.269981,0.273049,-0.002004,2.8085,1.8135,0.0137
10.9904,0.020084,-0.183967,0.183967,-0.254641,0.254641,-0.002016,2.7954,1.7578,0.0733
11.0105,0.020077,-0.164268,0.164268,-0.234699,0.236233,-0.002014,2.7967,1.7636,0.0671
11.0305,0.020078,-0.144717,0.144717,-0.216291,0.217825,-0.002014,2.7967,1.7636,0.0671
11.0506,0.020073,-0.125602,0.125602,-0.193282,0.197884,-0.002014,2.7967,1.7636,0.0671
11.0707,0.020079,-0.107184,0.107184,-0.171806,0.176408,-0.002014,2.7967,1.7636,0.0671
11.0908,0.020080,-0.089726,0.089726,-0.150330,0.154932,-0.002014,2.7967,1.7636,0.0671
11.1109,0.020080,-0.073462,0.073462,-0.131922,0.131922,-0.002014,2.7967,1.7636,0.0671
11.1309,0.020074,-0.058605,0.058605,-0.111981,0.111981,-0.002014,2.7967,1.7636,0.0671
11.1510,0.020078,-0.045319,0.045319,-0.093573,0.093573,-0.002014,2.7967,1.7636,0.0671
11.1711,0.020084,-0.033735,0.033735,-0.078233,0.075165,-0.002014,2.7967,1.7636,0.0671
11.1912,0.020078,-0.023947,0.023947,-0.062893,0.058291,-0.002014,2.7967,1.7636,0.0671
11.2113,0.020086,-0.015979,0.015979,-0.046019,0.044485,-0.002014,2.7967,1.7636,0.0671
11.2313,0.020077,-0.009810,0.009810,-0.032214,0.032214,-0.002014,2.7967,1.7636,0.0671
11.2514,0.020087,-0.005341,0.005341,-0.019942,0.021476,-0.002004,2.8083,1.8129,0.0144
11.2715,0.020081,-0.002412,0.002412,-0.012272,0.013806,-0.002016,2.7954,1.7579,0.0732
11.2916,0.020086,-0.000779,0.000779,-0.012272,0.006136,-0.002014,2.7967,1.7636,0.0671
11.3117,0.020081,-0.000114,0.000114,-0.009204,0.004602,-0.002014,2.7967,1.7636,0.0671
11.3317,0.020079,-0.000000,0.000000,-0.001534,0.004602,-0.002014,2.7967,1.7636,0.0671
11.3518,0.020090,-0.000072,0.000072,0.003068,0.001534,-0.002014,2.7967,1.7636,0.0671
11.3719,0.020116,-0.000621,0.000621,-0.001534,0.000000,-0.002014,2.7967,1.7636,0.0671
11.3920,0.020080,-0.002079,0.002079,-0.006136,0.000000,-0.002014,2.7967,1.7636,0.0671
11.4121,0.020081,-0.004787,0.004787,-0.001534,0.000000,-0.002014,2.7967,1.7636,0.0671
11.4322,0.020075,-0.008999,0.008999,0.001534,0.000000,-0.002014,2.7967,1.7636,0.0671
11.4527,0.020503,-0.015037,0.015037,-0.001534,0.000000,-0.002014,2.7967,1.7636,0.0671
11.4728,0.020075,-0.022753,0.022753,-0.009204,0.003068,-0.002014,2.7967,1.7636,0.0671
11.4928,0.020080,-0.032295,0.032295,-0.009204,0.010738,-0.002014,2.7967,1.7636,0.0671
11.5129,0.020057,-0.043622,0.043622,-0.007670,0.013806,-0.002014,2.7967,1.7636,0.0671
11.5330,0.020073,-0.056676,0.056676,-0.015340,0.013806,-0.002004,2.8083,1.8129,0.0144
11.5531,0.020095,-0.071342,0.071342,-0.032214,0.024544,-0.002016,2.7954,1.7579,0.0732
11.5731,0.020074,-0.087420,0.087420,-0.046019,0.035282,-0.002014,2.7967,1.7636,0.0671
11.5932,0.020037,-0.104691,0.104691,-0.059825,0.052155,-0.002014,2.7967,1.7636,0.0671
11.6133,0.020081,-0.122992,0.122992,-0.065961,0.070563,-0.002014,2.7967,1.7636,0.0671
11.6333,0.020078,-0.142031,0.142031,-0.072097,0.085903,-0.002014,2.7967,1.7636,0.0671
11.6555,0.022177,-0.163594,0.163594,-0.092039,0.102777,-0.002014,2.7967,1.7636,0.0671
11.6756,0.020077,-0.183293,0.183293,-0.118117,0.119651,-0.002014,2.7967,1.7636,0.0671
11.6957,0.020085,-0.202871,0.202871,-0.142660,0.138058,-0.002014,2.7967,1.7636,0.0671
11.7158,0.020077,-0.222033,0.222033,-0.165670,0.158000,-0.002014,2.7967,1.7636,0.0671
11.7358,0.020083,-0.240517,0.240517,-0.187146,0.179476,-0.002014,2.7967,1.7636,0.0671
11.7559,0.020091,-0.258067,0.258067,-0.208621,0.200951,-0.002014,2.7967,1.7636,0.0671
11.7760,0.020079,-0.274427,0.274427,-0.222427,0.220893,-0.002014,2.7967,1.7636,0.0671
11.7961,0.020089,-0.289407,0.289407,-0.237767,0.240835,-0.002014,2.7967,1.7636,0.0671
11.8162,0.020080,-0.302817,0.302817,-0.256175,0.259243,-0.002014,2.7967,1.7636,0.0671
11.8363,0.020082,-0.314529,0.314529,-0.276117,0.274583,-0.002014,2.7967,1.7636,0.0671
11.8563,0.020087,-0.324457,0.324457,-0.291456,0.291456,-0.002014,2.7967,1.7636,0.0671
11.8766,0.020232,-0.332612,0.332612,-0.308330,0.302194,-0.002014,2.7967,1.7636,0.0671
11.8967,0.020079,-0.338899,0.338899,-0.320602,0.317534,-0.002014,2.7967,1.7636,0.0671
11.9167,0.020076,-0.343475,0.343475,-0.328272,0.325204,-0.002014,2.7967,1.7636,0.0671
11.9368,0.020091,-0.346502,0.346502,-0.334408,0.331340,-0.002014,2.7967,1.7636,0.0671
11.9569,0.020087,-0.348212,0.348212,-0.339010,0.337476,-0.002014,2.7967,1.7636,0.0671
11.9771,0.020152,-0.348931,0.348931,-0.346680,0.343612,-0.002014,2.7967,1.7636,0.0671
11.9971,0.020076,-0.349066,0.349066,-0.348214,0.343612,-0.002014,2.7967,1.7636,0.0671
12.0172,0.020079,-0.349008,0.349008,-0.346680,0.345146,-0.002014,2.7967,1.7636,0.0671
12.0373,0.020079,-0.348505,0.348505,-0.352816,0.346680,-0.002014,2.7967,1.7636,0.0671
12.0574,0.020079,-0.347118,0.347118,-0.352816,0.346680,-0.002014,2.7967,1.7636,0.0671
12.0775,0.020081,-0.344501,0.344501,-0.351282,0.346680,-0.002014,2.7967,1.7636,0.0671
12.0975,0.020073,-0.340394,0.340394,-0.352816,0.346680,-0.002014,2.7967,1.7636,0.0671
12.1176,0.020075,-0.334616,0.334616,-0.351282,0.346680,-0.002014,2.7967,1.7636,0.0671
12.1377,0.020075,-0.327057,0.327057,-0.348214,0.345146,-0.002014,2.7967,1.7636,0.0671
12.1578,0.020082,-0.317673,0.317673,-0.345146,0.342078,-0.002014,2.7967,1.7636,0.0671
12.1778,0.020083,-0.306484,0.306484,-0.343612,0.339010,-0.002014,2.7967,1.7636,0.0671
12.1979,0.020073,-0.293573,0.293573,-0.340544,0.335942,-0.002014,2.7967,1.7636,0.0671
12.2181,0.020152,-0.278995,0.278995,-0.339010,0.332874,-0.002004,2.8083,1.8129,0.0144
12.2382,0.020080,-0.263023,0.263023,-0.329806,0.328272,-0.002016,2.7954,1.7579,0.0732
12.2582,0.020088,-0.245800,0.245800,-0.316000,0.316000,-0.002014,2.7967,1.7636,0.0671
12.2783,0.020085,-0.227565,0.227565,-0.299126,0.302194,-0.002014,2.7967,1.7636,0.0671
12.2984,0.020081,-0.208573,0.208573,-0.280718,0.285320,-0.002014,2.7967,1.7636,0.0671
12.3185,0.020092,-0.189079,0.189079,-0.263845,0.268447,-0.002014,2.7967,1.7636,0.0671
12.3386,0.020080,-0.169385,0.169385,-0.248505,0.250039,-0.002014,2.7967,1.7636,0.0671
12.3587,0.020087,-0.149760,0.149760,-0.228563,0.231631,-0.002014,2.7967,1.7636,0.0671
12.3787,0.020084,-0.130496,0.130496,-0.208621,0.211689,-0.002014,2.7967,1.7636,0.0671
12.3989,0.020126,-0.111827,0.111827,-0.187146,0.191748,-0.002014,2.7967,1.7636,0.0671
12.4190,0.020097,-0.094084,0.094084,-0.165670,0.168738,-0.002004,2.8083,1.8129,0.0144
12.4391,0.020083,-0.077492,0.077492,-0.148796,0.150330,-0.002016,2.7954,1.7579,0.0732
12.4591,0.020047,-0.062278,0.062278,-0.130388,0.130388,-0.002014,2.7967,1.7636,0.0671
12.4792,0.020088,-0.048566,0.048566,-0.110447,0.110447,-0.002014,2.7967,1.7636,0.0671
12.4993,0.020079,-0.036539,0.036539,-0.092039,0.090505,-0.002014,2.7967,1.7636,0.0671
12.5194,0.020093,-0.026278,0.026278,-0.075165,0.072097,-0.002014,2.7967,1.7636,0.0671
12.5394,0.020081,-0.017845,0.017845,-0.059825,0.056757,-0.002004,2.8083,1.8129,0.0144
12.5595,0.020092,-0.011218,0.011218,-0.044485,0.041417,-0.002016,2.7954,1.7579,0.0732
12.5796,0.020083,-0.006328,0.006328,-0.029146,0.029146,-0.002014,2.7967,1.7636,0.0671
12.5997,0.020080,-0.003026,0.003026,-0.019942,0.021476,-0.002014,2.7967,1.7636,0.0671
12.6198,0.020091,-0.001089,0.001089,-0.012272,0.012272,-0.002014,2.7967,1.7636,0.0671
12.6399,0.020082,-0.000213,0.000213,-0.010738,0.004602,-0.002014,2.7967,1.7636,0.0671
12.6600,0.020083,-0.000004,0.000004,-0.003068,0.004602,-0.002014,2.7967,1.7636,0.0671
12.6800,0.020078,-0.000027,0.000027,0.000000,-0.001534,-0.002014,2.7967,1.7636,0.0671
12.7001,0.020082,-0.000408,0.000408,0.000000,-0.001534,-0.002014,2.7967,1.7636,0.0671
12.7202,0.020085,-0.001597,0.001597,-0.006136,-0.001534,-0.002004,2.8083,1.8129,0.0144
12.7403,0.020082,-0.003956,0.003956,0.001534,-0.001534,-0.002016,2.7954,1.7579,0.0732
12.7604,0.020090,-0.007765,0.007765,0.000000,0.000000,-0.002014,2.7967,1.7636,0.0671
12.7805,0.020085,-0.013218,0.013218,-0.006136,0.001534,-0.002014,2.7967,1.7636,0.0671
12.8005,0.020083,-0.020436,0.020436,-0.006136,0.004602,-0.002014,2.7967,1.7636,0.0671
12.8206,0.020079,-0.029473,0.029473,-0.004602,0.010738,-0.002014,2.7967,1.7636,0.0671
12.8407,0.020080,-0.040322,0.040322,-0.013806,0.016874,-0.002014,2.7967,1.7636,0.0671
12.8608,0.020100,-0.052931,0.052931,-0.026078,0.021476,-0.002014,2.7967,1.7636,0.0671
12.8809,0.020081,-0.067163,0.067163,-0.039884,0.027612,-0.002014,2.7967,1.7636,0.0671
12.9010,0.020082,-0.082875,0.082875,-0.050621,0.041417,-0.002014,2.7967,1.7636,0.0671
12.9211,0.020088,-0.099875,0.099875,-0.058291,0.056757,-0.002014,2.7967,1.7636,0.0671
12.9411,0.020083,-0.117932,0.117932,-0.067495,0.072097,-0.002004,2.8083,1.8129,0.0144
12.9613,0.020161,-0.136875,0.136875,-0.084369,0.090505,-0.002016,2.7954,1.7579,0.0732
12.9814,0.020076,-0.156283,0.156283,-0.107379,0.108913,-0.002014,2.7967,1.7636,0.0671
13.0015,0.020101,-0.175978,0.175978,-0.127320,0.124252,-0.002014,2.7967,1.7636,0.0671
13.0216,0.020097,-0.195649,0.195649,-0.147262,0.142660,-0.002014,2.7967,1.7636,0.0671
13.0417,0.020082,-0.215000,0.215000,-0.168738,0.161068,-0.002014,2.7967,1.7636,0.0671
13.0618,0.020114,-0.233796,0.233796,-0.187146,0.182544,-0.002014,2.7967,1.7636,0.0671
13.0819,0.020143,-0.251767,0.251767,-0.207087,0.202485,-0.002004,2.8083,1.8129,0.0144
13.1020,0.020093,-0.268596,0.268596,-0.225495,0.220893,-0.002016,2.7954,1.7579,0.0732
13.1221,0.020095,-0.284110,0.284110,-0.245437,0.242369,-0.002014,2.7967,1.7636,0.0671
13.1422,0.020088,-0.298114,0.298114,-0.260777,0.260777,-0.002014,2.7967,1.7636,0.0671
13.1623,0.020103,-0.310471,0.310471,-0.277651,0.277651,-0.002014,2.7967,1.7636,0.0671
13.1825,0.020181,-0.321102,0.321102,-0.292990,0.292990,-0.002014,2.7967,1.7636,0.0671
13.2026,0.020089,-0.329861,0.329861,-0.309864,0.303728,-0.002014,2.7967,1.7636,0.0671
13.2236,0.021017,-0.337082,0.337082,-0.320602,0.316000,-0.002014,2.7967,1.7636,0.0671
13.2437,0.020080,-0.342191,0.342191,-0.329806,0.326738,-0.002014,2.7967,1.7636,0.0671
13.2638,0.020177,-0.345703,0.345703,-0.335942,0.334408,-0.002014,2.7967,1.7636,0.0671
13.2839,0.020074,-0.347797,0.347797,-0.342078,0.340544,-0.002014,2.7967,1.7636,0.0671
13.3045,0.020600,-0.348802,0.348802,-0.348214,0.342078,-0.002014,2.7967,1.7636,0.0671
13.3246,0.020086,-0.349058,0.349058,-0.348214,0.345146,-0.002014,2.7967,1.7636,0.0671
13.3447,0.020077,-0.349049,0.349049,-0.348214,0.345146,-0.002014,2.7967,1.7636,0.0671
13.3649,0.020265,-0.348720,0.348720,-0.352816,0.346680,-0.002014,2.7967,1.7636,0.0671
13.3854,0.020450,-0.347593,0.347593,-0.352816,0.346680,-0.002014,2.7967,1.7636,0.0671
13.4055,0.020080,-0.345331,0.345331,-0.351282,0.346680,-0.002014,2.7967,1.7636,0.0671
13.4255,0.020079,-0.341640,0.341640,-0.352816,0.346680,-0.002014,2.7967,1.7636,0.0671
13.4456,0.020082,-0.336315,0.336315,-0.351282,0.346680,-0.002014,2.7967,1.7636,0.0671
13.4657,0.020082,-0.329232,0.329232,-0.348214,0.343612,-0.002014,2.7967,1.7636,0.0671
13.4858,0.020086,-0.320329,0.320329,-0.345146,0.342078,-0.002014,2.7967,1.7636,0.0671
13.5059,0.020064,-0.309623,0.309623,-0.343612,0.340544,-0.002014,2.7967,1.7636,0.0671
13.5259,0.020073,-0.297160,0.297160,-0.340544,0.335942,-0.002014,2.7967,1.7636,0.0671
13.5462,0.020234,-0.282934,0.282934,-0.335942,0.331340,-0.002004,2.8083,1.8129,0.0144
13.5663,0.020144,-0.267269,0.267269,-0.325204,0.323670,-0.002016,2.7954,1.7579,0.0732
13.5864,0.020097,-0.250339,0.250339,-0.311398,0.311398,-0.002014,2.7967,1.7636,0.0671
13.6065,0.020080,-0.232346,0.232346,-0.296058,0.299126,-0.002014,2.7967,1.7636,0.0671
13.6266,0.020112,-0.213495,0.213495,-0.280718,0.283786,-0.002014,2.7967,1.7636,0.0671
13.6468,0.020159,-0.194035,0.194035,-0.262311,0.265379,-0.002014,2.7967,1.7636,0.0671
13.6668,0.020086,-0.174362,0.174362,-0.248505,0.250039,-0.002014,2.7967,1.7636,0.0671
13.6871,0.020226,-0.154556,0.154556,-0.227029,0.231631,-0.002014,2.7967,1.7636,0.0671
13.7071,0.020076,-0.135185,0.135185,-0.207087,0.211689,-0.002004,2.8083,1.8129,0.0144
13.7272,0.020100,-0.116359,0.116359,-0.185612,0.188680,-0.002016,2.7954,1.7579,0.0732
13.7474,0.020173,-0.098304,0.098304,-0.167204,0.170272,-0.002014,2.7967,1.7636,0.0671
13.7675,0.020088,-0.081410,0.081410,-0.144194,0.145728,-0.002014,2.7967,1.7636,0.0671
13.7876,0.020095,-0.065815,0.065815,-0.124252,0.125786,-0.002014,2.7967,1.7636,0.0671
13.8077,0.020082,-0.051723,0.051723,-0.105845,0.104311,-0.002004,2.8083,1.8129,0.0144
13.8278,0.020083,-0.039278,0.039278,-0.087437,0.084369,-0.002016,2.7954,1.7579,0.0732
13.8479,0.020090,-0.028585,0.028585,-0.069029,0.065961,-0.002014,2.7967,1.7636,0.0671
13.8679,0.020081,-0.019712,0.019712,-0.053689,0.050621,-0.002014,2.7967,1.7636,0.0671
13.8880,0.020098,-0.012651,0.012651,-0.039884,0.036816,-0.002014,2.7967,1.7636,0.0671
13.9081,0.020087,-0.007353,0.007353,-0.026078,0.027612,-0.002014,2.7967,1.7636,0.0671
13.9282,0.020087,-0.003686,0.003686,-0.016874,0.018408,-0.002014,2.7967,1.7636,0.0671
13.9483,0.020080,-0.001446,0.001446,-0.012272,0.009204,-0.002014,2.7967,1.7636,0.0671
