t,loop_dt,cmd_ant_l,cmd_ant_r,pres_ant_l,pres_ant_r,pres_z,pres_roll,pres_pitch,pres_yaw
0.0000,0.000001,-0.349066,0.349066,-0.174874,0.171806,-0.002332,2.1899,2.4712,0.8858
0.0201,0.020089,-0.348911,0.348911,-0.174874,0.171806,-0.002332,2.1899,2.4712,0.8858
0.0402,0.020080,-0.347895,0.347895,-0.174874,0.171806,-0.002332,2.1899,2.4712,0.8858
0.0602,0.020078,-0.345334,0.345334,-0.194816,0.191748,-0.002332,2.1899,2.4712,0.8858
0.0803,0.020090,-0.340717,0.340717,-0.260777,0.259243,-0.002319,2.1408,2.4517,0.8324
0.1004,0.020073,-0.333710,0.333710,-0.343612,0.337476,-0.002283,2.0962,2.4009,0.7850
0.1205,0.020083,-0.324112,0.324112,-0.383495,0.375825,-0.002273,2.0514,2.3870,0.7359
0.1406,0.020079,-0.311868,0.311868,-0.381961,0.375825,-0.002250,2.0186,2.4194,0.6334
0.1607,0.020079,-0.297038,0.297038,-0.366621,0.366621,-0.002263,2.0100,2.3658,0.6977
0.1807,0.020092,-0.279776,0.279776,-0.343612,0.349748,-0.002262,2.0109,2.3714,0.6910
0.2008,0.020076,-0.260361,0.260361,-0.325204,0.332874,-0.002262,2.0109,2.3714,0.6910
0.2209,0.020086,-0.239101,0.239101,-0.311398,0.319068,-0.002262,2.0109,2.3714,0.6910
0.2410,0.020088,-0.216394,0.216394,-0.296058,0.299126,-0.002252,2.0229,2.4210,0.6381
0.2611,0.020085,-0.192684,0.192684,-0.282252,0.285320,-0.002263,2.0095,2.3657,0.6972
0.2812,0.020092,-0.168429,0.168429,-0.266913,0.268447,-0.002262,2.0109,2.3714,0.6911
0.3013,0.020081,-0.144133,0.144133,-0.248505,0.248505,-0.002262,2.0109,2.3714,0.6911
0.3213,0.020089,-0.120262,0.120262,-0.225495,0.225495,-0.002262,2.0109,2.3714,0.6911
0.3414,0.020085,-0.097303,0.097303,-0.200951,0.202485,-0.002262,2.0109,2.3714,0.6911
0.3615,0.020083,-0.075700,0.075700,-0.174874,0.177942,-0.002262,2.0109,2.3714,0.6911
0.3816,0.020091,-0.055844,0.055844,-0.147262,0.151864,-0.002262,2.0109,2.3714,0.6911
0.4017,0.020083,-0.038098,0.038098,-0.119651,0.122718,-0.002262,2.0109,2.3714,0.6911
0.4218,0.020090,-0.022721,0.022721,-0.095107,0.096641,-0.002262,2.0109,2.3714,0.6911
0.4419,0.020083,-0.009910,0.009910,-0.052155,0.052155,-0.002262,2.0109,2.3714,0.6911
0.4619,0.020082,0.000256,-0.000256,-0.052155,0.052155,-0.002262,2.0109,2.3714,0.6911
0.4820,0.020084,0.007812,-0.007812,-0.013806,0.016874,-0.002262,2.0109,2.3714,0.6911
0.5021,0.020084,0.012917,-0.012917,0.000000,0.003068,-0.002262,2.0109,2.3714,0.6911
0.5222,0.020073,0.015882,-0.015882,0.007670,-0.007670,-0.002262,2.0109,2.3714,0.6911
0.5423,0.020076,0.017179,-0.017179,0.007670,-0.013806,-0.002262,2.0109,2.3714,0.6911
0.5623,0.020079,0.017452,-0.017452,0.010738,-0.013806,-0.002262,2.0109,2.3714,0.6911
0.5824,0.020079,0.016923,-0.016923,0.016874,-0.016874,-0.002262,2.0109,2.3714,0.6911
0.6025,0.020091,0.013119,-0.013119,0.016874,-0.018408,-0.002262,2.0109,2.3714,0.6911
0.6226,0.020075,0.006810,-0.006810,0.012272,-0.016874,-0.002262,2.0109,2.3714,0.6911
0.6427,0.020077,0.001629,-0.001629,0.012272,-0.015340,-0.002262,2.0109,2.3714,0.6911
0.6627,0.020083,0.000010,-0.000010,0.013806,-0.010738,-0.002262,2.0109,2.3714,0.6911
0.6828,0.020092,-0.000081,0.000081,0.007670,-0.003068,-0.002252,2.0228,2.4210,0.6381
0.7029,0.020079,-0.000869,0.000869,-0.003068,-0.001534,-0.002263,2.0095,2.3657,0.6972
0.7230,0.020091,-0.003086,0.003086,-0.004602,-0.001534,-0.002251,2.0230,2.4216,0.6374
0.7431,0.020090,-0.007271,0.007271,0.001534,-0.001534,-0.002263,2.0095,2.3656,0.6973
0.7632,0.020084,-0.013796,0.013796,0.003068,0.000000,-0.002262,2.0109,2.3714,0.6910
0.7833,0.020092,-0.022887,0.022887,-0.004602,0.003068,-0.002262,2.0109,2.3714,0.6910
0.8034,0.020089,-0.034625,0.034625,-0.010738,0.009204,-0.002262,2.0109,2.3714,0.6910
0.8234,0.020076,-0.048963,0.048963,-0.018408,0.013806,-0.002262,2.0109,2.3714,0.6910
0.8435,0.020084,-0.065766,0.065766,-0.027612,0.018408,-0.002262,2.0109,2.3714,0.6910
0.8636,0.020077,-0.084786,0.084786,-0.038350,0.027612,-0.002262,2.0109,2.3714,0.6910
0.8837,0.020083,-0.105715,0.105715,-0.049087,0.044485,-0.002262,2.0109,2.3714,0.6910
0.9038,0.020077,-0.128162,0.128162,-0.064427,0.065961,-0.002252,2.0228,2.4210,0.6381
0.9238,0.020075,-0.151700,0.151700,-0.085903,0.088971,-0.002263,2.0095,2.3657,0.6972
0.9439,0.020087,-0.175882,0.175882,-0.110447,0.108913,-0.002262,2.0109,2.3714,0.6911
0.9640,0.020075,-0.200198,0.200198,-0.134990,0.130388,-0.002262,2.0109,2.3714,0.6911
0.9841,0.020082,-0.224184,0.224184,-0.156466,0.151864,-0.002262,2.0109,2.3714,0.6911
1.0042,0.020079,-0.247350,0.247350,-0.185612,0.179476,-0.002262,2.0109,2.3714,0.6911
1.0242,0.020095,-0.269265,0.269265,-0.205553,0.199418,-0.002262,2.0109,2.3714,0.6911
1.0443,0.020098,-0.289500,0.289500,-0.231631,0.225495,-0.002262,2.0109,2.3714,0.6911
1.0644,0.020077,-0.307675,0.307675,-0.257709,0.254641,-0.002262,2.0109,2.3714,0.6911
1.0847,0.020303,-0.323689,0.323689,-0.276117,0.274583,-0.002262,2.0109,2.3714,0.6911
1.1048,0.020083,-0.336983,0.336983,-0.300660,0.299126,-0.002262,2.0109,2.3714,0.6911
1.1249,0.020076,-0.347637,0.347637,-0.317534,0.314466,-0.002262,2.0109,2.3714,0.6911
1.1450,0.020087,-0.355669,0.355669,-0.334408,0.329806,-0.002262,2.0109,2.3714,0.6911
1.1650,0.020078,-0.361209,0.361209,-0.345146,0.342078,-0.002262,2.0109,2.3714,0.6911
1.1853,0.020241,-0.364560,0.364560,-0.354350,0.351282,-0.002262,2.0109,2.3714,0.6911
1.2054,0.020078,-0.366111,0.366111,-0.358952,0.357418,-0.002262,2.0109,2.3714,0.6911
1.2254,0.020076,-0.366509,0.366509,-0.363553,0.363553,-0.002262,2.0109,2.3714,0.6911
1.2455,0.020083,-0.366258,0.366258,-0.369689,0.363553,-0.002262,2.0109,2.3714,0.6911
1.2656,0.020080,-0.363126,0.363126,-0.369689,0.363553,-0.002262,2.0109,2.3714,0.6911
1.2857,0.020122,-0.357010,0.357010,-0.368155,0.363553,-0.002262,2.0109,2.3714,0.6911
1.3058,0.020082,-0.351368,0.351368,-0.368155,0.363553,-0.002262,2.0109,2.3714,0.6911
1.3259,0.020116,-0.349129,0.349129,-0.368155,0.363553,-0.002252,2.0228,2.4210,0.6381
1.3460,0.020082,-0.349026,0.349026,-0.366621,0.363553,-0.002263,2.0095,2.3657,0.6972
1.3661,0.020076,-0.348418,0.348418,-0.366621,0.362019,-0.002262,2.0109,2.3714,0.6911
1.3862,0.020093,-0.346494,0.346494,-0.365087,0.362019,-0.002252,2.0228,2.4210,0.6381
1.4063,0.020084,-0.342684,0.342684,-0.362019,0.362019,-0.002263,2.0095,2.3657,0.6972
1.4263,0.020087,-0.336586,0.336586,-0.355884,0.360485,-0.002251,2.0230,2.4216,0.6374
1.4467,0.020317,-0.327838,0.327838,-0.351282,0.360485,-0.002263,2.0095,2.3656,0.6973
1.4668,0.020092,-0.316529,0.316529,-0.346680,0.358952,-0.002262,2.0109,2.3714,0.6910
1.4871,0.020318,-0.302425,0.302425,-0.345146,0.354350,-0.002262,2.0109,2.3714,0.6910
1.5071,0.020073,-0.285988,0.285988,-0.340544,0.345146,-0.002262,2.0109,2.3714,0.6910
1.5273,0.020132,-0.267232,0.267232,-0.337476,0.334408,-0.002262,2.0109,2.3714,0.6910
1.5474,0.020083,-0.246563,0.246563,-0.325204,0.319068,-0.002262,2.0109,2.3714,0.6910
1.5674,0.020083,-0.224310,0.224310,-0.309864,0.305262,-0.002262,2.0109,2.3714,0.6910
1.5875,0.020095,-0.200882,0.200882,-0.286854,0.286854,-0.002262,2.0109,2.3714,0.6910
1.6076,0.020075,-0.176777,0.176777,-0.266913,0.268447,-0.002262,2.0109,2.3714,0.6910
1.6277,0.020088,-0.152436,0.152436,-0.246971,0.248505,-0.002262,2.0109,2.3714,0.6910
1.6478,0.020111,-0.128337,0.128337,-0.219359,0.223961,-0.002262,2.0109,2.3714,0.6910
1.6679,0.020072,-0.105031,0.105031,-0.191748,0.199418,-0.002252,2.0228,2.4210,0.6381
1.6880,0.020096,-0.082903,0.082903,-0.168738,0.174874,-0.002263,2.0095,2.3657,0.6972
1.7081,0.020161,-0.062337,0.062337,-0.144194,0.148796,-0.002262,2.0109,2.3714,0.6911
1.7282,0.020062,-0.043864,0.043864,-0.119651,0.122718,-0.002262,2.0109,2.3714,0.6911
1.7484,0.020148,-0.027612,0.027612,-0.095107,0.096641,-0.002262,2.0109,2.3714,0.6911
1.7684,0.020083,-0.013925,0.013925,-0.073631,0.072097,-0.002262,2.0109,2.3714,0.6911
1.7885,0.020100,-0.002858,0.002858,-0.053689,0.050621,-0.002262,2.0109,2.3714,0.6911
1.8086,0.020091,0.005564,-0.005564,-0.032214,0.030680,-0.002262,2.0109,2.3714,0.6911
1.8287,0.020121,0.011472,-0.011472,-0.013806,0.016874,-0.002262,2.0109,2.3714,0.6911
1.8488,0.020089,0.015108,-0.015108,0.000000,0.003068,-0.002262,2.0109,2.3714,0.6911
1.8690,0.020116,0.016899,-0.016899,0.009204,-0.007670,-0.002262,2.0109,2.3714,0.6911
1.8890,0.020086,0.017428,-0.017428,0.009204,-0.013806,-0.002262,2.0109,2.3714,0.6911
1.9097,0.020670,0.017316,-0.017316,0.007670,-0.013806,-0.002262,2.0109,2.3714,0.6911
1.9298,0.020077,0.014656,-0.014656,0.013806,-0.013806,-0.002262,2.0109,2.3714,0.6911
1.9499,0.020102,0.008763,-0.008763,0.018408,-0.016874,-0.002262,2.0109,2.3714,0.6911
1.9700,0.020074,0.002855,-0.002855,0.016874,-0.016874,-0.002262,2.0109,2.3714,0.6911
1.9901,0.020111,0.000146,-0.000146,0.009204,-0.013806,-0.002262,2.0109,2.3714,0.6911
2.0102,0.020087,-0.000021,0.000021,0.006136,-0.009204,-0.002262,2.0109,2.3714,0.6911
2.0302,0.020081,-0.000513,0.000513,0.006136,-0.003068,-0.002262,2.0109,2.3714,0.6911
2.0504,0.020152,-0.002246,0.002246,0.001534,0.000000,-0.002262,2.0109,2.3714,0.6911
2.0706,0.020177,-0.005823,0.005823,-0.006136,0.000000,-0.002252,2.0228,2.4210,0.6381
2.0907,0.020080,-0.011635,0.011635,-0.003068,-0.001534,-0.002263,2.0095,2.3657,0.6972
2.1108,0.020104,-0.019970,0.019970,0.003068,0.000000,-0.002262,2.0109,2.3714,0.6911
2.1309,0.020100,-0.030943,0.030943,0.001534,0.001534,-0.002262,2.0109,2.3714,0.6911
2.1510,0.020186,-0.044615,0.044615,-0.007670,0.007670,-0.002262,2.0109,2.3714,0.6911
2.1713,0.020242,-0.060874,0.060874,-0.016874,0.019942,-0.002262,2.0109,2.3714,0.6911
2.1914,0.020082,-0.079312,0.079312,-0.030680,0.026078,-0.002262,2.0109,2.3714,0.6911
2.2115,0.020093,-0.099760,0.099760,-0.047553,0.035282,-0.002262,2.0109,2.3714,0.6911
2.2317,0.020271,-0.122047,0.122047,-0.058291,0.050621,-0.002262,2.0109,2.3714,0.6911
2.2518,0.020091,-0.145356,0.145356,-0.069029,0.069029,-0.002262,2.0109,2.3714,0.6911
2.2719,0.020088,-0.169419,0.169419,-0.084369,0.087437,-0.002262,2.0109,2.3714,0.6911
2.2920,0.020081,-0.193750,0.193750,-0.108913,0.110447,-0.002262,2.0109,2.3714,0.6911
2.3121,0.020088,-0.217879,0.217879,-0.136524,0.134990,-0.002262,2.0109,2.3714,0.6911
2.3322,0.020088,-0.241317,0.241317,-0.162602,0.159534,-0.002262,2.0109,2.3714,0.6911
2.3523,0.020101,-0.263617,0.263617,-0.188680,0.184078,-0.002262,2.0109,2.3714,0.6911
2.3724,0.020086,-0.284322,0.284322,-0.214757,0.208621,-0.002262,2.0109,2.3714,0.6911
2.3924,0.020083,-0.303075,0.303075,-0.239301,0.233165,-0.002262,2.0109,2.3714,0.6911
2.4125,0.020092,-0.319576,0.319576,-0.262311,0.257709,-0.002262,2.0109,2.3714,0.6911
2.4326,0.020091,-0.333588,0.333588,-0.282252,0.280718,-0.002262,2.0109,2.3714,0.6911
2.4527,0.020106,-0.344986,0.344986,-0.303728,0.302194,-0.002262,2.0109,2.3714,0.6911
2.4728,0.020084,-0.353728,0.353728,-0.322136,0.320602,-0.002262,2.0109,2.3714,0.6911
2.4929,0.020086,-0.359929,0.359929,-0.337476,0.332874,-0.002262,2.0109,2.3714,0.6911
2.5130,0.020089,-0.363829,0.363829,-0.346680,0.343612,-0.002262,2.0109,2.3714,0.6911
2.5331,0.020083,-0.365821,0.365821,-0.352816,0.349748,-0.002262,2.0109,2.3714,0.6911
2.5532,0.020090,-0.366471,0.366471,-0.360485,0.357418,-0.002262,2.0109,2.3714,0.6911
2.5732,0.020087,-0.366474,0.366474,-0.366621,0.366621,-0.002262,2.0109,2.3714,0.6911
2.5933,0.020060,-0.364398,0.364398,-0.369689,0.366621,-0.002262,2.0109,2.3714,0.6911
2.6134,0.020090,-0.358861,0.358861,-0.368155,0.363553,-0.002262,2.0109,2.3714,0.6911
2.6335,0.020085,-0.352691,0.352691,-0.368155,0.365087,-0.002262,2.0109,2.3714,0.6911
2.6536,0.020088,-0.349385,0.349385,-0.368155,0.365087,-0.002262,2.0109,2.3714,0.6911
2.6736,0.020082,-0.349059,0.349059,-0.366621,0.363553,-0.002262,2.0109,2.3714,0.6911
2.6937,0.020080,-0.348695,0.348695,-0.366621,0.362019,-0.002262,2.0109,2.3714,0.6911
2.7138,0.020089,-0.347209,0.347209,-0.363553,0.362019,-0.002262,2.0109,2.3714,0.6911
2.7339,0.020080,-0.343983,0.343983,-0.358952,0.362019,-0.002262,2.0109,2.3714,0.6911
2.7540,0.020091,-0.338563,0.338563,-0.352816,0.360485,-0.002262,2.0109,2.3714,0.6911
2.7741,0.020076,-0.330670,0.330670,-0.348214,0.360485,-0.002262,2.0109,2.3714,0.6911
2.7947,0.020605,-0.319842,0.319842,-0.346680,0.357418,-0.002262,2.0109,2.3714,0.6911
2.8148,0.020084,-0.306615,0.306615,-0.343612,0.351282,-0.002262,2.0109,2.3714,0.6911
2.8348,0.020096,-0.290840,0.290840,-0.340544,0.342078,-0.002262,2.0109,2.3714,0.6911
2.8549,0.020078,-0.272744,0.272744,-0.334408,0.329806,-0.002262,2.0109,2.3714,0.6911
2.8750,0.020114,-0.252560,0.252560,-0.322136,0.316000,-0.002262,2.0109,2.3714,0.6911
2.8951,0.020074,-0.230722,0.230722,-0.303728,0.300660,-0.002262,2.0109,2.3714,0.6911
2.9152,0.020084,-0.207588,0.207588,-0.282252,0.282252,-0.002262,2.0109,2.3714,0.6911
2.9353,0.020084,-0.183622,0.183622,-0.263845,0.266913,-0.002262,2.0109,2.3714,0.6911
2.9554,0.020075,-0.159309,0.159309,-0.240835,0.245437,-0.002252,2.0228,2.4210,0.6381
2.9754,0.020084,-0.135117,0.135117,-0.217825,0.222427,-0.002263,2.0095,2.3657,0.6972
2.9955,0.020075,-0.111547,0.111547,-0.191748,0.197884,-0.002262,2.0109,2.3714,0.6911
3.0156,0.020078,-0.089052,0.089052,-0.165670,0.170272,-0.002252,2.0228,2.4210,0.6381
3.0357,0.020083,-0.068060,0.068060,-0.139592,0.142660,-0.002263,2.0095,2.3657,0.6972
3.0558,0.020077,-0.048966,0.048966,-0.116583,0.115049,-0.002262,2.0109,2.3714,0.6911
3.0758,0.020089,-0.032073,0.032073,-0.092039,0.090505,-0.002262,2.0109,2.3714,0.6911
3.0959,0.020080,-0.017641,0.017641,-0.072097,0.069029,-0.002262,2.0109,2.3714,0.6911
3.1160,0.020086,-0.005810,0.005810,-0.049087,0.046019,-0.002262,2.0109,2.3714,0.6911
3.1361,0.020080,0.003372,-0.003372,-0.029146,0.029146,-0.002262,2.0109,2.3714,0.6911
3.1562,0.020074,0.009985,-0.009985,-0.012272,0.013806,-0.002252,2.0228,2.4210,0.6381
3.1762,0.020081,0.014249,-0.014249,0.003068,0.000000,-0.002263,2.0095,2.3657,0.6972
3.1963,0.020076,0.016529,-0.016529,0.009204,-0.009204,-0.002262,2.0109,2.3714,0.6911
3.2164,0.020092,0.017360,-0.017360,0.007670,-0.013806,-0.002262,2.0109,2.3714,0.6911
3.2365,0.020076,0.017448,-0.017448,0.010738,-0.013806,-0.002262,2.0109,2.3714,0.6911
3.2566,0.020074,0.015957,-0.015957,0.016874,-0.015340,-0.002262,2.0109,2.3714,0.6911
3.2767,0.020090,0.010887,-0.010887,0.016874,-0.016874,-0.002262,2.0109,2.3714,0.6911
3.2967,0.020078,0.004548,-0.004548,0.012272,-0.016874,-0.002252,2.0228,2.4210,0.6381
3.3170,0.020244,0.000589,-0.000589,0.012272,-0.016874,-0.002263,2.0095,2.3657,0.6972
3.3371,0.020084,-0.000001,0.000001,0.012272,-0.012272,-0.002262,2.0109,2.3714,0.6911
3.3571,0.020083,-0.000255,0.000255,0.007670,-0.003068,-0.002262,2.0109,2.3714,0.6911
3.3772,0.020083,-0.001511,0.001511,-0.003068,0.000000,-0.002262,2.0109,2.3714,0.6911
3.3973,0.020083,-0.004421,0.004421,-0.006136,0.000000,-0.002262,2.0109,2.3714,0.6911
3.4174,0.020092,-0.009462,0.009462,0.001534,0.000000,-0.002262,2.0109,2.3714,0.6911
3.4375,0.020079,-0.016941,0.016941,0.001534,0.000000,-0.002262,2.0109,2.3714,0.6911
3.4576,0.020084,-0.027032,0.027032,0.003068,0.001534,-0.002262,2.0109,2.3714,0.6911
3.4776,0.020088,-0.039771,0.039771,-0.004602,0.001534,-0.002262,2.0109,2.3714,0.6911
3.4977,0.020092,-0.055078,0.055078,-0.012272,0.006136,-0.002262,2.0109,2.3714,0.6911
3.5178,0.020099,-0.072774,0.072774,-0.019942,0.016874,-0.002262,2.0109,2.3714,0.6911
3.5379,0.020088,-0.092572,0.092572,-0.026078,0.027612,-0.002262,2.0109,2.3714,0.6911
3.5591,0.021169,-0.115340,0.115340,-0.035282,0.038350,-0.002262,2.0109,2.3714,0.6911
3.5792,0.020110,-0.138357,0.138357,-0.049087,0.052155,-0.002262,2.0109,2.3714,0.6911
3.5993,0.020096,-0.162254,0.162254,-0.067495,0.067495,-0.002252,2.0228,2.4210,0.6381
3.6194,0.020133,-0.186618,0.186618,-0.090505,0.087437,-0.002263,2.0095,2.3657,0.6972
3.6395,0.020090,-0.210863,0.210863,-0.138058,0.133456,-0.002262,2.0109,2.3714,0.6911
3.6597,0.020132,-0.234602,0.234602,-0.138058,0.133456,-0.002262,2.0109,2.3714,0.6911
3.6798,0.020095,-0.257276,0.257276,-0.164136,0.158000,-0.002262,2.0109,2.3714,0.6911
3.6998,0.020090,-0.278486,0.278486,-0.190214,0.185612,-0.002262,2.0109,2.3714,0.6911
3.7199,0.020097,-0.297853,0.297853,-0.214757,0.210155,-0.002252,2.0228,2.4210,0.6381
3.7400,0.020090,-0.315035,0.315035,-0.234699,0.230097,-0.002263,2.0095,2.3657,0.6972
3.7601,0.020087,-0.329785,0.329785,-0.257709,0.254641,-0.002262,2.0109,2.3714,0.6911
3.7802,0.020097,-0.341948,0.341948,-0.279185,0.277651,-0.002262,2.0109,2.3714,0.6911
3.8003,0.020095,-0.351458,0.351458,-0.300660,0.299126,-0.002262,2.0109,2.3714,0.6911
3.8204,0.020091,-0.358380,0.358380,-0.322136,0.319068,-0.002252,2.0228,2.4210,0.6381
3.8405,0.020085,-0.362914,0.362914,-0.335942,0.329806,-0.002263,2.0095,2.3657,0.6972
3.8606,0.020115,-0.365412,0.365412,-0.343612,0.342078,-0.002262,2.0109,2.3714,0.6911
3.8807,0.020103,-0.366382,0.366382,-0.355884,0.352816,-0.002262,2.0109,2.3714,0.6911
3.9009,0.020158,-0.366519,0.366519,-0.363553,0.362019,-0.002262,2.0109,2.3714,0.6911
3.9214,0.020518,-0.365314,0.365314,-0.362019,0.362019,-0.002262,2.0109,2.3714,0.6911
3.9415,0.020089,-0.360531,0.360531,-0.366621,0.363553,-0.002262,2.0109,2.3714,0.6911
3.9616,0.020117,-0.354135,0.354135,-0.371223,0.363553,-0.002262,2.0109,2.3714,0.6911
3.9817,0.020094,-0.349866,0.349866,-0.369689,0.363553,-0.002262,2.0109,2.3714,0.6911
4.0018,0.020093,-0.349066,0.349066,-0.368155,0.363553,-0.002262,2.0109,2.3714,0.6911
4.0219,0.020085,-0.348867,0.348867,-0.368155,0.363553,-0.002262,2.0109,2.3714,0.6911
4.0419,0.020091,-0.347739,0.347739,-0.365087,0.362019,-0.002252,2.0228,2.4210,0.6381
4.0620,0.020084,-0.345013,0.345013,-0.363553,0.360485,-0.002263,2.0095,2.3657,0.6972
4.0821,0.020103,-0.340191,0.340191,-0.357418,0.360485,-0.002262,2.0109,2.3714,0.6911
4.1022,0.020082,-0.332954,0.332954,-0.352816,0.360485,-0.002262,2.0109,2.3714,0.6911
4.1223,0.020078,-0.323121,0.323121,-0.349748,0.358952,-0.002262,2.0109,2.3714,0.6911
4.1424,0.020094,-0.310631,0.310631,-0.349748,0.357418,-0.002262,2.0109,2.3714,0.6911
4.1625,0.020079,-0.295574,0.295574,-0.348214,0.352816,-0.002262,2.0109,2.3714,0.6911
4.1826,0.020114,-0.278083,0.278083,-0.343612,0.346680,-0.002262,2.0109,2.3714,0.6911
4.2027,0.020085,-0.258477,0.258477,-0.340544,0.337476,-0.002262,2.0109,2.3714,0.6911
4.2227,0.020076,-0.237078,0.237078,-0.334408,0.328272,-0.002262,2.0109,2.3714,0.6911
4.2428,0.020090,-0.214259,0.214259,-0.322136,0.317534,-0.002262,2.0109,2.3714,0.6911
4.2629,0.020078,-0.190489,0.190489,-0.303728,0.302194,-0.002262,2.0109,2.3714,0.6911
4.2830,0.020094,-0.166206,0.166206,-0.282252,0.285320,-0.002262,2.0109,2.3714,0.6911
4.3031,0.020083,-0.141928,0.141928,-0.260777,0.266913,-0.002262,2.0109,2.3714,0.6911
4.3232,0.020077,-0.118134,0.118134,-0.239301,0.242369,-0.002262,2.0109,2.3714,0.6911
4.3433,0.020095,-0.095270,0.095270,-0.213223,0.219359,-0.002262,2.0109,2.3714,0.6911
4.3633,0.020083,-0.073811,0.073811,-0.188680,0.194816,-0.002262,2.0109,2.3714,0.6911
4.3834,0.020091,-0.054135,0.054135,-0.161068,0.168738,-0.002262,2.0109,2.3714,0.6911
4.4035,0.020081,-0.036596,0.036596,-0.136524,0.141126,-0.002262,2.0109,2.3714,0.6911
4.4236,0.020079,-0.021454,0.021454,-0.108913,0.110447,-0.002252,2.0228,2.4210,0.6381
4.4437,0.020092,-0.008875,0.008875,-0.085903,0.085903,-0.002263,2.0095,2.3657,0.6972
4.4638,0.020079,0.001049,-0.001049,-0.059825,0.059825,-0.002262,2.0109,2.3714,0.6911
4.4838,0.020084,0.008373,-0.008373,-0.039884,0.036816,-0.002262,2.0109,2.3714,0.6911
4.5039,0.020082,0.013269,-0.013269,-0.016874,0.015340,-0.002262,2.0109,2.3714,0.6911
4.5240,0.020075,0.016060,-0.016060,0.004602,0.000000,-0.002262,2.0109,2.3714,0.6911
4.5441,0.020087,0.017235,-0.017235,0.007670,-0.010738,-0.002262,2.0109,2.3714,0.6911
4.5642,0.020079,0.017453,-0.017453,0.004602,-0.012272,-0.002262,2.0109,2.3714,0.6911
4.5843,0.020090,0.016736,-0.016736,0.007670,-0.010738,-0.002262,2.0109,2.3714,0.6911
4.6043,0.020086,0.012599,-0.012599,0.016874,-0.013806,-0.002262,2.0109,2.3714,0.6911
4.6244,0.020076,0.006230,-0.006230,0.013806,-0.016874,-0.002252,2.0228,2.4210,0.6381
4.6445,0.020092,0.001323,-0.001323,0.007670,-0.013806,-0.002263,2.0095,2.3657,0.6972
4.6646,0.020080,0.000002,-0.000002,0.009204,-0.013806,-0.002262,2.0109,2.3714,0.6911
4.6847,0.020090,-0.000112,0.000112,0.007670,-0.009204,-0.002262,2.0109,2.3714,0.6911
4.7048,0.020080,-0.001004,0.001004,-0.004602,0.000000,-0.002252,2.0228,2.4210,0.6381
4.7248,0.020074,-0.003379,0.003379,-0.004602,0.000000,-0.002263,2.0095,2.3657,0.6972
4.7449,0.020082,-0.007763,0.007763,0.003068,-0.001534,-0.002262,2.0109,2.3714,0.6911
4.7650,0.020073,-0.014510,0.014510,0.003068,0.001534,-0.002262,2.0109,2.3714,0.6911
4.7851,0.020087,-0.023837,0.023837,-0.006136,0.007670,-0.002262,2.0109,2.3714,0.6911
4.8052,0.020082,-0.035809,0.035809,-0.013806,0.010738,-0.002262,2.0109,2.3714,0.6911
4.8252,0.020073,-0.050372,0.050372,-0.021476,0.012272,-0.002262,2.0109,2.3714,0.6911
4.8453,0.020095,-0.067397,0.067397,-0.027612,0.021476,-0.002262,2.0109,2.3714,0.6911
4.8654,0.020077,-0.086602,0.086602,-0.036816,0.033748,-0.002262,2.0109,2.3714,0.6911
4.8855,0.020083,-0.107685,0.107685,-0.047553,0.049087,-0.002262,2.0109,2.3714,0.6911
4.9056,0.020078,-0.130250,0.130250,-0.067495,0.070563,-0.002252,2.0228,2.4210,0.6381
4.9257,0.020087,-0.153879,0.153879,-0.088971,0.090505,-0.002263,2.0095,2.3657,0.6972
4.9458,0.020098,-0.178108,0.178108,-0.115049,0.113515,-0.002262,2.0109,2.3714,0.6911
4.9658,0.020087,-0.202428,0.202428,-0.138058,0.133456,-0.002262,2.0109,2.3714,0.6911
4.9859,0.020090,-0.226367,0.226367,-0.164136,0.158000,-0.002262,2.0109,2.3714,0.6911
5.0060,0.020090,-0.249446,0.249446,-0.185612,0.181010,-0.002262,2.0109,2.3714,0.6911
5.0261,0.020095,-0.271221,0.271221,-0.210155,0.205553,-0.002262,2.0109,2.3714,0.6911
5.0462,0.020098,-0.291281,0.291281,-0.234699,0.230097,-0.002262,2.0109,2.3714,0.6911
5.0665,0.020263,-0.309407,0.309407,-0.257709,0.254641,-0.002262,2.0109,2.3714,0.6911
5.0866,0.020086,-0.325012,0.325012,-0.279185,0.279185,-0.002262,2.0109,2.3714,0.6911
5.1066,0.020089,-0.338071,0.338071,-0.302194,0.300660,-0.002262,2.0109,2.3714,0.6911
5.1267,0.020090,-0.348489,0.348489,-0.322136,0.320602,-0.002262,2.0109,2.3714,0.6911
5.1468,0.020080,-0.356281,0.356281,-0.334408,0.329806,-0.002262,2.0109,2.3714,0.6911
5.1669,0.020101,-0.361608,0.361608,-0.346680,0.342078,-0.002262,2.0109,2.3714,0.6911
5.1870,0.020076,-0.364753,0.364753,-0.358952,0.354350,-0.002262,2.0109,2.3714,0.6911
5.2071,0.020084,-0.366180,0.366180,-0.362019,0.360485,-0.002262,2.0109,2.3714,0.6911
5.2272,0.020078,-0.366514,0.366514,-0.360485,0.362019,-0.002262,2.0109,2.3714,0.6911
5.2472,0.020086,-0.366142,0.366142,-0.366621,0.363553,-0.002262,2.0109,2.3714,0.6911
5.2673,0.020084,-0.362683,0.362683,-0.371223,0.363553,-0.002262,2.0109,2.3714,0.6911
5.2874,0.020073,-0.356466,0.356466,-0.369689,0.363553,-0.002262,2.0109,2.3714,0.6911
5.3076,0.020224,-0.351005,0.351005,-0.366621,0.363553,-0.002262,2.0109,2.3714,0.6911
5.3277,0.020078,-0.349094,0.349094,-0.368155,0.363553,-0.002262,2.0109,2.3714,0.6911
5.3478,0.020075,-0.349007,0.349007,-0.366621,0.362019,-0.002262,2.0109,2.3714,0.6911
5.3679,0.020080,-0.348311,0.348311,-0.366621,0.362019,-0.002262,2.0109,2.3714,0.6911
5.3879,0.020073,-0.346243,0.346243,-0.366621,0.360485,-0.002262,2.0109,2.3714,0.6911
5.4080,0.020096,-0.342243,0.342243,-0.365087,0.360485,-0.002262,2.0109,2.3714,0.6911
5.4281,0.020079,-0.335932,0.335932,-0.360485,0.358952,-0.002262,2.0109,2.3714,0.6911
5.4482,0.020078,-0.327074,0.327074,-0.352816,0.355884,-0.002262,2.0109,2.3714,0.6911
5.4683,0.020083,-0.315570,0.315570,-0.346680,0.351282,-0.002262,2.0109,2.3714,0.6911
5.4883,0.020077,-0.301455,0.301455,-0.343612,0.345146,-0.002262,2.0109,2.3714,0.6911
5.5084,0.020091,-0.284852,0.284852,-0.339010,0.335942,-0.002262,2.0109,2.3714,0.6911
5.5285,0.020076,-0.266015,0.266015,-0.331340,0.328272,-0.002262,2.0109,2.3714,0.6911
5.5486,0.020082,-0.245238,0.245238,-0.317534,0.316000,-0.002262,2.0109,2.3714,0.6911
5.5687,0.020083,-0.222900,0.222900,-0.300660,0.303728,-0.002262,2.0109,2.3714,0.6911
5.5888,0.020075,-0.199440,0.199440,-0.283786,0.285320,-0.002262,2.0109,2.3714,0.6911
5.6088,0.020094,-0.175285,0.175285,-0.263845,0.265379,-0.002262,2.0109,2.3714,0.6911
5.6289,0.020075,-0.150963,0.150963,-0.242369,0.243903,-0.002262,2.0109,2.3714,0.6911
5.6490,0.020077,-0.126935,0.126935,-0.219359,0.220893,-0.002262,2.0109,2.3714,0.6911
5.6691,0.020078,-0.103681,0.103681,-0.190214,0.196350,-0.002262,2.0109,2.3714,0.6911
5.6891,0.020073,-0.081663,0.081663,-0.165670,0.171806,-0.002262,2.0109,2.3714,0.6911
5.7092,0.020088,-0.061275,0.061275,-0.139592,0.142660,-0.002262,2.0109,2.3714,0.6911
5.7293,0.020075,-0.042909,0.042909,-0.115049,0.116583,-0.002262,2.0109,2.3714,0.6911
5.7494,0.020084,-0.026839,0.026839,-0.090505,0.090505,-0.002252,2.0228,2.4210,0.6381
5.7695,0.020085,-0.013285,0.013285,-0.069029,0.067495,-0.002263,2.0095,2.3657,0.6972
5.7896,0.020071,-0.002370,0.002370,-0.047553,0.046019,-0.002262,2.0109,2.3714,0.6911
5.8096,0.020092,0.005922,-0.005922,-0.027612,0.027612,-0.002262,2.0109,2.3714,0.6911
5.8297,0.020073,0.011697,-0.011697,-0.010738,0.012272,-0.002262,2.0109,2.3714,0.6911
5.8498,0.020076,0.015231,-0.015231,0.003068,0.000000,-0.002262,2.0109,2.3714,0.6911
5.8699,0.020082,0.016946,-0.016946,0.007670,-0.007670,-0.002262,2.0109,2.3714,0.6911
5.8900,0.020081,0.017433,-0.017433,0.007670,-0.012272,-0.002262,2.0109,2.3714,0.6911
5.9100,0.020083,0.017302,-0.017302,0.009204,-0.013806,-0.002262,2.0109,2.3714,0.6911
5.9301,0.020074,0.014581,-0.014581,0.015340,-0.015340,-0.002262,2.0109,2.3714,0.6911
5.9502,0.020086,0.008662,-0.008662,0.018408,-0.016874,-0.002262,2.0109,2.3714,0.6911
5.9703,0.020078,0.002783,-0.002783,0.015340,-0.016874,-0.002262,2.0109,2.3714,0.6911
5.9904,0.020077,0.000135,-0.000135,0.012272,-0.013806,-0.002262,2.0109,2.3714,0.6911
6.0104,0.020089,-0.000022,0.000022,0.009204,-0.009204,-0.002262,2.0109,2.3714,0.6911
6.0305,0.020075,-0.000527,0.000527,0.003068,-0.001534,-0.002262,2.0109,2.3714,0.6911
6.0506,0.020082,-0.002272,0.002272,-0.006136,-0.001534,-0.002262,2.0109,2.3714,0.6911
6.0707,0.020074,-0.005846,0.005846,-0.003068,-0.001534,-0.002262,2.0109,2.3714,0.6911
6.0907,0.020074,-0.011669,0.011669,0.003068,-0.001534,-0.002262,2.0109,2.3714,0.6911
6.1108,0.020086,-0.020008,0.020008,0.001534,0.003068,-0.002262,2.0109,2.3714,0.6911
6.1309,0.020077,-0.030977,0.030977,-0.006136,0.003068,-0.002262,2.0109,2.3714,0.6911
6.1510,0.020083,-0.044580,0.044580,-0.012272,0.004602,-0.002262,2.0109,2.3714,0.6911
6.1710,0.020032,-0.060652,0.060652,-0.015340,0.013806,-0.002262,2.0109,2.3714,0.6911
6.1911,0.020075,-0.079055,0.079055,-0.024544,0.027612,-0.002272,1.9614,2.3851,0.6367
6.2112,0.020079,-0.099464,0.099464,-0.039884,0.042951,-0.002261,2.0160,2.3694,0.6974
6.2313,0.020079,-0.121513,0.121513,-0.059825,0.058291,-0.002262,2.0103,2.3710,0.6910
6.2513,0.020085,-0.144792,0.144792,-0.078233,0.073631,-0.002262,2.0103,2.3710,0.6910
6.2714,0.020078,-0.168829,0.168829,-0.095107,0.092039,-0.002262,2.0103,2.3710,0.6910
6.2915,0.020078,-0.193156,0.193156,-0.118117,0.113515,-0.002262,2.0103,2.3710,0.6910
6.3116,0.020078,-0.217285,0.217285,-0.139592,0.136524,-0.002262,2.0103,2.3710,0.6910
6.3317,0.020074,-0.240730,0.240730,-0.164136,0.161068,-0.002251,2.0229,2.4210,0.6381
6.3517,0.020081,-0.263043,0.263043,-0.191748,0.187146,-0.002263,2.0095,2.3657,0.6972
6.3718,0.020076,-0.283786,0.283786,-0.217825,0.213223,-0.002262,2.0109,2.3714,0.6911
6.3919,0.020077,-0.302591,0.302591,-0.242369,0.237767,-0.002262,2.0109,2.3714,0.6911
6.4120,0.020081,-0.319149,0.319149,-0.263845,0.260777,-0.002262,2.0109,2.3714,0.6911
6.4320,0.020075,-0.333223,0.333223,-0.283786,0.282252,-0.002262,2.0109,2.3714,0.6911
6.4521,0.020084,-0.344686,0.344686,-0.306796,0.303728,-0.002262,2.0109,2.3714,0.6911
6.4722,0.020075,-0.353502,0.353502,-0.325204,0.322136,-0.002262,2.0109,2.3714,0.6911
6.4923,0.020076,-0.359774,0.359774,-0.339010,0.334408,-0.002262,2.0109,2.3714,0.6911
6.5124,0.020089,-0.363740,0.363740,-0.348214,0.346680,-0.002262,2.0109,2.3714,0.6911
6.5324,0.020082,-0.365783,0.365783,-0.357418,0.352816,-0.002262,2.0109,2.3714,0.6911
6.5525,0.020078,-0.366464,0.366464,-0.362019,0.360485,-0.002262,2.0109,2.3714,0.6911
6.5726,0.020079,-0.366486,0.366486,-0.365087,0.363553,-0.002262,2.0109,2.3714,0.6911
6.5927,0.020110,-0.364514,0.364514,-0.368155,0.363553,-0.002262,2.0109,2.3714,0.6911
6.6128,0.020080,-0.359054,0.359054,-0.368155,0.363553,-0.002262,2.0109,2.3714,0.6911
6.6329,0.020083,-0.352847,0.352847,-0.368155,0.363553,-0.002262,2.0109,2.3714,0.6911
6.6530,0.020077,-0.349428,0.349428,-0.368155,0.363553,-0.002252,2.0228,2.4210,0.6381
6.6730,0.020081,-0.349061,0.349061,-0.366621,0.363553,-0.002263,2.0095,2.3657,0.6972
6.6932,0.020194,-0.348714,0.348714,-0.365087,0.363553,-0.002262,2.0109,2.3714,0.6911
6.7134,0.020179,-0.347255,0.347255,-0.363553,0.362019,-0.002262,2.0109,2.3714,0.6911
6.7335,0.020086,-0.344067,0.344067,-0.355884,0.362019,-0.002262,2.0109,2.3714,0.6911
6.7536,0.020130,-0.338682,0.338682,-0.351282,0.360485,-0.002262,2.0109,2.3714,0.6911
6.7737,0.020085,-0.330831,0.330831,-0.351282,0.360485,-0.002262,2.0109,2.3714,0.6911
6.7938,0.020089,-0.320355,0.320355,-0.349748,0.358952,-0.002262,2.0109,2.3714,0.6911
6.8139,0.020085,-0.307240,0.307240,-0.346680,0.354350,-0.002262,2.0109,2.3714,0.6911
6.8340,0.020075,-0.291589,0.291589,-0.343612,0.348214,-0.002262,2.0109,2.3714,0.6911
6.8540,0.020077,-0.273592,0.273592,-0.339010,0.335942,-0.002262,2.0109,2.3714,0.6911
6.8741,0.020087,-0.253520,0.253520,-0.329806,0.326738,-0.002252,2.0228,2.4210,0.6381
6.8942,0.020074,-0.231751,0.231751,-0.316000,0.312932,-0.002263,2.0095,2.3657,0.6972
6.9143,0.020095,-0.208654,0.208654,-0.299126,0.297592,-0.002251,2.0230,2.4216,0.6374
6.9344,0.020078,-0.184722,0.184722,-0.277651,0.280718,-0.002253,2.0216,2.4158,0.6437
6.9545,0.020087,-0.160401,0.160401,-0.257709,0.259243,-0.002253,2.0216,2.4158,0.6437
6.9745,0.020090,-0.136184,0.136184,-0.236233,0.239301,-0.002263,2.0097,2.3662,0.6966
6.9949,0.020377,-0.112230,0.112230,-0.210155,0.214757,-0.002262,2.0109,2.3714,0.6911
7.0150,0.020099,-0.089673,0.089673,-0.188680,0.193282,-0.002262,2.0109,2.3714,0.6911
7.0351,0.020082,-0.068634,0.068634,-0.156466,0.162602,-0.002252,2.0228,2.4210,0.6381
7.0552,0.020082,-0.049476,0.049476,-0.136524,0.139592,-0.002263,2.0095,2.3657,0.6972
7.0753,0.020136,-0.032480,0.032480,-0.111981,0.113515,-0.002262,2.0109,2.3714,0.6911
7.0954,0.020075,-0.017986,0.017986,-0.087437,0.087437,-0.002262,2.0109,2.3714,0.6911
7.1155,0.020098,-0.006079,0.006079,-0.067495,0.064427,-0.002262,2.0109,2.3714,0.6911
7.1356,0.020084,0.003171,-0.003171,-0.047553,0.044485,-0.002262,2.0109,2.3714,0.6911
7.1557,0.020086,0.009851,-0.009851,-0.027612,0.026078,-0.002262,2.0109,2.3714,0.6911
7.1758,0.020103,0.014173,-0.014173,-0.010738,0.012272,-0.002262,2.0109,2.3714,0.6911
7.1959,0.020169,0.016502,-0.016502,0.004602,0.000000,-0.002252,2.0228,2.4210,0.6381
7.2160,0.020107,0.017354,-0.017354,0.010738,-0.010738,-0.002263,2.0095,2.3657,0.6972
7.2361,0.020090,0.017450,-0.017450,0.010738,-0.013806,-0.002262,2.0109,2.3714,0.6911
7.2562,0.020089,0.016012,-0.016012,0.018408,-0.016874,-0.002262,2.0109,2.3714,0.6911
7.2763,0.020097,0.010991,-0.010991,0.018408,-0.018408,-0.002262,2.0109,2.3714,0.6911
7.2967,0.020363,0.004560,-0.004560,0.012272,-0.016874,-0.002262,2.0109,2.3714,0.6911
7.3168,0.020101,0.000607,-0.000607,0.009204,-0.015340,-0.002262,2.0109,2.3714,0.6911
7.3369,0.020089,-0.000001,0.000001,0.009204,-0.009204,-0.002262,2.0109,2.3714,0.6911
7.3570,0.020081,-0.000249,0.000249,0.004602,-0.001534,-0.002262,2.0109,2.3714,0.6911
7.3770,0.020088,-0.001494,0.001494,-0.007670,0.000000,-0.002262,2.0109,2.3714,0.6911
7.3972,0.020180,-0.004405,0.004405,-0.004602,0.000000,-0.002262,2.0109,2.3714,0.6911
7.4173,0.020105,-0.009441,0.009441,0.004602,0.000000,-0.002262,2.0109,2.3714,0.6911
7.4374,0.020090,-0.016916,0.016916,0.001534,0.001534,-0.002262,2.0109,2.3714,0.6911
7.4575,0.020080,-0.026997,0.026997,-0.007670,0.003068,-0.002262,2.0109,2.3714,0.6911
7.4776,0.020088,-0.039728,0.039728,-0.016874,0.012272,-0.002262,2.0109,2.3714,0.6911
7.4977,0.020141,-0.055069,0.055069,-0.024544,0.023010,-0.002262,2.0109,2.3714,0.6911
7.5178,0.020103,-0.072767,0.072767,-0.032214,0.032214,-0.002262,2.0109,2.3714,0.6911
7.5379,0.020085,-0.092561,0.092561,-0.039884,0.039884,-0.002262,2.0109,2.3714,0.6911
7.5580,0.020090,-0.114127,0.114127,-0.055223,0.056757,-0.002252,2.0228,2.4210,0.6381
7.5781,0.020086,-0.137055,0.137055,-0.073631,0.075165,-0.002263,2.0095,2.3657,0.6972
7.5982,0.020079,-0.160895,0.160895,-0.095107,0.093573,-0.002262,2.0109,2.3714,0.6911
7.6183,0.020095,-0.185202,0.185202,-0.121184,0.116583,-0.002262,2.0109,2.3714,0.6911
7.6383,0.020078,-0.209449,0.209449,-0.144194,0.136524,-0.002252,2.0228,2.4210,0.6381
7.6584,0.020085,-0.233180,0.233180,-0.170272,0.165670,-0.002263,2.0095,2.3657,0.6972
7.6785,0.020079,-0.255912,0.255912,-0.194816,0.190214,-0.002262,2.0109,2.3714,0.6911
7.6986,0.020080,-0.277214,0.277214,-0.219359,0.214757,-0.002262,2.0109,2.3714,0.6911
7.7187,0.020082,-0.296693,0.296693,-0.242369,0.239301,-0.002262,2.0109,2.3714,0.6911
7.7387,0.020074,-0.314009,0.314009,-0.265379,0.263845,-0.002262,2.0109,2.3714,0.6911
7.7588,0.020083,-0.328917,0.328917,-0.286854,0.285320,-0.002262,2.0109,2.3714,0.6911
7.7789,0.020083,-0.341241,0.341241,-0.306796,0.303728,-0.002262,2.0109,2.3714,0.6911
7.7990,0.020090,-0.350920,0.350920,-0.323670,0.320602,-0.002262,2.0109,2.3714,0.6911
7.8191,0.020079,-0.358002,0.358002,-0.337476,0.332874,-0.002262,2.0109,2.3714,0.6911
7.8392,0.020081,-0.362683,0.362683,-0.351282,0.346680,-0.002262,2.0109,2.3714,0.6911
7.8599,0.020739,-0.365354,0.365354,-0.358952,0.355884,-0.002252,2.0228,2.4210,0.6381
7.8800,0.020083,-0.366366,0.366366,-0.362019,0.360485,-0.002263,2.0095,2.3657,0.6972
7.9001,0.020092,-0.366519,0.366519,-0.365087,0.363553,-0.002262,2.0109,2.3714,0.6911
7.9202,0.020076,-0.365488,0.365488,-0.369689,0.363553,-0.002262,2.0109,2.3714,0.6911
7.9408,0.020696,-0.360721,0.360721,-0.369689,0.363553,-0.002262,2.0109,2.3714,0.6911
7.9609,0.020089,-0.354326,0.354326,-0.368155,0.363553,-0.002262,2.0109,2.3714,0.6911
7.9813,0.020391,-0.349907,0.349907,-0.368155,0.363553,-0.002262,2.0109,2.3714,0.6911
8.0014,0.020079,-0.349066,0.349066,-0.366621,0.363553,-0.002262,2.0109,2.3714,0.6911
8.0215,0.020071,-0.348877,0.348877,-0.365087,0.363553,-0.002262,2.0109,2.3714,0.6911
8.0416,0.020096,-0.347773,0.347773,-0.362019,0.362019,-0.002252,2.0228,2.4210,0.6381
8.0617,0.020085,-0.345081,0.345081,-0.355884,0.360485,-0.002263,2.0095,2.3657,0.6972
8.0818,0.020099,-0.340302,0.340302,-0.351282,0.360485,-0.002262,2.0109,2.3714,0.6911
8.1019,0.020091,-0.333109,0.333109,-0.349748,0.358952,-0.002262,2.0109,2.3714,0.6911
8.1219,0.020079,-0.323324,0.323324,-0.348214,0.355884,-0.002262,2.0109,2.3714,0.6911
8.1420,0.020093,-0.310883,0.310883,-0.345146,0.351282,-0.002262,2.0109,2.3714,0.6911
8.1621,0.020079,-0.295872,0.295872,-0.343612,0.343612,-0.002262,2.0109,2.3714,0.6911
8.1822,0.020093,-0.278442,0.278442,-0.339010,0.334408,-0.002262,2.0109,2.3714,0.6911
8.2023,0.020088,-0.258871,0.258871,-0.329806,0.325204,-0.002262,2.0109,2.3714,0.6911
8.2224,0.020080,-0.237499,0.237499,-0.317534,0.312932,-0.002262,2.0109,2.3714,0.6911
8.2424,0.020087,-0.214705,0.214705,-0.299126,0.297592,-0.002262,2.0109,2.3714,0.6911
8.2627,0.020284,-0.190701,0.190701,-0.277651,0.279185,-0.002262,2.0109,2.3714,0.6911
8.2828,0.020094,-0.166421,0.166421,-0.251573,0.254641,-0.002252,2.0228,2.4210,0.6381
8.3029,0.020076,-0.142149,0.142149,-0.231631,0.234699,-0.002253,2.0216,2.4158,0.6436
8.3230,0.020082,-0.118343,0.118343,-0.207087,0.213223,-0.002263,2.0097,2.3662,0.6966
8.3431,0.020082,-0.095482,0.095482,-0.181010,0.188680,-0.002262,2.0109,2.3714,0.6911
8.3632,0.020089,-0.074001,0.074001,-0.154932,0.161068,-0.002252,2.0228,2.4210,0.6381
8.3833,0.020099,-0.054299,0.054299,-0.130388,0.133456,-0.002263,2.0095,2.3657,0.6972
8.4033,0.020081,-0.036741,0.036741,-0.107379,0.105845,-0.002262,2.0109,2.3714,0.6911
8.4234,0.020083,-0.021574,0.021574,-0.082835,0.081301,-0.002262,2.0109,2.3714,0.6911
8.4435,0.020085,-0.008976,0.008976,-0.061359,0.059825,-0.002262,2.0109,2.3714,0.6911
8.4636,0.020080,0.000972,-0.000972,-0.039884,0.038350,-0.002262,2.0109,2.3714,0.6911
8.4837,0.020082,0.008318,-0.008318,-0.021476,0.023010,-0.002262,2.0109,2.3714,0.6911
8.5037,0.020075,0.013233,-0.013233,-0.004602,0.007670,-0.002262,2.0109,2.3714,0.6911
8.5238,0.020053,0.016041,-0.016041,0.006136,-0.003068,-0.002262,2.0109,2.3714,0.6911
8.5439,0.020082,0.017229,-0.017229,0.007670,-0.010738,-0.002262,2.0109,2.3714,0.6911
8.5640,0.020076,0.017453,-0.017453,0.007670,-0.013806,-0.002262,2.0109,2.3714,0.6911
8.5840,0.020087,0.016760,-0.016760,0.012272,-0.013806,-0.002262,2.0109,2.3714,0.6911
8.6041,0.020076,0.012665,-0.012665,0.018408,-0.016874,-0.002262,2.0109,2.3714,0.6911
8.6242,0.020084,0.006299,-0.006299,0.015340,-0.016874,-0.002252,2.0228,2.4210,0.6381
8.6443,0.020088,0.001358,-0.001358,0.010738,-0.016874,-0.002263,2.0095,2.3657,0.6972
8.6644,0.020099,0.000002,-0.000002,0.010738,-0.013806,-0.002262,2.0109,2.3714,0.6911
8.6845,0.020088,-0.000108,0.000108,0.010738,-0.009204,-0.002262,2.0109,2.3714,0.6911
8.7046,0.020077,-0.000988,0.000988,0.004602,-0.001534,-0.002262,2.0109,2.3714,0.6911
8.7246,0.020083,-0.003346,0.003346,-0.006136,0.000000,-0.002272,1.9614,2.3851,0.6367
8.7447,0.020042,-0.007696,0.007696,-0.003068,-0.001534,-0.002261,2.0160,2.3694,0.6974
8.7648,0.020094,-0.014421,0.014421,0.004602,-0.001534,-0.002262,2.0103,2.3710,0.6910
8.7849,0.020087,-0.023718,0.023718,0.001534,0.003068,-0.002262,2.0103,2.3710,0.6910
8.8049,0.020078,-0.035658,0.035658,-0.007670,0.007670,-0.002262,2.0103,2.3710,0.6910
8.8250,0.020078,-0.050197,0.050197,-0.016874,0.013806,-0.002262,2.0103,2.3710,0.6910
8.8452,0.020182,-0.067274,0.067274,-0.027612,0.019942,-0.002262,2.0103,2.3710,0.6910
8.8653,0.020121,-0.086510,0.086510,-0.032214,0.027612,-0.002262,2.0103,2.3710,0.6910
8.8854,0.020077,-0.107580,0.107580,-0.038350,0.041417,-0.002262,2.0103,2.3710,0.6910
8.9055,0.020148,-0.130219,0.130219,-0.053689,0.059825,-0.002262,2.0103,2.3710,0.6910
8.9256,0.020077,-0.153834,0.153834,-0.078233,0.079767,-0.002262,2.0103,2.3710,0.6910
8.9457,0.020093,-0.178057,0.178057,-0.102777,0.101243,-0.002262,2.0103,2.3710,0.6910
8.9658,0.020082,-0.202371,0.202371,-0.128854,0.122718,-0.002262,2.0103,2.3710,0.6910
8.9859,0.020078,-0.226299,0.226299,-0.151864,0.145728,-0.002262,2.0103,2.3710,0.6910
9.0060,0.020084,-0.249375,0.249375,-0.173340,0.168738,-0.002262,2.0103,2.3710,0.6910
9.0260,0.020079,-0.271138,0.271138,-0.202485,0.196350,-0.002262,2.0103,2.3710,0.6910
9.0461,0.020083,-0.291191,0.291191,-0.225495,0.219359,-0.002262,2.0103,2.3710,0.6910
9.0662,0.020078,-0.309172,0.309172,-0.245437,0.242369,-0.002262,2.0103,2.3710,0.6910
9.0863,0.020079,-0.324807,0.324807,-0.266913,0.265379,-0.002262,2.0103,2.3710,0.6910
9.1064,0.020090,-0.337905,0.337905,-0.288388,0.288388,-0.002262,2.0103,2.3710,0.6910
9.1264,0.020080,-0.348355,0.348355,-0.314466,0.311398,-0.002262,2.0103,2.3710,0.6910
9.1466,0.020131,-0.356201,0.356201,-0.329806,0.326738,-0.002262,2.0103,2.3710,0.6910
9.1667,0.020081,-0.361552,0.361552,-0.342078,0.337476,-0.002262,2.0103,2.3710,0.6910
9.1867,0.020077,-0.364724,0.364724,-0.352816,0.348214,-0.002262,2.0103,2.3710,0.6910
9.2074,0.020620,-0.366190,0.366190,-0.360485,0.358952,-0.002262,2.0103,2.3710,0.6910
9.2274,0.020081,-0.366515,0.366515,-0.362019,0.360485,-0.002262,2.0103,2.3710,0.6910
9.2475,0.020091,-0.366120,0.366120,-0.365087,0.363553,-0.002262,2.0103,2.3710,0.6910
9.2676,0.020080,-0.362610,0.362610,-0.369689,0.365087,-0.002262,2.0103,2.3710,0.6910
9.2877,0.020077,-0.356377,0.356377,-0.369689,0.363553,-0.002262,2.0103,2.3710,0.6910
9.3078,0.020075,-0.350980,0.350980,-0.368155,0.363553,-0.002262,2.0103,2.3710,0.6910
9.3278,0.020076,-0.349093,0.349093,-0.368155,0.363553,-0.002262,2.0103,2.3710,0.6910
9.3484,0.020617,-0.348999,0.348999,-0.366621,0.362019,-0.002262,2.0103,2.3710,0.6910
9.3685,0.020087,-0.348267,0.348267,-0.365087,0.362019,-0.002262,2.0103,2.3710,0.6910
9.3886,0.020079,-0.346141,0.346141,-0.362019,0.360485,-0.002262,2.0103,2.3710,0.6910
9.4087,0.020087,-0.342071,0.342071,-0.354350,0.360485,-0.002262,2.0103,2.3710,0.6910
9.4288,0.020076,-0.335679,0.335679,-0.351282,0.358952,-0.002262,2.0103,2.3710,0.6910
9.4489,0.020094,-0.326726,0.326726,-0.351282,0.357418,-0.002262,2.0103,2.3710,0.6910
9.4690,0.020083,-0.315131,0.315131,-0.351282,0.354350,-0.002262,2.0103,2.3710,0.6910
9.4890,0.020074,-0.300931,0.300931,-0.346680,0.348214,-0.002262,2.0103,2.3710,0.6910
9.5096,0.020525,-0.283860,0.283860,-0.342078,0.339010,-0.002262,2.0103,2.3710,0.6910
9.5296,0.020083,-0.264900,0.264900,-0.334408,0.329806,-0.002262,2.0103,2.3710,0.6910
9.5500,0.020378,-0.243706,0.243706,-0.323670,0.320602,-0.002262,2.0103,2.3710,0.6910
9.5701,0.020078,-0.221279,0.221279,-0.309864,0.309864,-0.002262,2.0103,2.3710,0.6910
9.5902,0.020077,-0.197752,0.197752,-0.291456,0.294524,-0.002262,2.0103,2.3710,0.6910
9.6103,0.020085,-0.173579,0.173579,-0.273049,0.276117,-0.002262,2.0103,2.3710,0.6910
9.6303,0.020083,-0.149252,0.149252,-0.248505,0.251573,-0.002262,2.0103,2.3710,0.6910
9.6506,0.020238,-0.125074,0.125074,-0.230097,0.233165,-0.002262,2.0103,2.3710,0.6910
9.6707,0.020076,-0.101904,0.101904,-0.204019,0.207087,-0.002262,2.0103,2.3710,0.6910
9.6907,0.020084,-0.079988,0.079988,-0.176408,0.182544,-0.002262,2.0103,2.3710,0.6910
9.7108,0.020080,-0.059754,0.059754,-0.150330,0.156466,-0.002262,2.0103,2.3710,0.6910
9.7309,0.020073,-0.041560,0.041560,-0.125786,0.128854,-0.002262,2.0103,2.3710,0.6910
9.7511,0.020182,-0.025609,0.025609,-0.102777,0.101243,-0.002262,2.0103,2.3710,0.6910
9.7711,0.020071,-0.012280,0.012280,-0.078233,0.078233,-0.002262,2.0103,2.3710,0.6910
9.7912,0.020074,-0.001583,0.001583,-0.058291,0.053689,-0.002262,2.0103,2.3710,0.6910
9.8113,0.020078,0.006488,-0.006488,-0.036816,0.035282,-0.002262,2.0103,2.3710,0.6910
9.8314,0.020079,0.012069,-0.012069,-0.003068,0.006136,-0.002262,2.0103,2.3710,0.6910
9.8517,0.020337,0.015465,-0.015465,0.007670,-0.004602,-0.002262,2.0103,2.3710,0.6910
9.8718,0.020078,0.017034,-0.017034,0.010738,-0.012272,-0.002262,2.0103,2.3710,0.6910
9.8919,0.020065,0.017443,-0.017443,0.007670,-0.015340,-0.002262,2.0103,2.3710,0.6910
9.9119,0.020083,0.017207,-0.017207,0.012272,-0.015340,-0.002262,2.0103,2.3710,0.6910
9.9320,0.020083,0.014123,-0.014123,0.018408,-0.016874,-0.002262,2.0103,2.3710,0.6910
9.9521,0.020086,0.008038,-0.008038,0.016874,-0.016874,-0.002262,2.0103,2.3710,0.6910
9.9722,0.020083,0.002362,-0.002362,0.010738,-0.015340,-0.002262,2.0103,2.3710,0.6910
9.9923,0.020078,0.000072,-0.000072,0.007670,-0.012272,-0.002262,2.0103,2.3710,0.6910
10.0127,0.020406,-0.000040,0.000040,0.007670,-0.006136,-0.002262,2.0103,2.3710,0.6910
10.0328,0.020160,-0.000652,0.000652,0.001534,0.000000,-0.002262,2.0103,2.3710,0.6910
10.0529,0.020088,-0.002583,0.002583,0.001534,0.000000,-0.002262,2.0103,2.3710,0.6910
10.0730,0.020116,-0.006409,0.006409,-0.003068,-0.001534,-0.002262,2.0103,2.3710,0.6910
10.0936,0.020601,-0.012710,0.012710,0.003068,0.000000,-0.002262,2.0103,2.3710,0.6910
10.1138,0.020113,-0.021437,0.021437,0.000000,0.001534,-0.002262,2.0103,2.3710,0.6910
10.1339,0.020148,-0.032837,0.032837,-0.007670,0.006136,-0.002262,2.0103,2.3710,0.6910
10.1540,0.020109,-0.046843,0.046843,-0.016874,0.016874,-0.002262,2.0103,2.3710,0.6910
10.1741,0.020111,-0.063345,0.063345,-0.016874,0.016874,-0.002262,2.0103,2.3710,0.6910
10.1942,0.020102,-0.082105,0.082105,-0.038350,0.029146,-0.002262,2.0103,2.3710,0.6910
10.2143,0.020110,-0.102828,0.102828,-0.038350,0.029146,-0.002262,2.0103,2.3710,0.6910
10.2344,0.020096,-0.125117,0.125117,-0.061359,0.061359,-0.002262,2.0103,2.3710,0.6910
10.2545,0.020110,-0.148578,0.148578,-0.082835,0.082835,-0.002262,2.0103,2.3710,0.6910
10.2747,0.020119,-0.172744,0.172744,-0.082835,0.082835,-0.002262,2.0103,2.3710,0.6910
10.2947,0.020088,-0.197084,0.197084,-0.133456,0.130388,-0.002262,2.0103,2.3710,0.6910
10.3148,0.020090,-0.221149,0.221149,-0.154932,0.150330,-0.002262,2.0103,2.3710,0.6910
10.3349,0.020098,-0.244467,0.244467,-0.154932,0.150330,-0.002251,2.0229,2.4210,0.6381
10.3550,0.020105,-0.266577,0.266577,-0.182544,0.176408,-0.002263,2.0095,2.3657,0.6972
10.3751,0.020052,-0.287001,0.287001,-0.207087,0.200951,-0.002262,2.0109,2.3714,0.6911
10.3952,0.020093,-0.305471,0.305471,-0.228563,0.222427,-0.002262,2.0109,2.3714,0.6911
10.4153,0.020112,-0.321658,0.321658,-0.251573,0.246971,-0.002262,2.0109,2.3714,0.6911
10.4354,0.020105,-0.335323,0.335323,-0.273049,0.271515,-0.002262,2.0109,2.3714,0.6911
10.4555,0.020116,-0.346358,0.346358,-0.296058,0.294524,-0.002262,2.0109,2.3714,0.6911
10.4756,0.020105,-0.354745,0.354745,-0.314466,0.312932,-0.002262,2.0109,2.3714,0.6911
10.4957,0.020074,-0.360603,0.360603,-0.332874,0.328272,-0.002262,2.0109,2.3714,0.6911
10.5158,0.020119,-0.364214,0.364214,-0.343612,0.340544,-0.002262,2.0109,2.3714,0.6911
10.5359,0.020114,-0.365981,0.365981,-0.352816,0.349748,-0.002262,2.0109,2.3714,0.6911
10.5560,0.020103,-0.366496,0.366496,-0.360485,0.358952,-0.002262,2.0109,2.3714,0.6911
10.5761,0.020117,-0.366391,0.366391,-0.365087,0.363553,-0.002262,2.0109,2.3714,0.6911
10.5962,0.020097,-0.363770,0.363770,-0.368155,0.363553,-0.002262,2.0109,2.3714,0.6911
10.6163,0.020100,-0.357898,0.357898,-0.368155,0.363553,-0.002262,2.0109,2.3714,0.6911
10.6364,0.020101,-0.351964,0.351964,-0.368155,0.363553,-0.002252,2.0228,2.4210,0.6381
10.6565,0.020102,-0.349220,0.349220,-0.368155,0.363553,-0.002263,2.0095,2.3657,0.6972
10.6767,0.020106,-0.349046,0.349046,-0.366621,0.363553,-0.002262,2.0109,2.3714,0.6911
10.6968,0.020100,-0.348560,0.348560,-0.366621,0.363553,-0.002262,2.0109,2.3714,0.6911
10.7169,0.020108,-0.346845,0.346845,-0.366621,0.360485,-0.002262,2.0109,2.3714,0.6911
10.7373,0.020463,-0.343223,0.343223,-0.365087,0.360485,-0.002262,2.0109,2.3714,0.6911
10.7579,0.020603,-0.337217,0.337217,-0.357418,0.358952,-0.002262,2.0109,2.3714,0.6911
10.7780,0.020101,-0.328804,0.328804,-0.352816,0.358952,-0.002262,2.0109,2.3714,0.6911
10.7981,0.020110,-0.317745,0.317745,-0.349748,0.355884,-0.002262,2.0109,2.3714,0.6911
10.8182,0.020102,-0.304055,0.304055,-0.348214,0.352816,-0.002262,2.0109,2.3714,0.6911
10.8383,0.020109,-0.287847,0.287847,-0.345146,0.346680,-0.002262,2.0109,2.3714,0.6911
10.8585,0.020114,-0.269335,0.269335,-0.342078,0.339010,-0.002262,2.0109,2.3714,0.6911
10.8786,0.020107,-0.248832,0.248832,-0.337476,0.329806,-0.002262,2.0109,2.3714,0.6911
10.8987,0.020106,-0.226701,0.226701,-0.325204,0.320602,-0.002262,2.0109,2.3714,0.6911
10.9188,0.020112,-0.203353,0.203353,-0.309864,0.306796,-0.002262,2.0109,2.3714,0.6911
10.9389,0.020097,-0.179271,0.179271,-0.286854,0.289922,-0.002262,2.0109,2.3714,0.6911
10.9590,0.020098,-0.154919,0.154919,-0.266913,0.271515,-0.002262,2.0109,2.3714,0.6911
10.9791,0.020101,-0.130782,0.130782,-0.243903,0.248505,-0.002262,2.0109,2.3714,0.6911
10.9992,0.020097,-0.107349,0.107349,-0.220893,0.225495,-0.002262,2.0109,2.3714,0.6911
11.0193,0.020100,-0.085074,0.085074,-0.194816,0.199418,-0.002262,2.0109,2.3714,0.6911
11.0394,0.020098,-0.064388,0.064388,-0.168738,0.174874,-0.002262,2.0109,2.3714,0.6911
11.0595,0.020095,-0.045664,0.045664,-0.141126,0.147262,-0.002262,2.0109,2.3714,0.6911
11.0796,0.020099,-0.029202,0.029202,-0.118117,0.119651,-0.002262,2.0109,2.3714,0.6911
11.0996,0.020050,-0.015264,0.015264,-0.096641,0.098175,-0.002262,2.0109,2.3714,0.6911
11.1197,0.020089,-0.003919,0.003919,-0.075165,0.073631,-0.002262,2.0109,2.3714,0.6911
11.1399,0.020234,0.004836,-0.004836,-0.055223,0.052155,-0.002262,2.0109,2.3714,0.6911
11.1602,0.020204,0.011009,-0.011009,-0.032214,0.030680,-0.002262,2.0109,2.3714,0.6911
11.1803,0.020130,0.014852,-0.014852,-0.015340,0.016874,-0.002262,2.0109,2.3714,0.6911
11.2004,0.020166,0.016798,-0.016798,0.000000,0.003068,-0.002262,2.0109,2.3714,0.6911
11.2206,0.020165,0.017413,-0.017413,0.009204,-0.006136,-0.002262,2.0109,2.3714,0.6911
11.2408,0.020230,0.017387,-0.017387,0.010738,-0.013806,-0.002262,2.0109,2.3714,0.6911
11.2609,0.020092,0.015135,-0.015135,0.009204,-0.015340,-0.002262,2.0109,2.3714,0.6911
11.2810,0.020098,0.009479,-0.009479,0.013806,-0.013806,-0.002262,2.0109,2.3714,0.6911
11.3011,0.020090,0.003378,-0.003378,0.018408,-0.016874,-0.002262,2.0109,2.3714,0.6911
11.3212,0.020089,0.000257,-0.000257,0.016874,-0.016874,-0.002262,2.0109,2.3714,0.6911
11.3415,0.020258,-0.000011,0.000011,0.010738,-0.013806,-0.002262,2.0109,2.3714,0.6911
11.3616,0.020089,-0.000420,0.000420,0.007670,-0.009204,-0.002262,2.0109,2.3714,0.6911
11.3817,0.020104,-0.001993,0.001993,0.007670,-0.004602,-0.002262,2.0109,2.3714,0.6911
11.4018,0.020095,-0.005340,0.005340,0.000000,-0.001534,-0.002262,2.0109,2.3714,0.6911
11.4218,0.020090,-0.010900,0.010900,-0.006136,-0.001534,-0.002262,2.0109,2.3714,0.6911
11.4419,0.020077,-0.018946,0.018946,-0.003068,-0.001534,-0.002262,2.0109,2.3714,0.6911
11.4620,0.020093,-0.029629,0.029629,0.003068,0.000000,-0.002262,2.0109,2.3714,0.6911
11.4821,0.020091,-0.042950,0.042950,0.000000,0.004602,-0.002262,2.0109,2.3714,0.6911
11.5022,0.020089,-0.058802,0.058802,-0.010738,0.010738,-0.002262,2.0109,2.3714,0.6911
11.5223,0.020127,-0.077020,0.077020,-0.021476,0.016874,-0.002262,2.0109,2.3714,0.6911
11.5424,0.020099,-0.097256,0.097256,-0.036816,0.029146,-0.002262,2.0109,2.3714,0.6911
11.5625,0.020082,-0.119156,0.119156,-0.053689,0.042951,-0.002262,2.0109,2.3714,0.6911
11.5826,0.020089,-0.142333,0.142333,-0.073631,0.065961,-0.002262,2.0109,2.3714,0.6911
11.6027,0.020090,-0.166327,0.166327,-0.088971,0.082835,-0.002262,2.0109,2.3714,0.6911
11.6229,0.020202,-0.190796,0.190796,-0.105845,0.104311,-0.002262,2.0109,2.3714,0.6911
11.6429,0.020062,-0.214946,0.214946,-0.153398,0.151864,-0.002262,2.0109,2.3714,0.6911
11.6632,0.020270,-0.238703,0.238703,-0.176408,0.173340,-0.002262,2.0109,2.3714,0.6911
11.6833,0.020082,-0.261135,0.261135,-0.202485,0.197884,-0.002262,2.0109,2.3714,0.6911
11.7034,0.020087,-0.282042,0.282042,-0.227029,0.220893,-0.002252,2.0228,2.4210,0.6381
11.7235,0.020082,-0.301034,0.301034,-0.250039,0.243903,-0.002263,2.0095,2.3657,0.6972
11.7436,0.020085,-0.317802,0.317802,-0.273049,0.266913,-0.002262,2.0109,2.3714,0.6911
11.7636,0.020090,-0.332108,0.332108,-0.291456,0.289922,-0.002262,2.0109,2.3714,0.6911
11.7837,0.020095,-0.343806,0.343806,-0.314466,0.309864,-0.002262,2.0109,2.3714,0.6911
11.8038,0.020089,-0.352852,0.352852,-0.331340,0.328272,-0.002262,2.0109,2.3714,0.6911
11.8239,0.020088,-0.359338,0.359338,-0.342078,0.340544,-0.002262,2.0109,2.3714,0.6911
11.8440,0.020093,-0.363486,0.363486,-0.352816,0.348214,-0.002262,2.0109,2.3714,0.6911
11.8641,0.020090,-0.365673,0.365673,-0.362019,0.357418,-0.002262,2.0109,2.3714,0.6911
11.8842,0.020100,-0.366443,0.366443,-0.363553,0.363553,-0.002262,2.0109,2.3714,0.6911
11.9043,0.020088,-0.366506,0.366506,-0.363553,0.363553,-0.002262,2.0109,2.3714,0.6911
11.9244,0.020099,-0.364824,0.364824,-0.369689,0.363553,-0.002262,2.0109,2.3714,0.6911
11.9445,0.020097,-0.359584,0.359584,-0.369689,0.363553,-0.002262,2.0109,2.3714,0.6911
11.9646,0.020093,-0.353287,0.353287,-0.366621,0.363553,-0.002262,2.0109,2.3714,0.6911
11.9847,0.020093,-0.349559,0.349559,-0.368155,0.363553,-0.002262,2.0109,2.3714,0.6911
12.0048,0.020099,-0.349064,0.349064,-0.366621,0.363553,-0.002262,2.0109,2.3714,0.6911
12.0249,0.020094,-0.348776,0.348776,-0.366621,0.360485,-0.002262,2.0109,2.3714,0.6911
12.0450,0.020095,-0.347447,0.347447,-0.365087,0.360485,-0.002262,2.0109,2.3714,0.6911
12.0650,0.020092,-0.344433,0.344433,-0.360485,0.358952,-0.002262,2.0109,2.3714,0.6911
12.0851,0.020096,-0.339267,0.339267,-0.354350,0.357418,-0.002262,2.0109,2.3714,0.6911
12.1053,0.020153,-0.331619,0.331619,-0.349748,0.354350,-0.002252,2.0228,2.4210,0.6381
12.1254,0.020081,-0.321378,0.321378,-0.348214,0.351282,-0.002263,2.0095,2.3657,0.6972
12.1455,0.020089,-0.308489,0.308489,-0.345146,0.346680,-0.002262,2.0109,2.3714,0.6911
12.1656,0.020093,-0.293038,0.293038,-0.343612,0.340544,-0.002262,2.0109,2.3714,0.6911
12.1857,0.020096,-0.275216,0.275216,-0.339010,0.332874,-0.002262,2.0109,2.3714,0.6911
12.2058,0.020108,-0.255286,0.255286,-0.329806,0.325204,-0.002262,2.0109,2.3714,0.6911
12.2259,0.020091,-0.233627,0.233627,-0.314466,0.312932,-0.002262,2.0109,2.3714,0.6911
12.2459,0.020094,-0.210624,0.210624,-0.292990,0.296058,-0.002262,2.0109,2.3714,0.6911
12.2660,0.020089,-0.186732,0.186732,-0.276117,0.279185,-0.002262,2.0109,2.3714,0.6911
12.2861,0.020090,-0.162420,0.162420,-0.251573,0.256175,-0.002262,2.0109,2.3714,0.6911
12.3062,0.020099,-0.138165,0.138165,-0.231631,0.236233,-0.002262,2.0109,2.3714,0.6911
12.3263,0.020089,-0.114476,0.114476,-0.207087,0.211689,-0.002262,2.0109,2.3714,0.6911
12.3464,0.020084,-0.091813,0.091813,-0.179476,0.187146,-0.002262,2.0109,2.3714,0.6911
12.3668,0.020430,-0.070258,0.070258,-0.154932,0.159534,-0.002252,2.0228,2.4210,0.6381
12.3869,0.020095,-0.050924,0.050924,-0.128854,0.130388,-0.002263,2.0095,2.3657,0.6972
12.4070,0.020094,-0.033776,0.033776,-0.104311,0.105845,-0.002262,2.0109,2.3714,0.6911
12.4271,0.020083,-0.019069,0.019069,-0.081301,0.079767,-0.002262,2.0109,2.3714,0.6911
12.4472,0.020094,-0.006949,0.006949,-0.059825,0.058291,-0.002262,2.0109,2.3714,0.6911
12.4673,0.020090,0.002518,-0.002518,-0.039884,0.038350,-0.002262,2.0109,2.3714,0.6911
12.4874,0.020090,0.009401,-0.009401,-0.021476,0.023010,-0.002262,2.0109,2.3714,0.6911
12.5074,0.020073,0.013898,-0.013898,-0.006136,0.007670,-0.002252,2.0228,2.4210,0.6381
12.5275,0.020091,0.016368,-0.016368,0.006136,-0.001534,-0.002263,2.0095,2.3657,0.6972
12.5479,0.020334,0.017326,-0.017326,0.009204,-0.012272,-0.002262,2.0109,2.3714,0.6911
12.5680,0.020116,0.017453,-0.017453,0.009204,-0.016874,-0.002262,2.0109,2.3714,0.6911
12.5881,0.020096,0.016242,-0.016242,0.012272,-0.013806,-0.002262,2.0109,2.3714,0.6911
12.6082,0.020101,0.011450,-0.011450,0.018408,-0.015340,-0.002262,2.0109,2.3714,0.6911
12.6283,0.020084,0.005064,-0.005064,0.016874,-0.016874,-0.002262,2.0109,2.3714,0.6911
12.6485,0.020258,0.000779,-0.000779,0.010738,-0.016874,-0.002262,2.0109,2.3714,0.6911
12.6686,0.020091,-0.000000,0.000000,0.010738,-0.013806,-0.002262,2.0109,2.3714,0.6911
12.6887,0.020089,-0.000203,0.000203,0.010738,-0.007670,-0.002262,2.0109,2.3714,0.6911
12.7088,0.020089,-0.001343,0.001343,0.003068,0.000000,-0.002262,2.0109,2.3714,0.6911
12.7289,0.020090,-0.004088,0.004088,-0.007670,0.000000,-0.002262,2.0109,2.3714,0.6911
12.7490,0.020095,-0.008929,0.008929,-0.003068,0.000000,-0.002262,2.0109,2.3714,0.6911
12.7691,0.020094,-0.016193,0.016193,0.004602,0.000000,-0.002262,2.0109,2.3714,0.6911
12.7896,0.020530,-0.026304,0.026304,0.001534,0.001534,-0.002262,2.0109,2.3714,0.6911
12.8098,0.020244,-0.038982,0.038982,-0.009204,0.006136,-0.002262,2.0109,2.3714,0.6911
12.8299,0.020091,-0.054148,0.054148,-0.016874,0.013806,-0.002262,2.0109,2.3714,0.6911
12.8500,0.020093,-0.071711,0.071711,-0.023010,0.021476,-0.002252,2.0228,2.4210,0.6381
12.8701,0.020089,-0.091399,0.091399,-0.030680,0.027612,-0.002263,2.0095,2.3657,0.6972
12.8903,0.020185,-0.112981,0.112981,-0.046019,0.041417,-0.002262,2.0109,2.3714,0.6911
12.9104,0.020102,-0.135868,0.135868,-0.065961,0.061359,-0.002262,2.0109,2.3714,0.6911
12.9306,0.020203,-0.159821,0.159821,-0.085903,0.081301,-0.002262,2.0109,2.3714,0.6911
12.9507,0.020101,-0.184125,0.184125,-0.107379,0.102777,-0.002262,2.0109,2.3714,0.6911
12.9710,0.020328,-0.208684,0.208684,-0.125786,0.121184,-0.002262,2.0109,2.3714,0.6911
12.9912,0.020166,-0.232534,0.232534,-0.148796,0.144194,-0.002262,2.0109,2.3714,0.6911
13.0113,0.020091,-0.255312,0.255312,-0.171806,0.167204,-0.002262,2.0109,2.3714,0.6911
13.0314,0.020121,-0.276699,0.276699,-0.197884,0.191748,-0.002262,2.0109,2.3714,0.6911
13.0515,0.020085,-0.296231,0.296231,-0.223961,0.219359,-0.002262,2.0109,2.3714,0.6911
13.0716,0.020138,-0.313655,0.313655,-0.245437,0.242369,-0.002262,2.0109,2.3714,0.6911
13.0921,0.020453,-0.328870,0.328870,-0.268447,0.266913,-0.002262,2.0109,2.3714,0.6911
13.1122,0.020095,-0.341210,0.341210,-0.291456,0.289922,-0.002252,2.0228,2.4210,0.6381
13.1323,0.020094,-0.350899,0.350899,-0.311398,0.309864,-0.002263,2.0095,2.3657,0.6972
13.1526,0.020326,-0.358059,0.358059,-0.340544,0.337476,-0.002262,2.0109,2.3714,0.6911
13.1728,0.020171,-0.362733,0.362733,-0.351282,0.349748,-0.002262,2.0109,2.3714,0.6911
13.1929,0.020086,-0.365323,0.365323,-0.360485,0.357418,-0.002262,2.0109,2.3714,0.6911
13.2130,0.020085,-0.366358,0.366358,-0.363553,0.362019,-0.002262,2.0109,2.3714,0.6911
13.2330,0.020089,-0.366519,0.366519,-0.365087,0.363553,-0.002262,2.0109,2.3714,0.6911
13.2531,0.020092,-0.365535,0.365535,-0.369689,0.363553,-0.002262,2.0109,2.3714,0.6911
13.2732,0.020102,-0.361008,0.361008,-0.369689,0.363553,-0.002262,2.0109,2.3714,0.6911
13.2933,0.020086,-0.354609,0.354609,-0.368155,0.363553,-0.002262,2.0109,2.3714,0.6911
13.3134,0.020112,-0.350063,0.350063,-0.368155,0.363553,-0.002262,2.0109,2.3714,0.6911
13.3335,0.020094,-0.349066,0.349066,-0.366621,0.363553,-0.002262,2.0109,2.3714,0.6911
13.3536,0.020084,-0.348907,0.348907,-0.365087,0.362019,-0.002262,2.0109,2.3714,0.6911
13.3738,0.020140,-0.347874,0.347874,-0.360485,0.362019,-0.002262,2.0109,2.3714,0.6911
13.3938,0.020081,-0.345289,0.345289,-0.354350,0.360485,-0.002252,2.0228,2.4210,0.6381
13.4140,0.020156,-0.340625,0.340625,-0.349748,0.358952,-0.002263,2.0095,2.3657,0.6972
13.4342,0.020216,-0.333518,0.333518,-0.349748,0.355884,-0.002262,2.0109,2.3714,0.6911
13.4548,0.020562,-0.323596,0.323596,-0.348214,0.354350,-0.002262,2.0109,2.3714,0.6911
13.4754,0.020641,-0.310845,0.310845,-0.345146,0.348214,-0.002262,2.0109,2.3714,0.6911
13.4955,0.020090,-0.295818,0.295818,-0.343612,0.340544,-0.002262,2.0109,2.3714,0.6911
13.5156,0.020106,-0.278368,0.278368,-0.337476,0.332874,-0.002262,2.0109,2.3714,0.6911
13.5357,0.020094,-0.258783,0.258783,-0.326738,0.322136,-0.002262,2.0109,2.3714,0.6911
13.5558,0.020127,-0.237352,0.237352,-0.309864,0.308330,-0.002262,2.0109,2.3714,0.6911
13.5762,0.020359,-0.214234,0.214234,-0.289922,0.292990,-0.002262,2.0109,2.3714,0.6911
13.5963,0.020068,-0.190476,0.190476,-0.271515,0.274583,-0.002262,2.0109,2.3714,0.6911
13.6163,0.020086,-0.166202,0.166202,-0.248505,0.251573,-0.002262,2.0109,2.3714,0.6911
13.6364,0.020086,-0.141920,0.141920,-0.225495,0.228563,-0.002262,2.0109,2.3714,0.6911
13.6565,0.020083,-0.118120,0.118120,-0.199418,0.204019,-0.002262,2.0109,2.3714,0.6911
13.6766,0.020092,-0.095260,0.095260,-0.171806,0.179476,-0.002252,2.0228,2.4210,0.6381
13.6968,0.020232,-0.073649,0.073649,-0.148796,0.154932,-0.002263,2.0095,2.3657,0.6972
13.7169,0.020114,-0.053966,0.053966,-0.124252,0.128854,-0.002262,2.0109,2.3714,0.6911
13.7387,0.021793,-0.035063,0.035063,-0.102777,0.102777,-0.002262,2.0109,2.3714,0.6911
13.7588,0.020084,-0.020154,0.020154,-0.078233,0.079767,-0.002262,2.0109,2.3714,0.6911
13.7789,0.020085,-0.007827,0.007827,-0.059825,0.058291,-0.002252,2.0228,2.4210,0.6381
13.7990,0.020087,0.001851,-0.001851,-0.039884,0.036816,-0.002263,2.0095,2.3657,0.6972
13.8194,0.020363,0.009017,-0.009017,-0.019942,0.019942,-0.002262,2.0109,2.3714,0.6911
13.8396,0.020246,0.013695,-0.013695,-0.003068,0.004602,-0.002262,2.0109,2.3714,0.6911
13.8597,0.020088,0.016271,-0.016271,0.007670,-0.004602,-0.002262,2.0109,2.3714,0.6911
13.8798,0.020090,0.017296,-0.017296,0.009204,-0.012272,-0.002262,2.0109,2.3714,0.6911
13.8999,0.020089,0.017453,-0.017453,0.007670,-0.013806,-0.002262,2.0109,2.3714,0.6911
13.9200,0.020088,0.016448,-0.016448,0.012272,-0.015340,-0.002262,2.0109,2.3714,0.6911
13.9403,0.020389,0.011807,-0.011807,0.018408,-0.016874,-0.002262,2.0109,2.3714,0.6911
