t,loop_dt,cmd_ant_l,cmd_ant_r,pres_ant_l,pres_ant_r,pres_z,pres_roll,pres_pitch,pres_yaw
0.0000,0.000001,-0.349066,0.349066,-0.179476,0.177942,-0.002270,2.5312,2.2760,0.6466
0.0201,0.020108,-0.348283,0.348283,-0.179476,0.177942,-0.002270,2.5312,2.2760,0.6466
0.0402,0.020091,-0.345943,0.345943,-0.182544,0.179476,-0.002270,2.5312,2.2760,0.6466
0.0603,0.020098,-0.342067,0.342067,-0.228563,0.222427,-0.002232,2.4819,2.2233,0.5943
0.0804,0.020089,-0.336692,0.336692,-0.308330,0.299126,-0.002209,2.3877,2.1904,0.4919
0.1005,0.020086,-0.329865,0.329865,-0.372757,0.363553,-0.002184,2.2984,2.1557,0.3947
0.1206,0.020086,-0.321648,0.321648,-0.383495,0.374291,-0.002139,2.2703,2.1570,0.2982
0.1407,0.020110,-0.312103,0.312103,-0.369689,0.363553,-0.002144,2.2733,2.1569,0.3082
0.1608,0.020153,-0.301298,0.301298,-0.348214,0.346680,-0.002143,2.2729,2.1569,0.3068
0.1809,0.020086,-0.289392,0.289392,-0.329806,0.331340,-0.002140,2.2117,2.0880,0.3069
0.2010,0.020089,-0.276456,0.276456,-0.314466,0.319068,-0.002140,2.2180,2.0951,0.3069
0.2211,0.020090,-0.262606,0.262606,-0.305262,0.308330,-0.002127,2.1680,2.0755,0.2528
0.2413,0.020173,-0.247906,0.247906,-0.296058,0.299126,-0.002121,2.2842,2.1320,0.3138
0.2614,0.020096,-0.232603,0.232603,-0.285320,0.289922,-0.002132,2.2225,2.1405,0.2526
0.2814,0.020086,-0.216787,0.216787,-0.274583,0.277651,-0.002131,2.2665,2.0752,0.3674
0.3015,0.020106,-0.200577,0.200577,-0.263845,0.263845,-0.002131,2.2619,2.0820,0.3554
0.3216,0.020092,-0.184145,0.184145,-0.245437,0.245437,-0.002131,2.2619,2.0820,0.3554
0.3417,0.020085,-0.167632,0.167632,-0.231631,0.231631,-0.002141,2.2128,2.0957,0.3018
0.3618,0.020090,-0.151178,0.151178,-0.211689,0.216291,-0.002130,2.2675,2.0799,0.3623
0.3819,0.020128,-0.134902,0.134902,-0.193282,0.199418,-0.002142,2.2122,2.0960,0.3011
0.4020,0.020091,-0.119011,0.119011,-0.174874,0.182544,-0.002130,2.2299,2.1443,0.2539
0.4221,0.020089,-0.103619,0.103619,-0.158000,0.162602,-0.002131,2.2657,2.0748,0.3673
0.4424,0.020242,-0.088752,0.088752,-0.141126,0.144194,-0.002141,2.2124,2.0965,0.3006
0.4625,0.020090,-0.074768,0.074768,-0.124252,0.125786,-0.002130,2.2675,2.0798,0.3624
0.4826,0.020099,-0.061671,0.061671,-0.110447,0.108913,-0.002142,2.2122,2.0960,0.3011
0.5028,0.020220,-0.049516,0.049516,-0.093573,0.092039,-0.002130,2.2676,2.0799,0.3624
0.5230,0.020257,-0.038477,0.038477,-0.078233,0.078233,-0.002131,2.2618,2.0816,0.3560
0.5438,0.020753,-0.028454,0.028454,-0.064427,0.062893,-0.002131,2.2618,2.0816,0.3560
0.5639,0.020093,-0.020078,0.020078,-0.052155,0.053689,-0.002131,2.2618,2.0816,0.3560
0.5840,0.020100,-0.013084,0.013084,-0.038350,0.038350,-0.002131,2.2618,2.0816,0.3560
0.6042,0.020180,-0.007518,0.007518,-0.026078,0.029146,-0.002141,2.2128,2.0958,0.3017
0.6242,0.020082,-0.003477,0.003477,-0.018408,0.021476,-0.002130,2.2299,2.1443,0.2538
0.6443,0.020090,-0.000966,0.000966,-0.013806,0.010738,-0.002118,2.2163,2.0559,0.3132
0.6644,0.020088,-0.000010,0.000010,-0.013806,0.010738,-0.002118,2.2163,2.0559,0.3132
0.6845,0.020098,-0.000617,0.000617,-0.012272,0.004602,-0.002133,2.2671,2.0840,0.3611
0.7046,0.020102,-0.002784,0.002784,-0.007670,0.003068,-0.002118,2.2124,2.0622,0.3020
0.7247,0.020050,-0.006479,0.006479,0.000000,0.003068,-0.002143,2.2180,2.0978,0.3074
0.7448,0.020108,-0.011691,0.011691,0.001534,0.000000,-0.002130,2.2670,2.0797,0.3617
0.7649,0.020090,-0.018357,0.018357,-0.003068,0.000000,-0.002142,2.2123,2.0960,0.3011
0.7850,0.020096,-0.026424,0.026424,-0.004602,0.000000,-0.002130,2.2675,2.0799,0.3623
0.8051,0.020099,-0.035820,0.035820,-0.003068,0.001534,-0.002131,2.2618,2.0816,0.3560
0.8251,0.020082,-0.046449,0.046449,-0.003068,0.007670,-0.002131,2.2618,2.0816,0.3560
0.8452,0.020095,-0.058233,0.058233,-0.010738,0.016874,-0.002131,2.2618,2.0816,0.3560
0.8653,0.020088,-0.071055,0.071055,-0.023010,0.018408,-0.002131,2.2618,2.0816,0.3560
0.8854,0.020090,-0.084805,0.084805,-0.036816,0.021476,-0.002131,2.2248,2.1458,0.2482
0.9055,0.020102,-0.099367,0.099367,-0.044485,0.032214,-0.002131,2.2662,2.0747,0.3679
0.9257,0.020176,-0.114660,0.114660,-0.049087,0.046019,-0.002131,2.2619,2.0821,0.3554
0.9458,0.020097,-0.130432,0.130432,-0.072097,0.079767,-0.002141,2.2128,2.0957,0.3018
0.9659,0.020087,-0.146590,0.146590,-0.090505,0.093573,-0.002130,2.2675,2.0799,0.3623
0.9860,0.020093,-0.163003,0.163003,-0.111981,0.104311,-0.002131,2.2618,2.0816,0.3560
1.0083,0.022373,-0.181394,0.181394,-0.125786,0.116583,-0.002141,2.2128,2.0958,0.3017
1.0284,0.020093,-0.197852,0.197852,-0.142660,0.138058,-0.002140,2.2179,2.0943,0.3074
1.0485,0.020092,-0.214099,0.214099,-0.168738,0.164136,-0.002130,2.2670,2.0800,0.3617
1.0688,0.020258,-0.230122,0.230122,-0.191748,0.188680,-0.002131,2.2618,2.0815,0.3560
1.0889,0.020085,-0.245509,0.245509,-0.211689,0.210155,-0.002141,2.2128,2.0958,0.3017
1.1089,0.020077,-0.260255,0.260255,-0.222427,0.222427,-0.002130,2.2675,2.0799,0.3623
1.1290,0.020091,-0.274243,0.274243,-0.231631,0.231631,-0.002142,2.2122,2.0960,0.3011
1.1491,0.020088,-0.287336,0.287336,-0.248505,0.248505,-0.002130,2.2676,2.0799,0.3624
1.1692,0.020098,-0.299426,0.299426,-0.266913,0.265379,-0.002131,2.2618,2.0816,0.3560
1.1893,0.020089,-0.310390,0.310390,-0.279185,0.279185,-0.002131,2.2618,2.0816,0.3560
1.2094,0.020089,-0.320139,0.320139,-0.292990,0.291456,-0.002131,2.2618,2.0816,0.3560
1.2295,0.020096,-0.328586,0.328586,-0.306796,0.302194,-0.002131,2.2618,2.0816,0.3560
1.2496,0.020095,-0.335653,0.335653,-0.319068,0.316000,-0.002141,2.2128,2.0958,0.3017
1.2697,0.020098,-0.341276,0.341276,-0.326738,0.323670,-0.002130,2.2675,2.0799,0.3623
1.2898,0.020086,-0.345403,0.345403,-0.331340,0.328272,-0.002131,2.2618,2.0816,0.3560
1.3099,0.020091,-0.348000,0.348000,-0.337476,0.339010,-0.002131,2.2618,2.0816,0.3560
1.3300,0.020094,-0.349044,0.349044,-0.346680,0.343612,-0.002141,2.2128,2.0958,0.3017
1.3501,0.020089,-0.348524,0.348524,-0.348214,0.343612,-0.002140,2.2179,2.0943,0.3074
1.3701,0.020096,-0.346446,0.346446,-0.348214,0.348214,-0.002130,2.2670,2.0800,0.3617
1.3902,0.020089,-0.342828,0.342828,-0.351282,0.348214,-0.002142,2.2123,2.0959,0.3011
1.4104,0.020118,-0.337695,0.337695,-0.351282,0.348214,-0.002130,2.2675,2.0799,0.3623
1.4304,0.020089,-0.331107,0.331107,-0.348214,0.345146,-0.002131,2.2618,2.0816,0.3560
1.4505,0.020089,-0.323117,0.323117,-0.345146,0.343612,-0.002131,2.2618,2.0816,0.3560
1.4706,0.020098,-0.313791,0.313791,-0.343612,0.340544,-0.002131,2.2618,2.0816,0.3560
1.4907,0.020083,-0.303226,0.303226,-0.342078,0.339010,-0.002131,2.2618,2.0816,0.3560
1.5108,0.020088,-0.291506,0.291506,-0.339010,0.334408,-0.002131,2.2618,2.0816,0.3560
1.5309,0.020088,-0.278739,0.278739,-0.331340,0.329806,-0.002131,2.2618,2.0816,0.3560
1.5510,0.020089,-0.265038,0.265038,-0.319068,0.319068,-0.002141,2.2128,2.0958,0.3017
1.5711,0.020098,-0.250519,0.250519,-0.305262,0.308330,-0.002140,2.2179,2.0943,0.3074
1.5912,0.020085,-0.235330,0.235330,-0.288388,0.294524,-0.002130,2.2670,2.0800,0.3617
1.6113,0.020088,-0.219594,0.219594,-0.276117,0.280718,-0.002118,2.2125,2.0626,0.3020
1.6313,0.020083,-0.203459,0.203459,-0.262311,0.265379,-0.002133,2.2675,2.0833,0.3623
1.6514,0.020084,-0.187064,0.187064,-0.248505,0.250039,-0.002131,2.2618,2.0812,0.3560
1.6715,0.020105,-0.170540,0.170540,-0.231631,0.234699,-0.002141,2.2128,2.0958,0.3017
1.6916,0.020092,-0.154062,0.154062,-0.214757,0.219359,-0.002130,2.2675,2.0799,0.3623
1.7117,0.020096,-0.137764,0.137764,-0.197884,0.204019,-0.002131,2.2618,2.0816,0.3560
1.7321,0.020343,-0.121602,0.121602,-0.177942,0.185612,-0.002121,2.2744,2.1314,0.3031
1.7522,0.020117,-0.106096,0.106096,-0.165670,0.170272,-0.002132,2.2611,2.0762,0.3621
1.7723,0.020114,-0.091208,0.091208,-0.150330,0.153398,-0.002131,2.2625,2.0819,0.3560
1.7924,0.020096,-0.077080,0.077080,-0.134990,0.133456,-0.002131,2.2625,2.0819,0.3560
1.8125,0.020109,-0.063817,0.063817,-0.118117,0.116583,-0.002131,2.2625,2.0819,0.3560
1.8328,0.020327,-0.051420,0.051420,-0.101243,0.099709,-0.002118,2.2129,2.0624,0.3026
1.8529,0.020094,-0.040275,0.040275,-0.085903,0.084369,-0.002133,2.2675,2.0834,0.3622
1.8730,0.020098,-0.030330,0.030330,-0.070563,0.070563,-0.002131,2.2618,2.0812,0.3560
1.8933,0.020283,-0.021605,0.021605,-0.058291,0.056757,-0.002131,2.2618,2.0812,0.3560
1.9134,0.020082,-0.014341,0.014341,-0.042951,0.044485,-0.002141,2.2128,2.0958,0.3017
1.9335,0.020095,-0.008508,0.008508,-0.030680,0.033748,-0.002130,2.2675,2.0799,0.3623
1.9536,0.020084,-0.004164,0.004164,-0.019942,0.024544,-0.002131,2.2618,2.0816,0.3560
1.9736,0.020084,-0.001345,0.001345,-0.015340,0.015340,-0.002118,2.2130,2.0624,0.3026
1.9937,0.020081,-0.000076,0.000076,-0.015340,0.006136,-0.002133,2.2675,2.0834,0.3622
2.0138,0.020091,-0.000369,0.000369,-0.010738,0.003068,-0.002131,2.2618,2.0812,0.3560
2.0347,0.020889,-0.002328,0.002328,-0.001534,0.001534,-0.002141,2.2128,2.0958,0.3017
2.0548,0.020091,-0.005785,0.005785,0.001534,0.000000,-0.002130,2.2675,2.0799,0.3623
2.0749,0.020093,-0.010754,0.010754,0.000000,0.000000,-0.002142,2.2122,2.0960,0.3011
2.0950,0.020095,-0.017191,0.017191,-0.006136,0.000000,-0.002140,2.2180,2.0943,0.3075
2.1151,0.020105,-0.025043,0.025043,-0.004602,0.000000,-0.002130,2.2670,2.0800,0.3617
2.1352,0.020100,-0.034233,0.034233,-0.001534,0.006136,-0.002131,2.2618,2.0815,0.3560
2.1553,0.020097,-0.044678,0.044678,-0.006136,0.018408,-0.002141,2.2128,2.0958,0.3017
2.1754,0.020097,-0.056288,0.056288,-0.019942,0.019942,-0.002140,2.2179,2.0943,0.3074
2.1957,0.020341,-0.069117,0.069117,-0.033748,0.021476,-0.002130,2.2670,2.0800,0.3617
2.2158,0.020113,-0.082755,0.082755,-0.046019,0.030680,-0.002131,2.2618,2.0815,0.3560
2.2359,0.020059,-0.097176,0.097176,-0.050621,0.044485,-0.002131,2.2618,2.0815,0.3560
2.2564,0.020533,-0.112652,0.112652,-0.055223,0.061359,-0.002141,2.2128,2.0958,0.3017
2.2765,0.020096,-0.128361,0.128361,-0.067495,0.078233,-0.002140,2.2179,2.0943,0.3074
2.2966,0.020106,-0.144492,0.144492,-0.107379,0.104311,-0.002130,2.2670,2.0800,0.3617
2.3167,0.020096,-0.160884,0.160884,-0.127320,0.118117,-0.002131,2.2618,2.0815,0.3560
2.3368,0.020125,-0.177422,0.177422,-0.127320,0.118117,-0.002131,2.2618,2.0815,0.3560
2.3569,0.020095,-0.193910,0.193910,-0.154932,0.153398,-0.002131,2.2618,2.0815,0.3560
2.3770,0.020092,-0.210221,0.210221,-0.171806,0.170272,-0.002131,2.2618,2.0815,0.3560
2.3971,0.020106,-0.226224,0.226224,-0.190214,0.187146,-0.002141,2.2128,2.0958,0.3017
2.4172,0.020100,-0.241758,0.241758,-0.207087,0.205553,-0.002130,2.2675,2.0799,0.3623
2.4374,0.020111,-0.256698,0.256698,-0.223961,0.219359,-0.002131,2.2618,2.0816,0.3560
2.4574,0.020099,-0.270892,0.270892,-0.237767,0.236233,-0.002131,2.2618,2.0816,0.3560
2.4775,0.020088,-0.284216,0.284216,-0.251573,0.251573,-0.002131,2.2618,2.0816,0.3560
2.4976,0.020098,-0.296563,0.296563,-0.265379,0.266913,-0.002141,2.2128,2.0958,0.3017
2.5177,0.020105,-0.307820,0.307820,-0.277651,0.277651,-0.002130,2.2675,2.0799,0.3623
2.5378,0.020104,-0.317881,0.317881,-0.296058,0.292990,-0.002131,2.2618,2.0816,0.3560
2.5579,0.020093,-0.326652,0.326652,-0.306796,0.300660,-0.002121,2.2744,2.1314,0.3031
2.5780,0.020098,-0.334063,0.334063,-0.316000,0.311398,-0.002142,2.2115,2.0906,0.3073
2.5981,0.020102,-0.340044,0.340044,-0.325204,0.322136,-0.002130,2.2676,2.0804,0.3617
2.6182,0.020097,-0.344540,0.344540,-0.332874,0.329806,-0.002131,2.2618,2.0815,0.3560
2.6383,0.020098,-0.347512,0.347512,-0.337476,0.339010,-0.002141,2.2128,2.0958,0.3017
2.6584,0.020098,-0.348934,0.348934,-0.346680,0.342078,-0.002130,2.2675,2.0799,0.3623
2.6785,0.020085,-0.348794,0.348794,-0.349748,0.342078,-0.002142,2.2122,2.0960,0.3011
2.6989,0.020353,-0.347060,0.347060,-0.349748,0.348214,-0.002130,2.2676,2.0799,0.3624
2.7192,0.020328,-0.343746,0.343746,-0.349748,0.349748,-0.002142,2.2122,2.0960,0.3011
2.7394,0.020183,-0.338920,0.338920,-0.349748,0.348214,-0.002142,2.2122,2.0960,0.3011
2.7596,0.020257,-0.332583,0.332583,-0.349748,0.346680,-0.002133,2.2669,2.0835,0.3616
2.7798,0.020119,-0.324864,0.324864,-0.348214,0.343612,-0.002131,2.2618,2.0812,0.3560
2.7998,0.020096,-0.315806,0.315806,-0.343612,0.340544,-0.002131,2.2618,2.0812,0.3560
2.8199,0.020088,-0.305486,0.305486,-0.340544,0.337476,-0.002131,2.2618,2.0812,0.3560
2.8403,0.020404,-0.293804,0.293804,-0.339010,0.332874,-0.002141,2.2128,2.0958,0.3017
2.8606,0.020213,-0.281144,0.281144,-0.334408,0.329806,-0.002140,2.2179,2.0943,0.3074
2.8806,0.020089,-0.267605,0.267605,-0.323670,0.322136,-0.002130,2.2670,2.0800,0.3617
2.9011,0.020464,-0.252956,0.252956,-0.309864,0.309864,-0.002131,2.2618,2.0815,0.3560
2.9212,0.020085,-0.237870,0.237870,-0.291456,0.294524,-0.002141,2.2128,2.0958,0.3017
2.9413,0.020147,-0.222167,0.222167,-0.277651,0.283786,-0.002130,2.2675,2.0799,0.3623
2.9614,0.020092,-0.206080,0.206080,-0.263845,0.268447,-0.002131,2.2618,2.0816,0.3560
2.9815,0.020093,-0.189709,0.189709,-0.250039,0.253107,-0.002131,2.2618,2.0816,0.3560
3.0016,0.020095,-0.173200,0.173200,-0.233165,0.237767,-0.002131,2.2618,2.0816,0.3560
3.0218,0.020195,-0.156622,0.156622,-0.217825,0.222427,-0.002131,2.2618,2.0816,0.3560
3.0420,0.020148,-0.140243,0.140243,-0.199418,0.207087,-0.002141,2.2128,2.0958,0.3017
3.0621,0.020129,-0.124189,0.124189,-0.181010,0.188680,-0.002117,2.2181,2.0609,0.3082
3.0822,0.020098,-0.108611,0.108611,-0.164136,0.168738,-0.002143,2.2174,2.0979,0.3067
3.1023,0.020093,-0.093628,0.093628,-0.147262,0.150330,-0.002140,2.2175,2.0941,0.3069
3.1225,0.020183,-0.079307,0.079307,-0.130388,0.131922,-0.002117,2.2176,2.0611,0.3077
3.1426,0.020105,-0.065897,0.065897,-0.115049,0.113515,-0.002133,2.2670,2.0835,0.3617
3.1628,0.020219,-0.053394,0.053394,-0.099709,0.098175,-0.002131,2.2618,2.0812,0.3560
3.1829,0.020098,-0.042055,0.042055,-0.085903,0.084369,-0.002121,2.2744,2.1314,0.3031
3.2030,0.020106,-0.031899,0.031899,-0.069029,0.069029,-0.002129,2.1621,2.0717,0.2532
3.2231,0.020094,-0.023028,0.023028,-0.058291,0.056757,-0.002131,2.2728,2.0823,0.3673
3.2433,0.020196,-0.015479,0.015479,-0.041417,0.041417,-0.002118,2.2118,2.0623,0.3014
3.2635,0.020191,-0.009372,0.009372,-0.030680,0.033748,-0.002119,2.2182,2.0644,0.3083
3.2836,0.020120,-0.004772,0.004772,-0.021476,0.024544,-0.002129,2.1680,2.0787,0.2527
3.3037,0.020094,-0.001700,0.001700,-0.016874,0.016874,-0.002128,2.1732,2.0772,0.2585
3.3238,0.020091,-0.000177,0.000177,-0.012272,0.006136,-0.002118,2.2222,2.0629,0.3128
3.3440,0.020212,-0.000220,0.000220,-0.007670,0.004602,-0.002132,2.2665,2.0833,0.3611
3.3641,0.020098,-0.001830,0.001830,0.000000,0.003068,-0.002118,2.2125,2.0622,0.3020
3.3842,0.020094,-0.004987,0.004987,0.001534,0.000000,-0.002143,2.2180,2.0978,0.3074
3.4048,0.020636,-0.009810,0.009810,-0.003068,-0.001534,-0.002130,2.2670,2.0797,0.3617
3.4249,0.020056,-0.015990,0.015990,-0.004602,0.000000,-0.002118,2.2125,2.0626,0.3020
3.4450,0.020151,-0.023623,0.023623,-0.001534,0.004602,-0.002129,2.1686,2.0789,0.2533
3.4653,0.020312,-0.032694,0.032694,-0.003068,0.010738,-0.002131,2.2721,2.0816,0.3673
3.4854,0.020102,-0.042950,0.042950,-0.012272,0.015340,-0.002141,2.2118,2.0958,0.3006
3.5058,0.020319,-0.054515,0.054515,-0.024544,0.016874,-0.002141,2.2118,2.0958,0.3006
3.5259,0.020102,-0.067039,0.067039,-0.038350,0.024544,-0.002130,2.2669,2.0800,0.3617
3.5461,0.020188,-0.080586,0.080586,-0.044485,0.035282,-0.002131,2.2618,2.0815,0.3560
3.5661,0.020088,-0.094910,0.094910,-0.047553,0.049087,-0.002131,2.2618,2.0815,0.3560
3.5862,0.020109,-0.109963,0.109963,-0.055223,0.065961,-0.002141,2.2128,2.0958,0.3017
3.6065,0.020260,-0.125715,0.125715,-0.069029,0.076699,-0.002127,2.1685,2.0754,0.2533
3.6268,0.020273,-0.141921,0.141921,-0.092039,0.092039,-0.002132,2.2721,2.0820,0.3673
3.6469,0.020095,-0.158280,0.158280,-0.110447,0.102777,-0.002132,2.2721,2.0820,0.3673
3.6670,0.020092,-0.174781,0.174781,-0.127320,0.118117,-0.002131,2.2613,2.0813,0.3554
3.6871,0.020091,-0.191279,0.191279,-0.142660,0.136524,-0.002131,2.2613,2.0813,0.3554
3.7071,0.020088,-0.207625,0.207625,-0.142660,0.136524,-0.002131,2.2613,2.0813,0.3554
3.7272,0.020093,-0.223679,0.223679,-0.154932,0.153398,-0.002141,2.2129,2.0958,0.3018
3.7488,0.021605,-0.240446,0.240446,-0.171806,0.171806,-0.002130,2.2675,2.0799,0.3623
3.7689,0.020101,-0.255436,0.255436,-0.188680,0.184078,-0.002142,2.2122,2.0960,0.3011
3.7890,0.020049,-0.269664,0.269664,-0.219359,0.211689,-0.002140,2.2180,2.0943,0.3075
3.8091,0.020102,-0.283078,0.283078,-0.219359,0.211689,-0.002130,2.2670,2.0800,0.3617
3.8292,0.020088,-0.295511,0.295511,-0.250039,0.251573,-0.002131,2.2618,2.0815,0.3560
3.8493,0.020103,-0.306868,0.306868,-0.265379,0.266913,-0.002108,2.2250,2.1124,0.2490
3.8694,0.020113,-0.317044,0.317044,-0.265379,0.266913,-0.002108,2.2250,2.1124,0.2490
3.8895,0.020081,-0.325927,0.325927,-0.279185,0.279185,-0.002134,2.2662,2.0782,0.3678
3.9096,0.020096,-0.333460,0.333460,-0.291456,0.289922,-0.002131,2.2619,2.0817,0.3554
3.9297,0.020103,-0.339571,0.339571,-0.305262,0.302194,-0.002118,2.2130,2.0624,0.3026
3.9498,0.020114,-0.344204,0.344204,-0.320602,0.316000,-0.002119,2.2181,2.0644,0.3081
3.9699,0.020092,-0.347312,0.347312,-0.331340,0.326738,-0.002143,2.2174,2.0976,0.3067
3.9900,0.020094,-0.348871,0.348871,-0.342078,0.340544,-0.002130,2.2670,2.0797,0.3618
4.0101,0.020093,-0.348869,0.348869,-0.346680,0.343612,-0.002142,2.2123,2.0960,0.3011
4.0302,0.020091,-0.347305,0.347305,-0.346680,0.340544,-0.002130,2.2675,2.0799,0.3623
4.0503,0.020110,-0.344190,0.344190,-0.352816,0.348214,-0.002131,2.2618,2.0816,0.3560
4.0704,0.020109,-0.339553,0.339553,-0.352816,0.349748,-0.002131,2.2618,2.0816,0.3560
4.0905,0.020098,-0.333439,0.333439,-0.349748,0.346680,-0.002141,2.2128,2.0958,0.3017
4.1106,0.020103,-0.325898,0.325898,-0.349748,0.345146,-0.002130,2.2675,2.0799,0.3623
4.1307,0.020111,-0.316996,0.316996,-0.346680,0.343612,-0.002131,2.2618,2.0816,0.3560
4.1508,0.020104,-0.306820,0.306820,-0.343612,0.340544,-0.002131,2.2618,2.0816,0.3560
4.1709,0.020107,-0.295455,0.295455,-0.342078,0.337476,-0.002131,2.2618,2.0816,0.3560
4.1912,0.020271,-0.282900,0.282900,-0.339010,0.334408,-0.002131,2.2618,2.0816,0.3560
4.2113,0.020101,-0.269474,0.269474,-0.329806,0.328272,-0.002128,2.1635,2.0769,0.2477
4.2318,0.020550,-0.254869,0.254869,-0.319068,0.320602,-0.002128,2.1737,2.0774,0.2590
4.2528,0.021020,-0.239152,0.239152,-0.305262,0.308330,-0.002132,2.2340,2.1462,0.2583
4.2730,0.020181,-0.223465,0.223465,-0.288388,0.294524,-0.002131,2.2653,2.0746,0.3668
4.2931,0.020100,-0.207400,0.207400,-0.276117,0.280718,-0.002141,2.2125,2.0965,0.3006
4.3133,0.020119,-0.191026,0.191026,-0.262311,0.265379,-0.002106,2.2302,2.1109,0.2548
4.3333,0.020095,-0.174523,0.174523,-0.245437,0.250039,-0.002124,2.2777,2.1283,0.3136
4.3539,0.020578,-0.157625,0.157625,-0.211689,0.217825,-0.002132,2.2607,2.0765,0.3610
4.3740,0.020103,-0.141269,0.141269,-0.194816,0.200951,-0.002141,2.2129,2.0963,0.3012
4.3941,0.020108,-0.125208,0.125208,-0.177942,0.182544,-0.002130,2.2675,2.0798,0.3623
4.4142,0.020106,-0.109590,0.109590,-0.177942,0.182544,-0.002131,2.2618,2.0816,0.3560
4.4343,0.020100,-0.094560,0.094560,-0.159534,0.164136,-0.002141,2.2128,2.0958,0.3017
4.4544,0.020104,-0.080244,0.080244,-0.128854,0.130388,-0.002130,2.2675,2.0799,0.3623
4.4745,0.020106,-0.066772,0.066772,-0.128854,0.130388,-0.002118,2.2124,2.0626,0.3019
4.4947,0.020123,-0.054256,0.054256,-0.113515,0.111981,-0.002133,2.2675,2.0833,0.3623
4.5148,0.020108,-0.042829,0.042829,-0.096641,0.096641,-0.002131,2.2618,2.0812,0.3560
4.5350,0.020247,-0.032518,0.032518,-0.081301,0.081301,-0.002118,2.2130,2.0625,0.3026
4.5551,0.020096,-0.023560,0.023560,-0.067495,0.065961,-0.002133,2.2675,2.0834,0.3622
4.5752,0.020116,-0.015949,0.015949,-0.055223,0.053689,-0.002131,2.2618,2.0812,0.3560
4.5954,0.020124,-0.009760,0.009760,-0.039884,0.039884,-0.002131,2.2248,2.1458,0.2482
4.6161,0.020695,-0.004940,0.004940,-0.027612,0.030680,-0.002141,2.2167,2.0891,0.3130
4.6361,0.020091,-0.001802,0.001802,-0.021476,0.023010,-0.002130,2.2671,2.0806,0.3611
4.6563,0.020104,-0.000210,0.000210,-0.012272,0.006136,-0.002131,2.2618,2.0815,0.3561
4.6764,0.020103,-0.000182,0.000182,-0.003068,0.003068,-0.002131,2.2618,2.0815,0.3561
4.6965,0.020109,-0.001718,0.001718,-0.003068,0.003068,-0.002131,2.2618,2.0815,0.3561
4.7166,0.020169,-0.004816,0.004816,0.001534,0.001534,-0.002118,2.2130,2.0624,0.3026
4.7368,0.020138,-0.009438,0.009438,0.000000,0.000000,-0.002129,2.1685,2.0789,0.2533
4.7569,0.020086,-0.015528,0.015528,-0.006136,0.000000,-0.002128,2.1732,2.0772,0.2584
4.7769,0.020090,-0.023043,0.023043,-0.006136,0.003068,-0.002142,2.2220,2.0962,0.3119
4.7970,0.020087,-0.031914,0.031914,-0.004602,0.010738,-0.002117,2.2171,2.0609,0.3072
4.8171,0.020089,-0.042063,0.042063,-0.009204,0.013806,-0.002130,2.1681,2.0791,0.2528
4.8372,0.020094,-0.053400,0.053400,-0.023010,0.016874,-0.002131,2.2345,2.1461,0.2589
4.8573,0.020083,-0.065816,0.065816,-0.035282,0.023010,-0.002118,2.2158,2.0557,0.3127
4.8774,0.020093,-0.079212,0.079212,-0.044485,0.033748,-0.002119,2.2178,2.0651,0.3071
4.8975,0.020138,-0.093495,0.093495,-0.049087,0.047553,-0.002132,2.2670,2.0831,0.3617
4.9176,0.020084,-0.108466,0.108466,-0.055223,0.062893,-0.002131,2.2618,2.0812,0.3560
4.9377,0.020098,-0.124039,0.124039,-0.069029,0.076699,-0.002141,2.2128,2.0958,0.3017
4.9578,0.020090,-0.140058,0.140058,-0.087437,0.090505,-0.002117,2.2181,2.0609,0.3082
4.9779,0.020090,-0.156386,0.156386,-0.110447,0.104311,-0.002119,2.2176,2.0646,0.3076
4.9980,0.020084,-0.172872,0.172872,-0.125786,0.119651,-0.002132,2.2670,2.0831,0.3617
5.0181,0.020093,-0.189380,0.189380,-0.139592,0.134990,-0.002141,2.2123,2.0956,0.3011
5.0382,0.020090,-0.205753,0.205753,-0.154932,0.151864,-0.002130,2.2675,2.0799,0.3623
5.0583,0.020087,-0.221843,0.221843,-0.171806,0.168738,-0.002131,2.2618,2.0816,0.3560
5.0783,0.020087,-0.237510,0.237510,-0.190214,0.187146,-0.002121,2.2744,2.1314,0.3031
5.0984,0.020082,-0.252609,0.252609,-0.208621,0.204019,-0.002142,2.2115,2.0906,0.3073
5.1185,0.020084,-0.267011,0.267011,-0.222427,0.219359,-0.002140,2.2181,2.0949,0.3068
5.1386,0.020100,-0.280596,0.280596,-0.233165,0.236233,-0.002117,2.2176,2.0610,0.3077
5.1587,0.020088,-0.293222,0.293222,-0.250039,0.248505,-0.002143,2.2174,2.0979,0.3068
5.1788,0.020088,-0.304786,0.304786,-0.265379,0.265379,-0.002117,2.1800,2.1252,0.1992
5.1989,0.020112,-0.315195,0.315195,-0.282252,0.280718,-0.002133,2.2709,2.0768,0.3730
5.2190,0.020092,-0.324333,0.324333,-0.297592,0.294524,-0.002131,2.2614,2.0819,0.3549
5.2391,0.020091,-0.332129,0.332129,-0.305262,0.302194,-0.002141,2.2129,2.0958,0.3019
5.2592,0.020089,-0.338513,0.338513,-0.316000,0.312932,-0.002130,2.2675,2.0799,0.3623
5.2793,0.020088,-0.343428,0.343428,-0.325204,0.320602,-0.002131,2.2618,2.0816,0.3560
5.2993,0.020088,-0.346831,0.346831,-0.334408,0.329806,-0.002131,2.2618,2.0816,0.3560
5.3194,0.020087,-0.348691,0.348691,-0.337476,0.337476,-0.002131,2.2618,2.0816,0.3560
5.3395,0.020086,-0.348992,0.348992,-0.342078,0.340544,-0.002141,2.2128,2.0958,0.3017
5.3596,0.020086,-0.347731,0.347731,-0.351282,0.343612,-0.002140,2.2179,2.0943,0.3074
5.3797,0.020083,-0.344919,0.344919,-0.351282,0.346680,-0.002117,2.2176,2.0611,0.3076
5.3998,0.020103,-0.340578,0.340578,-0.351282,0.346680,-0.002133,2.2670,2.0835,0.3617
5.4199,0.020144,-0.334735,0.334735,-0.351282,0.346680,-0.002131,2.2618,2.0812,0.3560
5.4400,0.020094,-0.327469,0.327469,-0.348214,0.345146,-0.002141,2.2128,2.0958,0.3017
5.4601,0.020100,-0.318829,0.318829,-0.345146,0.340544,-0.002140,2.2179,2.0943,0.3074
5.4802,0.020091,-0.308901,0.308901,-0.343612,0.339010,-0.002130,2.2670,2.0800,0.3617
5.5003,0.020096,-0.297767,0.297767,-0.340544,0.334408,-0.002131,2.2618,2.0815,0.3560
5.5204,0.020097,-0.285527,0.285527,-0.332874,0.329806,-0.002131,2.2618,2.0815,0.3560
5.5405,0.020094,-0.272295,0.272295,-0.320602,0.320602,-0.002131,2.2618,2.0815,0.3560
5.5606,0.020091,-0.258189,0.258189,-0.305262,0.308330,-0.002131,2.2618,2.0815,0.3560
5.5807,0.020098,-0.243329,0.243329,-0.289922,0.296058,-0.002131,2.2618,2.0815,0.3560
5.6008,0.020104,-0.227847,0.227847,-0.277651,0.280718,-0.002141,2.2128,2.0958,0.3017
5.6209,0.020089,-0.211899,0.211899,-0.263845,0.266913,-0.002117,2.2181,2.0609,0.3082
5.6410,0.020098,-0.195609,0.195609,-0.250039,0.251573,-0.002133,2.2669,2.0835,0.3616
5.6611,0.020095,-0.179133,0.179133,-0.231631,0.234699,-0.002131,2.2618,2.0812,0.3560
5.6812,0.020094,-0.162616,0.162616,-0.217825,0.222427,-0.002131,2.2618,2.0812,0.3560
5.7013,0.020101,-0.146200,0.146200,-0.199418,0.207087,-0.002121,2.2744,2.1314,0.3031
5.7214,0.020086,-0.130050,0.130050,-0.182544,0.190214,-0.002142,2.2115,2.0906,0.3073
5.7414,0.020087,-0.114298,0.114298,-0.164136,0.167204,-0.002130,2.2676,2.0804,0.3617
5.7615,0.020085,-0.099086,0.099086,-0.150330,0.153398,-0.002131,2.2618,2.0815,0.3560
5.7816,0.020093,-0.084545,0.084545,-0.134990,0.134990,-0.002121,2.2744,2.1314,0.3031
5.8017,0.020097,-0.070806,0.070806,-0.121184,0.119651,-0.002129,2.1621,2.0717,0.2532
5.8218,0.020086,-0.058005,0.058005,-0.105845,0.102777,-0.002131,2.2728,2.0823,0.3673
5.8424,0.020594,-0.045963,0.045963,-0.090505,0.088971,-0.002121,2.2732,2.1313,0.3019
5.8625,0.020097,-0.035378,0.035378,-0.075165,0.073631,-0.002119,2.2118,2.0572,0.3082
5.8828,0.020334,-0.025937,0.025937,-0.061359,0.059825,-0.002143,2.2180,2.0983,0.3067
5.9031,0.020223,-0.017900,0.017900,-0.046019,0.047553,-0.002116,2.2176,2.0607,0.3077
5.9231,0.020088,-0.011324,0.011324,-0.032214,0.035282,-0.002133,2.2670,2.0835,0.3617
5.9434,0.020296,-0.006164,0.006164,-0.021476,0.026078,-0.002118,2.2124,2.0622,0.3020
5.9635,0.020096,-0.002571,0.002571,-0.015340,0.016874,-0.002133,2.2675,2.0834,0.3623
5.9836,0.020109,-0.000518,0.000518,-0.012272,0.007670,-0.002128,2.1629,2.0767,0.2470
6.0037,0.020090,-0.000027,0.000027,-0.012272,0.004602,-0.002128,2.1629,2.0767,0.2470
6.0238,0.020093,-0.001099,0.001099,-0.006136,0.004602,-0.002141,2.2117,2.0958,0.3005
6.0439,0.020079,-0.003722,0.003722,0.003068,0.001534,-0.002140,2.2180,2.0943,0.3075
6.0640,0.020083,-0.007874,0.007874,0.003068,0.000000,-0.002140,2.2180,2.0943,0.3075
6.0841,0.020083,-0.013518,0.013518,-0.004602,-0.001534,-0.002140,2.2180,2.0943,0.3075
6.1042,0.020086,-0.020604,0.020604,-0.006136,0.001534,-0.002130,2.2669,2.0800,0.3617
6.1242,0.020095,-0.029072,0.029072,-0.003068,0.007670,-0.002131,2.2618,2.0815,0.3560
6.1444,0.020112,-0.038852,0.038852,-0.006136,0.013806,-0.002141,2.2128,2.0958,0.3017
6.1644,0.020086,-0.049835,0.049835,-0.018408,0.018408,-0.002130,2.2675,2.0799,0.3623
6.1846,0.020109,-0.061950,0.061950,-0.030680,0.021476,-0.002131,2.2618,2.0816,0.3560
6.2047,0.020097,-0.075066,0.075066,-0.041417,0.030680,-0.002131,2.2618,2.0816,0.3560
6.2249,0.020286,-0.089209,0.089209,-0.049087,0.044485,-0.002118,2.2130,2.0624,0.3026
6.2453,0.020328,-0.104163,0.104163,-0.056757,0.059825,-0.002133,2.2675,2.0834,0.3622
6.2654,0.020088,-0.119575,0.119575,-0.069029,0.075165,-0.002141,2.2122,2.0956,0.3011
6.2854,0.020086,-0.135477,0.135477,-0.087437,0.087437,-0.002130,2.2676,2.0799,0.3624
6.3055,0.020095,-0.151737,0.151737,-0.108913,0.102777,-0.002131,2.2618,2.0816,0.3560
6.3256,0.020083,-0.168190,0.168190,-0.124252,0.118117,-0.002131,2.2618,2.0816,0.3560
6.3457,0.020096,-0.184711,0.184711,-0.134990,0.131922,-0.002118,2.2130,2.0624,0.3026
6.3658,0.020094,-0.201139,0.201139,-0.150330,0.148796,-0.002143,2.2179,2.0978,0.3073
6.3859,0.020139,-0.217365,0.217365,-0.170272,0.167204,-0.002130,2.2670,2.0797,0.3617
6.4062,0.020208,-0.233259,0.233259,-0.185612,0.181010,-0.002131,2.2618,2.0816,0.3560
6.4263,0.020096,-0.248538,0.248538,-0.200951,0.197884,-0.002131,2.2618,2.0816,0.3560
6.4464,0.020104,-0.263158,0.263158,-0.219359,0.214757,-0.002131,2.2618,2.0816,0.3560
6.4665,0.020154,-0.277017,0.277017,-0.234699,0.234699,-0.002131,2.2726,2.0818,0.3679
6.4866,0.020088,-0.289912,0.289912,-0.246971,0.245437,-0.002131,2.2613,2.0814,0.3554
6.5071,0.020512,-0.302012,0.302012,-0.260777,0.259243,-0.002131,2.2613,2.0814,0.3554
6.5272,0.020091,-0.312710,0.312710,-0.277651,0.274583,-0.002127,2.1685,2.0754,0.2533
6.5473,0.020102,-0.322176,0.322176,-0.291456,0.291456,-0.002132,2.2721,2.0820,0.3673
6.5674,0.020097,-0.330316,0.330316,-0.291456,0.291456,-0.002132,2.2721,2.0820,0.3673
6.5875,0.020090,-0.337058,0.337058,-0.303728,0.299126,-0.002141,2.2118,2.0957,0.3006
6.6076,0.020112,-0.342349,0.342349,-0.326738,0.323670,-0.002130,2.2676,2.0799,0.3624
6.6277,0.020093,-0.346131,0.346131,-0.334408,0.332874,-0.002118,2.2130,2.0624,0.3026
6.6478,0.020101,-0.348376,0.348376,-0.337476,0.334408,-0.002118,2.2130,2.0624,0.3026
6.6685,0.020653,-0.349060,0.349060,-0.337476,0.334408,-0.002133,2.2675,2.0834,0.3622
6.6885,0.020093,-0.348139,0.348139,-0.351282,0.346680,-0.002140,2.2180,2.0943,0.3075
6.7087,0.020109,-0.345661,0.345661,-0.351282,0.346680,-0.002127,2.1680,2.0756,0.2527
6.7288,0.020137,-0.341640,0.341640,-0.351282,0.346680,-0.002132,2.2721,2.0819,0.3674
6.7489,0.020100,-0.336128,0.336128,-0.351282,0.346680,-0.002132,2.2721,2.0819,0.3674
6.7690,0.020100,-0.329167,0.329167,-0.348214,0.345146,-0.002141,2.2118,2.0957,0.3006
6.7891,0.020088,-0.320824,0.320824,-0.346680,0.343612,-0.002130,2.2676,2.0799,0.3624
6.8092,0.020090,-0.311171,0.311171,-0.345146,0.343612,-0.002128,2.1628,2.0770,0.2470
6.8293,0.020089,-0.300295,0.300295,-0.343612,0.340544,-0.002128,2.1738,2.0774,0.2591
6.8493,0.020092,-0.288290,0.288290,-0.339010,0.334408,-0.002131,2.2716,2.0818,0.3667
6.8694,0.020089,-0.275269,0.275269,-0.331340,0.329806,-0.002131,2.2614,2.0814,0.3555
6.8895,0.020081,-0.261351,0.261351,-0.319068,0.320602,-0.002131,2.2614,2.0814,0.3555
6.9096,0.020090,-0.246649,0.246649,-0.302194,0.305262,-0.002141,2.2129,2.0958,0.3018
6.9297,0.020099,-0.231294,0.231294,-0.283786,0.289922,-0.002140,2.2179,2.0943,0.3074
6.9498,0.020090,-0.215438,0.215438,-0.268447,0.276117,-0.002130,2.2670,2.0800,0.3617
6.9699,0.020096,-0.199211,0.199211,-0.254641,0.259243,-0.002131,2.2618,2.0815,0.3560
6.9901,0.020230,-0.182653,0.182653,-0.242369,0.245437,-0.002131,2.2618,2.0815,0.3560
7.0102,0.020088,-0.166137,0.166137,-0.223961,0.227029,-0.002128,2.1634,2.0769,0.2477
7.0303,0.020090,-0.149695,0.149695,-0.205553,0.213223,-0.002131,2.2726,2.0818,0.3679
7.0504,0.020089,-0.133477,0.133477,-0.188680,0.196350,-0.002121,2.2732,2.1314,0.3018
7.0705,0.020102,-0.117616,0.117616,-0.174874,0.181010,-0.002132,2.2612,2.0762,0.3623
7.0907,0.020232,-0.102167,0.102167,-0.158000,0.161068,-0.002128,2.1635,2.0774,0.2470
7.1108,0.020090,-0.087477,0.087477,-0.141126,0.142660,-0.002131,2.2726,2.0817,0.3680
7.1309,0.020084,-0.073572,0.073572,-0.124252,0.124252,-0.002131,2.2613,2.0814,0.3554
7.1510,0.020087,-0.060568,0.060568,-0.108913,0.107379,-0.002131,2.2628,2.0814,0.3571
7.1711,0.020084,-0.048586,0.048586,-0.090505,0.090505,-0.002141,2.2127,2.0958,0.3016
7.1912,0.020093,-0.037726,0.037726,-0.076699,0.075165,-0.002140,2.2179,2.0943,0.3074
7.2113,0.020092,-0.028093,0.028093,-0.062893,0.059825,-0.002140,2.2179,2.0943,0.3074
7.2313,0.020090,-0.019772,0.019772,-0.049087,0.049087,-0.002130,2.2670,2.0800,0.3617
7.2514,0.020085,-0.012839,0.012839,-0.035282,0.036816,-0.002142,2.2123,2.0959,0.3011
7.2715,0.020049,-0.007362,0.007362,-0.024544,0.027612,-0.002130,2.2675,2.0799,0.3623
7.2916,0.020093,-0.003369,0.003369,-0.019942,0.019942,-0.002118,2.2124,2.0626,0.3019
7.3117,0.020091,-0.000909,0.000909,-0.013806,0.010738,-0.002143,2.2180,2.0978,0.3074
7.3318,0.020095,-0.000005,0.000005,-0.009204,0.004602,-0.002140,2.2174,2.0941,0.3068
7.3518,0.020090,-0.000664,0.000664,-0.001534,0.003068,-0.002130,2.2670,2.0801,0.3618
7.3719,0.020094,-0.002881,0.002881,0.001534,0.001534,-0.002118,2.2124,2.0626,0.3020
7.3920,0.020097,-0.006636,0.006636,-0.003068,0.000000,-0.002119,2.2181,2.0644,0.3082
7.4121,0.020096,-0.011896,0.011896,-0.004602,0.000000,-0.002143,2.2174,2.0976,0.3067
7.4322,0.020094,-0.018612,0.018612,-0.001534,0.000000,-0.002117,2.2176,2.0608,0.3077
7.4526,0.020381,-0.026852,0.026852,0.000000,0.003068,-0.002119,2.2176,2.0646,0.3076
7.4727,0.020094,-0.036308,0.036308,-0.007670,0.012272,-0.002129,2.1681,2.0787,0.2527
7.4928,0.020091,-0.047001,0.047001,-0.018408,0.018408,-0.002131,2.2721,2.0816,0.3674
7.5129,0.020095,-0.058839,0.058839,-0.030680,0.019942,-0.002121,2.2733,2.1314,0.3019
7.5330,0.020093,-0.071712,0.071712,-0.038350,0.026078,-0.002142,2.2116,2.0906,0.3074
7.5531,0.020091,-0.085504,0.085504,-0.039884,0.039884,-0.002130,2.2676,2.0804,0.3617
7.5732,0.020095,-0.100098,0.100098,-0.049087,0.055223,-0.002142,2.2122,2.0959,0.3011
7.5933,0.020092,-0.115356,0.115356,-0.067495,0.072097,-0.002140,2.2180,2.0943,0.3075
7.6134,0.020094,-0.131146,0.131146,-0.085903,0.085903,-0.002127,2.1680,2.0756,0.2527
7.6334,0.020095,-0.147324,0.147324,-0.104311,0.098175,-0.002118,2.2228,2.0630,0.3133
7.6535,0.020091,-0.163745,0.163745,-0.118117,0.113515,-0.002129,2.1675,2.0788,0.2521
7.6736,0.020093,-0.180262,0.180262,-0.133456,0.130388,-0.002142,2.2226,2.0961,0.3126
7.6937,0.020087,-0.196724,0.196724,-0.148796,0.145728,-0.002117,2.2171,2.0609,0.3071
7.7138,0.020098,-0.212996,0.212996,-0.164136,0.161068,-0.002143,2.2175,2.0980,0.3068
7.7339,0.020092,-0.228918,0.228918,-0.179476,0.177942,-0.002140,2.2174,2.0941,0.3069
7.7540,0.020105,-0.244363,0.244363,-0.197884,0.193282,-0.002130,2.2670,2.0801,0.3618
7.7741,0.020084,-0.259167,0.259167,-0.214757,0.210155,-0.002131,2.2618,2.0815,0.3560
7.7942,0.020097,-0.273222,0.273222,-0.231631,0.230097,-0.002131,2.2618,2.0815,0.3560
7.8143,0.020093,-0.286390,0.286390,-0.240835,0.240835,-0.002131,2.2618,2.0815,0.3560
7.8344,0.020090,-0.298554,0.298554,-0.253107,0.253107,-0.002128,2.1634,2.0769,0.2477
7.8545,0.020094,-0.309609,0.309609,-0.268447,0.268447,-0.002142,2.2231,2.0963,0.3130
7.8746,0.020094,-0.319454,0.319454,-0.283786,0.283786,-0.002130,2.2664,2.0798,0.3611
7.8947,0.020097,-0.328002,0.328002,-0.300660,0.296058,-0.002131,2.2619,2.0816,0.3561
7.9148,0.020097,-0.335175,0.335175,-0.309864,0.305262,-0.002108,2.2250,2.1124,0.2490
7.9349,0.020105,-0.340909,0.340909,-0.320602,0.317534,-0.002134,2.2662,2.0782,0.3678
7.9550,0.020088,-0.345149,0.345149,-0.331340,0.326738,-0.002131,2.2619,2.0817,0.3554
7.9750,0.020093,-0.347861,0.347861,-0.332874,0.329806,-0.002118,2.2130,2.0624,0.3026
7.9956,0.020582,-0.349029,0.349029,-0.337476,0.340544,-0.002143,2.2179,2.0978,0.3073
8.0157,0.020105,-0.348586,0.348586,-0.351282,0.343612,-0.002116,2.2176,2.0607,0.3077
8.0358,0.020099,-0.346583,0.346583,-0.351282,0.348214,-0.002119,2.2176,2.0646,0.3076
8.0563,0.020449,-0.342963,0.342963,-0.352816,0.349748,-0.002129,2.1681,2.0787,0.2527
8.0764,0.020100,-0.337881,0.337881,-0.351282,0.346680,-0.002128,2.1732,2.0772,0.2585
8.0965,0.020098,-0.331335,0.331335,-0.348214,0.343612,-0.002142,2.2220,2.0962,0.3119
8.1166,0.020086,-0.323389,0.323389,-0.345146,0.342078,-0.002130,2.2665,2.0798,0.3612
8.1367,0.020106,-0.314100,0.314100,-0.343612,0.339010,-0.002142,2.2123,2.0960,0.3012
8.1568,0.020101,-0.303563,0.303563,-0.340544,0.335942,-0.002130,2.2675,2.0799,0.3623
8.1769,0.020098,-0.291870,0.291870,-0.337476,0.331340,-0.002142,2.2122,2.0960,0.3011
8.1970,0.020094,-0.279128,0.279128,-0.326738,0.325204,-0.002130,2.2300,2.1443,0.2539
8.2171,0.020097,-0.265446,0.265446,-0.312932,0.312932,-0.002131,2.2281,2.1393,0.2588
8.2372,0.020097,-0.250950,0.250950,-0.299126,0.300660,-0.002128,2.1670,2.0709,0.2578
8.2573,0.020101,-0.235767,0.235767,-0.283786,0.286854,-0.002131,2.2723,2.0824,0.3669
8.2774,0.020100,-0.220035,0.220035,-0.269981,0.274583,-0.002131,2.2613,2.0813,0.3555
8.2975,0.020094,-0.203899,0.203899,-0.256175,0.260777,-0.002118,2.2130,2.0624,0.3026
8.3175,0.020086,-0.187507,0.187507,-0.242369,0.245437,-0.002133,2.2674,2.0834,0.3622
8.3376,0.020092,-0.170995,0.170995,-0.227029,0.230097,-0.002131,2.2618,2.0812,0.3560
8.3577,0.020095,-0.154511,0.154511,-0.208621,0.214757,-0.002131,2.2618,2.0812,0.3560
8.3778,0.020094,-0.138208,0.138208,-0.191748,0.197884,-0.002141,2.2128,2.0958,0.3017
8.3979,0.020094,-0.122230,0.122230,-0.173340,0.181010,-0.002140,2.2179,2.0943,0.3074
8.4180,0.020083,-0.106729,0.106729,-0.156466,0.161068,-0.002130,2.2670,2.0800,0.3617
8.4381,0.020092,-0.091829,0.091829,-0.141126,0.141126,-0.002142,2.2123,2.0959,0.3011
8.4582,0.020093,-0.077669,0.077669,-0.124252,0.122718,-0.002130,2.2675,2.0799,0.3623
8.4783,0.020092,-0.064376,0.064376,-0.108913,0.107379,-0.002131,2.2618,2.0816,0.3560
8.4984,0.020094,-0.052070,0.052070,-0.090505,0.090505,-0.002131,2.2618,2.0816,0.3560
8.5185,0.020088,-0.040864,0.040864,-0.076699,0.075165,-0.002131,2.2618,2.0816,0.3560
8.5385,0.020090,-0.030854,0.030854,-0.062893,0.059825,-0.002131,2.2618,2.0816,0.3560
8.5586,0.020093,-0.022130,0.022130,-0.047553,0.049087,-0.002128,2.1635,2.0769,0.2477
8.5787,0.020088,-0.014772,0.014772,-0.035282,0.036816,-0.002131,2.2726,2.0818,0.3679
8.5988,0.020111,-0.008839,0.008839,-0.027612,0.029146,-0.002141,2.2117,2.0958,0.3005
8.6189,0.020096,-0.004396,0.004396,-0.019942,0.021476,-0.002117,2.2182,2.0609,0.3084
8.6390,0.020089,-0.001478,0.001478,-0.013806,0.012272,-0.002143,2.2174,2.0979,0.3067
8.6591,0.020089,-0.000110,0.000110,-0.006136,0.004602,-0.002140,2.2175,2.0941,0.3069
8.6792,0.020087,-0.000304,0.000304,0.000000,0.003068,-0.002141,2.2174,2.0946,0.3069
8.6993,0.020104,-0.002060,0.002060,0.001534,0.000000,-0.002130,2.2670,2.0800,0.3618
8.7194,0.020085,-0.005359,0.005359,-0.004602,-0.001534,-0.002131,2.2618,2.0815,0.3560
8.7395,0.020093,-0.010175,0.010175,-0.003068,0.000000,-0.002131,2.2618,2.0815,0.3560
8.7596,0.020089,-0.016462,0.016462,0.001534,0.000000,-0.002118,2.2130,2.0624,0.3026
8.7803,0.020741,-0.024437,0.024437,0.001534,0.000000,-0.002118,2.2130,2.0624,0.3026
8.8004,0.020107,-0.033537,0.033537,-0.001534,0.004602,-0.002133,2.2675,2.0834,0.3622
8.8205,0.020095,-0.043896,0.043896,-0.009204,0.013806,-0.002131,2.2618,2.0812,0.3560
8.8406,0.020099,-0.055427,0.055427,-0.018408,0.013806,-0.002131,2.2618,2.0812,0.3560
8.8608,0.020181,-0.068080,0.068080,-0.027612,0.013806,-0.002118,2.2130,2.0625,0.3026
8.8809,0.020104,-0.081641,0.081641,-0.033748,0.023010,-0.002143,2.2179,2.0978,0.3073
8.9010,0.020111,-0.096040,0.096040,-0.036816,0.035282,-0.002140,2.2174,2.0941,0.3068
8.9211,0.020097,-0.111133,0.111133,-0.046019,0.052155,-0.002127,2.1681,2.0756,0.2528
8.9412,0.020099,-0.126796,0.126796,-0.062893,0.070563,-0.002132,2.2721,2.0819,0.3674
8.9613,0.020106,-0.142892,0.142892,-0.082835,0.082835,-0.002131,2.2613,2.0813,0.3554
8.9827,0.021372,-0.160309,0.160309,-0.115049,0.108913,-0.002140,2.2179,2.0943,0.3074
9.0028,0.020131,-0.176851,0.176851,-0.115049,0.108913,-0.002140,2.2179,2.0943,0.3074
9.0229,0.020104,-0.193349,0.193349,-0.127320,0.125786,-0.002130,2.2670,2.0800,0.3617
9.0430,0.020116,-0.209688,0.209688,-0.142660,0.142660,-0.002121,2.2738,2.1316,0.3025
9.0631,0.020096,-0.225696,0.225696,-0.161068,0.158000,-0.002142,2.2116,2.0906,0.3073
9.0832,0.020094,-0.241244,0.241244,-0.176408,0.171806,-0.002117,2.2182,2.0615,0.3077
9.1033,0.020116,-0.256211,0.256211,-0.197884,0.191748,-0.002143,2.2174,2.0979,0.3068
9.1235,0.020108,-0.270438,0.270438,-0.213223,0.208621,-0.002140,2.2175,2.0941,0.3069
9.1436,0.020101,-0.283800,0.283800,-0.223961,0.222427,-0.002130,2.2670,2.0801,0.3618
9.1641,0.020570,-0.296459,0.296459,-0.236233,0.240835,-0.002131,2.2618,2.0815,0.3560
9.1842,0.020095,-0.307720,0.307720,-0.254641,0.256175,-0.002128,2.1634,2.0769,0.2477
9.2043,0.020100,-0.317791,0.317791,-0.271515,0.269981,-0.002131,2.2726,2.0818,0.3679
9.2244,0.020090,-0.326574,0.326574,-0.285320,0.283786,-0.002131,2.2613,2.0814,0.3554
9.2445,0.020112,-0.334002,0.334002,-0.300660,0.297592,-0.002141,2.2129,2.0958,0.3018
9.2646,0.020089,-0.339993,0.339993,-0.309864,0.305262,-0.002127,2.1685,2.0754,0.2533
9.2848,0.020183,-0.344519,0.344519,-0.319068,0.316000,-0.002132,2.2721,2.0820,0.3673
9.3049,0.020074,-0.347498,0.347498,-0.331340,0.328272,-0.002118,2.2119,2.0624,0.3014
9.3250,0.020102,-0.348930,0.348930,-0.335942,0.332874,-0.002133,2.2676,2.0834,0.3623
9.3451,0.020090,-0.348800,0.348800,-0.337476,0.339010,-0.002131,2.2618,2.0812,0.3560
9.3654,0.020325,-0.347079,0.347079,-0.351282,0.345146,-0.002131,2.2618,2.0812,0.3560
9.3855,0.020098,-0.343822,0.343822,-0.351282,0.345146,-0.002131,2.2618,2.0812,0.3560
9.4056,0.020101,-0.339048,0.339048,-0.349748,0.346680,-0.002141,2.2128,2.0958,0.3017
9.4257,0.020096,-0.332800,0.332800,-0.351282,0.348214,-0.002140,2.2179,2.0943,0.3074
9.4458,0.020084,-0.325139,0.325139,-0.349748,0.346680,-0.002140,2.2179,2.0943,0.3074
9.4659,0.020105,-0.316119,0.316119,-0.346680,0.343612,-0.002127,2.1680,2.0756,0.2528
9.4860,0.020090,-0.305838,0.305838,-0.345146,0.342078,-0.002121,2.2842,2.1320,0.3138
9.5061,0.020102,-0.294373,0.294373,-0.343612,0.339010,-0.002132,2.2600,2.0761,0.3610
9.5261,0.020091,-0.281841,0.281841,-0.340544,0.337476,-0.002121,2.2745,2.1320,0.3026
9.5463,0.020157,-0.268303,0.268303,-0.335942,0.331340,-0.002132,2.2610,2.0761,0.3622
9.5664,0.020128,-0.253940,0.253940,-0.328272,0.326738,-0.002131,2.2625,2.0819,0.3560
9.5865,0.020085,-0.238896,0.238896,-0.314466,0.316000,-0.002128,2.1634,2.0768,0.2477
9.6066,0.020054,-0.223300,0.223300,-0.300660,0.303728,-0.002131,2.2726,2.0818,0.3679
9.6267,0.020103,-0.207230,0.207230,-0.285320,0.291456,-0.002118,2.2119,2.0624,0.3013
9.6468,0.020105,-0.190865,0.190865,-0.271515,0.276117,-0.002133,2.2676,2.0834,0.3623
9.6669,0.020131,-0.174332,0.174332,-0.257709,0.262311,-0.002131,2.2618,2.0812,0.3560
9.6870,0.020086,-0.157838,0.157838,-0.243903,0.246971,-0.002128,2.1635,2.0769,0.2477
9.7071,0.020111,-0.141472,0.141472,-0.227029,0.230097,-0.002128,2.1737,2.0774,0.2590
9.7272,0.020090,-0.125421,0.125421,-0.208621,0.214757,-0.002118,2.2222,2.0628,0.3127
9.7473,0.020114,-0.109790,0.109790,-0.176408,0.182544,-0.002132,2.2665,2.0833,0.3611
9.7674,0.020102,-0.094750,0.094750,-0.176408,0.182544,-0.002131,2.2619,2.0812,0.3561
9.7875,0.020086,-0.080435,0.080435,-0.158000,0.162602,-0.002131,2.2619,2.0812,0.3561
9.8076,0.020089,-0.066962,0.066962,-0.124252,0.122718,-0.002131,2.2619,2.0812,0.3561
9.8277,0.020082,-0.054456,0.054456,-0.108913,0.107379,-0.002128,2.1634,2.0769,0.2477
9.8478,0.020090,-0.043020,0.043020,-0.090505,0.088971,-0.002118,2.2233,2.0629,0.3139
9.8679,0.020097,-0.032759,0.032759,-0.075165,0.075165,-0.002132,2.2664,2.0833,0.3610
9.8879,0.020084,-0.023773,0.023773,-0.058291,0.056757,-0.002141,2.2124,2.0956,0.3012
9.9080,0.020087,-0.016137,0.016137,-0.041417,0.041417,-0.002120,2.2795,2.1299,0.3088
9.9281,0.020080,-0.009920,0.009920,-0.027612,0.029146,-0.002119,2.2111,2.0574,0.3075
9.9482,0.020093,-0.005173,0.005173,-0.021476,0.021476,-0.002132,2.2676,2.0839,0.3617
9.9683,0.020091,-0.001944,0.001944,-0.018408,0.013806,-0.002118,2.2124,2.0622,0.3020
9.9885,0.020205,-0.000256,0.000256,-0.012272,0.007670,-0.002133,2.2675,2.0834,0.3623
10.0086,0.020094,-0.000143,0.000143,-0.004602,0.004602,-0.002131,2.2618,2.0812,0.3560
10.0287,0.020091,-0.001592,0.001592,0.001534,0.003068,-0.002131,2.2618,2.0812,0.3560
10.0488,0.020108,-0.004593,0.004593,0.001534,0.000000,-0.002131,2.2618,2.0812,0.3560
10.0689,0.020087,-0.009114,0.009114,-0.006136,0.000000,-0.002128,2.1635,2.0769,0.2477
10.0890,0.020086,-0.015115,0.015115,-0.003068,0.000000,-0.002131,2.2726,2.0818,0.3679
10.1091,0.020087,-0.022543,0.022543,0.001534,0.003068,-0.002141,2.2117,2.0958,0.3005
10.1291,0.020091,-0.031335,0.031335,-0.001534,0.009204,-0.002130,2.2676,2.0799,0.3624
10.1492,0.020085,-0.041405,0.041405,-0.010738,0.015340,-0.002131,2.2618,2.0816,0.3560
10.1693,0.020085,-0.052668,0.052668,-0.023010,0.019942,-0.002131,2.2618,2.0816,0.3560
10.1894,0.020082,-0.065019,0.065019,-0.038350,0.024544,-0.002131,2.2618,2.0816,0.3560
10.2095,0.020076,-0.078347,0.078347,-0.044485,0.035282,-0.002118,2.2130,2.0624,0.3026
10.2296,0.020082,-0.092539,0.092539,-0.047553,0.049087,-0.002133,2.2675,2.0834,0.3622
10.2496,0.020078,-0.107462,0.107462,-0.053689,0.064427,-0.002131,2.2618,2.0812,0.3560
10.2697,0.020080,-0.122986,0.122986,-0.070563,0.079767,-0.002128,2.1635,2.0769,0.2477
10.2898,0.020079,-0.138971,0.138971,-0.090505,0.093573,-0.002142,2.2231,2.0963,0.3130
10.3099,0.020076,-0.155271,0.155271,-0.111981,0.107379,-0.002130,2.2664,2.0798,0.3611
10.3300,0.020085,-0.171752,0.171752,-0.128854,0.122718,-0.002131,2.2619,2.0816,0.3561
10.3500,0.020076,-0.188249,0.188249,-0.142660,0.136524,-0.002141,2.2128,2.0958,0.3017
10.3701,0.020067,-0.204617,0.204617,-0.154932,0.154932,-0.002127,2.1685,2.0754,0.2533
10.3902,0.020102,-0.220743,0.220743,-0.171806,0.170272,-0.002118,2.2227,2.0631,0.3133
10.4103,0.020078,-0.236437,0.236437,-0.190214,0.187146,-0.002132,2.2664,2.0833,0.3611
10.4304,0.020082,-0.251581,0.251581,-0.208621,0.204019,-0.002128,2.1630,2.0767,0.2472
10.4504,0.020078,-0.266031,0.266031,-0.223961,0.220893,-0.002118,2.2233,2.0629,0.3139
10.4705,0.020083,-0.279667,0.279667,-0.236233,0.236233,-0.002143,2.2168,2.0977,0.3061
10.4906,0.020081,-0.292360,0.292360,-0.251573,0.251573,-0.002120,2.2791,2.1297,0.3083
10.5107,0.020076,-0.303996,0.303996,-0.268447,0.266913,-0.002143,2.2110,2.0908,0.3067
10.5308,0.020139,-0.314505,0.314505,-0.283786,0.280718,-0.002130,2.2677,2.0804,0.3618
10.5509,0.020076,-0.323728,0.323728,-0.297592,0.294524,-0.002118,2.2124,2.0625,0.3020
10.5711,0.020210,-0.331664,0.331664,-0.305262,0.302194,-0.002143,2.2180,2.0978,0.3074
10.5912,0.020091,-0.338142,0.338142,-0.317534,0.312932,-0.002140,2.2174,2.0941,0.3068
10.6115,0.020262,-0.343191,0.343191,-0.329806,0.328272,-0.002130,2.2670,2.0801,0.3618
10.6315,0.020086,-0.346680,0.346680,-0.334408,0.332874,-0.002118,2.1749,2.1270,0.1935
10.6516,0.020084,-0.348627,0.348627,-0.335942,0.335942,-0.002119,2.2221,2.0577,0.3195
10.6717,0.020122,-0.349016,0.349016,-0.345146,0.343612,-0.002143,2.2170,2.0983,0.3055
10.6918,0.020076,-0.347841,0.347841,-0.352816,0.346680,-0.002120,2.2791,2.1296,0.3083
10.7119,0.020087,-0.345115,0.345115,-0.351282,0.346680,-0.002132,2.2606,2.0764,0.3616
10.7320,0.020095,-0.340859,0.340859,-0.351282,0.346680,-0.002118,2.2131,2.0630,0.3020
10.7521,0.020078,-0.335118,0.335118,-0.351282,0.346680,-0.002133,2.2674,2.0833,0.3623
10.7722,0.020130,-0.327920,0.327920,-0.348214,0.343612,-0.002131,2.2618,2.0812,0.3560
10.7924,0.020183,-0.319319,0.319319,-0.345146,0.342078,-0.002141,2.2128,2.0958,0.3017
10.8125,0.020077,-0.309465,0.309465,-0.343612,0.340544,-0.002130,2.2675,2.0799,0.3623
10.8326,0.020089,-0.298396,0.298396,-0.342078,0.337476,-0.002131,2.2618,2.0816,0.3560
10.8526,0.020083,-0.286222,0.286222,-0.339010,0.332874,-0.002131,2.2618,2.0816,0.3560
10.8728,0.020153,-0.273001,0.273001,-0.329806,0.328272,-0.002131,2.2618,2.0816,0.3560
10.8930,0.020206,-0.258854,0.258854,-0.317534,0.317534,-0.002131,2.2618,2.0816,0.3560
10.9131,0.020086,-0.244034,0.244034,-0.303728,0.306796,-0.002141,2.2128,2.0958,0.3017
10.9332,0.020084,-0.228593,0.228593,-0.288388,0.292990,-0.002130,2.2675,2.0799,0.3623
10.9532,0.020077,-0.212674,0.212674,-0.274583,0.279185,-0.002142,2.2122,2.0960,0.3011
10.9734,0.020111,-0.196387,0.196387,-0.260777,0.263845,-0.002130,2.2676,2.0799,0.3624
10.9934,0.020089,-0.179920,0.179920,-0.245437,0.246971,-0.002128,2.1629,2.0770,0.2470
11.0135,0.020094,-0.163402,0.163402,-0.230097,0.231631,-0.002131,2.2727,2.0818,0.3680
11.0336,0.020091,-0.146986,0.146986,-0.211689,0.217825,-0.002131,2.2612,2.0814,0.3554
11.0537,0.020080,-0.130826,0.130826,-0.194816,0.200951,-0.002131,2.2628,2.0814,0.3571
11.0738,0.020097,-0.115043,0.115043,-0.177942,0.184078,-0.002131,2.2628,2.0814,0.3571
11.0940,0.020176,-0.099735,0.099735,-0.162602,0.167204,-0.002121,2.2743,2.1314,0.3030
11.1141,0.020081,-0.085169,0.085169,-0.145728,0.148796,-0.002132,2.2611,2.0762,0.3622
11.1342,0.020096,-0.071393,0.071393,-0.130388,0.130388,-0.002141,2.2129,2.0963,0.3011
11.1550,0.020877,-0.058063,0.058063,-0.115049,0.113515,-0.002140,2.2179,2.0943,0.3075
11.1752,0.020112,-0.046284,0.046284,-0.096641,0.096641,-0.002130,2.2670,2.0800,0.3617
11.1952,0.020081,-0.035672,0.035672,-0.082835,0.081301,-0.002131,2.2618,2.0815,0.3560
11.2153,0.020098,-0.026296,0.026296,-0.069029,0.065961,-0.002131,2.2618,2.0815,0.3560
11.2357,0.020327,-0.018164,0.018164,-0.055223,0.053689,-0.002131,2.2618,2.0815,0.3560
11.2557,0.020084,-0.011537,0.011537,-0.039884,0.041417,-0.002131,2.2618,2.0815,0.3560
11.2758,0.020079,-0.006370,0.006370,-0.029146,0.032214,-0.002121,2.2744,2.1314,0.3031
11.2959,0.020083,-0.002708,0.002708,-0.019942,0.023010,-0.002132,2.2611,2.0762,0.3621
11.3160,0.020094,-0.000582,0.000582,-0.013806,0.013806,-0.002131,2.2625,2.0819,0.3560
11.3362,0.020184,-0.000016,0.000016,-0.009204,0.004602,-0.002118,2.2129,2.0624,0.3026
11.3563,0.020082,-0.001018,0.001018,-0.003068,0.004602,-0.002133,2.2675,2.0834,0.3622
11.3765,0.020265,-0.003604,0.003604,0.000000,-0.001534,-0.002128,2.1629,2.0767,0.2470
11.3969,0.020335,-0.007764,0.007764,-0.006136,-0.001534,-0.002142,2.2231,2.0963,0.3131
11.4169,0.020076,-0.013372,0.013372,-0.003068,0.001534,-0.002130,2.2664,2.0798,0.3611
11.4371,0.020164,-0.020456,0.020456,0.001534,0.004602,-0.002131,2.2619,2.0816,0.3561
11.4572,0.020081,-0.028892,0.028892,-0.004602,0.012272,-0.002131,2.2619,2.0816,0.3561
11.4773,0.020126,-0.038655,0.038655,-0.015340,0.016874,-0.002118,2.2130,2.0624,0.3026
11.4974,0.020104,-0.049627,0.049627,-0.027612,0.019942,-0.002133,2.2675,2.0834,0.3622
11.5175,0.020075,-0.061701,0.061701,-0.038350,0.026078,-0.002131,2.2618,2.0812,0.3560
11.5376,0.020113,-0.074809,0.074809,-0.044485,0.036816,-0.002131,2.2618,2.0812,0.3560
11.5577,0.020082,-0.088790,0.088790,-0.050621,0.053689,-0.002131,2.2618,2.0812,0.3560
11.5779,0.020163,-0.103598,0.103598,-0.064427,0.070563,-0.002131,2.2618,2.0812,0.3560
11.5981,0.020237,-0.119105,0.119105,-0.082835,0.082835,-0.002131,2.2618,2.0812,0.3560
11.6182,0.020084,-0.134993,0.134993,-0.101243,0.095107,-0.002131,2.2618,2.0812,0.3560
11.6383,0.020114,-0.151260,0.151260,-0.115049,0.108913,-0.002131,2.2618,2.0812,0.3560
11.6584,0.020084,-0.167711,0.167711,-0.128854,0.122718,-0.002141,2.2128,2.0958,0.3017
11.6785,0.020082,-0.184221,0.184221,-0.144194,0.141126,-0.002140,2.2179,2.0943,0.3074
11.6986,0.020104,-0.200662,0.200662,-0.161068,0.158000,-0.002130,2.2670,2.0800,0.3617
11.7187,0.020120,-0.216882,0.216882,-0.177942,0.174874,-0.002131,2.2618,2.0815,0.3560
11.7388,0.020103,-0.232708,0.232708,-0.194816,0.190214,-0.002128,2.1634,2.0769,0.2477
11.7591,0.020292,-0.248154,0.248154,-0.211689,0.207087,-0.002131,2.2726,2.0818,0.3679
11.7792,0.020120,-0.262804,0.262804,-0.225495,0.223961,-0.002141,2.2117,2.0958,0.3005
11.8009,0.021692,-0.277708,0.277708,-0.240835,0.240835,-0.002140,2.2180,2.0943,0.3075
11.8210,0.020086,-0.290551,0.290551,-0.254641,0.254641,-0.002130,2.2669,2.0800,0.3617
11.8411,0.020089,-0.302357,0.302357,-0.269981,0.268447,-0.002142,2.2123,2.0959,0.3011
11.8611,0.020077,-0.313011,0.313011,-0.286854,0.286854,-0.002130,2.2675,2.0799,0.3623
11.8812,0.020081,-0.322430,0.322430,-0.302194,0.297592,-0.002131,2.2618,2.0816,0.3560
11.9013,0.020105,-0.330533,0.330533,-0.311398,0.308330,-0.002128,2.1635,2.0769,0.2477
11.9214,0.020087,-0.337232,0.337232,-0.320602,0.319068,-0.002131,2.2726,2.0818,0.3679
11.9415,0.020080,-0.342473,0.342473,-0.332874,0.328272,-0.002131,2.2613,2.0814,0.3554
11.9616,0.020079,-0.346211,0.346211,-0.335942,0.332874,-0.002118,2.2130,2.0624,0.3026
11.9819,0.020338,-0.348432,0.348432,-0.337476,0.340544,-0.002143,2.2179,2.0978,0.3073
12.0021,0.020212,-0.349057,0.349057,-0.349748,0.343612,-0.002130,2.2670,2.0797,0.3617
12.0222,0.020085,-0.348111,0.348111,-0.352816,0.345146,-0.002131,2.2618,2.0816,0.3560
12.0424,0.020168,-0.345598,0.345598,-0.351282,0.348214,-0.002131,2.2618,2.0816,0.3560
12.0624,0.020076,-0.341563,0.341563,-0.351282,0.348214,-0.002141,2.2128,2.0958,0.3017
12.0826,0.020112,-0.336023,0.336023,-0.351282,0.346680,-0.002117,2.2181,2.0609,0.3082
12.1026,0.020089,-0.329042,0.329042,-0.348214,0.345146,-0.002133,2.2669,2.0835,0.3616
12.1227,0.020082,-0.320681,0.320681,-0.346680,0.343612,-0.002118,2.2125,2.0622,0.3020
12.1430,0.020309,-0.310895,0.310895,-0.343612,0.340544,-0.002119,2.1806,2.1289,0.1997
12.1633,0.020261,-0.299889,0.299889,-0.340544,0.335942,-0.002132,2.2708,2.0764,0.3729
12.1834,0.020076,-0.287857,0.287857,-0.337476,0.331340,-0.002128,2.1625,2.0774,0.2459
12.2035,0.020101,-0.274794,0.274794,-0.326738,0.326738,-0.002118,2.2234,2.0628,0.3141
12.2236,0.020088,-0.260842,0.260842,-0.314466,0.314466,-0.002119,2.2170,2.0644,0.3070
12.2437,0.020159,-0.246064,0.246064,-0.299126,0.302194,-0.002132,2.2670,2.0832,0.3617
12.2639,0.020174,-0.230629,0.230629,-0.283786,0.288388,-0.002131,2.2618,2.0812,0.3560
12.2840,0.020075,-0.214766,0.214766,-0.269981,0.274583,-0.002141,2.2128,2.0958,0.3017
12.3041,0.020122,-0.198505,0.198505,-0.257709,0.260777,-0.002130,2.2675,2.0799,0.3623
12.3242,0.020083,-0.182061,0.182061,-0.240835,0.243903,-0.002131,2.2618,2.0816,0.3560
12.3443,0.020093,-0.165541,0.165541,-0.225495,0.227029,-0.002131,2.2618,2.0816,0.3560
12.3644,0.020100,-0.149097,0.149097,-0.210155,0.214757,-0.002141,2.2128,2.0958,0.3017
12.3845,0.020082,-0.132894,0.132894,-0.188680,0.194816,-0.002117,2.2181,2.0609,0.3082
12.4046,0.020105,-0.117047,0.117047,-0.170272,0.177942,-0.002133,2.2293,2.1480,0.2531
12.4246,0.020088,-0.101727,0.101727,-0.154932,0.159534,-0.002131,2.2658,2.0745,0.3673
12.4447,0.020091,-0.087058,0.087058,-0.136524,0.139592,-0.002131,2.2620,2.0821,0.3554
12.4648,0.020097,-0.073168,0.073168,-0.122718,0.122718,-0.002131,2.2625,2.0811,0.3571
12.4849,0.020081,-0.060197,0.060197,-0.107379,0.105845,-0.002131,2.2625,2.0811,0.3571
12.5050,0.020097,-0.048239,0.048239,-0.092039,0.090505,-0.002128,2.1634,2.0769,0.2476
12.5251,0.020127,-0.037398,0.037398,-0.076699,0.075165,-0.002131,2.2726,2.0818,0.3679
12.5452,0.020090,-0.027807,0.027807,-0.062893,0.061359,-0.002131,2.2612,2.0814,0.3554
12.5653,0.020091,-0.019529,0.019529,-0.049087,0.049087,-0.002141,2.2129,2.0958,0.3018
12.5854,0.020081,-0.012642,0.012642,-0.035282,0.036816,-0.002130,2.2675,2.0799,0.3623
12.6055,0.020107,-0.007198,0.007198,-0.024544,0.027612,-0.002131,2.2618,2.0816,0.3560
12.6257,0.020223,-0.003237,0.003237,-0.018408,0.018408,-0.002118,2.2130,2.0624,0.3026
12.6459,0.020151,-0.000836,0.000836,-0.012272,0.009204,-0.002133,2.2675,2.0834,0.3622
12.6667,0.020777,-0.000000,0.000000,-0.007670,0.004602,-0.002131,2.2618,2.0812,0.3560
12.6867,0.020081,-0.000780,0.000780,0.000000,0.003068,-0.002121,2.2744,2.1314,0.3031
12.7068,0.020087,-0.003116,0.003116,0.001534,0.001534,-0.002132,2.2235,2.1406,0.2537
12.7269,0.020085,-0.006987,0.006987,-0.003068,0.000000,-0.002128,2.1674,2.0708,0.2584
12.7474,0.020512,-0.012487,0.012487,-0.003068,0.000000,-0.002131,2.2722,2.0824,0.3668
12.7677,0.020295,-0.019418,0.019418,0.001534,0.001534,-0.002131,2.2613,2.0813,0.3555
12.7878,0.020080,-0.027672,0.027672,-0.001534,0.006136,-0.002141,2.2129,2.0958,0.3018
12.8079,0.020099,-0.037249,0.037249,-0.009204,0.013806,-0.002140,2.2179,2.0943,0.3074
12.8280,0.020075,-0.048042,0.048042,-0.019942,0.018408,-0.002127,2.1680,2.0756,0.2528
12.8480,0.020075,-0.059968,0.059968,-0.032214,0.021476,-0.002132,2.2721,2.0819,0.3674
12.8681,0.020090,-0.072927,0.072927,-0.039884,0.026078,-0.002118,2.2119,2.0624,0.3014
12.8882,0.020078,-0.086789,0.086789,-0.044485,0.039884,-0.002129,2.1687,2.0789,0.2534
12.9084,0.020141,-0.101482,0.101482,-0.052155,0.058291,-0.002128,2.1732,2.0772,0.2584
12.9284,0.020080,-0.116785,0.116785,-0.069029,0.073631,-0.002118,2.2222,2.0629,0.3128
12.9488,0.020332,-0.132806,0.132806,-0.087437,0.087437,-0.002132,2.2665,2.0833,0.3611
12.9689,0.020092,-0.149015,0.149015,-0.105845,0.099709,-0.002141,2.2123,2.0956,0.3012
12.9892,0.020288,-0.165613,0.165613,-0.119651,0.113515,-0.002130,2.2675,2.0799,0.3623
13.0092,0.020085,-0.182126,0.182126,-0.134990,0.131922,-0.002131,2.2618,2.0816,0.3560
13.0294,0.020148,-0.198623,0.198623,-0.150330,0.147262,-0.002118,2.2130,2.0624,0.3026
13.0495,0.020076,-0.214845,0.214845,-0.167204,0.165670,-0.002133,2.2675,2.0834,0.3622
13.0696,0.020104,-0.230728,0.230728,-0.185612,0.181010,-0.002131,2.2618,2.0812,0.3560
13.0896,0.020076,-0.246086,0.246086,-0.202485,0.196350,-0.002141,2.2128,2.0958,0.3017
13.1097,0.020080,-0.260807,0.260807,-0.217825,0.213223,-0.002117,2.2181,2.0609,0.3082
13.1298,0.020111,-0.274776,0.274776,-0.231631,0.231631,-0.002133,2.2669,2.0835,0.3616
13.1499,0.020077,-0.287826,0.287826,-0.248505,0.246971,-0.002121,2.2738,2.1312,0.3025
13.1700,0.020105,-0.299877,0.299877,-0.262311,0.262311,-0.002132,2.2611,2.0762,0.3622
13.1901,0.020108,-0.310806,0.310806,-0.276117,0.274583,-0.002128,2.1635,2.0774,0.2470
13.2104,0.020288,-0.320593,0.320593,-0.289922,0.288388,-0.002142,2.2231,2.0962,0.3131
13.2305,0.020099,-0.328974,0.328974,-0.300660,0.296058,-0.002127,2.1675,2.0754,0.2522
13.2506,0.020082,-0.335965,0.335965,-0.311398,0.306796,-0.002142,2.2226,2.0964,0.3126
13.2707,0.020092,-0.341514,0.341514,-0.325204,0.322136,-0.002140,2.2169,2.0943,0.3063
13.2909,0.020263,-0.345595,0.345595,-0.332874,0.329806,-0.002130,2.2671,2.0800,0.3618
13.3110,0.020081,-0.348102,0.348102,-0.335942,0.331340,-0.002131,2.2618,2.0815,0.3560
13.3311,0.020094,-0.349056,0.349056,-0.345146,0.343612,-0.002131,2.2618,2.0815,0.3560
13.3512,0.020081,-0.348448,0.348448,-0.348214,0.343612,-0.002131,2.2618,2.0815,0.3560
13.3713,0.020110,-0.346279,0.346279,-0.348214,0.342078,-0.002118,2.2130,2.0624,0.3026
13.3916,0.020257,-0.342535,0.342535,-0.351282,0.349748,-0.002133,2.2675,2.0834,0.3622
13.4118,0.020257,-0.337263,0.337263,-0.352816,0.349748,-0.002128,2.1629,2.0767,0.2470
13.4319,0.020100,-0.330566,0.330566,-0.349748,0.345146,-0.002128,2.1738,2.0774,0.2590
13.4520,0.020093,-0.322473,0.322473,-0.346680,0.343612,-0.002131,2.2716,2.0818,0.3667
13.4723,0.020252,-0.312976,0.312976,-0.343612,0.340544,-0.002118,2.2120,2.0624,0.3015
13.4924,0.020178,-0.302260,0.302260,-0.342078,0.339010,-0.002133,2.2676,2.0834,0.3623
13.5125,0.020086,-0.290447,0.290447,-0.339010,0.334408,-0.002131,2.2618,2.0812,0.3560
13.5326,0.020099,-0.277587,0.277587,-0.332874,0.329806,-0.002131,2.2248,2.1458,0.2482
13.5529,0.020231,-0.263711,0.263711,-0.322136,0.322136,-0.002131,2.2662,2.0747,0.3679
13.5730,0.020093,-0.249126,0.249126,-0.308330,0.309864,-0.002131,2.2619,2.0821,0.3554
13.5931,0.020179,-0.233808,0.233808,-0.292990,0.297592,-0.002128,2.1634,2.0768,0.2478
13.6132,0.020082,-0.218031,0.218031,-0.277651,0.282252,-0.002131,2.2726,2.0818,0.3679
13.6333,0.020095,-0.201854,0.201854,-0.263845,0.268447,-0.002141,2.2117,2.0958,0.3005
13.6535,0.020169,-0.185372,0.185372,-0.250039,0.251573,-0.002127,2.1687,2.0754,0.2535
13.6736,0.020104,-0.168846,0.168846,-0.234699,0.237767,-0.002132,2.2721,2.0820,0.3673
13.6939,0.020291,-0.152217,0.152217,-0.217825,0.222427,-0.002131,2.2613,2.0813,0.3554
13.7140,0.020083,-0.135960,0.135960,-0.199418,0.207087,-0.002131,2.2613,2.0813,0.3554
13.7340,0.020085,-0.120045,0.120045,-0.182544,0.188680,-0.002141,2.2129,2.0958,0.3018
13.7541,0.020098,-0.104609,0.104609,-0.168738,0.174874,-0.002106,2.2301,2.1109,0.2547
13.7742,0.020087,-0.089808,0.089808,-0.151864,0.154932,-0.002134,2.2656,2.0783,0.3672
13.7943,0.020087,-0.075765,0.075765,-0.134990,0.136524,-0.002128,2.1630,2.0772,0.2465
13.8144,0.020085,-0.062608,0.062608,-0.119651,0.119651,-0.002131,2.2727,2.0818,0.3680
13.8345,0.020099,-0.050444,0.050444,-0.102777,0.102777,-0.002131,2.2612,2.0814,0.3554
13.8546,0.020090,-0.039397,0.039397,-0.088971,0.087437,-0.002131,2.2628,2.0814,0.3571
13.8749,0.020266,-0.029481,0.029481,-0.073631,0.072097,-0.002131,2.2628,2.0814,0.3571
13.8950,0.020099,-0.020951,0.020951,-0.044485,0.044485,-0.002131,2.2628,2.0814,0.3571
13.9150,0.020084,-0.013803,0.013803,-0.044485,0.044485,-0.002131,2.2628,2.0814,0.3571
13.9351,0.020100,-0.008090,0.008090,-0.023010,0.026078,-0.002118,2.2129,2.0624,0.3025
13.9552,0.020081,-0.003872,0.003872,-0.016874,0.016874,-0.002133,2.2675,2.0834,0.3622
