t,loop_dt,cmd_ant_l,cmd_ant_r,pres_ant_l,pres_ant_r,pres_z,pres_roll,pres_pitch,pres_yaw
0.0000,0.000001,-0.349066,0.349066,-0.179476,0.177942,-0.002234,2.6382,2.1782,0.5020
0.0201,0.020086,-0.348076,0.348076,-0.179476,0.177942,-0.002234,2.6382,2.1782,0.5020
0.0402,0.020084,-0.345105,0.345105,-0.181010,0.177942,-0.002234,2.6382,2.1782,0.5020
0.0603,0.020106,-0.340148,0.340148,-0.228563,0.225495,-0.002223,2.6883,2.1631,0.5567
0.0804,0.020087,-0.333214,0.333214,-0.314466,0.308330,-0.002210,2.6333,2.1455,0.4972
0.1005,0.020092,-0.324298,0.324298,-0.366621,0.362019,-0.002188,2.6010,2.1782,0.3961
0.1205,0.020087,-0.313402,0.313402,-0.381961,0.372757,-0.002163,2.5051,2.1366,0.2988
0.1406,0.020093,-0.300653,0.300653,-0.369689,0.360485,-0.002165,2.5151,2.1410,0.3090
0.1607,0.020096,-0.287500,0.287500,-0.346680,0.343612,-0.002175,2.4134,2.1077,0.3609
0.1808,0.020093,-0.274349,0.274349,-0.323670,0.328272,-0.002161,2.4633,2.0750,0.3020
0.2009,0.020087,-0.261203,0.261203,-0.305262,0.308330,-0.002135,2.3590,2.0405,0.2003
0.2210,0.020085,-0.248057,0.248057,-0.289922,0.294524,-0.002138,2.3699,2.0442,0.2109
0.2411,0.020090,-0.234908,0.234908,-0.277651,0.282252,-0.002137,2.3684,2.0437,0.2094
0.2612,0.020092,-0.221758,0.221758,-0.266913,0.271515,-0.002137,2.3684,2.0437,0.2094
0.2813,0.020090,-0.208609,0.208609,-0.256175,0.257709,-0.002140,2.3794,2.0655,0.3182
0.3014,0.020087,-0.195463,0.195463,-0.245437,0.246971,-0.002127,2.4175,2.0271,0.2534
0.3214,0.020094,-0.182311,0.182311,-0.233165,0.234699,-0.002128,2.4135,2.0311,0.2602
0.3415,0.020088,-0.169163,0.169163,-0.216291,0.220893,-0.002141,2.3747,2.0668,0.3130
0.3619,0.020341,-0.155850,0.155850,-0.200951,0.205553,-0.002127,2.4180,2.0270,0.2540
0.3820,0.020095,-0.142698,0.142698,-0.188680,0.194816,-0.002128,2.4135,2.0312,0.2601
0.4021,0.020094,-0.129546,0.129546,-0.176408,0.181010,-0.002128,2.4135,2.0312,0.2601
0.4222,0.020090,-0.116397,0.116397,-0.164136,0.167204,-0.002128,2.4135,2.0312,0.2601
0.4422,0.020084,-0.103252,0.103252,-0.151864,0.151864,-0.002128,2.4135,2.0312,0.2601
0.4623,0.020094,-0.090101,0.090101,-0.138058,0.138058,-0.002128,2.4135,2.0312,0.2601
0.4824,0.020086,-0.076954,0.076954,-0.124252,0.124252,-0.002128,2.4135,2.0312,0.2601
0.5025,0.020097,-0.063801,0.063801,-0.111981,0.111981,-0.002128,2.4135,2.0312,0.2601
0.5226,0.020084,-0.050656,0.050656,-0.096641,0.096641,-0.002128,2.4135,2.0312,0.2601
0.5427,0.020098,-0.037717,0.037717,-0.085903,0.084369,-0.002128,2.4135,2.0312,0.2601
0.5628,0.020097,-0.026479,0.026479,-0.070563,0.070563,-0.002128,2.4135,2.0312,0.2601
0.5829,0.020088,-0.017228,0.017228,-0.058291,0.059825,-0.002118,2.4258,2.0807,0.2060
0.6030,0.020097,-0.009954,0.009954,-0.044485,0.046019,-0.002129,2.4126,2.0256,0.2651
0.6231,0.020097,-0.004663,0.004663,-0.029146,0.032214,-0.002128,2.4140,2.0313,0.2590
0.6432,0.020095,-0.001354,0.001354,-0.016874,0.021476,-0.002128,2.4140,2.0313,0.2590
0.6633,0.020091,-0.000028,0.000028,-0.007670,0.010738,-0.002128,2.4140,2.0313,0.2590
0.6834,0.020100,-0.000684,0.000684,-0.006136,0.001534,-0.002128,2.4140,2.0313,0.2590
0.7035,0.020108,-0.003325,0.003325,-0.004602,0.000000,-0.002128,2.4140,2.0313,0.2590
0.7236,0.020101,-0.007949,0.007949,-0.001534,0.001534,-0.002128,2.4140,2.0313,0.2590
0.7437,0.020089,-0.014551,0.014551,0.001534,0.000000,-0.002128,2.4140,2.0313,0.2590
0.7638,0.020091,-0.023136,0.023136,-0.003068,0.001534,-0.002141,2.3746,2.0668,0.3131
0.7839,0.020095,-0.033704,0.033704,-0.010738,0.009204,-0.002127,2.4180,2.0270,0.2540
0.8039,0.020092,-0.046214,0.046214,-0.013806,0.013806,-0.002128,2.4134,2.0312,0.2601
0.8240,0.020106,-0.059373,0.059373,-0.016874,0.015340,-0.002128,2.4134,2.0312,0.2601
0.8441,0.020090,-0.072522,0.072522,-0.027612,0.021476,-0.002128,2.4134,2.0312,0.2601
0.8642,0.020088,-0.085669,0.085669,-0.042951,0.033748,-0.002118,2.4258,2.0807,0.2060
0.8843,0.020089,-0.098818,0.098818,-0.059825,0.050621,-0.002129,2.4126,2.0256,0.2651
0.9044,0.020083,-0.111962,0.111962,-0.072097,0.069029,-0.002128,2.4140,2.0313,0.2590
0.9246,0.020210,-0.125190,0.125190,-0.082835,0.085903,-0.002128,2.4140,2.0313,0.2590
0.9447,0.020088,-0.138338,0.138338,-0.096641,0.098175,-0.002118,2.4257,2.0807,0.2061
0.9648,0.020087,-0.151484,0.151484,-0.113515,0.107379,-0.002129,2.4126,2.0256,0.2651
0.9849,0.020093,-0.164635,0.164635,-0.125786,0.118117,-0.002128,2.4140,2.0313,0.2590
1.0050,0.020088,-0.177783,0.177783,-0.134990,0.130388,-0.002128,2.4140,2.0313,0.2590
1.0264,0.021387,-0.191781,0.191781,-0.148796,0.147262,-0.002128,2.4140,2.0313,0.2590
1.0464,0.020086,-0.204927,0.204927,-0.162602,0.159534,-0.002141,2.3746,2.0668,0.3131
1.0665,0.020108,-0.218087,0.218087,-0.174874,0.170272,-0.002127,2.4180,2.0270,0.2540
1.0866,0.020097,-0.231241,0.231241,-0.188680,0.184078,-0.002128,2.4134,2.0312,0.2601
1.1067,0.020097,-0.244394,0.244394,-0.204019,0.199418,-0.002128,2.4134,2.0312,0.2601
1.1268,0.020098,-0.257548,0.257548,-0.216291,0.213223,-0.002128,2.4134,2.0312,0.2601
1.1469,0.020094,-0.270700,0.270700,-0.227029,0.227029,-0.002128,2.4134,2.0312,0.2601
1.1670,0.020101,-0.283856,0.283856,-0.254641,0.251573,-0.002118,2.4636,2.0163,0.3143
1.1871,0.020092,-0.297006,0.297006,-0.265379,0.263845,-0.002129,2.4087,2.0322,0.2538
1.2072,0.020094,-0.310030,0.310030,-0.279185,0.279185,-0.002128,2.4144,2.0306,0.2601
1.2273,0.020095,-0.321479,0.321479,-0.297592,0.294524,-0.002141,2.3746,2.0669,0.3130
1.2474,0.020093,-0.330944,0.330944,-0.308330,0.303728,-0.002140,2.3787,2.0631,0.3075
1.2675,0.020097,-0.338430,0.338430,-0.308330,0.303728,-0.002140,2.3787,2.0631,0.3075
1.2876,0.020089,-0.343931,0.343931,-0.332874,0.329806,-0.002140,2.3787,2.0631,0.3075
1.3077,0.020083,-0.347450,0.347450,-0.337476,0.337476,-0.002127,2.4176,2.0274,0.2545
1.3278,0.020092,-0.348990,0.348990,-0.343612,0.340544,-0.002128,2.4135,2.0311,0.2601
1.3479,0.020097,-0.348548,0.348548,-0.352816,0.346680,-0.002141,2.3747,2.0668,0.3130
1.3680,0.020101,-0.346122,0.346122,-0.351282,0.346680,-0.002141,2.3747,2.0668,0.3130
1.3881,0.020100,-0.341713,0.341713,-0.349748,0.346680,-0.002140,2.3787,2.0631,0.3075
1.4084,0.020349,-0.335230,0.335230,-0.352816,0.346680,-0.002127,2.4176,2.0274,0.2545
1.4288,0.020373,-0.326702,0.326702,-0.349748,0.343612,-0.002142,2.3742,2.0672,0.3135
1.4490,0.020256,-0.316204,0.316204,-0.345146,0.340544,-0.002140,2.3787,2.0630,0.3074
1.4693,0.020234,-0.303723,0.303723,-0.343612,0.340544,-0.002127,2.4176,2.0274,0.2545
1.4894,0.020097,-0.290569,0.290569,-0.339010,0.335942,-0.002142,2.3742,2.0672,0.3135
1.5095,0.020104,-0.277411,0.277411,-0.332874,0.331340,-0.002127,2.4180,2.0270,0.2539
1.5297,0.020236,-0.264167,0.264167,-0.320602,0.322136,-0.002142,2.3742,2.0672,0.3136
1.5499,0.020158,-0.250973,0.250973,-0.305262,0.308330,-0.002127,2.4180,2.0270,0.2539
1.5700,0.020108,-0.237812,0.237812,-0.286854,0.292990,-0.002127,2.4180,2.0270,0.2539
1.5904,0.020400,-0.224461,0.224461,-0.271515,0.276117,-0.002141,2.3747,2.0668,0.3130
1.6109,0.020556,-0.211007,0.211007,-0.257709,0.262311,-0.002127,2.4180,2.0270,0.2540
1.6310,0.020097,-0.197853,0.197853,-0.243903,0.246971,-0.002128,2.4135,2.0312,0.2601
1.6511,0.020089,-0.184705,0.184705,-0.231631,0.233165,-0.002128,2.4135,2.0312,0.2601
1.6717,0.020544,-0.171259,0.171259,-0.217825,0.220893,-0.002128,2.4135,2.0312,0.2601
1.6918,0.020094,-0.158107,0.158107,-0.202485,0.208621,-0.002131,2.3865,2.1168,0.2594
1.7119,0.020129,-0.144933,0.144933,-0.188680,0.194816,-0.002128,2.4167,2.0218,0.2595
1.7320,0.020096,-0.131780,0.131780,-0.176408,0.179476,-0.002142,2.3743,2.0678,0.3130
1.7521,0.020134,-0.118602,0.118602,-0.164136,0.167204,-0.002127,2.4180,2.0269,0.2540
1.7724,0.020318,-0.105304,0.105304,-0.148796,0.150330,-0.002128,2.4134,2.0312,0.2601
1.7930,0.020600,-0.091821,0.091821,-0.138058,0.136524,-0.002128,2.4134,2.0312,0.2601
1.8135,0.020411,-0.078462,0.078462,-0.124252,0.122718,-0.002141,2.3747,2.0668,0.3130
1.8337,0.020226,-0.065224,0.065224,-0.110447,0.110447,-0.002127,2.4180,2.0270,0.2540
1.8538,0.020090,-0.052075,0.052075,-0.095107,0.095107,-0.002128,2.4135,2.0312,0.2601
1.8741,0.020294,-0.038927,0.038927,-0.082835,0.081301,-0.002128,2.4135,2.0312,0.2601
1.8942,0.020092,-0.027497,0.027497,-0.069029,0.067495,-0.002128,2.4135,2.0312,0.2601
1.9142,0.020093,-0.018048,0.018048,-0.055223,0.055223,-0.002128,2.4135,2.0312,0.2601
1.9343,0.020092,-0.010582,0.010582,-0.041417,0.041417,-0.002128,2.4135,2.0312,0.2601
1.9544,0.020095,-0.005096,0.005096,-0.026078,0.029146,-0.002128,2.4135,2.0312,0.2601
1.9745,0.020093,-0.001593,0.001593,-0.015340,0.016874,-0.002131,2.3865,2.1168,0.2594
1.9946,0.020105,-0.000071,0.000071,-0.006136,0.007670,-0.002128,2.4167,2.0218,0.2595
2.0147,0.020102,-0.000533,0.000533,-0.004602,0.003068,-0.002128,2.4136,2.0317,0.2595
2.0349,0.020137,-0.002985,0.002985,-0.003068,0.003068,-0.002128,2.4140,2.0303,0.2595
2.0550,0.020098,-0.007416,0.007416,0.001534,0.001534,-0.002128,2.4140,2.0303,0.2595
2.0752,0.020279,-0.013897,0.013897,0.000000,0.000000,-0.002118,2.4257,2.0808,0.2060
2.0954,0.020143,-0.022334,0.022334,-0.006136,0.000000,-0.002129,2.4126,2.0256,0.2651
2.1155,0.020085,-0.032729,0.032729,-0.007670,0.006136,-0.002128,2.4140,2.0313,0.2590
2.1355,0.020049,-0.045069,0.045069,-0.007670,0.013806,-0.002128,2.4140,2.0313,0.2590
2.1556,0.020087,-0.058216,0.058216,-0.016874,0.023010,-0.002128,2.4140,2.0313,0.2590
2.1757,0.020097,-0.071369,0.071369,-0.029146,0.027612,-0.002128,2.4140,2.0313,0.2590
2.1958,0.020092,-0.084519,0.084519,-0.046019,0.036816,-0.002141,2.3746,2.0668,0.3131
2.2160,0.020160,-0.097714,0.097714,-0.062893,0.053689,-0.002127,2.4180,2.0270,0.2540
2.2362,0.020201,-0.110935,0.110935,-0.069029,0.069029,-0.002142,2.3742,2.0672,0.3136
2.2563,0.020157,-0.124127,0.124127,-0.075165,0.084369,-0.002140,2.3787,2.0630,0.3074
2.2764,0.020093,-0.137278,0.137278,-0.092039,0.099709,-0.002127,2.4176,2.0274,0.2545
2.2965,0.020094,-0.150430,0.150430,-0.113515,0.110447,-0.002142,2.3742,2.0672,0.3135
2.3166,0.020095,-0.163582,0.163582,-0.130388,0.122718,-0.002127,2.4180,2.0270,0.2539
2.3367,0.020122,-0.176752,0.176752,-0.139592,0.134990,-0.002128,2.4134,2.0312,0.2601
2.3570,0.020234,-0.189995,0.189995,-0.148796,0.148796,-0.002128,2.4134,2.0312,0.2601
2.3771,0.020095,-0.203147,0.203147,-0.165670,0.164136,-0.002128,2.4134,2.0312,0.2601
2.3974,0.020379,-0.216486,0.216486,-0.182544,0.179476,-0.002118,2.4258,2.0807,0.2060
2.4178,0.020403,-0.229839,0.229839,-0.194816,0.188680,-0.002119,2.4245,2.0755,0.2116
2.4380,0.020116,-0.243005,0.243005,-0.200951,0.197884,-0.002129,2.4128,2.0261,0.2645
2.4582,0.020230,-0.256245,0.256245,-0.213223,0.214757,-0.002128,2.4140,2.0312,0.2590
2.4783,0.020090,-0.269394,0.269394,-0.230097,0.230097,-0.002128,2.4140,2.0312,0.2590
2.4984,0.020137,-0.282574,0.282574,-0.245437,0.242369,-0.002141,2.3746,2.0668,0.3131
2.5185,0.020119,-0.295742,0.295742,-0.254641,0.253107,-0.002127,2.4180,2.0270,0.2540
2.5386,0.020117,-0.308839,0.308839,-0.266913,0.266913,-0.002142,2.3742,2.0672,0.3136
2.5587,0.020098,-0.320478,0.320478,-0.282252,0.282252,-0.002127,2.4180,2.0270,0.2539
2.5790,0.020283,-0.330214,0.330214,-0.299126,0.296058,-0.002142,2.3742,2.0672,0.3136
2.5994,0.020400,-0.337969,0.337969,-0.309864,0.305262,-0.002142,2.3742,2.0672,0.3136
2.6195,0.020084,-0.343608,0.343608,-0.320602,0.317534,-0.002142,2.3742,2.0672,0.3136
2.6396,0.020086,-0.347267,0.347267,-0.334408,0.332874,-0.002127,2.4180,2.0270,0.2539
2.6599,0.020304,-0.348953,0.348953,-0.342078,0.339010,-0.002128,2.4134,2.0312,0.2601
2.6800,0.020087,-0.348630,0.348630,-0.343612,0.340544,-0.002128,2.4134,2.0312,0.2601
2.7001,0.020116,-0.346322,0.346322,-0.349748,0.346680,-0.002141,2.3747,2.0668,0.3130
2.7202,0.020093,-0.342033,0.342033,-0.352816,0.346680,-0.002127,2.4180,2.0270,0.2540
2.7403,0.020102,-0.335760,0.335760,-0.352816,0.346680,-0.002127,2.4180,2.0270,0.2540
2.7604,0.020098,-0.327504,0.327504,-0.349748,0.345146,-0.002129,2.4127,2.0255,0.2650
2.7806,0.020160,-0.317231,0.317231,-0.346680,0.342078,-0.002128,2.4140,2.0313,0.2590
2.8014,0.020842,-0.304518,0.304518,-0.343612,0.340544,-0.002141,2.3746,2.0668,0.3131
2.8215,0.020091,-0.291369,0.291369,-0.340544,0.337476,-0.002127,2.4180,2.0270,0.2540
2.8416,0.020080,-0.278226,0.278226,-0.337476,0.332874,-0.002128,2.4134,2.0312,0.2601
2.8617,0.020083,-0.265082,0.265082,-0.328272,0.326738,-0.002128,2.4134,2.0312,0.2601
2.8817,0.020088,-0.251934,0.251934,-0.314466,0.314466,-0.002128,2.4134,2.0312,0.2601
2.9018,0.020085,-0.238789,0.238789,-0.297592,0.299126,-0.002128,2.4134,2.0312,0.2601
2.9219,0.020104,-0.225631,0.225631,-0.279185,0.283786,-0.002128,2.4134,2.0312,0.2601
2.9420,0.020098,-0.212476,0.212476,-0.266913,0.273049,-0.002141,2.3747,2.0668,0.3130
2.9623,0.020240,-0.199229,0.199229,-0.253107,0.257709,-0.002127,2.4180,2.0270,0.2540
2.9825,0.020250,-0.185976,0.185976,-0.240835,0.243903,-0.002128,2.4135,2.0312,0.2601
3.0031,0.020562,-0.172518,0.172518,-0.228563,0.230097,-0.002141,2.3747,2.0668,0.3130
3.0237,0.020638,-0.159010,0.159010,-0.213223,0.219359,-0.002127,2.4180,2.0270,0.2540
3.0438,0.020093,-0.145859,0.145859,-0.199418,0.207087,-0.002128,2.4135,2.0312,0.2601
3.0639,0.020088,-0.132712,0.132712,-0.185612,0.193282,-0.002128,2.4135,2.0312,0.2601
3.0840,0.020084,-0.119567,0.119567,-0.171806,0.177942,-0.002128,2.4135,2.0312,0.2601
3.1041,0.020094,-0.106415,0.106415,-0.159534,0.162602,-0.002141,2.3747,2.0668,0.3130
3.1242,0.020130,-0.093240,0.093240,-0.145728,0.145728,-0.002127,2.4180,2.0270,0.2540
3.1443,0.020083,-0.080096,0.080096,-0.133456,0.133456,-0.002128,2.4135,2.0312,0.2601
3.1644,0.020093,-0.066945,0.066945,-0.119651,0.116583,-0.002128,2.4135,2.0312,0.2601
3.1845,0.020089,-0.053796,0.053796,-0.104311,0.104311,-0.002128,2.4135,2.0312,0.2601
3.2046,0.020100,-0.040692,0.040692,-0.078233,0.078233,-0.002128,2.4135,2.0312,0.2601
3.2247,0.020089,-0.028985,0.028985,-0.065961,0.064427,-0.002128,2.4135,2.0312,0.2601
3.2448,0.020095,-0.019257,0.019257,-0.050621,0.052155,-0.002141,2.3747,2.0668,0.3130
3.2649,0.020128,-0.011499,0.011499,-0.038350,0.036816,-0.002127,2.4180,2.0270,0.2540
3.2850,0.020086,-0.005741,0.005741,-0.023010,0.026078,-0.002142,2.3742,2.0672,0.3136
3.3051,0.020101,-0.001960,0.001960,-0.012272,0.013806,-0.002116,2.4299,2.0769,0.2004
3.3253,0.020181,-0.000160,0.000160,-0.006136,0.004602,-0.002129,2.4122,2.0260,0.2657
3.3454,0.020123,-0.000356,0.000356,-0.003068,0.001534,-0.002141,2.3748,2.0673,0.3124
3.3656,0.020209,-0.002553,0.002553,-0.004602,0.003068,-0.002127,2.4180,2.0269,0.2540
3.3857,0.020099,-0.006727,0.006727,-0.004602,0.003068,-0.002127,2.4180,2.0269,0.2540
3.4058,0.020088,-0.012879,0.012879,-0.003068,0.000000,-0.002142,2.3742,2.0672,0.3136
3.4259,0.020091,-0.021014,0.021014,-0.003068,-0.001534,-0.002127,2.4180,2.0270,0.2539
3.4459,0.020084,-0.031126,0.031126,-0.003068,0.001534,-0.002142,2.3742,2.0672,0.3136
3.4660,0.020088,-0.043221,0.043221,-0.006136,0.009204,-0.002127,2.4180,2.0270,0.2539
3.4861,0.020083,-0.056364,0.056364,-0.013806,0.019942,-0.002118,2.4631,2.0168,0.3150
3.5062,0.020087,-0.069511,0.069511,-0.030680,0.032214,-0.002129,2.4088,2.0322,0.2538
3.5263,0.020098,-0.082665,0.082665,-0.047553,0.042951,-0.002141,2.3751,2.0667,0.3136
3.5464,0.020075,-0.095804,0.095804,-0.061359,0.056757,-0.002127,2.4179,2.0270,0.2539
3.5664,0.020045,-0.108923,0.108923,-0.070563,0.069029,-0.002128,2.4135,2.0312,0.2601
3.5865,0.020091,-0.122073,0.122073,-0.078233,0.082835,-0.002141,2.3747,2.0668,0.3130
3.6066,0.020086,-0.135219,0.135219,-0.095107,0.098175,-0.002140,2.3787,2.0631,0.3075
3.6267,0.020098,-0.148374,0.148374,-0.115049,0.110447,-0.002127,2.4176,2.0274,0.2545
3.6468,0.020097,-0.161527,0.161527,-0.127320,0.121184,-0.002128,2.4135,2.0311,0.2601
3.6669,0.020088,-0.174675,0.174675,-0.138058,0.134990,-0.002128,2.4135,2.0311,0.2601
3.6870,0.020079,-0.187817,0.187817,-0.148796,0.148796,-0.002128,2.4135,2.0311,0.2601
3.7071,0.020090,-0.200966,0.200966,-0.162602,0.161068,-0.002128,2.4135,2.0311,0.2601
3.7271,0.020087,-0.214113,0.214113,-0.179476,0.176408,-0.002128,2.4135,2.0311,0.2601
3.7472,0.020083,-0.227257,0.227257,-0.193282,0.187146,-0.002128,2.4135,2.0311,0.2601
3.7673,0.020084,-0.240402,0.240402,-0.202485,0.199418,-0.002128,2.4135,2.0311,0.2601
3.7874,0.020086,-0.253548,0.253548,-0.216291,0.213223,-0.002128,2.4135,2.0311,0.2601
3.8075,0.020082,-0.266692,0.266692,-0.231631,0.228563,-0.002141,2.3747,2.0668,0.3130
3.8276,0.020089,-0.279840,0.279840,-0.243903,0.242369,-0.002116,2.4298,2.0770,0.2005
3.8477,0.020087,-0.292987,0.292987,-0.254641,0.254641,-0.002129,2.4122,2.0260,0.2657
3.8677,0.020083,-0.306128,0.306128,-0.266913,0.266913,-0.002118,2.4259,2.0812,0.2054
3.8878,0.020097,-0.318185,0.318185,-0.280718,0.279185,-0.002129,2.4126,2.0255,0.2652
3.9079,0.020088,-0.328256,0.328256,-0.297592,0.294524,-0.002128,2.4140,2.0313,0.2590
3.9280,0.020084,-0.336343,0.336343,-0.309864,0.305262,-0.002128,2.4140,2.0313,0.2590
3.9481,0.020095,-0.342454,0.342454,-0.322136,0.317534,-0.002128,2.4140,2.0313,0.2590
3.9682,0.020093,-0.346582,0.346582,-0.332874,0.329806,-0.002141,2.3746,2.0668,0.3131
3.9883,0.020090,-0.348729,0.348729,-0.339010,0.337476,-0.002127,2.4180,2.0270,0.2540
4.0084,0.020098,-0.348894,0.348894,-0.345146,0.342078,-0.002118,2.4253,2.0811,0.2066
4.0285,0.020099,-0.347076,0.347076,-0.351282,0.345146,-0.002129,2.4127,2.0255,0.2650
4.0486,0.020099,-0.343275,0.343275,-0.349748,0.343612,-0.002141,2.3747,2.0674,0.3124
4.0687,0.020096,-0.337492,0.337492,-0.352816,0.349748,-0.002127,2.4180,2.0269,0.2540
4.0888,0.020085,-0.329731,0.329731,-0.354350,0.349748,-0.002128,2.4135,2.0312,0.2601
4.1088,0.020088,-0.319989,0.319989,-0.351282,0.346680,-0.002141,2.3747,2.0668,0.3130
4.1289,0.020091,-0.308264,0.308264,-0.345146,0.342078,-0.002140,2.3787,2.0631,0.3075
4.1490,0.020096,-0.295158,0.295158,-0.343612,0.339010,-0.002127,2.4176,2.0274,0.2545
4.1691,0.020086,-0.282012,0.282012,-0.335942,0.332874,-0.002142,2.3742,2.0672,0.3135
4.1892,0.020092,-0.268862,0.268862,-0.326738,0.326738,-0.002127,2.4180,2.0270,0.2539
4.2093,0.020088,-0.255714,0.255714,-0.312932,0.316000,-0.002128,2.4134,2.0312,0.2601
4.2294,0.020090,-0.242566,0.242566,-0.297592,0.302194,-0.002128,2.4134,2.0312,0.2601
4.2495,0.020093,-0.229415,0.229415,-0.283786,0.288388,-0.002141,2.3747,2.0668,0.3130
4.2696,0.020092,-0.216264,0.216264,-0.269981,0.274583,-0.002127,2.4180,2.0270,0.2540
4.2897,0.020091,-0.203115,0.203115,-0.256175,0.259243,-0.002128,2.4135,2.0312,0.2601
4.3097,0.020085,-0.189969,0.189969,-0.242369,0.245437,-0.002128,2.4135,2.0312,0.2601
4.3298,0.020090,-0.176821,0.176821,-0.228563,0.231631,-0.002128,2.4135,2.0312,0.2601
4.3499,0.020094,-0.163669,0.163669,-0.213223,0.219359,-0.002128,2.4135,2.0312,0.2601
4.3700,0.020090,-0.150520,0.150520,-0.199418,0.205553,-0.002128,2.4135,2.0312,0.2601
4.3901,0.020100,-0.137365,0.137365,-0.185612,0.193282,-0.002128,2.4135,2.0312,0.2601
4.4102,0.020088,-0.124217,0.124217,-0.173340,0.177942,-0.002141,2.3747,2.0668,0.3130
4.4303,0.020079,-0.111075,0.111075,-0.161068,0.165670,-0.002127,2.4180,2.0270,0.2540
4.4504,0.020083,-0.097931,0.097931,-0.147262,0.148796,-0.002142,2.3742,2.0672,0.3136
4.4705,0.020084,-0.084786,0.084786,-0.136524,0.138058,-0.002127,2.4180,2.0270,0.2539
4.4908,0.020299,-0.071500,0.071500,-0.122718,0.122718,-0.002142,2.3742,2.0672,0.3136
4.5108,0.020080,-0.058358,0.058358,-0.110447,0.108913,-0.002127,2.4180,2.0270,0.2539
4.5309,0.020084,-0.045213,0.045213,-0.095107,0.095107,-0.002128,2.4134,2.0312,0.2601
4.5510,0.020084,-0.032834,0.032834,-0.082835,0.081301,-0.002141,2.3747,2.0668,0.3130
4.5711,0.020086,-0.022421,0.022421,-0.069029,0.069029,-0.002127,2.4180,2.0270,0.2540
4.5912,0.020090,-0.013986,0.013986,-0.055223,0.055223,-0.002128,2.4135,2.0312,0.2601
4.6113,0.020085,-0.007533,0.007533,-0.041417,0.041417,-0.002128,2.4135,2.0312,0.2601
4.6313,0.020085,-0.003061,0.003061,-0.027612,0.030680,-0.002128,2.4135,2.0312,0.2601
4.6514,0.020085,-0.000569,0.000569,-0.006136,0.009204,-0.002128,2.4135,2.0312,0.2601
4.6715,0.020093,-0.000058,0.000058,-0.006136,0.009204,-0.002128,2.4135,2.0312,0.2601
4.6916,0.020086,-0.001528,0.001528,-0.003068,0.000000,-0.002128,2.4135,2.0312,0.2601
4.7117,0.020084,-0.004977,0.004977,-0.003068,0.001534,-0.002128,2.4135,2.0312,0.2601
4.7318,0.020084,-0.010407,0.010407,-0.003068,0.000000,-0.002128,2.4135,2.0312,0.2601
4.7519,0.020084,-0.017817,0.017817,-0.003068,0.001534,-0.002128,2.4135,2.0312,0.2601
4.7719,0.020082,-0.027205,0.027205,-0.006136,0.007670,-0.002128,2.4135,2.0312,0.2601
4.7920,0.020092,-0.038580,0.038580,-0.013806,0.013806,-0.002128,2.4135,2.0312,0.2601
4.8121,0.020090,-0.051573,0.051573,-0.024544,0.018408,-0.002128,2.4135,2.0312,0.2601
4.8322,0.020088,-0.064721,0.064721,-0.035282,0.026078,-0.002128,2.4135,2.0312,0.2601
4.8523,0.020086,-0.077867,0.077867,-0.046019,0.038350,-0.002128,2.4135,2.0312,0.2601
4.8724,0.020089,-0.091015,0.091015,-0.055223,0.055223,-0.002128,2.4135,2.0312,0.2601
4.8925,0.020093,-0.104166,0.104166,-0.069029,0.072097,-0.002128,2.4135,2.0312,0.2601
4.9126,0.020090,-0.117315,0.117315,-0.087437,0.085903,-0.002128,2.4135,2.0312,0.2601
4.9332,0.020623,-0.130813,0.130813,-0.102777,0.099709,-0.002128,2.4135,2.0312,0.2601
4.9533,0.020088,-0.143960,0.143960,-0.113515,0.110447,-0.002141,2.3747,2.0668,0.3130
4.9734,0.020089,-0.157109,0.157109,-0.124252,0.119651,-0.002127,2.4180,2.0270,0.2540
4.9935,0.020087,-0.170256,0.170256,-0.138058,0.134990,-0.002128,2.4135,2.0312,0.2601
5.0135,0.020085,-0.183401,0.183401,-0.153398,0.150330,-0.002128,2.4135,2.0312,0.2601
5.0336,0.020085,-0.196547,0.196547,-0.167204,0.162602,-0.002128,2.4135,2.0312,0.2601
5.0538,0.020210,-0.209774,0.209774,-0.179476,0.176408,-0.002141,2.3747,2.0668,0.3130
5.0739,0.020090,-0.222923,0.222923,-0.190214,0.188680,-0.002127,2.4180,2.0270,0.2540
5.0941,0.020198,-0.236142,0.236142,-0.205553,0.202485,-0.002128,2.4135,2.0312,0.2601
5.1146,0.020420,-0.249507,0.249507,-0.219359,0.214757,-0.002131,2.3865,2.1168,0.2594
5.1347,0.020104,-0.262665,0.262665,-0.230097,0.228563,-0.002128,2.4167,2.0218,0.2595
5.1548,0.020101,-0.275821,0.275821,-0.243903,0.242369,-0.002128,2.4136,2.0317,0.2595
5.1749,0.020102,-0.288978,0.288978,-0.256175,0.254641,-0.002141,2.3746,2.0667,0.3130
5.1949,0.020090,-0.302127,0.302127,-0.268447,0.268447,-0.002127,2.4180,2.0270,0.2540
5.2150,0.020093,-0.314722,0.314722,-0.282252,0.283786,-0.002142,2.3742,2.0672,0.3136
5.2351,0.020099,-0.325401,0.325401,-0.299126,0.294524,-0.002127,2.4180,2.0270,0.2539
5.2552,0.020093,-0.334095,0.334095,-0.311398,0.303728,-0.002128,2.4134,2.0312,0.2601
5.2753,0.020090,-0.340807,0.340807,-0.323670,0.320602,-0.002141,2.3747,2.0668,0.3130
5.2954,0.020095,-0.345538,0.345538,-0.331340,0.331340,-0.002127,2.4180,2.0270,0.2540
5.3155,0.020094,-0.348286,0.348286,-0.339010,0.337476,-0.002118,2.4253,2.0811,0.2066
5.3357,0.020218,-0.349052,0.349052,-0.346680,0.342078,-0.002129,2.4127,2.0255,0.2650
5.3558,0.020103,-0.347823,0.347823,-0.352816,0.348214,-0.002128,2.4140,2.0313,0.2590
5.3759,0.020093,-0.344613,0.344613,-0.352816,0.348214,-0.002128,2.4140,2.0313,0.2590
5.3960,0.020099,-0.339419,0.339419,-0.351282,0.346680,-0.002128,2.4140,2.0313,0.2590
5.4161,0.020095,-0.332244,0.332244,-0.351282,0.346680,-0.002141,2.3746,2.0668,0.3131
5.4362,0.020099,-0.323085,0.323085,-0.348214,0.343612,-0.002127,2.4180,2.0270,0.2540
5.4590,0.022819,-0.310282,0.310282,-0.343612,0.339010,-0.002128,2.4134,2.0312,0.2601
5.4801,0.021012,-0.296673,0.296673,-0.342078,0.337476,-0.002128,2.4134,2.0312,0.2601
5.5004,0.020326,-0.283370,0.283370,-0.337476,0.334408,-0.002128,2.4134,2.0312,0.2601
5.5205,0.020081,-0.270227,0.270227,-0.326738,0.328272,-0.002128,2.4134,2.0312,0.2601
5.5407,0.020227,-0.256988,0.256988,-0.314466,0.319068,-0.002128,2.4134,2.0312,0.2601
5.5608,0.020082,-0.243844,0.243844,-0.299126,0.303728,-0.002128,2.4134,2.0312,0.2601
5.5808,0.020083,-0.230700,0.230700,-0.282252,0.285320,-0.002141,2.3747,2.0668,0.3130
5.6011,0.020248,-0.217448,0.217448,-0.266913,0.269981,-0.002127,2.4180,2.0270,0.2540
5.6212,0.020089,-0.204299,0.204299,-0.253107,0.254641,-0.002128,2.4135,2.0312,0.2601
5.6412,0.020041,-0.191182,0.191182,-0.239301,0.242369,-0.002128,2.4135,2.0312,0.2601
5.6613,0.020082,-0.178038,0.178038,-0.225495,0.228563,-0.002118,2.4258,2.0807,0.2060
5.6814,0.020088,-0.164891,0.164891,-0.210155,0.217825,-0.002143,2.3734,2.0617,0.3186
5.7015,0.020126,-0.151718,0.151718,-0.197884,0.204019,-0.002116,2.4300,2.0775,0.1999
5.7217,0.020183,-0.138508,0.138508,-0.185612,0.191748,-0.002129,2.4122,2.0259,0.2658
5.7418,0.020101,-0.125352,0.125352,-0.171806,0.176408,-0.002128,2.4141,2.0313,0.2589
5.7619,0.020100,-0.112196,0.112196,-0.159534,0.162602,-0.002141,2.3746,2.0668,0.3131
5.7820,0.020089,-0.099048,0.099048,-0.145728,0.147262,-0.002127,2.4180,2.0270,0.2540
5.8021,0.020102,-0.085891,0.085891,-0.131922,0.133456,-0.002128,2.4134,2.0312,0.2601
5.8232,0.021096,-0.072084,0.072084,-0.119651,0.118117,-0.002128,2.4134,2.0312,0.2601
5.8433,0.020083,-0.058940,0.058940,-0.105845,0.105845,-0.002128,2.4134,2.0312,0.2601
5.8634,0.020095,-0.045788,0.045788,-0.090505,0.092039,-0.002141,2.3747,2.0668,0.3130
5.8835,0.020086,-0.033334,0.033334,-0.078233,0.078233,-0.002127,2.4180,2.0270,0.2540
5.9040,0.020572,-0.022604,0.022604,-0.064427,0.062893,-0.002128,2.4135,2.0312,0.2601
5.9244,0.020367,-0.014028,0.014028,-0.049087,0.050621,-0.002141,2.3747,2.0668,0.3130
5.9445,0.020087,-0.007564,0.007564,-0.035282,0.036816,-0.002140,2.3787,2.0631,0.3075
5.9646,0.020110,-0.003076,0.003076,-0.023010,0.026078,-0.002127,2.4176,2.0274,0.2545
5.9847,0.020100,-0.000575,0.000575,-0.012272,0.016874,-0.002142,2.3742,2.0672,0.3135
6.0048,0.020152,-0.000058,0.000058,-0.006136,0.004602,-0.002127,2.4180,2.0270,0.2539
6.0249,0.020101,-0.001528,0.001528,-0.003068,0.001534,-0.002128,2.4134,2.0312,0.2601
6.0454,0.020419,-0.005052,0.005052,-0.001534,0.001534,-0.002128,2.4134,2.0312,0.2601
6.0657,0.020327,-0.010593,0.010593,0.000000,0.000000,-0.002128,2.4134,2.0312,0.2601
6.0858,0.020090,-0.018062,0.018062,-0.004602,0.000000,-0.002128,2.4134,2.0312,0.2601
6.1059,0.020089,-0.027512,0.027512,-0.006136,0.003068,-0.002141,2.3747,2.0668,0.3130
6.1260,0.020085,-0.038940,0.038940,-0.004602,0.009204,-0.002127,2.4180,2.0270,0.2540
6.1463,0.020356,-0.052130,0.052130,-0.010738,0.016874,-0.002128,2.4135,2.0312,0.2601
6.1664,0.020097,-0.065283,0.065283,-0.021476,0.019942,-0.002141,2.3747,2.0668,0.3130
6.1866,0.020186,-0.078495,0.078495,-0.036816,0.027612,-0.002116,2.4676,2.0126,0.3088
6.2067,0.020084,-0.091640,0.091640,-0.053689,0.041417,-0.002143,2.3690,2.0687,0.3079
6.2268,0.020088,-0.104787,0.104787,-0.065961,0.058291,-0.002126,2.4186,2.0268,0.2545
6.2469,0.020088,-0.117935,0.117935,-0.073631,0.075165,-0.002128,2.4134,2.0312,0.2601
6.2669,0.020088,-0.131083,0.131083,-0.084369,0.090505,-0.002141,2.3747,2.0668,0.3130
6.2870,0.020082,-0.144226,0.144226,-0.102777,0.104311,-0.002140,2.3787,2.0631,0.3075
6.3072,0.020221,-0.157461,0.157461,-0.119651,0.115049,-0.002127,2.4176,2.0274,0.2545
6.3274,0.020106,-0.170620,0.170620,-0.133456,0.128854,-0.002128,2.4135,2.0311,0.2601
6.3475,0.020101,-0.183776,0.183776,-0.144194,0.141126,-0.002128,2.4135,2.0311,0.2601
6.3676,0.020095,-0.196928,0.196928,-0.158000,0.156466,-0.002141,2.3747,2.0668,0.3130
6.3876,0.020095,-0.210081,0.210081,-0.174874,0.170272,-0.002116,2.4298,2.0770,0.2005
6.4077,0.020095,-0.223233,0.223233,-0.184078,0.179476,-0.002129,2.4122,2.0260,0.2657
6.4278,0.020098,-0.236387,0.236387,-0.190214,0.187146,-0.002128,2.4141,2.0313,0.2589
6.4479,0.020085,-0.249533,0.249533,-0.204019,0.199418,-0.002128,2.4141,2.0313,0.2589
6.4680,0.020099,-0.262687,0.262687,-0.220893,0.216291,-0.002128,2.4141,2.0313,0.2589
6.4881,0.020094,-0.275838,0.275838,-0.233165,0.233165,-0.002118,2.4257,2.0807,0.2061
6.5082,0.020125,-0.289010,0.289010,-0.250039,0.246971,-0.002129,2.4126,2.0256,0.2651
6.5283,0.020092,-0.302160,0.302160,-0.257709,0.257709,-0.002128,2.4140,2.0313,0.2590
6.5484,0.020099,-0.314755,0.314755,-0.269981,0.269981,-0.002141,2.3746,2.0668,0.3131
6.5685,0.020103,-0.325431,0.325431,-0.285320,0.285320,-0.002127,2.4180,2.0270,0.2540
6.5886,0.020098,-0.334121,0.334121,-0.302194,0.297592,-0.002142,2.3742,2.0672,0.3136
6.6087,0.020092,-0.340826,0.340826,-0.311398,0.309864,-0.002140,2.3787,2.0630,0.3074
6.6288,0.020094,-0.345550,0.345550,-0.323670,0.323670,-0.002127,2.4176,2.0274,0.2545
6.6489,0.020106,-0.348293,0.348293,-0.342078,0.339010,-0.002128,2.4135,2.0311,0.2601
6.6691,0.020171,-0.349051,0.349051,-0.342078,0.343612,-0.002128,2.4135,2.0311,0.2601
6.6893,0.020171,-0.347812,0.347812,-0.352816,0.346680,-0.002141,2.3747,2.0668,0.3130
6.7094,0.020096,-0.344592,0.344592,-0.354350,0.346680,-0.002127,2.4180,2.0270,0.2540
6.7295,0.020104,-0.339386,0.339386,-0.351282,0.346680,-0.002142,2.3742,2.0672,0.3136
6.7496,0.020104,-0.332197,0.332197,-0.348214,0.345146,-0.002127,2.4180,2.0270,0.2539
6.7697,0.020104,-0.323024,0.323024,-0.346680,0.342078,-0.002128,2.4134,2.0312,0.2601
6.7898,0.020106,-0.311865,0.311865,-0.343612,0.339010,-0.002141,2.3747,2.0668,0.3130
6.8099,0.020103,-0.298964,0.298964,-0.340544,0.335942,-0.002116,2.4298,2.0770,0.2005
6.8300,0.020096,-0.285811,0.285811,-0.335942,0.331340,-0.002129,2.4122,2.0260,0.2657
6.8501,0.020094,-0.272660,0.272660,-0.325204,0.325204,-0.002141,2.3748,2.0673,0.3124
6.8702,0.020102,-0.259503,0.259503,-0.309864,0.311398,-0.002127,2.4180,2.0269,0.2540
6.8903,0.020110,-0.246341,0.246341,-0.292990,0.297592,-0.002128,2.4135,2.0312,0.2601
6.9104,0.020092,-0.233191,0.233191,-0.279185,0.283786,-0.002141,2.3747,2.0668,0.3130
6.9305,0.020095,-0.220038,0.220038,-0.265379,0.268447,-0.002140,2.3787,2.0631,0.3075
6.9506,0.020095,-0.206886,0.206886,-0.251573,0.254641,-0.002116,2.4294,2.0774,0.2010
6.9707,0.020094,-0.193735,0.193735,-0.237767,0.240835,-0.002143,2.3730,2.0620,0.3191
6.9908,0.020100,-0.180579,0.180579,-0.223961,0.227029,-0.002126,2.4182,2.0275,0.2533
7.0109,0.020096,-0.167426,0.167426,-0.210155,0.214757,-0.002142,2.3742,2.0672,0.3137
7.0310,0.020101,-0.154271,0.154271,-0.196350,0.200951,-0.002126,2.4180,2.0270,0.2539
7.0511,0.020099,-0.141116,0.141116,-0.181010,0.188680,-0.002128,2.4134,2.0312,0.2601
7.0712,0.020101,-0.127960,0.127960,-0.170272,0.173340,-0.002128,2.4134,2.0312,0.2601
7.0913,0.020108,-0.114799,0.114799,-0.156466,0.158000,-0.002128,2.4134,2.0312,0.2601
7.1114,0.020103,-0.101642,0.101642,-0.142660,0.142660,-0.002128,2.4134,2.0312,0.2601
7.1315,0.020098,-0.088488,0.088488,-0.130388,0.128854,-0.002128,2.4134,2.0312,0.2601
7.1516,0.020091,-0.075339,0.075339,-0.115049,0.113515,-0.002131,2.3865,2.1168,0.2594
7.1717,0.020102,-0.062182,0.062182,-0.104311,0.102777,-0.002128,2.4167,2.0218,0.2595
7.1917,0.020089,-0.049034,0.049034,-0.088971,0.087437,-0.002131,2.3862,2.1178,0.2595
7.2118,0.020087,-0.036231,0.036231,-0.076699,0.076699,-0.002128,2.4168,2.0217,0.2595
7.2319,0.020095,-0.025237,0.025237,-0.062893,0.062893,-0.002128,2.4136,2.0317,0.2595
7.2520,0.020087,-0.016229,0.016229,-0.049087,0.050621,-0.002128,2.4140,2.0303,0.2595
7.2721,0.020091,-0.009200,0.009200,-0.033748,0.035282,-0.002128,2.4140,2.0303,0.2595
7.2922,0.020091,-0.004153,0.004153,-0.021476,0.026078,-0.002128,2.4140,2.0303,0.2595
7.3123,0.020094,-0.001087,0.001087,-0.012272,0.013806,-0.002128,2.4140,2.0303,0.2595
7.3324,0.020086,-0.000002,0.000002,-0.006136,0.004602,-0.002128,2.4140,2.0303,0.2595
7.3525,0.020087,-0.000898,0.000898,-0.004602,0.000000,-0.002128,2.4140,2.0303,0.2595
7.3726,0.020086,-0.003775,0.003775,-0.003068,0.001534,-0.002128,2.4140,2.0303,0.2595
7.3926,0.020088,-0.008633,0.008633,-0.003068,0.000000,-0.002128,2.4140,2.0303,0.2595
7.4127,0.020089,-0.015471,0.015471,-0.003068,-0.001534,-0.002141,2.3746,2.0669,0.3130
7.4328,0.020090,-0.024292,0.024292,-0.003068,0.004602,-0.002127,2.4180,2.0270,0.2540
7.4529,0.020093,-0.035095,0.035095,-0.006136,0.010738,-0.002128,2.4134,2.0312,0.2601
7.4731,0.020139,-0.047812,0.047812,-0.013806,0.016874,-0.002141,2.3747,2.0668,0.3130
7.4932,0.020101,-0.060968,0.060968,-0.026078,0.021476,-0.002127,2.4180,2.0270,0.2540
7.5132,0.020092,-0.074118,0.074118,-0.026078,0.021476,-0.002127,2.4180,2.0270,0.2540
7.5333,0.020093,-0.087269,0.087269,-0.050621,0.044485,-0.002128,2.4135,2.0312,0.2601
7.5535,0.020160,-0.100463,0.100463,-0.059825,0.059825,-0.002128,2.4135,2.0312,0.2601
7.5736,0.020099,-0.113618,0.113618,-0.070563,0.073631,-0.002128,2.4135,2.0312,0.2601
7.5938,0.020201,-0.126839,0.126839,-0.070563,0.073631,-0.002141,2.3747,2.0668,0.3130
7.6139,0.020093,-0.139990,0.139990,-0.102777,0.099709,-0.002127,2.4180,2.0270,0.2540
7.6340,0.020122,-0.153159,0.153159,-0.118117,0.111981,-0.002128,2.4135,2.0312,0.2601
7.6541,0.020100,-0.166315,0.166315,-0.118117,0.111981,-0.002128,2.4135,2.0312,0.2601
7.6742,0.020101,-0.179471,0.179471,-0.142660,0.141126,-0.002128,2.4135,2.0312,0.2601
7.6943,0.020106,-0.192630,0.192630,-0.158000,0.154932,-0.002128,2.4135,2.0312,0.2601
7.7144,0.020097,-0.205784,0.205784,-0.170272,0.164136,-0.002141,2.3747,2.0668,0.3130
7.7345,0.020106,-0.218943,0.218943,-0.182544,0.174874,-0.002127,2.4180,2.0270,0.2540
7.7546,0.020103,-0.232100,0.232100,-0.194816,0.191748,-0.002128,2.4135,2.0312,0.2601
7.7747,0.020096,-0.245253,0.245253,-0.194816,0.191748,-0.002128,2.4135,2.0312,0.2601
7.7948,0.020103,-0.258410,0.258410,-0.208621,0.207087,-0.002128,2.4135,2.0312,0.2601
7.8149,0.020103,-0.271568,0.271568,-0.220893,0.219359,-0.002118,2.4258,2.0807,0.2060
7.8350,0.020110,-0.284730,0.284730,-0.233165,0.231631,-0.002143,2.3734,2.0617,0.3186
7.8552,0.020120,-0.297899,0.297899,-0.246971,0.243903,-0.002126,2.4181,2.0275,0.2534
7.8753,0.020099,-0.310872,0.310872,-0.259243,0.259243,-0.002128,2.4134,2.0311,0.2602
7.8954,0.020106,-0.322192,0.322192,-0.273049,0.273049,-0.002118,2.4258,2.0807,0.2060
7.9155,0.020111,-0.331529,0.331529,-0.285320,0.286854,-0.002129,2.4126,2.0256,0.2651
7.9366,0.021092,-0.339189,0.339189,-0.300660,0.294524,-0.002128,2.4140,2.0313,0.2590
7.9569,0.020289,-0.344496,0.344496,-0.325204,0.322136,-0.002128,2.4140,2.0313,0.2590
7.9773,0.020448,-0.347801,0.347801,-0.335942,0.334408,-0.002128,2.4140,2.0313,0.2590
7.9974,0.020112,-0.349049,0.349049,-0.343612,0.339010,-0.002141,2.3746,2.0668,0.3131
8.0175,0.020094,-0.348314,0.348314,-0.346680,0.343612,-0.002127,2.4180,2.0270,0.2540
8.0376,0.020109,-0.345593,0.345593,-0.349748,0.345146,-0.002127,2.4180,2.0270,0.2540
8.0577,0.020098,-0.340891,0.340891,-0.349748,0.346680,-0.002142,2.3742,2.0672,0.3136
8.0778,0.020100,-0.334205,0.334205,-0.349748,0.346680,-0.002128,2.4134,2.0312,0.2601
8.0979,0.020098,-0.325537,0.325537,-0.348214,0.345146,-0.002128,2.4134,2.0312,0.2601
8.1180,0.020094,-0.314889,0.314889,-0.348214,0.345146,-0.002128,2.4134,2.0312,0.2601
8.1381,0.020088,-0.302318,0.302318,-0.343612,0.340544,-0.002128,2.4134,2.0312,0.2601
8.1582,0.020088,-0.289170,0.289170,-0.343612,0.340544,-0.002128,2.4134,2.0312,0.2601
8.1782,0.020052,-0.276046,0.276046,-0.335942,0.332874,-0.002128,2.4134,2.0312,0.2601
8.1983,0.020084,-0.262901,0.262901,-0.325204,0.325204,-0.002128,2.4134,2.0312,0.2601
8.2184,0.020094,-0.249749,0.249749,-0.325204,0.325204,-0.002128,2.4134,2.0312,0.2601
8.2385,0.020089,-0.236601,0.236601,-0.311398,0.312932,-0.002128,2.4134,2.0312,0.2601
8.2586,0.020090,-0.223452,0.223452,-0.292990,0.297592,-0.002128,2.4134,2.0312,0.2601
8.2787,0.020093,-0.210301,0.210301,-0.277651,0.282252,-0.002128,2.4134,2.0312,0.2601
8.2988,0.020097,-0.197148,0.197148,-0.262311,0.266913,-0.002128,2.4134,2.0312,0.2601
8.3189,0.020093,-0.183997,0.183997,-0.237767,0.240835,-0.002128,2.4134,2.0312,0.2601
8.3390,0.020097,-0.170844,0.170844,-0.237767,0.240835,-0.002128,2.4134,2.0312,0.2601
8.3591,0.020099,-0.157689,0.157689,-0.223961,0.225495,-0.002118,2.4258,2.0807,0.2060
8.3792,0.020097,-0.144536,0.144536,-0.211689,0.217825,-0.002119,2.4245,2.0755,0.2116
8.3993,0.020106,-0.131376,0.131376,-0.197884,0.202485,-0.002129,2.4128,2.0261,0.2645
8.4194,0.020144,-0.118192,0.118192,-0.184078,0.190214,-0.002128,2.4140,2.0312,0.2590
8.4395,0.020091,-0.105043,0.105043,-0.171806,0.174874,-0.002118,2.4257,2.0807,0.2061
8.4611,0.021569,-0.090926,0.090926,-0.158000,0.161068,-0.002143,2.3734,2.0617,0.3186
8.4818,0.020716,-0.077367,0.077367,-0.131922,0.130388,-0.002116,2.4300,2.0775,0.1999
8.5020,0.020159,-0.064173,0.064173,-0.118117,0.115049,-0.002129,2.4122,2.0259,0.2658
8.5221,0.020106,-0.051014,0.051014,-0.102777,0.101243,-0.002128,2.4141,2.0313,0.2589
8.5421,0.020085,-0.038059,0.038059,-0.090505,0.088971,-0.002128,2.4141,2.0313,0.2589
8.5622,0.020091,-0.026768,0.026768,-0.075165,0.078233,-0.002128,2.4141,2.0313,0.2589
8.5823,0.020095,-0.017458,0.017458,-0.064427,0.061359,-0.002128,2.4141,2.0313,0.2589
8.6024,0.020086,-0.010133,0.010133,-0.047553,0.047553,-0.002141,2.3746,2.0668,0.3131
8.6225,0.020102,-0.004784,0.004784,-0.029146,0.030680,-0.002127,2.4180,2.0270,0.2540
8.6426,0.020086,-0.001421,0.001421,-0.012272,0.016874,-0.002128,2.4134,2.0312,0.2601
8.6627,0.020090,-0.000039,0.000039,-0.006136,0.004602,-0.002128,2.4134,2.0312,0.2601
8.6828,0.020093,-0.000638,0.000638,-0.007670,0.001534,-0.002141,2.3747,2.0668,0.3130
8.7029,0.020117,-0.003222,0.003222,-0.003068,0.001534,-0.002127,2.4180,2.0270,0.2540
8.7230,0.020094,-0.007787,0.007787,0.003068,-0.001534,-0.002128,2.4135,2.0312,0.2601
8.7431,0.020082,-0.014330,0.014330,0.000000,-0.001534,-0.002128,2.4135,2.0312,0.2601
8.7632,0.020090,-0.022856,0.022856,-0.007670,0.004602,-0.002128,2.4135,2.0312,0.2601
8.7833,0.020089,-0.033363,0.033363,-0.010738,0.010738,-0.002128,2.4135,2.0312,0.2601
8.8033,0.020089,-0.045822,0.045822,-0.012272,0.013806,-0.002128,2.4135,2.0312,0.2601
8.8234,0.020096,-0.058975,0.058975,-0.021476,0.016874,-0.002128,2.4135,2.0312,0.2601
8.8435,0.020091,-0.072125,0.072125,-0.033748,0.024544,-0.002141,2.3747,2.0668,0.3130
8.8636,0.020087,-0.085272,0.085272,-0.049087,0.038350,-0.002127,2.4180,2.0270,0.2540
8.8837,0.020084,-0.098417,0.098417,-0.061359,0.055223,-0.002128,2.4135,2.0312,0.2601
8.9038,0.020093,-0.111568,0.111568,-0.072097,0.075165,-0.002118,2.4258,2.0807,0.2060
8.9239,0.020102,-0.124725,0.124725,-0.082835,0.088971,-0.002129,2.4126,2.0256,0.2651
8.9440,0.020114,-0.137890,0.137890,-0.102777,0.101243,-0.002128,2.4140,2.0313,0.2590
8.9641,0.020088,-0.151037,0.151037,-0.118117,0.110447,-0.002118,2.4257,2.0807,0.2061
8.9842,0.020094,-0.164189,0.164189,-0.128854,0.122718,-0.002143,2.3734,2.0617,0.3186
9.0043,0.020092,-0.177339,0.177339,-0.141126,0.138058,-0.002126,2.4181,2.0275,0.2534
9.0244,0.020099,-0.190494,0.190494,-0.142660,0.141126,-0.002142,2.3742,2.0672,0.3137
9.0445,0.020091,-0.203643,0.203643,-0.145728,0.145728,-0.002116,2.4299,2.0769,0.2004
9.0646,0.020092,-0.216793,0.216793,-0.165670,0.165670,-0.002143,2.3729,2.0621,0.3192
9.0847,0.020089,-0.229942,0.229942,-0.191748,0.188680,-0.002140,2.3789,2.0636,0.3068
9.1047,0.020090,-0.243091,0.243091,-0.211689,0.208621,-0.002127,2.4175,2.0273,0.2546
9.1248,0.020086,-0.256237,0.256237,-0.220893,0.220893,-0.002128,2.4135,2.0311,0.2601
9.1449,0.020095,-0.269389,0.269389,-0.225495,0.230097,-0.002128,2.4135,2.0311,0.2601
9.1650,0.020097,-0.282543,0.282543,-0.234699,0.242369,-0.002128,2.4135,2.0311,0.2601
9.1851,0.020094,-0.295695,0.295695,-0.254641,0.256175,-0.002128,2.4135,2.0311,0.2601
9.2052,0.020085,-0.308774,0.308774,-0.274583,0.271515,-0.002128,2.4135,2.0311,0.2601
9.2253,0.020088,-0.320418,0.320418,-0.286854,0.285320,-0.002141,2.3747,2.0668,0.3130
9.2454,0.020088,-0.330081,0.330081,-0.299126,0.297592,-0.002127,2.4180,2.0270,0.2540
9.2655,0.020084,-0.337761,0.337761,-0.309864,0.308330,-0.002128,2.4135,2.0312,0.2601
9.2856,0.020106,-0.343467,0.343467,-0.325204,0.322136,-0.002128,2.4135,2.0312,0.2601
9.3057,0.020086,-0.347186,0.347186,-0.335942,0.334408,-0.002128,2.4135,2.0312,0.2601
9.3257,0.020087,-0.348925,0.348925,-0.342078,0.339010,-0.002128,2.4135,2.0312,0.2601
9.3458,0.020090,-0.348682,0.348682,-0.346680,0.340544,-0.002128,2.4135,2.0312,0.2601
9.3659,0.020088,-0.346459,0.346459,-0.351282,0.346680,-0.002128,2.4135,2.0312,0.2601
9.3860,0.020095,-0.342253,0.342253,-0.351282,0.346680,-0.002141,2.3747,2.0668,0.3130
9.4061,0.020083,-0.336070,0.336070,-0.351282,0.346680,-0.002127,2.4180,2.0270,0.2540
9.4262,0.020086,-0.327905,0.327905,-0.351282,0.345146,-0.002128,2.4135,2.0312,0.2601
9.4463,0.020088,-0.317758,0.317758,-0.346680,0.342078,-0.002128,2.4135,2.0312,0.2601
9.4664,0.020090,-0.305630,0.305630,-0.343612,0.340544,-0.002128,2.4135,2.0312,0.2601
9.4865,0.020097,-0.292477,0.292477,-0.340544,0.337476,-0.002128,2.4135,2.0312,0.2601
9.5066,0.020093,-0.279326,0.279326,-0.335942,0.332874,-0.002128,2.4135,2.0312,0.2601
9.5267,0.020104,-0.266168,0.266168,-0.325204,0.325204,-0.002128,2.4135,2.0312,0.2601
9.5468,0.020094,-0.253016,0.253016,-0.311398,0.312932,-0.002128,2.4135,2.0312,0.2601
9.5668,0.020093,-0.239866,0.239866,-0.292990,0.299126,-0.002118,2.4258,2.0807,0.2060
9.5870,0.020109,-0.226705,0.226705,-0.282252,0.286854,-0.002129,2.4126,2.0256,0.2651
9.6070,0.020092,-0.213555,0.213555,-0.265379,0.271515,-0.002128,2.4140,2.0313,0.2590
9.6271,0.020093,-0.200403,0.200403,-0.256175,0.259243,-0.002128,2.4140,2.0313,0.2590
9.6472,0.020098,-0.187249,0.187249,-0.242369,0.245437,-0.002128,2.4140,2.0313,0.2590
9.6673,0.020099,-0.174095,0.174095,-0.230097,0.231631,-0.002128,2.4140,2.0313,0.2590
9.6874,0.020111,-0.160932,0.160932,-0.214757,0.220893,-0.002128,2.4140,2.0313,0.2590
9.7075,0.020098,-0.147778,0.147778,-0.200951,0.207087,-0.002141,2.3746,2.0668,0.3131
9.7276,0.020095,-0.134625,0.134625,-0.187146,0.194816,-0.002127,2.4180,2.0270,0.2540
9.7477,0.020098,-0.121471,0.121471,-0.174874,0.179476,-0.002128,2.4134,2.0312,0.2601
9.7680,0.020233,-0.108228,0.108228,-0.161068,0.164136,-0.002118,2.4258,2.0807,0.2060
9.7891,0.021078,-0.094433,0.094433,-0.133456,0.133456,-0.002119,2.4623,2.0112,0.3200
9.8093,0.020255,-0.081176,0.081176,-0.121184,0.119651,-0.002129,2.4088,2.0328,0.2532
9.8294,0.020094,-0.068025,0.068025,-0.107379,0.107379,-0.002131,2.3870,2.1166,0.2602
9.8495,0.020103,-0.054868,0.054868,-0.092039,0.092039,-0.002128,2.4167,2.0218,0.2595
9.8696,0.020096,-0.041736,0.041736,-0.078233,0.078233,-0.002128,2.4136,2.0317,0.2595
9.8897,0.020102,-0.029860,0.029860,-0.065961,0.064427,-0.002141,2.3746,2.0667,0.3130
9.9098,0.020091,-0.019973,0.019973,-0.050621,0.050621,-0.002127,2.4180,2.0270,0.2540
9.9300,0.020232,-0.012019,0.012019,-0.036816,0.036816,-0.002142,2.3742,2.0672,0.3136
9.9501,0.020100,-0.006106,0.006106,-0.024544,0.026078,-0.002127,2.4180,2.0270,0.2539
9.9702,0.020099,-0.002177,0.002177,-0.013806,0.016874,-0.002128,2.4134,2.0312,0.2601
9.9903,0.020100,-0.000230,0.000230,-0.007670,0.006136,-0.002128,2.4134,2.0312,0.2601
10.0104,0.020102,-0.000267,0.000267,-0.001534,0.000000,-0.002128,2.4134,2.0312,0.2601
10.0305,0.020106,-0.002287,0.002287,0.000000,0.001534,-0.002128,2.4134,2.0312,0.2601
10.0506,0.020100,-0.006291,0.006291,-0.003068,0.000000,-0.002128,2.4134,2.0312,0.2601
10.0707,0.020084,-0.012272,0.012272,-0.004602,0.000000,-0.002141,2.3747,2.0668,0.3130
10.0908,0.020093,-0.020238,0.020238,-0.001534,0.001534,-0.002127,2.4180,2.0270,0.2540
10.1109,0.020094,-0.030185,0.030185,-0.003068,0.007670,-0.002128,2.4135,2.0312,0.2601
10.1310,0.020098,-0.042118,0.042118,-0.012272,0.018408,-0.002128,2.4135,2.0312,0.2601
10.1511,0.020098,-0.055258,0.055258,-0.024544,0.021476,-0.002141,2.3747,2.0668,0.3130
10.1712,0.020099,-0.068413,0.068413,-0.038350,0.026078,-0.002127,2.4180,2.0270,0.2540
10.1913,0.020095,-0.081565,0.081565,-0.050621,0.036816,-0.002128,2.4135,2.0312,0.2601
10.2114,0.020088,-0.094713,0.094713,-0.061359,0.055223,-0.002128,2.4135,2.0312,0.2601
10.2315,0.020093,-0.107863,0.107863,-0.070563,0.072097,-0.002128,2.4135,2.0312,0.2601
10.2516,0.020094,-0.121015,0.121015,-0.085903,0.088971,-0.002141,2.3747,2.0668,0.3130
10.2716,0.020062,-0.134145,0.134145,-0.102777,0.101243,-0.002127,2.4180,2.0270,0.2540
10.2917,0.020101,-0.147301,0.147301,-0.118117,0.110447,-0.002128,2.4135,2.0312,0.2601
10.3118,0.020105,-0.160459,0.160459,-0.130388,0.122718,-0.002128,2.4135,2.0312,0.2601
10.3319,0.020091,-0.173609,0.173609,-0.141126,0.138058,-0.002128,2.4135,2.0312,0.2601
10.3521,0.020159,-0.186803,0.186803,-0.154932,0.154932,-0.002128,2.4135,2.0312,0.2601
10.3723,0.020203,-0.200026,0.200026,-0.168738,0.165670,-0.002128,2.4135,2.0312,0.2601
10.3924,0.020084,-0.213171,0.213171,-0.185612,0.179476,-0.002128,2.4135,2.0312,0.2601
10.4125,0.020090,-0.226320,0.226320,-0.196350,0.190214,-0.002128,2.4135,2.0312,0.2601
10.4325,0.020086,-0.239466,0.239466,-0.204019,0.202485,-0.002128,2.4135,2.0312,0.2601
10.4526,0.020106,-0.252625,0.252625,-0.214757,0.216291,-0.002128,2.4135,2.0312,0.2601
10.4727,0.020084,-0.265771,0.265771,-0.233165,0.231631,-0.002118,2.4258,2.0807,0.2060
10.4928,0.020098,-0.278925,0.278925,-0.248505,0.243903,-0.002143,2.3734,2.0617,0.3186
10.5129,0.020090,-0.292074,0.292074,-0.257709,0.257709,-0.002126,2.4181,2.0275,0.2534
10.5332,0.020317,-0.305371,0.305371,-0.269981,0.269981,-0.002128,2.4134,2.0311,0.2602
10.5539,0.020705,-0.317880,0.317880,-0.282252,0.280718,-0.002128,2.4134,2.0311,0.2602
10.5740,0.020086,-0.328004,0.328004,-0.296058,0.294524,-0.002141,2.3747,2.0668,0.3130
10.5943,0.020278,-0.336216,0.336216,-0.311398,0.308330,-0.002127,2.4180,2.0270,0.2540
10.6144,0.020086,-0.342360,0.342360,-0.325204,0.322136,-0.002128,2.4135,2.0312,0.2601
10.6345,0.020098,-0.346525,0.346525,-0.331340,0.329806,-0.002128,2.4135,2.0312,0.2601
10.6546,0.020106,-0.348708,0.348708,-0.337476,0.334408,-0.002128,2.4135,2.0312,0.2601
10.6747,0.020085,-0.348908,0.348908,-0.348214,0.346680,-0.002128,2.4135,2.0312,0.2601
10.6948,0.020082,-0.347128,0.347128,-0.352816,0.346680,-0.002128,2.4135,2.0312,0.2601
10.7149,0.020087,-0.343367,0.343367,-0.349748,0.342078,-0.002128,2.4135,2.0312,0.2601
10.7350,0.020140,-0.337608,0.337608,-0.352816,0.349748,-0.002128,2.4135,2.0312,0.2601
10.7551,0.020109,-0.329871,0.329871,-0.352816,0.349748,-0.002140,2.3787,2.0631,0.3075
10.7752,0.020089,-0.320159,0.320159,-0.349748,0.345146,-0.002127,2.4176,2.0274,0.2545
10.7953,0.020096,-0.308462,0.308462,-0.345146,0.342078,-0.002142,2.3742,2.0672,0.3135
10.8154,0.020111,-0.295354,0.295354,-0.342078,0.339010,-0.002127,2.4180,2.0270,0.2539
10.8356,0.020152,-0.282165,0.282165,-0.334408,0.332874,-0.002128,2.4134,2.0312,0.2601
10.8558,0.020273,-0.268896,0.268896,-0.326738,0.326738,-0.002128,2.4134,2.0312,0.2601
10.8760,0.020165,-0.255698,0.255698,-0.311398,0.314466,-0.002118,2.4258,2.0807,0.2060
10.8963,0.020270,-0.242431,0.242431,-0.297592,0.302194,-0.002129,2.4126,2.0256,0.2651
10.9165,0.020241,-0.229183,0.229183,-0.280718,0.286854,-0.002128,2.4140,2.0313,0.2590
10.9370,0.020530,-0.215746,0.215746,-0.266913,0.273049,-0.002128,2.4140,2.0313,0.2590
10.9573,0.020289,-0.202467,0.202467,-0.254641,0.257709,-0.002128,2.4140,2.0313,0.2590
10.9776,0.020253,-0.189212,0.189212,-0.239301,0.243903,-0.002141,2.3746,2.0668,0.3131
10.9978,0.020268,-0.175947,0.175947,-0.225495,0.228563,-0.002127,2.4180,2.0270,0.2540
11.0180,0.020160,-0.162752,0.162752,-0.211689,0.217825,-0.002128,2.4134,2.0312,0.2601
11.0381,0.020097,-0.149599,0.149599,-0.199418,0.205553,-0.002128,2.4134,2.0312,0.2601
11.0583,0.020197,-0.136379,0.136379,-0.182544,0.190214,-0.002141,2.3747,2.0668,0.3130
11.0785,0.020245,-0.123129,0.123129,-0.170272,0.174874,-0.002127,2.4180,2.0270,0.2540
11.0986,0.020087,-0.109982,0.109982,-0.158000,0.161068,-0.002128,2.4135,2.0312,0.2601
11.1187,0.020094,-0.096830,0.096830,-0.145728,0.147262,-0.002141,2.3747,2.0668,0.3130
11.1389,0.020147,-0.083644,0.083644,-0.133456,0.133456,-0.002127,2.4180,2.0270,0.2540
11.1593,0.020420,-0.070279,0.070279,-0.119651,0.118117,-0.002128,2.4135,2.0312,0.2601
11.1795,0.020222,-0.057044,0.057044,-0.105845,0.105845,-0.002141,2.3747,2.0668,0.3130
11.1996,0.020108,-0.043883,0.043883,-0.090505,0.090505,-0.002127,2.4180,2.0270,0.2540
11.2197,0.020099,-0.031682,0.031682,-0.076699,0.076699,-0.002128,2.4135,2.0312,0.2601
11.2398,0.020099,-0.021465,0.021465,-0.064427,0.062893,-0.002128,2.4135,2.0312,0.2601
11.2599,0.020086,-0.013234,0.013234,-0.049087,0.050621,-0.002141,2.3747,2.0668,0.3130
11.2800,0.020096,-0.006982,0.006982,-0.036816,0.036816,-0.002140,2.3787,2.0631,0.3075
11.3001,0.020102,-0.002711,0.002711,-0.023010,0.026078,-0.002140,2.3787,2.0631,0.3075
11.3202,0.020145,-0.000420,0.000420,-0.012272,0.013806,-0.002127,2.4176,2.0274,0.2545
11.3404,0.020107,-0.000121,0.000121,-0.004602,0.004602,-0.002128,2.4135,2.0311,0.2601
11.3605,0.020113,-0.001807,0.001807,-0.003068,0.001534,-0.002128,2.4135,2.0311,0.2601
11.3808,0.020287,-0.005519,0.005519,-0.003068,0.000000,-0.002141,2.3747,2.0668,0.3130
11.4009,0.020109,-0.011192,0.011192,-0.003068,0.000000,-0.002141,2.3747,2.0668,0.3130
11.4210,0.020114,-0.018852,0.018852,-0.003068,0.000000,-0.002127,2.4180,2.0270,0.2540
11.4416,0.020603,-0.028757,0.028757,-0.004602,0.001534,-0.002141,2.3747,2.0668,0.3130
11.4618,0.020247,-0.040521,0.040521,-0.006136,0.006136,-0.002127,2.4180,2.0270,0.2540
11.4819,0.020093,-0.053615,0.053615,-0.010738,0.016874,-0.002128,2.4135,2.0312,0.2601
11.5020,0.020112,-0.066778,0.066778,-0.019942,0.021476,-0.002128,2.4135,2.0312,0.2601
11.5222,0.020217,-0.080010,0.080010,-0.035282,0.027612,-0.002141,2.3747,2.0668,0.3130
11.5431,0.020877,-0.093674,0.093674,-0.035282,0.027612,-0.002141,2.3747,2.0668,0.3130
11.5641,0.021023,-0.107434,0.107434,-0.072097,0.073631,-0.002116,2.4676,2.0126,0.3088
11.5842,0.020095,-0.120586,0.120586,-0.084369,0.088971,-0.002140,2.3793,2.0629,0.3080
11.6043,0.020087,-0.133733,0.133733,-0.102777,0.104311,-0.002140,2.3793,2.0629,0.3080
11.6244,0.020102,-0.146889,0.146889,-0.116583,0.113515,-0.002140,2.3778,2.0637,0.3080
11.6445,0.020097,-0.160043,0.160043,-0.116583,0.113515,-0.002127,2.4177,2.0273,0.2545
11.6646,0.020107,-0.173203,0.173203,-0.130388,0.125786,-0.002142,2.3742,2.0672,0.3135
11.6848,0.020209,-0.186429,0.186429,-0.142660,0.138058,-0.002140,2.3787,2.0630,0.3074
11.7049,0.020103,-0.199587,0.199587,-0.170272,0.165670,-0.002130,2.3901,2.1135,0.2545
11.7251,0.020118,-0.212754,0.212754,-0.170272,0.165670,-0.002128,2.4164,2.0221,0.2600
11.7452,0.020091,-0.225904,0.225904,-0.194816,0.191748,-0.002141,2.3744,2.0677,0.3130
11.7653,0.020110,-0.239066,0.239066,-0.194816,0.191748,-0.002127,2.4180,2.0269,0.2540
11.7860,0.020727,-0.252632,0.252632,-0.207087,0.202485,-0.002142,2.3742,2.0672,0.3136
11.8061,0.020102,-0.265789,0.265789,-0.233165,0.234699,-0.002127,2.4180,2.0270,0.2539
11.8262,0.020103,-0.278946,0.278946,-0.246971,0.243903,-0.002128,2.4134,2.0312,0.2601
11.8463,0.020098,-0.292101,0.292101,-0.257709,0.257709,-0.002128,2.4134,2.0312,0.2601
11.8664,0.020109,-0.305262,0.305262,-0.257709,0.257709,-0.002141,2.3747,2.0668,0.3130
11.8875,0.021061,-0.317985,0.317985,-0.269981,0.273049,-0.002140,2.3787,2.0631,0.3075
11.9076,0.020089,-0.328091,0.328091,-0.300660,0.296058,-0.002140,2.3787,2.0631,0.3075
11.9277,0.020113,-0.336226,0.336226,-0.300660,0.296058,-0.002140,2.3787,2.0631,0.3075
11.9478,0.020103,-0.342371,0.342371,-0.325204,0.320602,-0.002127,2.4176,2.0274,0.2545
11.9679,0.020120,-0.346536,0.346536,-0.325204,0.320602,-0.002128,2.4135,2.0311,0.2601
11.9880,0.020130,-0.348714,0.348714,-0.332874,0.332874,-0.002128,2.4135,2.0311,0.2601
12.0083,0.020260,-0.348897,0.348897,-0.340544,0.340544,-0.002141,2.3747,2.0668,0.3130
12.0284,0.020115,-0.347086,0.347086,-0.349748,0.340544,-0.002127,2.4180,2.0270,0.2540
12.0485,0.020102,-0.343292,0.343292,-0.349748,0.345146,-0.002128,2.4135,2.0312,0.2601
12.0686,0.020097,-0.337516,0.337516,-0.348214,0.346680,-0.002128,2.4135,2.0312,0.2601
12.0887,0.020110,-0.329752,0.329752,-0.352816,0.346680,-0.002141,2.3747,2.0668,0.3130
12.1088,0.020100,-0.320008,0.320008,-0.352816,0.346680,-0.002127,2.4180,2.0270,0.2540
12.1289,0.020106,-0.308277,0.308277,-0.348214,0.343612,-0.002128,2.4135,2.0312,0.2601
12.1490,0.020130,-0.295150,0.295150,-0.343612,0.339010,-0.002128,2.4135,2.0312,0.2601
12.1691,0.020090,-0.282000,0.282000,-0.340544,0.335942,-0.002141,2.3747,2.0668,0.3130
12.1892,0.020088,-0.268853,0.268853,-0.332874,0.331340,-0.002127,2.4180,2.0270,0.2540
12.2093,0.020094,-0.255701,0.255701,-0.322136,0.325204,-0.002128,2.4135,2.0312,0.2601
12.2300,0.020655,-0.242183,0.242183,-0.292990,0.299126,-0.002128,2.4135,2.0312,0.2601
12.2501,0.020105,-0.229024,0.229024,-0.279185,0.285320,-0.002128,2.4135,2.0312,0.2601
12.2702,0.020094,-0.215872,0.215872,-0.279185,0.285320,-0.002128,2.4135,2.0312,0.2601
12.2903,0.020098,-0.202719,0.202719,-0.265379,0.268447,-0.002128,2.4135,2.0312,0.2601
12.3104,0.020100,-0.189563,0.189563,-0.253107,0.254641,-0.002141,2.3747,2.0668,0.3130
12.3305,0.020104,-0.176405,0.176405,-0.237767,0.240835,-0.002140,2.3787,2.0631,0.3075
12.3506,0.020099,-0.163250,0.163250,-0.223961,0.227029,-0.002127,2.4176,2.0274,0.2545
12.3707,0.020109,-0.150089,0.150089,-0.208621,0.216291,-0.002128,2.4135,2.0311,0.2601
12.3908,0.020118,-0.136922,0.136922,-0.181010,0.188680,-0.002128,2.4135,2.0311,0.2601
12.4109,0.020099,-0.123767,0.123767,-0.181010,0.188680,-0.002141,2.3747,2.0668,0.3130
12.4310,0.020108,-0.110606,0.110606,-0.168738,0.173340,-0.002127,2.4180,2.0270,0.2540
12.4511,0.020109,-0.097445,0.097445,-0.156466,0.158000,-0.002128,2.4135,2.0312,0.2601
12.4723,0.021141,-0.083608,0.083608,-0.142660,0.142660,-0.002128,2.4135,2.0312,0.2601
12.4924,0.020101,-0.070452,0.070452,-0.116583,0.115049,-0.002141,2.3747,2.0668,0.3130
12.5125,0.020100,-0.057297,0.057297,-0.102777,0.101243,-0.002127,2.4180,2.0270,0.2540
12.5326,0.020103,-0.044139,0.044139,-0.102777,0.101243,-0.002142,2.3742,2.0672,0.3136
12.5527,0.020108,-0.031896,0.031896,-0.088971,0.087437,-0.002127,2.4180,2.0270,0.2539
12.5728,0.020102,-0.021639,0.021639,-0.061359,0.059825,-0.002128,2.4134,2.0312,0.2601
12.5929,0.020114,-0.013361,0.013361,-0.061359,0.059825,-0.002128,2.4134,2.0312,0.2601
12.6130,0.020109,-0.007071,0.007071,-0.046019,0.047553,-0.002141,2.3747,2.0668,0.3130
12.6331,0.020074,-0.002771,0.002771,-0.032214,0.033748,-0.002127,2.4180,2.0270,0.2540
12.6535,0.020419,-0.000426,0.000426,-0.019942,0.024544,-0.002128,2.4135,2.0312,0.2601
12.6736,0.020098,-0.000117,0.000117,-0.012272,0.013806,-0.002141,2.3747,2.0668,0.3130
12.6937,0.020104,-0.001792,0.001792,-0.004602,0.003068,-0.002127,2.4180,2.0270,0.2540
12.7138,0.020105,-0.005450,0.005450,-0.003068,0.001534,-0.002128,2.4135,2.0312,0.2601
12.7339,0.020105,-0.011093,0.011093,-0.003068,0.000000,-0.002128,2.4135,2.0312,0.2601
12.7540,0.020108,-0.018722,0.018722,-0.003068,0.000000,-0.002141,2.3747,2.0668,0.3130
12.7741,0.020091,-0.028326,0.028326,-0.003068,0.000000,-0.002127,2.4180,2.0270,0.2540
12.7942,0.020119,-0.039928,0.039928,-0.003068,0.004602,-0.002128,2.4135,2.0312,0.2601
12.8143,0.020098,-0.053000,0.053000,-0.009204,0.010738,-0.002128,2.4135,2.0312,0.2601
12.8344,0.020104,-0.066158,0.066158,-0.018408,0.018408,-0.002128,2.4135,2.0312,0.2601
12.8545,0.020108,-0.079318,0.079318,-0.030680,0.026078,-0.002141,2.3747,2.0668,0.3130
12.8746,0.020099,-0.092473,0.092473,-0.041417,0.033748,-0.002127,2.4180,2.0270,0.2540
12.8947,0.020103,-0.105630,0.105630,-0.052155,0.049087,-0.002128,2.4135,2.0312,0.2601
12.9148,0.020092,-0.118781,0.118781,-0.062893,0.064427,-0.002128,2.4135,2.0312,0.2601
12.9349,0.020095,-0.131933,0.131933,-0.078233,0.079767,-0.002128,2.4135,2.0312,0.2601
12.9550,0.020097,-0.145086,0.145086,-0.093573,0.093573,-0.002141,2.3747,2.0668,0.3130
12.9752,0.020214,-0.158316,0.158316,-0.108913,0.104311,-0.002127,2.4180,2.0270,0.2540
12.9953,0.020105,-0.171475,0.171475,-0.118117,0.115049,-0.002142,2.3742,2.0672,0.3136
13.0154,0.020100,-0.184630,0.184630,-0.130388,0.128854,-0.002127,2.4180,2.0270,0.2539
13.0360,0.020588,-0.198105,0.198105,-0.147262,0.145728,-0.002128,2.4134,2.0312,0.2601
13.0561,0.020103,-0.211263,0.211263,-0.161068,0.156466,-0.002128,2.4134,2.0312,0.2601
13.0762,0.020100,-0.224418,0.224418,-0.173340,0.168738,-0.002128,2.4134,2.0312,0.2601
13.0963,0.020101,-0.237574,0.237574,-0.185612,0.181010,-0.002128,2.4134,2.0312,0.2601
13.1171,0.020772,-0.251170,0.251170,-0.197884,0.196350,-0.002128,2.4134,2.0312,0.2601
13.1372,0.020106,-0.264329,0.264329,-0.211689,0.211689,-0.002128,2.4134,2.0312,0.2601
13.1575,0.020274,-0.277598,0.277598,-0.223961,0.222427,-0.002128,2.4134,2.0312,0.2601
13.1776,0.020084,-0.290743,0.290743,-0.237767,0.234699,-0.002128,2.4134,2.0312,0.2601
13.1979,0.020321,-0.304043,0.304043,-0.251573,0.250039,-0.002128,2.4134,2.0312,0.2601
13.2180,0.020131,-0.316423,0.316423,-0.262311,0.263845,-0.002128,2.4134,2.0312,0.2601
13.2381,0.020096,-0.326808,0.326808,-0.276117,0.274583,-0.002128,2.4134,2.0312,0.2601
13.2582,0.020100,-0.335212,0.335212,-0.289922,0.289922,-0.002128,2.4134,2.0312,0.2601
13.2783,0.020110,-0.341636,0.341636,-0.322136,0.317534,-0.002129,2.4126,2.0256,0.2651
13.2984,0.020102,-0.346073,0.346073,-0.322136,0.317534,-0.002129,2.4126,2.0256,0.2651
13.3191,0.020676,-0.348568,0.348568,-0.331340,0.328272,-0.002128,2.4140,2.0313,0.2590
13.3392,0.020093,-0.348982,0.348982,-0.335942,0.335942,-0.002141,2.3746,2.0668,0.3131
13.3593,0.020093,-0.347414,0.347414,-0.343612,0.340544,-0.002140,2.3787,2.0631,0.3074
13.3794,0.020095,-0.343863,0.343863,-0.351282,0.345146,-0.002127,2.4176,2.0274,0.2545
13.3996,0.020209,-0.338294,0.338294,-0.351282,0.346680,-0.002128,2.4135,2.0311,0.2601
13.4205,0.020906,-0.330422,0.330422,-0.351282,0.346680,-0.002129,2.4126,2.0256,0.2651
13.4406,0.020106,-0.320828,0.320828,-0.348214,0.345146,-0.002128,2.4140,2.0313,0.2590
13.4607,0.020088,-0.309261,0.309261,-0.345146,0.342078,-0.002128,2.4140,2.0313,0.2590
13.4808,0.020102,-0.296192,0.296192,-0.343612,0.339010,-0.002128,2.4140,2.0313,0.2590
13.5009,0.020119,-0.283024,0.283024,-0.343612,0.339010,-0.002141,2.3746,2.0668,0.3131
13.5210,0.020137,-0.269844,0.269844,-0.340544,0.335942,-0.002127,2.4180,2.0270,0.2540
13.5411,0.020085,-0.256698,0.256698,-0.334408,0.331340,-0.002128,2.4134,2.0312,0.2601
13.5612,0.020099,-0.243543,0.243543,-0.322136,0.322136,-0.002128,2.4134,2.0312,0.2601
13.5817,0.020512,-0.230118,0.230118,-0.308330,0.309864,-0.002128,2.4134,2.0312,0.2601
13.6018,0.020095,-0.216966,0.216966,-0.273049,0.277651,-0.002128,2.4134,2.0312,0.2601
13.6219,0.020055,-0.203841,0.203841,-0.259243,0.265379,-0.002128,2.4134,2.0312,0.2601
13.6420,0.020092,-0.190691,0.190691,-0.245437,0.248505,-0.002128,2.4134,2.0312,0.2601
13.6621,0.020090,-0.177542,0.177542,-0.233165,0.237767,-0.002128,2.4134,2.0312,0.2601
13.6822,0.020088,-0.164394,0.164394,-0.220893,0.223961,-0.002128,2.4134,2.0312,0.2601
13.7022,0.020084,-0.151249,0.151249,-0.205553,0.213223,-0.002118,2.4258,2.0807,0.2060
13.7223,0.020092,-0.138099,0.138099,-0.193282,0.199418,-0.002143,2.3734,2.0617,0.3186
13.7424,0.020091,-0.124950,0.124950,-0.177942,0.185612,-0.002140,2.3788,2.0636,0.3069
13.7625,0.020096,-0.111796,0.111796,-0.167204,0.170272,-0.002127,2.4175,2.0273,0.2546
13.7826,0.020085,-0.098651,0.098651,-0.151864,0.154932,-0.002128,2.4135,2.0311,0.2601
13.8027,0.020087,-0.085504,0.085504,-0.141126,0.141126,-0.002141,2.3747,2.0668,0.3130
13.8228,0.020098,-0.072350,0.072350,-0.124252,0.122718,-0.002127,2.4180,2.0270,0.2540
13.8429,0.020090,-0.059202,0.059202,-0.105845,0.105845,-0.002128,2.4135,2.0312,0.2601
13.8630,0.020090,-0.046053,0.046053,-0.088971,0.087437,-0.002128,2.4135,2.0312,0.2601
13.8831,0.020088,-0.033565,0.033565,-0.072097,0.072097,-0.002141,2.3747,2.0668,0.3130
13.9031,0.020085,-0.023025,0.023025,-0.058291,0.056757,-0.002127,2.4180,2.0270,0.2540
13.9232,0.020089,-0.014464,0.014464,-0.044485,0.044485,-0.002128,2.4135,2.0312,0.2601
13.9433,0.020098,-0.007882,0.007882,-0.032214,0.033748,-0.002141,2.3747,2.0668,0.3130
13.9634,0.020092,-0.003284,0.003284,-0.021476,0.024544,-0.002140,2.3787,2.0631,0.3075
