t,loop_dt,cmd_ant_l,cmd_ant_r,pres_ant_l,pres_ant_r,pres_z,pres_roll,pres_pitch,pres_yaw
0.0000,0.000001,-0.349065,0.349065,-0.177942,0.173340,-0.001859,3.0170,1.4622,-0.1199
0.0201,0.020080,-0.338551,0.338551,-0.177942,0.173340,-0.001848,3.0301,1.5171,-0.1787
0.0402,0.020085,-0.328035,0.328035,-0.176408,0.173340,-0.001849,3.0287,1.5114,-0.1726
0.0602,0.020078,-0.317522,0.317522,-0.233165,0.230097,-0.001845,2.9676,1.4435,-0.1739
0.0803,0.020084,-0.307006,0.307006,-0.311398,0.306796,-0.001846,2.9740,1.4506,-0.1738
0.1004,0.020115,-0.296474,0.296474,-0.358952,0.352816,-0.001835,2.9852,1.4996,-0.2271
0.1205,0.020078,-0.285961,0.285961,-0.355884,0.349748,-0.001847,2.9343,1.5089,-0.2764
0.1406,0.020092,-0.275441,0.275441,-0.334408,0.331340,-0.001835,2.9893,1.4934,-0.2164
0.1607,0.020126,-0.264903,0.264903,-0.311398,0.311398,-0.001847,2.9339,1.5095,-0.2775
0.1808,0.020104,-0.254376,0.254376,-0.286854,0.292990,-0.001845,2.9775,1.4437,-0.1630
0.2009,0.020078,-0.243863,0.243863,-0.271515,0.276117,-0.001836,2.9848,1.5003,-0.2282
0.2210,0.020084,-0.233347,0.233347,-0.260777,0.263845,-0.001837,2.9841,1.4944,-0.2214
0.2411,0.020104,-0.222821,0.222821,-0.253107,0.254641,-0.001837,2.9841,1.4944,-0.2214
0.2612,0.020081,-0.212306,0.212306,-0.245437,0.246971,-0.001847,2.9344,1.5094,-0.2770
0.2813,0.020095,-0.201784,0.201784,-0.236233,0.239301,-0.001835,2.9893,1.4934,-0.2164
0.3014,0.020090,-0.191265,0.191265,-0.227029,0.228563,-0.001847,2.9717,1.4454,-0.1694
0.3215,0.020081,-0.180751,0.180751,-0.216291,0.219359,-0.001846,2.9735,1.4504,-0.1743
0.3415,0.020092,-0.170231,0.170231,-0.202485,0.208621,-0.001836,2.9852,1.4996,-0.2271
0.3618,0.020297,-0.159603,0.159603,-0.191748,0.196350,-0.001847,2.9721,1.4447,-0.1682
0.3819,0.020089,-0.149085,0.149085,-0.181010,0.184078,-0.001846,2.9356,1.5146,-0.2825
0.4020,0.020084,-0.138569,0.138569,-0.171806,0.171806,-0.001835,2.9892,1.4929,-0.2158
0.4221,0.020075,-0.128058,0.128058,-0.162602,0.161068,-0.001837,2.9836,1.4951,-0.2227
0.4422,0.020086,-0.117541,0.117541,-0.151864,0.150330,-0.001837,2.9836,1.4951,-0.2227
0.4623,0.020086,-0.107024,0.107024,-0.141126,0.139592,-0.001837,2.9836,1.4951,-0.2227
0.4824,0.020096,-0.096501,0.096501,-0.130388,0.127320,-0.001837,2.9836,1.4951,-0.2227
0.5025,0.020138,-0.085957,0.085957,-0.119651,0.118117,-0.001847,2.9345,1.5093,-0.2768
0.5226,0.020086,-0.075440,0.075440,-0.107379,0.107379,-0.001835,2.9893,1.4934,-0.2164
0.5427,0.020086,-0.064923,0.064923,-0.095107,0.096641,-0.001837,2.9836,1.4951,-0.2227
0.5628,0.020088,-0.054405,0.054405,-0.085903,0.084369,-0.001837,2.9836,1.4951,-0.2227
0.5828,0.020079,-0.043892,0.043892,-0.075165,0.075165,-0.001837,2.9836,1.4951,-0.2227
0.6029,0.020087,-0.033374,0.033374,-0.065961,0.062893,-0.001837,2.9836,1.4951,-0.2227
0.6230,0.020082,-0.022860,0.022860,-0.053689,0.052155,-0.001837,2.9836,1.4951,-0.2227
0.6431,0.020089,-0.012341,0.012341,-0.041417,0.042951,-0.001837,2.9836,1.4951,-0.2227
0.6632,0.020084,-0.001825,0.001825,-0.029146,0.032214,-0.001837,2.9836,1.4951,-0.2227
0.6833,0.020076,-0.008687,0.008687,-0.016874,0.021476,-0.001837,2.9836,1.4951,-0.2227
0.7033,0.020090,-0.019206,0.019206,-0.007670,0.010738,-0.001837,2.9836,1.4951,-0.2227
0.7234,0.020080,-0.029720,0.029720,-0.001534,0.001534,-0.001847,2.9723,1.4452,-0.1687
0.7435,0.020088,-0.040238,0.040238,-0.003068,0.004602,-0.001835,2.9853,1.5001,-0.2276
0.7636,0.020091,-0.050758,0.050758,-0.012272,0.016874,-0.001837,2.9840,1.4944,-0.2215
0.7837,0.020077,-0.061270,0.061270,-0.027612,0.032214,-0.001847,2.9722,1.4453,-0.1688
0.8038,0.020094,-0.071792,0.071792,-0.044485,0.044485,-0.001846,2.9735,1.4504,-0.1743
0.8239,0.020079,-0.082305,0.082305,-0.059825,0.055223,-0.001836,2.9852,1.4996,-0.2271
0.8440,0.020095,-0.092826,0.092826,-0.062893,0.061359,-0.001847,2.9721,1.4447,-0.1682
0.8640,0.020078,-0.103339,0.103339,-0.061359,0.070563,-0.001846,2.9735,1.4504,-0.1744
0.8841,0.020078,-0.113852,0.113852,-0.075165,0.082835,-0.001846,2.9735,1.4504,-0.1744
0.9042,0.020078,-0.124365,0.124365,-0.095107,0.096641,-0.001856,2.9236,1.4643,-0.2285
0.9243,0.020076,-0.134877,0.134877,-0.113515,0.105845,-0.001845,2.9785,1.4484,-0.1681
0.9444,0.020089,-0.145396,0.145396,-0.122718,0.115049,-0.001836,2.9847,1.4998,-0.2277
0.9644,0.020076,-0.155908,0.155908,-0.127320,0.124252,-0.001837,2.9841,1.4944,-0.2215
0.9845,0.020078,-0.166420,0.166420,-0.134990,0.136524,-0.001837,2.9841,1.4944,-0.2215
1.0046,0.020049,-0.176918,0.176918,-0.148796,0.145728,-0.001837,2.9841,1.4944,-0.2215
1.0246,0.020082,-0.187433,0.187433,-0.162602,0.156466,-0.001837,2.9841,1.4944,-0.2215
1.0447,0.020074,-0.197944,0.197944,-0.170272,0.165670,-0.001847,2.9722,1.4453,-0.1688
1.0652,0.020460,-0.208657,0.208657,-0.176408,0.179476,-0.001835,2.9854,1.5001,-0.2276
1.0858,0.020639,-0.219464,0.219464,-0.187146,0.190214,-0.001847,2.9343,1.5088,-0.2763
1.1059,0.020082,-0.229978,0.229978,-0.204019,0.200951,-0.001835,2.9893,1.4935,-0.2164
1.1260,0.020079,-0.240492,0.240492,-0.214757,0.211689,-0.001847,2.9717,1.4454,-0.1694
1.1460,0.020075,-0.251003,0.251003,-0.220893,0.220893,-0.001846,2.9735,1.4504,-0.1743
1.1661,0.020086,-0.261520,0.261520,-0.230097,0.231631,-0.001846,2.9735,1.4504,-0.1743
1.1862,0.020092,-0.272040,0.272040,-0.243903,0.240835,-0.001836,2.9852,1.4996,-0.2271
1.2064,0.020146,-0.282588,0.282588,-0.254641,0.251573,-0.001847,2.9721,1.4447,-0.1682
1.2265,0.020080,-0.293102,0.293102,-0.262311,0.263845,-0.001835,2.9854,1.5002,-0.2277
1.2466,0.020101,-0.303627,0.303627,-0.273049,0.273049,-0.001837,2.9840,1.4944,-0.2215
1.2666,0.020075,-0.314138,0.314138,-0.286854,0.283786,-0.001837,2.9840,1.4944,-0.2215
1.2867,0.020079,-0.324652,0.324652,-0.299126,0.296058,-0.001847,2.9722,1.4453,-0.1688
1.3068,0.020085,-0.335168,0.335168,-0.308330,0.305262,-0.001835,2.9854,1.5001,-0.2276
1.3269,0.020084,-0.345684,0.345684,-0.312932,0.311398,-0.001847,2.9721,1.4447,-0.1682
1.3470,0.020147,-0.341899,0.341899,-0.328272,0.326738,-0.001846,2.9735,1.4504,-0.1744
1.3671,0.020074,-0.331389,0.331389,-0.342078,0.339010,-0.001836,2.9852,1.4996,-0.2271
1.3872,0.020076,-0.320877,0.320877,-0.352816,0.348214,-0.001837,2.9840,1.4944,-0.2216
1.4073,0.020088,-0.310359,0.310359,-0.351282,0.346680,-0.001837,2.9840,1.4944,-0.2216
1.4273,0.020076,-0.299847,0.299847,-0.346680,0.339010,-0.001837,2.9840,1.4944,-0.2216
1.4475,0.020176,-0.289282,0.289282,-0.340544,0.331340,-0.001837,2.9840,1.4944,-0.2216
1.4676,0.020078,-0.278770,0.278770,-0.328272,0.323670,-0.001847,2.9722,1.4453,-0.1688
1.4877,0.020083,-0.268254,0.268254,-0.316000,0.312932,-0.001846,2.9735,1.4504,-0.1743
1.5078,0.020101,-0.257729,0.257729,-0.302194,0.303728,-0.001836,2.9852,1.4996,-0.2271
1.5280,0.020249,-0.247127,0.247127,-0.288388,0.292990,-0.001857,2.9224,1.4592,-0.2231
1.5482,0.020196,-0.236552,0.236552,-0.277651,0.282252,-0.001845,2.9408,1.5131,-0.2768
1.5683,0.020089,-0.226034,0.226034,-0.266913,0.271515,-0.001846,2.9767,1.4433,-0.1631
1.5884,0.020074,-0.215524,0.215524,-0.257709,0.259243,-0.001835,2.9849,1.5003,-0.2282
1.6086,0.020213,-0.204940,0.204940,-0.246971,0.248505,-0.001857,2.9225,1.4591,-0.2229
1.6288,0.020170,-0.194379,0.194379,-0.236233,0.239301,-0.001834,2.9906,1.4987,-0.2220
1.6489,0.020105,-0.183852,0.183852,-0.225495,0.228563,-0.001834,2.9906,1.4987,-0.2220
1.6691,0.020208,-0.173271,0.173271,-0.213223,0.217825,-0.001847,2.9723,1.4453,-0.1688
1.6892,0.020104,-0.162745,0.162745,-0.199418,0.208621,-0.001835,2.9853,1.5001,-0.2276
1.7093,0.020098,-0.152221,0.152221,-0.190214,0.197884,-0.001837,2.9840,1.4944,-0.2215
1.7294,0.020079,-0.141708,0.141708,-0.177942,0.184078,-0.001837,2.9840,1.4944,-0.2215
1.7496,0.020224,-0.131118,0.131118,-0.171806,0.173340,-0.001847,2.9722,1.4453,-0.1688
1.7699,0.020289,-0.120495,0.120495,-0.161068,0.161068,-0.001847,2.9722,1.4453,-0.1688
1.7900,0.020080,-0.109981,0.109981,-0.150330,0.148796,-0.001837,2.9840,1.4944,-0.2215
1.8103,0.020394,-0.099303,0.099303,-0.139592,0.138058,-0.001837,2.9840,1.4944,-0.2215
1.8304,0.020077,-0.088791,0.088791,-0.128854,0.125786,-0.001837,2.9840,1.4944,-0.2215
1.8505,0.020078,-0.078278,0.078278,-0.116583,0.115049,-0.001837,2.9840,1.4944,-0.2215
1.8710,0.020523,-0.067532,0.067532,-0.105845,0.105845,-0.001847,2.9344,1.5094,-0.2770
1.8911,0.020076,-0.057020,0.057020,-0.092039,0.093573,-0.001835,2.9893,1.4934,-0.2164
1.9113,0.020189,-0.046449,0.046449,-0.084369,0.082835,-0.001835,2.9893,1.4934,-0.2164
1.9314,0.020091,-0.035929,0.035929,-0.073631,0.072097,-0.001857,2.9226,1.4596,-0.2235
1.9516,0.020181,-0.025363,0.025363,-0.062893,0.061359,-0.001834,2.9905,1.4986,-0.2219
1.9721,0.020528,-0.014614,0.014614,-0.050621,0.050621,-0.001837,2.9835,1.4945,-0.2221
1.9925,0.020391,-0.003937,0.003937,-0.038350,0.039884,-0.001836,2.9844,1.4951,-0.2221
2.0126,0.020086,-0.006580,0.006580,-0.027612,0.029146,-0.001836,2.9844,1.4951,-0.2221
2.0326,0.020079,-0.017093,0.017093,-0.015340,0.019942,-0.001836,2.9844,1.4951,-0.2221
2.0527,0.020078,-0.027606,0.027606,-0.006136,0.009204,-0.001847,2.9722,1.4452,-0.1688
2.0730,0.020299,-0.038235,0.038235,0.000000,0.001534,-0.001835,2.9854,1.5001,-0.2276
2.0931,0.020089,-0.048753,0.048753,-0.003068,0.007670,-0.001837,2.9840,1.4944,-0.2215
2.1132,0.020123,-0.059289,0.059289,-0.018408,0.021476,-0.001837,2.9840,1.4944,-0.2215
2.1333,0.020110,-0.069819,0.069819,-0.032214,0.033748,-0.001837,2.9840,1.4944,-0.2215
2.1535,0.020184,-0.080387,0.080387,-0.049087,0.047553,-0.001837,2.9840,1.4944,-0.2215
2.1737,0.020140,-0.090932,0.090932,-0.059825,0.052155,-0.001847,2.9722,1.4453,-0.1688
2.1938,0.020118,-0.101466,0.101466,-0.061359,0.056757,-0.001835,2.9854,1.5001,-0.2276
2.2139,0.020105,-0.111993,0.111993,-0.065961,0.069029,-0.001847,2.9721,1.4447,-0.1682
2.2340,0.020127,-0.122531,0.122531,-0.079767,0.087437,-0.001835,2.9854,1.5002,-0.2277
2.2543,0.020290,-0.133155,0.133155,-0.101243,0.101243,-0.001847,2.9721,1.4447,-0.1682
2.2744,0.020095,-0.143677,0.143677,-0.115049,0.107379,-0.001835,2.9854,1.5002,-0.2277
2.2946,0.020182,-0.154244,0.154244,-0.119651,0.111981,-0.001837,2.9840,1.4944,-0.2215
2.3147,0.020112,-0.164774,0.164774,-0.125786,0.125786,-0.001837,2.9840,1.4944,-0.2215
2.3349,0.020233,-0.175369,0.175369,-0.154932,0.151864,-0.001835,2.9854,1.5001,-0.2276
2.3551,0.020179,-0.185934,0.185934,-0.165670,0.158000,-0.001837,2.9840,1.4944,-0.2215
2.3756,0.020540,-0.196689,0.196689,-0.171806,0.165670,-0.001837,2.9840,1.4944,-0.2215
2.3958,0.020160,-0.207245,0.207245,-0.177942,0.177942,-0.001837,2.9840,1.4944,-0.2215
2.4159,0.020079,-0.217758,0.217758,-0.194816,0.193282,-0.001835,2.9854,1.5001,-0.2276
2.4360,0.020090,-0.228277,0.228277,-0.211689,0.207087,-0.001837,2.9840,1.4944,-0.2215
2.4561,0.020077,-0.238789,0.238789,-0.216291,0.211689,-0.001837,2.9840,1.4944,-0.2215
2.4762,0.020119,-0.249324,0.249324,-0.219359,0.214757,-0.001837,2.9840,1.4944,-0.2215
2.4963,0.020083,-0.259839,0.259839,-0.228563,0.230097,-0.001847,2.9722,1.4453,-0.1688
2.5168,0.020496,-0.270571,0.270571,-0.245437,0.248505,-0.001835,2.9854,1.5001,-0.2276
2.5370,0.020284,-0.281191,0.281191,-0.260777,0.259243,-0.001837,2.9840,1.4944,-0.2215
2.5571,0.020084,-0.291707,0.291707,-0.268447,0.263845,-0.001847,2.9344,1.5094,-0.2770
2.5774,0.020291,-0.302331,0.302331,-0.276117,0.271515,-0.001846,2.9774,1.4437,-0.1630
2.5975,0.020077,-0.312844,0.312844,-0.286854,0.286854,-0.001846,2.9729,1.4505,-0.1749
2.6176,0.020080,-0.323357,0.323357,-0.303728,0.299126,-0.001846,2.9729,1.4505,-0.1749
2.6377,0.020086,-0.333874,0.333874,-0.312932,0.309864,-0.001846,2.9729,1.4505,-0.1749
2.6577,0.020074,-0.344385,0.344385,-0.319068,0.316000,-0.001847,2.9343,1.5089,-0.2764
2.6779,0.020129,-0.343207,0.343207,-0.329806,0.323670,-0.001835,2.9893,1.4934,-0.2164
2.6981,0.020280,-0.332588,0.332588,-0.343612,0.335942,-0.001847,2.9717,1.4454,-0.1694
2.7182,0.020077,-0.322076,0.322076,-0.351282,0.348214,-0.001846,2.9735,1.4504,-0.1743
2.7383,0.020082,-0.311562,0.311562,-0.351282,0.346680,-0.001836,2.9852,1.4996,-0.2271
2.7584,0.020077,-0.301049,0.301049,-0.343612,0.337476,-0.001837,2.9840,1.4944,-0.2216
2.7786,0.020237,-0.290453,0.290453,-0.334408,0.329806,-0.001837,2.9840,1.4944,-0.2216
2.7987,0.020080,-0.279940,0.279940,-0.322136,0.319068,-0.001837,2.9840,1.4944,-0.2216
2.8188,0.020079,-0.269426,0.269426,-0.311398,0.309864,-0.001847,2.9722,1.4453,-0.1688
2.8391,0.020351,-0.258770,0.258770,-0.297592,0.299126,-0.001847,2.9722,1.4453,-0.1688
2.8592,0.020083,-0.248255,0.248255,-0.286854,0.289922,-0.001836,2.9852,1.4996,-0.2271
2.8793,0.020106,-0.237727,0.237727,-0.276117,0.279185,-0.001847,2.9721,1.4447,-0.1682
2.8994,0.020084,-0.227211,0.227211,-0.263845,0.266913,-0.001835,2.9854,1.5002,-0.2277
2.9196,0.020234,-0.216617,0.216617,-0.253107,0.254641,-0.001837,2.9840,1.4944,-0.2215
2.9399,0.020303,-0.205986,0.205986,-0.243903,0.243903,-0.001837,2.9840,1.4944,-0.2215
2.9600,0.020084,-0.195470,0.195470,-0.231631,0.234699,-0.001837,2.9840,1.4944,-0.2215
2.9801,0.020107,-0.184943,0.184943,-0.220893,0.223961,-0.001837,2.9840,1.4944,-0.2215
3.0002,0.020082,-0.174428,0.174428,-0.208621,0.214757,-0.001837,2.9840,1.4944,-0.2215
3.0203,0.020078,-0.163915,0.163915,-0.197884,0.204019,-0.001837,2.9840,1.4944,-0.2215
3.0407,0.020392,-0.153238,0.153238,-0.187146,0.193282,-0.001837,2.9840,1.4944,-0.2215
3.0614,0.020691,-0.142404,0.142404,-0.176408,0.181010,-0.001847,2.9722,1.4453,-0.1688
3.0815,0.020115,-0.131872,0.131872,-0.165670,0.165670,-0.001835,2.9854,1.5001,-0.2276
3.1019,0.020419,-0.121180,0.121180,-0.156466,0.154932,-0.001847,2.9721,1.4447,-0.1682
3.1220,0.020092,-0.110660,0.110660,-0.144194,0.142660,-0.001835,2.9854,1.5002,-0.2277
3.1421,0.020123,-0.100124,0.100124,-0.144194,0.142660,-0.001835,2.9854,1.5002,-0.2277
3.1622,0.020090,-0.089604,0.089604,-0.122718,0.121184,-0.001847,2.9722,1.4453,-0.1688
3.1823,0.020100,-0.079080,0.079080,-0.113515,0.111981,-0.001847,2.9722,1.4453,-0.1688
3.2024,0.020089,-0.068562,0.068562,-0.102777,0.102777,-0.001835,2.9854,1.5001,-0.2276
3.2225,0.020082,-0.058047,0.058047,-0.102777,0.102777,-0.001837,2.9840,1.4944,-0.2215
3.2426,0.020114,-0.047515,0.047515,-0.092039,0.092039,-0.001837,2.9840,1.4944,-0.2215
3.2627,0.020093,-0.036995,0.036995,-0.070563,0.070563,-0.001847,2.9722,1.4453,-0.1688
3.2828,0.020093,-0.026474,0.026474,-0.070563,0.070563,-0.001835,2.9854,1.5001,-0.2276
3.3029,0.020114,-0.015942,0.015942,-0.047553,0.047553,-0.001837,2.9840,1.4944,-0.2215
3.3230,0.020118,-0.005408,0.005408,-0.035282,0.036816,-0.001837,2.9840,1.4944,-0.2215
3.3431,0.020113,-0.005122,0.005122,-0.035282,0.036816,-0.001837,2.9840,1.4944,-0.2215
3.3632,0.020103,-0.015648,0.015648,-0.015340,0.018408,-0.001837,2.9840,1.4944,-0.2215
3.3833,0.020119,-0.026183,0.026183,-0.015340,0.018408,-0.001857,2.9225,1.4597,-0.2236
3.4034,0.020108,-0.036711,0.036711,-0.006136,0.006136,-0.001834,2.9905,1.4986,-0.2219
3.4235,0.020093,-0.047232,0.047232,0.000000,0.001534,-0.001847,2.9716,1.4448,-0.1688
3.4437,0.020112,-0.057763,0.057763,-0.003068,0.007670,-0.001846,2.9735,1.4504,-0.1743
3.4637,0.020090,-0.068282,0.068282,-0.018408,0.021476,-0.001846,2.9735,1.4504,-0.1743
3.4838,0.020084,-0.078798,0.078798,-0.032214,0.035282,-0.001846,2.9735,1.4504,-0.1743
3.5039,0.020096,-0.089320,0.089320,-0.053689,0.050621,-0.001836,2.9852,1.4996,-0.2271
3.5240,0.020079,-0.099833,0.099833,-0.061359,0.055223,-0.001837,2.9840,1.4944,-0.2216
3.5441,0.020108,-0.110362,0.110362,-0.061359,0.062893,-0.001847,2.9722,1.4453,-0.1688
3.5642,0.020090,-0.120881,0.120881,-0.069029,0.076699,-0.001835,2.9854,1.5001,-0.2276
3.5843,0.020086,-0.131398,0.131398,-0.087437,0.090505,-0.001837,2.9840,1.4944,-0.2215
3.6044,0.020095,-0.141920,0.141920,-0.105845,0.101243,-0.001847,2.9722,1.4453,-0.1688
3.6245,0.020088,-0.152437,0.152437,-0.113515,0.107379,-0.001835,2.9854,1.5001,-0.2276
3.6446,0.020097,-0.162960,0.162960,-0.118117,0.115049,-0.001847,2.9721,1.4447,-0.1682
3.6647,0.020088,-0.173478,0.173478,-0.127320,0.130388,-0.001846,2.9356,1.5146,-0.2825
3.6847,0.020084,-0.183994,0.183994,-0.144194,0.144194,-0.001835,2.9892,1.4929,-0.2158
3.7048,0.020093,-0.194515,0.194515,-0.158000,0.151864,-0.001847,2.9339,1.5096,-0.2776
3.7249,0.020080,-0.205029,0.205029,-0.168738,0.158000,-0.001835,2.9894,1.4934,-0.2163
3.7450,0.020087,-0.215547,0.215547,-0.173340,0.167204,-0.001837,2.9836,1.4951,-0.2227
3.7651,0.020086,-0.226064,0.226064,-0.182544,0.182544,-0.001847,2.9345,1.5093,-0.2768
3.7852,0.020099,-0.236587,0.236587,-0.208621,0.207087,-0.001835,2.9893,1.4934,-0.2164
3.8053,0.020084,-0.247103,0.247103,-0.208621,0.207087,-0.001837,2.9836,1.4951,-0.2227
3.8253,0.020073,-0.257614,0.257614,-0.213223,0.211689,-0.001837,2.9836,1.4951,-0.2227
3.8454,0.020079,-0.268127,0.268127,-0.223961,0.220893,-0.001837,2.9836,1.4951,-0.2227
3.8655,0.020076,-0.278639,0.278639,-0.239301,0.236233,-0.001847,2.9723,1.4452,-0.1687
3.8856,0.020079,-0.289152,0.289152,-0.251573,0.248505,-0.001846,2.9356,1.5146,-0.2825
3.9057,0.020089,-0.299670,0.299670,-0.256175,0.257709,-0.001835,2.9892,1.4929,-0.2158
3.9257,0.020077,-0.310183,0.310183,-0.263845,0.263845,-0.001837,2.9836,1.4951,-0.2227
3.9458,0.020080,-0.320697,0.320697,-0.280718,0.274583,-0.001837,2.9836,1.4951,-0.2227
3.9659,0.020081,-0.331211,0.331211,-0.302194,0.294524,-0.001847,2.9723,1.4452,-0.1687
3.9860,0.020082,-0.341726,0.341726,-0.317534,0.314466,-0.001856,2.9238,1.4648,-0.2291
4.0061,0.020089,-0.345888,0.345888,-0.323670,0.322136,-0.001845,2.9785,1.4483,-0.1680
4.0262,0.020080,-0.335374,0.335374,-0.328272,0.323670,-0.001836,2.9847,1.4998,-0.2277
4.0462,0.020091,-0.324854,0.324854,-0.337476,0.329806,-0.001837,2.9841,1.4944,-0.2215
4.0663,0.020087,-0.314336,0.314336,-0.351282,0.345146,-0.001837,2.9841,1.4944,-0.2215
4.0864,0.020083,-0.303821,0.303821,-0.354350,0.349748,-0.001837,2.9841,1.4944,-0.2215
4.1065,0.020084,-0.293305,0.293305,-0.349748,0.345146,-0.001837,2.9841,1.4944,-0.2215
4.1266,0.020103,-0.282779,0.282779,-0.337476,0.332874,-0.001837,2.9841,1.4944,-0.2215
4.1467,0.020100,-0.272254,0.272254,-0.309864,0.308330,-0.001847,2.9722,1.4453,-0.1688
4.1668,0.020086,-0.261737,0.261737,-0.299126,0.300660,-0.001846,2.9735,1.4504,-0.1743
4.1869,0.020090,-0.251218,0.251218,-0.289922,0.291456,-0.001836,2.9852,1.4996,-0.2271
4.2071,0.020204,-0.240639,0.240639,-0.282252,0.282252,-0.001847,2.9721,1.4447,-0.1682
4.2272,0.020097,-0.230116,0.230116,-0.273049,0.273049,-0.001835,2.9854,1.5002,-0.2277
4.2473,0.020090,-0.219597,0.219597,-0.260777,0.260777,-0.001837,2.9840,1.4944,-0.2215
4.2674,0.020090,-0.209078,0.209078,-0.248505,0.246971,-0.001847,2.9344,1.5094,-0.2770
4.2874,0.020082,-0.198563,0.198563,-0.234699,0.234699,-0.001835,2.9893,1.4934,-0.2164
4.3075,0.020100,-0.188039,0.188039,-0.222427,0.225495,-0.001847,2.9339,1.5095,-0.2775
4.3276,0.020094,-0.177517,0.177517,-0.210155,0.216291,-0.001845,2.9775,1.4437,-0.1630
4.3477,0.020087,-0.167000,0.167000,-0.199418,0.207087,-0.001836,2.9848,1.5003,-0.2282
4.3678,0.020089,-0.156481,0.156481,-0.188680,0.194816,-0.001837,2.9841,1.4944,-0.2214
4.3879,0.020084,-0.145966,0.145966,-0.177942,0.182544,-0.001837,2.9841,1.4944,-0.2214
4.4080,0.020082,-0.135450,0.135450,-0.168738,0.168738,-0.001837,2.9841,1.4944,-0.2214
4.4281,0.020115,-0.124918,0.124918,-0.158000,0.158000,-0.001837,2.9841,1.4944,-0.2214
4.4482,0.020108,-0.114390,0.114390,-0.147262,0.145728,-0.001847,2.9722,1.4453,-0.1688
4.4683,0.020091,-0.103870,0.103870,-0.139592,0.138058,-0.001835,2.9854,1.5001,-0.2276
4.4884,0.020094,-0.093349,0.093349,-0.128854,0.127320,-0.001837,2.9840,1.4944,-0.2215
4.5085,0.020091,-0.082829,0.082829,-0.116583,0.115049,-0.001837,2.9840,1.4944,-0.2215
4.5286,0.020105,-0.072302,0.072302,-0.105845,0.105845,-0.001837,2.9840,1.4944,-0.2215
4.5488,0.020190,-0.061731,0.061731,-0.093573,0.093573,-0.001847,2.9722,1.4453,-0.1688
4.5689,0.020101,-0.051206,0.051206,-0.082835,0.081301,-0.001835,2.9854,1.5001,-0.2276
4.5890,0.020105,-0.040679,0.040679,-0.072097,0.072097,-0.001837,2.9840,1.4944,-0.2215
4.6093,0.020281,-0.030060,0.030060,-0.062893,0.061359,-0.001837,2.9840,1.4944,-0.2215
4.6294,0.020145,-0.019512,0.019512,-0.050621,0.050621,-0.001837,2.9840,1.4944,-0.2215
4.6496,0.020160,-0.008956,0.008956,-0.038350,0.039884,-0.001847,2.9722,1.4453,-0.1688
4.6697,0.020105,-0.001571,0.001571,-0.026078,0.029146,-0.001835,2.9854,1.5001,-0.2276
4.6900,0.020286,-0.012192,0.012192,-0.015340,0.019942,-0.001837,2.9840,1.4944,-0.2215
4.7102,0.020293,-0.022818,0.022818,-0.006136,0.007670,-0.001837,2.9840,1.4944,-0.2215
4.7306,0.020322,-0.033459,0.033459,0.001534,0.000000,-0.001837,2.9840,1.4944,-0.2215
4.7507,0.020099,-0.043983,0.043983,0.000000,0.000000,-0.001847,2.9722,1.4453,-0.1688
4.7708,0.020110,-0.054512,0.054512,-0.012272,0.013806,-0.001846,2.9735,1.4504,-0.1743
4.7911,0.020370,-0.065178,0.065178,-0.029146,0.030680,-0.001836,2.9852,1.4996,-0.2271
4.8113,0.020112,-0.075709,0.075709,-0.050621,0.049087,-0.001847,2.9343,1.5089,-0.2764
4.8315,0.020216,-0.086294,0.086294,-0.059825,0.056757,-0.001835,2.9893,1.4935,-0.2164
4.8516,0.020108,-0.096822,0.096822,-0.062893,0.062893,-0.001837,2.9836,1.4951,-0.2227
4.8718,0.020215,-0.107406,0.107406,-0.069029,0.075165,-0.001847,2.9723,1.4452,-0.1687
4.8921,0.020277,-0.118023,0.118023,-0.087437,0.087437,-0.001835,2.9853,1.5001,-0.2276
4.9122,0.020099,-0.128547,0.128547,-0.102777,0.099709,-0.001847,2.9721,1.4447,-0.1682
4.9324,0.020203,-0.139125,0.139125,-0.113515,0.104311,-0.001846,2.9735,1.4504,-0.1744
4.9528,0.020437,-0.149826,0.149826,-0.118117,0.110447,-0.001836,2.9852,1.4996,-0.2271
4.9732,0.020436,-0.160526,0.160526,-0.127320,0.127320,-0.001847,2.9721,1.4447,-0.1682
4.9939,0.020700,-0.171365,0.171365,-0.144194,0.142660,-0.001846,2.9356,1.5146,-0.2825
5.0140,0.020092,-0.181885,0.181885,-0.156466,0.151864,-0.001846,2.9773,1.4431,-0.1625
5.0341,0.020091,-0.192405,0.192405,-0.165670,0.158000,-0.001836,2.9848,1.5003,-0.2283
5.0542,0.020090,-0.202924,0.202924,-0.171806,0.165670,-0.001837,2.9840,1.4944,-0.2214
5.0743,0.020086,-0.213441,0.213441,-0.184078,0.182544,-0.001847,2.9722,1.4453,-0.1688
5.0944,0.020090,-0.223960,0.223960,-0.199418,0.196350,-0.001835,2.9854,1.5001,-0.2276
5.1145,0.020091,-0.234480,0.234480,-0.208621,0.205553,-0.001847,2.9721,1.4447,-0.1682
5.1346,0.020092,-0.245000,0.245000,-0.213223,0.211689,-0.001835,2.9854,1.5002,-0.2277
5.1547,0.020092,-0.255520,0.255520,-0.223961,0.217825,-0.001837,2.9840,1.4944,-0.2215
5.1748,0.020090,-0.266039,0.266039,-0.237767,0.234699,-0.001847,2.9722,1.4453,-0.1688
5.1951,0.020309,-0.276672,0.276672,-0.248505,0.246971,-0.001835,2.9854,1.5001,-0.2276
5.2152,0.020102,-0.287198,0.287198,-0.251573,0.254641,-0.001837,2.9840,1.4944,-0.2215
5.2353,0.020105,-0.297724,0.297724,-0.257709,0.263845,-0.001847,2.9722,1.4453,-0.1688
5.2554,0.020085,-0.308241,0.308241,-0.276117,0.274583,-0.001835,2.9854,1.5001,-0.2276
5.2755,0.020088,-0.318759,0.318759,-0.291456,0.288388,-0.001847,2.9721,1.4447,-0.1682
5.2955,0.020098,-0.329282,0.329282,-0.300660,0.297592,-0.001835,2.9854,1.5002,-0.2277
5.3156,0.020088,-0.339801,0.339801,-0.306796,0.305262,-0.001847,2.9721,1.4447,-0.1682
5.3357,0.020097,-0.347808,0.347808,-0.319068,0.319068,-0.001846,2.9735,1.4504,-0.1744
5.3558,0.020088,-0.337290,0.337290,-0.332874,0.328272,-0.001836,2.9852,1.4996,-0.2271
5.3759,0.020090,-0.326771,0.326771,-0.339010,0.334408,-0.001847,2.9721,1.4447,-0.1682
5.3960,0.020089,-0.316252,0.316252,-0.346680,0.348214,-0.001846,2.9735,1.4504,-0.1744
5.4161,0.020087,-0.305735,0.305735,-0.354350,0.349748,-0.001846,2.9355,1.5140,-0.2819
5.4362,0.020102,-0.295210,0.295210,-0.352816,0.343612,-0.001835,2.9892,1.4929,-0.2158
5.4563,0.020086,-0.284693,0.284693,-0.339010,0.332874,-0.001847,2.9717,1.4454,-0.1694
5.4764,0.020091,-0.274173,0.274173,-0.326738,0.322136,-0.001835,2.9854,1.5001,-0.2276
5.4965,0.020089,-0.263654,0.263654,-0.312932,0.311398,-0.001847,2.9721,1.4447,-0.1682
5.5165,0.020085,-0.253138,0.253138,-0.296058,0.299126,-0.001835,2.9854,1.5002,-0.2277
5.5366,0.020090,-0.242619,0.242619,-0.282252,0.286854,-0.001837,2.9840,1.4944,-0.2215
5.5567,0.020083,-0.232103,0.232103,-0.274583,0.279185,-0.001837,2.9840,1.4944,-0.2215
5.5768,0.020085,-0.221587,0.221587,-0.263845,0.268447,-0.001847,2.9722,1.4453,-0.1688
5.5969,0.020084,-0.211071,0.211071,-0.254641,0.257709,-0.001846,2.9356,1.5146,-0.2825
5.6170,0.020090,-0.200552,0.200552,-0.248505,0.246971,-0.001846,2.9773,1.4431,-0.1625
5.6372,0.020265,-0.189942,0.189942,-0.237767,0.237767,-0.001836,2.9848,1.5003,-0.2283
5.6573,0.020090,-0.179422,0.179422,-0.225495,0.227029,-0.001837,2.9840,1.4944,-0.2214
5.6774,0.020087,-0.168905,0.168905,-0.213223,0.217825,-0.001837,2.9840,1.4944,-0.2214
5.6975,0.020094,-0.158383,0.158383,-0.199418,0.207087,-0.001837,2.9840,1.4944,-0.2214
5.7176,0.020098,-0.147860,0.147860,-0.177942,0.182544,-0.001837,2.9840,1.4944,-0.2214
5.7377,0.020117,-0.137327,0.137327,-0.177942,0.182544,-0.001837,2.9840,1.4944,-0.2214
5.7578,0.020093,-0.126806,0.126806,-0.168738,0.170272,-0.001837,2.9840,1.4944,-0.2214
5.7779,0.020100,-0.116282,0.116282,-0.147262,0.145728,-0.001847,2.9722,1.4453,-0.1688
5.7980,0.020090,-0.105763,0.105763,-0.139592,0.136524,-0.001835,2.9854,1.5001,-0.2276
5.8181,0.020112,-0.095232,0.095232,-0.127320,0.125786,-0.001837,2.9840,1.4944,-0.2215
5.8384,0.020271,-0.084618,0.084618,-0.116583,0.115049,-0.001837,2.9840,1.4944,-0.2215
5.8585,0.020090,-0.074099,0.074099,-0.104311,0.104311,-0.001837,2.9840,1.4944,-0.2215
5.8787,0.020221,-0.063512,0.063512,-0.093573,0.095107,-0.001837,2.9840,1.4944,-0.2215
5.8990,0.020249,-0.052909,0.052909,-0.084369,0.082835,-0.001847,2.9722,1.4453,-0.1688
5.9192,0.020276,-0.042292,0.042292,-0.073631,0.072097,-0.001835,2.9854,1.5001,-0.2276
5.9395,0.020288,-0.031670,0.031670,-0.062893,0.061359,-0.001837,2.9840,1.4944,-0.2215
5.9596,0.020092,-0.021150,0.021150,-0.050621,0.050621,-0.001837,2.9840,1.4944,-0.2215
5.9797,0.020095,-0.010628,0.010628,-0.038350,0.039884,-0.001837,2.9840,1.4944,-0.2215
5.9998,0.020090,-0.000109,0.000109,-0.026078,0.030680,-0.001837,2.9840,1.4944,-0.2215
6.0199,0.020157,-0.010445,0.010445,-0.015340,0.019942,-0.001847,2.9722,1.4453,-0.1688
6.0400,0.020088,-0.020963,0.020963,-0.006136,0.007670,-0.001835,2.9854,1.5001,-0.2276
6.0602,0.020148,-0.031513,0.031513,0.000000,-0.001534,-0.001835,2.9854,1.5001,-0.2276
6.0802,0.020053,-0.042012,0.042012,0.000000,0.003068,-0.001837,2.9840,1.4944,-0.2215
6.1003,0.020093,-0.052533,0.052533,-0.013806,0.016874,-0.001837,2.9840,1.4944,-0.2215
6.1204,0.020101,-0.063058,0.063058,-0.032214,0.033748,-0.001847,2.9722,1.4453,-0.1688
6.1406,0.020168,-0.073618,0.073618,-0.050621,0.047553,-0.001847,2.9722,1.4453,-0.1688
6.1610,0.020369,-0.084283,0.084283,-0.061359,0.055223,-0.001847,2.9721,1.4447,-0.1682
6.1811,0.020097,-0.094806,0.094806,-0.061359,0.055223,-0.001847,2.9721,1.4447,-0.1682
6.2011,0.020060,-0.105309,0.105309,-0.061359,0.061359,-0.001846,2.9735,1.4504,-0.1744
6.2212,0.020080,-0.115823,0.115823,-0.064427,0.072097,-0.001846,2.9735,1.4504,-0.1744
6.2413,0.020100,-0.126347,0.126347,-0.078233,0.084369,-0.001836,2.9852,1.4996,-0.2271
6.2617,0.020380,-0.137018,0.137018,-0.096641,0.096641,-0.001837,2.9840,1.4944,-0.2216
6.2819,0.020166,-0.147577,0.147577,-0.113515,0.105845,-0.001837,2.9840,1.4944,-0.2216
6.3020,0.020109,-0.158106,0.158106,-0.119651,0.115049,-0.001837,2.9840,1.4944,-0.2216
6.3222,0.020232,-0.168700,0.168700,-0.125786,0.127320,-0.001847,2.9722,1.4453,-0.1688
6.3425,0.020262,-0.179309,0.179309,-0.139592,0.141126,-0.001846,2.9735,1.4504,-0.1743
6.3627,0.020198,-0.189885,0.189885,-0.154932,0.148796,-0.001836,2.9852,1.4996,-0.2271
6.3839,0.021250,-0.201011,0.201011,-0.165670,0.158000,-0.001847,2.9721,1.4447,-0.1682
6.4040,0.020101,-0.211536,0.211536,-0.170272,0.168738,-0.001835,2.9854,1.5002,-0.2277
6.4241,0.020099,-0.222060,0.222060,-0.174874,0.181010,-0.001847,2.9721,1.4447,-0.1682
6.4442,0.020095,-0.232581,0.232581,-0.188680,0.190214,-0.001846,2.9735,1.4504,-0.1744
6.4643,0.020101,-0.243106,0.243106,-0.207087,0.202485,-0.001836,2.9852,1.4996,-0.2271
6.4844,0.020104,-0.253632,0.253632,-0.217825,0.213223,-0.001837,2.9840,1.4944,-0.2216
6.5046,0.020242,-0.264231,0.264231,-0.222427,0.222427,-0.001837,2.9840,1.4944,-0.2216
6.5247,0.020095,-0.274753,0.274753,-0.227029,0.230097,-0.001837,2.9840,1.4944,-0.2216
6.5451,0.020359,-0.285413,0.285413,-0.242369,0.243903,-0.001837,2.9840,1.4944,-0.2216
6.5652,0.020097,-0.295936,0.295936,-0.257709,0.256175,-0.001847,2.9722,1.4453,-0.1688
6.5853,0.020097,-0.306459,0.306459,-0.268447,0.265379,-0.001835,2.9854,1.5001,-0.2276
6.6054,0.020094,-0.316980,0.316980,-0.276117,0.274583,-0.001847,2.9721,1.4447,-0.1682
6.6255,0.020102,-0.327505,0.327505,-0.282252,0.285320,-0.001835,2.9854,1.5002,-0.2277
6.6456,0.020094,-0.338027,0.338027,-0.299126,0.299126,-0.001847,2.9721,1.4447,-0.1682
6.6675,0.021954,-0.348610,0.348610,-0.312932,0.306796,-0.001835,2.9854,1.5002,-0.2277
6.6876,0.020097,-0.338087,0.338087,-0.320602,0.316000,-0.001837,2.9840,1.4944,-0.2215
6.7077,0.020106,-0.327560,0.327560,-0.328272,0.328272,-0.001847,2.9722,1.4453,-0.1688
6.7278,0.020096,-0.317038,0.317038,-0.342078,0.340544,-0.001846,2.9735,1.4504,-0.1743
6.7479,0.020109,-0.306509,0.306509,-0.355884,0.348214,-0.001846,2.9355,1.5140,-0.2819
6.7681,0.020117,-0.295976,0.295976,-0.349748,0.343612,-0.001837,2.9836,1.4951,-0.2227
6.7882,0.020105,-0.285449,0.285449,-0.349748,0.343612,-0.001837,2.9836,1.4951,-0.2227
6.8086,0.020419,-0.274758,0.274758,-0.335942,0.331340,-0.001847,2.9345,1.5093,-0.2768
6.8287,0.020110,-0.264229,0.264229,-0.309864,0.308330,-0.001835,2.9893,1.4934,-0.2164
6.8488,0.020102,-0.253703,0.253703,-0.296058,0.299126,-0.001837,2.9836,1.4951,-0.2227
6.8689,0.020095,-0.243181,0.243181,-0.282252,0.286854,-0.001837,2.9836,1.4951,-0.2227
6.8890,0.020107,-0.232653,0.232653,-0.282252,0.286854,-0.001837,2.9836,1.4951,-0.2227
6.9091,0.020109,-0.222124,0.222124,-0.273049,0.277651,-0.001837,2.9836,1.4951,-0.2227
6.9292,0.020092,-0.211604,0.211604,-0.265379,0.268447,-0.001837,2.9836,1.4951,-0.2227
6.9493,0.020102,-0.201079,0.201079,-0.254641,0.257709,-0.001837,2.9836,1.4951,-0.2227
6.9694,0.020100,-0.190555,0.190555,-0.245437,0.245437,-0.001847,2.9723,1.4452,-0.1687
6.9901,0.020664,-0.179735,0.179735,-0.233165,0.234699,-0.001846,2.9356,1.5146,-0.2825
7.0103,0.020237,-0.169139,0.169139,-0.220893,0.223961,-0.001835,2.9892,1.4929,-0.2158
7.0304,0.020093,-0.158618,0.158618,-0.208621,0.214757,-0.001837,2.9836,1.4951,-0.2227
7.0505,0.020105,-0.148091,0.148091,-0.197884,0.204019,-0.001837,2.9836,1.4951,-0.2227
7.0706,0.020099,-0.137567,0.137567,-0.187146,0.191748,-0.001847,2.9723,1.4452,-0.1687
7.0909,0.020253,-0.126963,0.126963,-0.176408,0.181010,-0.001846,2.9735,1.4504,-0.1743
7.1110,0.020101,-0.116438,0.116438,-0.156466,0.156466,-0.001846,2.9735,1.4504,-0.1743
7.1311,0.020158,-0.105883,0.105883,-0.145728,0.144194,-0.001846,2.9735,1.4504,-0.1743
7.1513,0.020148,-0.095333,0.095333,-0.145728,0.144194,-0.001836,2.9852,1.4996,-0.2271
7.1716,0.020382,-0.084661,0.084661,-0.134990,0.133456,-0.001847,2.9721,1.4447,-0.1682
7.1919,0.020222,-0.074073,0.074073,-0.111981,0.111981,-0.001835,2.9854,1.5002,-0.2277
7.2120,0.020103,-0.063547,0.063547,-0.102777,0.102777,-0.001837,2.9840,1.4944,-0.2215
7.2321,0.020097,-0.053024,0.053024,-0.092039,0.092039,-0.001837,2.9840,1.4944,-0.2215
7.2522,0.020113,-0.042493,0.042493,-0.092039,0.092039,-0.001837,2.9840,1.4944,-0.2215
7.2723,0.020110,-0.031963,0.031963,-0.082835,0.081301,-0.001847,2.9722,1.4453,-0.1688
7.2924,0.020096,-0.021441,0.021441,-0.070563,0.070563,-0.001835,2.9854,1.5001,-0.2276
7.3125,0.020100,-0.010917,0.010917,-0.061359,0.059825,-0.001847,2.9721,1.4447,-0.1682
7.3326,0.020108,-0.000389,0.000389,-0.049087,0.049087,-0.001846,2.9735,1.4504,-0.1744
7.3527,0.020127,-0.010150,0.010150,-0.036816,0.038350,-0.001836,2.9852,1.4996,-0.2271
7.3728,0.020124,-0.020687,0.020687,-0.024544,0.027612,-0.001837,2.9840,1.4944,-0.2216
7.3929,0.020104,-0.031214,0.031214,-0.013806,0.016874,-0.001847,2.9344,1.5094,-0.2770
7.4130,0.020088,-0.041732,0.041732,-0.007670,0.006136,-0.001835,2.9893,1.4934,-0.2164
7.4331,0.020104,-0.052258,0.052258,-0.001534,0.004602,-0.001847,2.9717,1.4454,-0.1694
7.4532,0.020090,-0.062777,0.062777,-0.013806,0.018408,-0.001835,2.9854,1.5001,-0.2276
7.4733,0.020103,-0.073303,0.073303,-0.032214,0.035282,-0.001837,2.9840,1.4944,-0.2215
7.4934,0.020096,-0.083825,0.083825,-0.053689,0.052155,-0.001837,2.9840,1.4944,-0.2215
7.5135,0.020101,-0.094350,0.094350,-0.062893,0.059825,-0.001837,2.9840,1.4944,-0.2215
7.5336,0.020101,-0.104875,0.104875,-0.061359,0.064427,-0.001837,2.9840,1.4944,-0.2215
7.5537,0.020102,-0.115401,0.115401,-0.067495,0.075165,-0.001847,2.9722,1.4453,-0.1688
7.5738,0.020102,-0.125926,0.125926,-0.084369,0.088971,-0.001846,2.9735,1.4504,-0.1743
7.5939,0.020089,-0.136445,0.136445,-0.104311,0.101243,-0.001836,2.9852,1.4996,-0.2271
7.6140,0.020094,-0.146966,0.146966,-0.116583,0.108913,-0.001837,2.9840,1.4944,-0.2216
7.6341,0.020092,-0.157486,0.157486,-0.121184,0.116583,-0.001847,2.9722,1.4453,-0.1688
7.6542,0.020091,-0.168006,0.168006,-0.128854,0.128854,-0.001835,2.9854,1.5001,-0.2276
7.6743,0.020096,-0.178528,0.178528,-0.144194,0.141126,-0.001837,2.9840,1.4944,-0.2215
7.6944,0.020096,-0.189050,0.189050,-0.156466,0.151864,-0.001847,2.9722,1.4453,-0.1688
7.7145,0.020101,-0.199575,0.199575,-0.164136,0.159534,-0.001835,2.9854,1.5001,-0.2276
7.7346,0.020095,-0.210097,0.210097,-0.173340,0.168738,-0.001837,2.9840,1.4944,-0.2215
7.7547,0.020090,-0.220616,0.220616,-0.185612,0.184078,-0.001847,2.9722,1.4453,-0.1688
7.7748,0.020098,-0.231139,0.231139,-0.199418,0.196350,-0.001835,2.9854,1.5001,-0.2276
7.7949,0.020093,-0.241660,0.241660,-0.207087,0.204019,-0.001847,2.9343,1.5088,-0.2763
7.8150,0.020088,-0.252178,0.252178,-0.211689,0.211689,-0.001845,2.9774,1.4437,-0.1631
7.8351,0.020098,-0.262701,0.262701,-0.222427,0.220893,-0.001846,2.9729,1.4505,-0.1749
7.8551,0.020086,-0.273218,0.273218,-0.236233,0.234699,-0.001835,2.9853,1.4996,-0.2270
7.8752,0.020091,-0.283738,0.283738,-0.250039,0.248505,-0.001837,2.9840,1.4944,-0.2216
7.8953,0.020092,-0.294258,0.294258,-0.257709,0.259243,-0.001837,2.9840,1.4944,-0.2216
7.9154,0.020087,-0.304775,0.304775,-0.266913,0.265379,-0.001837,2.9840,1.4944,-0.2216
7.9355,0.020093,-0.315296,0.315296,-0.279185,0.273049,-0.001837,2.9840,1.4944,-0.2216
7.9556,0.020087,-0.325813,0.325813,-0.297592,0.288388,-0.001847,2.9722,1.4453,-0.1688
7.9757,0.020095,-0.336335,0.336335,-0.312932,0.309864,-0.001835,2.9854,1.5001,-0.2276
7.9958,0.020083,-0.346850,0.346850,-0.323670,0.323670,-0.001837,2.9840,1.4944,-0.2215
8.0159,0.020088,-0.340763,0.340763,-0.329806,0.326738,-0.001847,2.9344,1.5094,-0.2770
8.0360,0.020104,-0.330237,0.330237,-0.337476,0.331340,-0.001835,2.9893,1.4934,-0.2164
8.0561,0.020091,-0.319717,0.319717,-0.351282,0.348214,-0.001847,2.9339,1.5095,-0.2775
8.0761,0.020091,-0.309197,0.309197,-0.352816,0.349748,-0.001845,2.9775,1.4437,-0.1630
8.0962,0.020094,-0.298676,0.298676,-0.346680,0.340544,-0.001836,2.9848,1.5003,-0.2282
8.1163,0.020092,-0.288156,0.288156,-0.335942,0.331340,-0.001847,2.9343,1.5088,-0.2763
8.1364,0.020091,-0.277636,0.277636,-0.322136,0.320602,-0.001845,2.9774,1.4437,-0.1631
8.1565,0.020085,-0.267120,0.267120,-0.308330,0.308330,-0.001836,2.9848,1.5003,-0.2282
8.1766,0.020094,-0.256599,0.256599,-0.296058,0.297592,-0.001837,2.9841,1.4944,-0.2214
8.1967,0.020093,-0.246078,0.246078,-0.282252,0.286854,-0.001847,2.9722,1.4453,-0.1688
8.2168,0.020088,-0.235560,0.235560,-0.273049,0.277651,-0.001835,2.9854,1.5001,-0.2276
8.2369,0.020091,-0.225040,0.225040,-0.263845,0.266913,-0.001837,2.9840,1.4944,-0.2215
8.2570,0.020081,-0.214526,0.214526,-0.257709,0.257709,-0.001847,2.9722,1.4453,-0.1688
8.2770,0.020086,-0.204009,0.204009,-0.251573,0.248505,-0.001835,2.9854,1.5001,-0.2276
8.2971,0.020087,-0.193491,0.193491,-0.239301,0.239301,-0.001837,2.9840,1.4944,-0.2215
8.3172,0.020093,-0.182970,0.182970,-0.223961,0.225495,-0.001847,2.9722,1.4453,-0.1688
8.3373,0.020096,-0.172448,0.172448,-0.210155,0.214757,-0.001835,2.9854,1.5001,-0.2276
8.3574,0.020092,-0.161928,0.161928,-0.196350,0.202485,-0.001837,2.9840,1.4944,-0.2215
8.3775,0.020087,-0.151410,0.151410,-0.185612,0.191748,-0.001847,2.9722,1.4453,-0.1688
8.3976,0.020084,-0.140895,0.140895,-0.176408,0.179476,-0.001835,2.9854,1.5001,-0.2276
8.4177,0.020085,-0.130378,0.130378,-0.167204,0.167204,-0.001847,2.9721,1.4447,-0.1682
8.4399,0.022281,-0.118712,0.118712,-0.158000,0.156466,-0.001846,2.9735,1.4504,-0.1744
8.4600,0.020089,-0.108193,0.108193,-0.145728,0.145728,-0.001836,2.9852,1.4996,-0.2271
8.4801,0.020094,-0.097672,0.097672,-0.134990,0.134990,-0.001837,2.9840,1.4944,-0.2216
8.5002,0.020091,-0.087153,0.087153,-0.124252,0.122718,-0.001837,2.9840,1.4944,-0.2216
8.5203,0.020088,-0.076635,0.076635,-0.113515,0.111981,-0.001837,2.9840,1.4944,-0.2216
8.5404,0.020090,-0.066116,0.066116,-0.101243,0.101243,-0.001847,2.9722,1.4453,-0.1688
8.5605,0.020089,-0.055597,0.055597,-0.090505,0.090505,-0.001835,2.9854,1.5001,-0.2276
8.5806,0.020086,-0.045080,0.045080,-0.079767,0.079767,-0.001847,2.9721,1.4447,-0.1682
8.6007,0.020097,-0.034557,0.034557,-0.069029,0.069029,-0.001835,2.9854,1.5002,-0.2277
8.6208,0.020089,-0.024038,0.024038,-0.058291,0.058291,-0.001837,2.9840,1.4944,-0.2215
8.6408,0.020086,-0.013521,0.013521,-0.047553,0.049087,-0.001847,2.9722,1.4453,-0.1688
8.6609,0.020088,-0.003003,0.003003,-0.035282,0.036816,-0.001856,2.9238,1.4648,-0.2291
8.6810,0.020087,-0.007514,0.007514,-0.026078,0.029146,-0.001834,2.9904,1.4981,-0.2213
8.7011,0.020105,-0.018041,0.018041,-0.012272,0.016874,-0.001837,2.9835,1.4946,-0.2222
8.7212,0.020097,-0.028564,0.028564,-0.003068,0.006136,-0.001837,2.9835,1.4946,-0.2222
8.7413,0.020087,-0.039081,0.039081,0.001534,0.001534,-0.001837,2.9835,1.4946,-0.2222
8.7614,0.020096,-0.049604,0.049604,-0.004602,0.009204,-0.001837,2.9835,1.4946,-0.2222
8.7815,0.020086,-0.060121,0.060121,-0.016874,0.023010,-0.001837,2.9835,1.4946,-0.2222
8.8017,0.020216,-0.070705,0.070705,-0.035282,0.036816,-0.001847,2.9723,1.4452,-0.1688
8.8218,0.020093,-0.081226,0.081226,-0.055223,0.050621,-0.001835,2.9853,1.5001,-0.2276
8.8419,0.020087,-0.091743,0.091743,-0.062893,0.059825,-0.001847,2.9721,1.4447,-0.1682
8.8620,0.020087,-0.102261,0.102261,-0.061359,0.065961,-0.001846,2.9735,1.4504,-0.1744
8.8821,0.020082,-0.112775,0.112775,-0.067495,0.078233,-0.001836,2.9852,1.4996,-0.2271
8.9021,0.020092,-0.123296,0.123296,-0.085903,0.088971,-0.001837,2.9840,1.4944,-0.2216
8.9222,0.020079,-0.133809,0.133809,-0.105845,0.102777,-0.001837,2.9840,1.4944,-0.2216
8.9423,0.020087,-0.144326,0.144326,-0.118117,0.108913,-0.001847,2.9722,1.4453,-0.1688
8.9624,0.020089,-0.154845,0.154845,-0.121184,0.116583,-0.001835,2.9854,1.5001,-0.2276
8.9825,0.020083,-0.165360,0.165360,-0.130388,0.133456,-0.001837,2.9840,1.4944,-0.2215
9.0026,0.020104,-0.175887,0.175887,-0.145728,0.145728,-0.001857,2.9225,1.4597,-0.2236
9.0227,0.020086,-0.186403,0.186403,-0.161068,0.154932,-0.001834,2.9905,1.4986,-0.2219
9.0428,0.020089,-0.196922,0.196922,-0.167204,0.159534,-0.001837,2.9835,1.4945,-0.2221
9.0628,0.020088,-0.207440,0.207440,-0.170272,0.165670,-0.001847,2.9723,1.4452,-0.1688
9.0829,0.020096,-0.217962,0.217962,-0.179476,0.182544,-0.001835,2.9853,1.5001,-0.2276
9.1030,0.020100,-0.228486,0.228486,-0.197884,0.199418,-0.001837,2.9840,1.4944,-0.2215
9.1231,0.020089,-0.239005,0.239005,-0.213223,0.208621,-0.001837,2.9840,1.4944,-0.2215
9.1432,0.020088,-0.249523,0.249523,-0.219359,0.211689,-0.001847,2.9722,1.4453,-0.1688
9.1633,0.020083,-0.260038,0.260038,-0.223961,0.217825,-0.001835,2.9854,1.5001,-0.2276
9.1834,0.020094,-0.270559,0.270559,-0.231631,0.231631,-0.001847,2.9721,1.4447,-0.1682
9.2035,0.020082,-0.281074,0.281074,-0.248505,0.248505,-0.001846,2.9735,1.4504,-0.1744
9.2236,0.020094,-0.291595,0.291595,-0.259243,0.260777,-0.001836,2.9852,1.4996,-0.2271
9.2437,0.020089,-0.302114,0.302114,-0.265379,0.263845,-0.001847,2.9721,1.4447,-0.1682
9.2638,0.020099,-0.312638,0.312638,-0.291456,0.285320,-0.001835,2.9854,1.5002,-0.2277
9.2839,0.020094,-0.323159,0.323159,-0.291456,0.285320,-0.001837,2.9840,1.4944,-0.2215
9.3039,0.020093,-0.333680,0.333680,-0.303728,0.300660,-0.001837,2.9840,1.4944,-0.2215
9.3240,0.020086,-0.344197,0.344197,-0.316000,0.317534,-0.001847,2.9344,1.5094,-0.2770
9.3441,0.020088,-0.343417,0.343417,-0.334408,0.328272,-0.001835,2.9893,1.4934,-0.2164
9.3642,0.020082,-0.332902,0.332902,-0.348214,0.342078,-0.001847,2.9717,1.4454,-0.1694
9.3843,0.020081,-0.322388,0.322388,-0.351282,0.348214,-0.001835,2.9854,1.5001,-0.2276
9.4044,0.020085,-0.311872,0.311872,-0.346680,0.345146,-0.001837,2.9840,1.4944,-0.2215
9.4245,0.020099,-0.301348,0.301348,-0.340544,0.334408,-0.001857,2.9225,1.4597,-0.2236
9.4445,0.020077,-0.290836,0.290836,-0.340544,0.334408,-0.001855,2.9289,1.4633,-0.2234
9.4649,0.020363,-0.280174,0.280174,-0.320602,0.317534,-0.001835,2.9899,1.4982,-0.2219
9.4850,0.020084,-0.269658,0.269658,-0.308330,0.308330,-0.001847,2.9338,1.5090,-0.2769
9.5051,0.020086,-0.259140,0.259140,-0.297592,0.299126,-0.001835,2.9894,1.4934,-0.2164
9.5252,0.020115,-0.248608,0.248608,-0.283786,0.288388,-0.001847,2.9717,1.4454,-0.1694
9.5453,0.020083,-0.238093,0.238093,-0.273049,0.277651,-0.001846,2.9735,1.4504,-0.1743
9.5654,0.020088,-0.227575,0.227575,-0.263845,0.266913,-0.001846,2.9355,1.5140,-0.2819
9.5855,0.020087,-0.217058,0.217058,-0.253107,0.254641,-0.001835,2.9892,1.4929,-0.2158
9.6055,0.020080,-0.206544,0.206544,-0.243903,0.243903,-0.001837,2.9836,1.4951,-0.2227
9.6256,0.020085,-0.196028,0.196028,-0.231631,0.233165,-0.001837,2.9836,1.4951,-0.2227
9.6457,0.020072,-0.185518,0.185518,-0.220893,0.223961,-0.001837,2.9836,1.4951,-0.2227
9.6658,0.020113,-0.174987,0.174987,-0.208621,0.214757,-0.001847,2.9723,1.4452,-0.1687
9.6859,0.020076,-0.164475,0.164475,-0.197884,0.204019,-0.001835,2.9853,1.5001,-0.2276
9.7060,0.020077,-0.153962,0.153962,-0.185612,0.191748,-0.001837,2.9840,1.4944,-0.2215
9.7260,0.020084,-0.143446,0.143446,-0.176408,0.179476,-0.001837,2.9840,1.4944,-0.2215
9.7461,0.020074,-0.132936,0.132936,-0.167204,0.167204,-0.001847,2.9344,1.5094,-0.2770
9.7662,0.020089,-0.122417,0.122417,-0.154932,0.154932,-0.001835,2.9893,1.4934,-0.2164
9.7863,0.020075,-0.111906,0.111906,-0.144194,0.144194,-0.001847,2.9717,1.4454,-0.1694
9.8063,0.020074,-0.101395,0.101395,-0.134990,0.133456,-0.001846,2.9357,1.5145,-0.2824
9.8264,0.020077,-0.090883,0.090883,-0.122718,0.122718,-0.001846,2.9394,1.5073,-0.2706
9.8465,0.020074,-0.080372,0.080372,-0.111981,0.110447,-0.001835,2.9888,1.4936,-0.2170
9.8666,0.020084,-0.069856,0.069856,-0.101243,0.101243,-0.001857,2.9220,1.4598,-0.2241
9.8867,0.020081,-0.059342,0.059342,-0.090505,0.088971,-0.001834,2.9906,1.4986,-0.2219
9.9067,0.020083,-0.048826,0.048826,-0.078233,0.079767,-0.001837,2.9834,1.4945,-0.2221
9.9268,0.020078,-0.038313,0.038313,-0.069029,0.069029,-0.001847,2.9723,1.4452,-0.1688
9.9469,0.020075,-0.027802,0.027802,-0.059825,0.058291,-0.001846,2.9735,1.4504,-0.1743
9.9670,0.020087,-0.017285,0.017285,-0.047553,0.049087,-0.001846,2.9735,1.4504,-0.1743
9.9871,0.020074,-0.006775,0.006775,-0.035282,0.036816,-0.001836,2.9852,1.4996,-0.2271
10.0072,0.020145,-0.003774,0.003774,-0.024544,0.027612,-0.001847,2.9721,1.4447,-0.1682
10.0273,0.020075,-0.014285,0.014285,-0.013806,0.016874,-0.001846,2.9735,1.4504,-0.1744
10.0474,0.020077,-0.024797,0.024797,-0.004602,0.006136,-0.001846,2.9735,1.4504,-0.1744
10.0674,0.020087,-0.035314,0.035314,0.001534,0.000000,-0.001846,2.9735,1.4504,-0.1744
10.0875,0.020078,-0.045827,0.045827,-0.001534,0.004602,-0.001836,2.9852,1.4996,-0.2271
10.1076,0.020083,-0.056342,0.056342,-0.016874,0.021476,-0.001837,2.9840,1.4944,-0.2216
10.1277,0.020079,-0.066856,0.066856,-0.036816,0.038350,-0.001837,2.9840,1.4944,-0.2216
10.1478,0.020087,-0.077373,0.077373,-0.055223,0.050621,-0.001847,2.9722,1.4453,-0.1688
10.1679,0.020086,-0.087890,0.087890,-0.061359,0.056757,-0.001835,2.9854,1.5001,-0.2276
10.1880,0.020113,-0.098421,0.098421,-0.061359,0.062893,-0.001847,2.9721,1.4447,-0.1682
10.2081,0.020115,-0.108953,0.108953,-0.070563,0.076699,-0.001846,2.9735,1.4504,-0.1744
10.2282,0.020082,-0.119468,0.119468,-0.090505,0.092039,-0.001836,2.9852,1.4996,-0.2271
10.2482,0.020082,-0.129983,0.129983,-0.107379,0.102777,-0.001847,2.9721,1.4447,-0.1682
10.2683,0.020097,-0.140506,0.140506,-0.115049,0.110447,-0.001846,2.9356,1.5146,-0.2825
10.2884,0.020078,-0.151019,0.151019,-0.119651,0.118117,-0.001835,2.9892,1.4929,-0.2158
10.3085,0.020089,-0.161537,0.161537,-0.127320,0.130388,-0.001847,2.9717,1.4454,-0.1694
10.3286,0.020078,-0.172050,0.172050,-0.144194,0.142660,-0.001835,2.9854,1.5001,-0.2276
10.3487,0.020080,-0.182564,0.182564,-0.158000,0.151864,-0.001837,2.9840,1.4944,-0.2215
10.3688,0.020086,-0.193081,0.193081,-0.167204,0.161068,-0.001847,2.9722,1.4453,-0.1688
10.3888,0.020079,-0.203594,0.203594,-0.171806,0.170272,-0.001835,2.9854,1.5001,-0.2276
10.4089,0.020087,-0.214112,0.214112,-0.182544,0.184078,-0.001847,2.9721,1.4447,-0.1682
10.4290,0.020076,-0.224623,0.224623,-0.197884,0.193282,-0.001835,2.9854,1.5002,-0.2277
10.4491,0.020077,-0.235136,0.235136,-0.207087,0.202485,-0.001837,2.9840,1.4944,-0.2215
10.4692,0.020102,-0.245661,0.245661,-0.213223,0.213223,-0.001837,2.9840,1.4944,-0.2215
10.4893,0.020082,-0.256176,0.256176,-0.223961,0.225495,-0.001837,2.9840,1.4944,-0.2215
10.5093,0.020082,-0.266691,0.266691,-0.239301,0.236233,-0.001847,2.9722,1.4453,-0.1688
10.5294,0.020078,-0.277204,0.277204,-0.250039,0.246971,-0.001846,2.9356,1.5146,-0.2825
10.5495,0.020079,-0.287717,0.287717,-0.254641,0.256175,-0.001846,2.9394,1.5073,-0.2706
10.5696,0.020080,-0.298231,0.298231,-0.263845,0.266913,-0.001846,2.9769,1.4439,-0.1637
10.5897,0.020077,-0.308744,0.308744,-0.279185,0.276117,-0.001836,2.9849,1.5003,-0.2282
10.6097,0.020085,-0.319260,0.319260,-0.291456,0.288388,-0.001847,2.9721,1.4447,-0.1681
10.6298,0.020078,-0.329773,0.329773,-0.300660,0.299126,-0.001835,2.9854,1.5002,-0.2277
10.6499,0.020077,-0.340285,0.340285,-0.311398,0.309864,-0.001847,2.9721,1.4447,-0.1682
10.6700,0.020089,-0.347327,0.347327,-0.325204,0.320602,-0.001835,2.9854,1.5002,-0.2277
10.6901,0.020084,-0.336811,0.336811,-0.334408,0.329806,-0.001847,2.9343,1.5088,-0.2763
10.7102,0.020089,-0.326293,0.326293,-0.340544,0.339010,-0.001835,2.9893,1.4935,-0.2164
10.7302,0.020075,-0.315781,0.315781,-0.351282,0.349748,-0.001847,2.9339,1.5095,-0.2775
10.7503,0.020077,-0.305269,0.305269,-0.355884,0.349748,-0.001846,2.9396,1.5079,-0.2711
10.7704,0.020081,-0.294755,0.294755,-0.349748,0.340544,-0.001835,2.9888,1.4936,-0.2170
10.7906,0.020180,-0.284189,0.284189,-0.335942,0.331340,-0.001837,2.9836,1.4951,-0.2226
10.8107,0.020087,-0.273671,0.273671,-0.322136,0.319068,-0.001847,2.9723,1.4452,-0.1687
10.8307,0.020076,-0.263159,0.263159,-0.308330,0.306796,-0.001835,2.9853,1.5001,-0.2276
10.8508,0.020080,-0.252646,0.252646,-0.292990,0.297592,-0.001837,2.9840,1.4944,-0.2215
10.8709,0.020082,-0.242131,0.242131,-0.280718,0.285320,-0.001847,2.9722,1.4453,-0.1688
10.8910,0.020081,-0.231616,0.231616,-0.271515,0.276117,-0.001835,2.9854,1.5001,-0.2276
10.9114,0.020381,-0.220945,0.220945,-0.260777,0.265379,-0.001847,2.9721,1.4447,-0.1682
10.9314,0.020085,-0.210428,0.210428,-0.253107,0.254641,-0.001835,2.9854,1.5002,-0.2277
10.9515,0.020074,-0.199917,0.199917,-0.243903,0.243903,-0.001847,2.9721,1.4447,-0.1682
10.9716,0.020078,-0.189404,0.189404,-0.231631,0.233165,-0.001835,2.9854,1.5002,-0.2277
10.9917,0.020088,-0.178886,0.178886,-0.220893,0.223961,-0.001847,2.9721,1.4447,-0.1682
11.0118,0.020076,-0.168375,0.168375,-0.208621,0.213223,-0.001835,2.9854,1.5002,-0.2277
11.0319,0.020095,-0.157853,0.157853,-0.196350,0.202485,-0.001847,2.9721,1.4447,-0.1682
11.0519,0.020076,-0.147341,0.147341,-0.185612,0.191748,-0.001835,2.9854,1.5002,-0.2277
11.0720,0.020086,-0.136824,0.136824,-0.176408,0.179476,-0.001847,2.9721,1.4447,-0.1682
11.0921,0.020084,-0.126308,0.126308,-0.165670,0.167204,-0.001835,2.9854,1.5002,-0.2277
11.1122,0.020074,-0.115798,0.115798,-0.154932,0.154932,-0.001837,2.9840,1.4944,-0.2215
11.1323,0.020079,-0.105284,0.105284,-0.144194,0.142660,-0.001837,2.9840,1.4944,-0.2215
11.1523,0.020079,-0.094771,0.094771,-0.134990,0.131922,-0.001847,2.9722,1.4453,-0.1688
11.1724,0.020082,-0.084256,0.084256,-0.122718,0.121184,-0.001835,2.9854,1.5001,-0.2276
11.1925,0.020084,-0.073740,0.073740,-0.111981,0.110447,-0.001837,2.9840,1.4944,-0.2215
11.2126,0.020078,-0.063227,0.063227,-0.101243,0.101243,-0.001837,2.9840,1.4944,-0.2215
11.2327,0.020133,-0.052686,0.052686,-0.090505,0.088971,-0.001847,2.9722,1.4453,-0.1688
11.2528,0.020081,-0.042171,0.042171,-0.078233,0.078233,-0.001846,2.9735,1.4504,-0.1743
11.2735,0.020731,-0.031317,0.031317,-0.067495,0.067495,-0.001836,2.9852,1.4996,-0.2271
11.2936,0.020077,-0.020804,0.020804,-0.058291,0.056757,-0.001847,2.9721,1.4447,-0.1682
11.3137,0.020085,-0.010288,0.010288,-0.046019,0.046019,-0.001846,2.9735,1.4504,-0.1744
11.3338,0.020086,-0.000229,0.000229,-0.033748,0.036816,-0.001836,2.9852,1.4996,-0.2271
11.3538,0.020076,-0.010741,0.010741,-0.023010,0.027612,-0.001837,2.9840,1.4944,-0.2216
11.3739,0.020087,-0.021258,0.021258,-0.012272,0.016874,-0.001837,2.9840,1.4944,-0.2216
11.3940,0.020079,-0.031772,0.031772,-0.006136,0.006136,-0.001837,2.9840,1.4944,-0.2216
11.4141,0.020078,-0.042285,0.042285,0.000000,0.000000,-0.001837,2.9840,1.4944,-0.2216
11.4343,0.020237,-0.052881,0.052881,-0.001534,0.004602,-0.001847,2.9722,1.4453,-0.1688
11.4544,0.020079,-0.063394,0.063394,-0.015340,0.019942,-0.001835,2.9854,1.5001,-0.2276
11.4746,0.020157,-0.073948,0.073948,-0.033748,0.036816,-0.001837,2.9840,1.4944,-0.2215
11.4946,0.020081,-0.084463,0.084463,-0.055223,0.052155,-0.001847,2.9722,1.4453,-0.1688
11.5147,0.020074,-0.094974,0.094974,-0.064427,0.058291,-0.001835,2.9854,1.5001,-0.2276
11.5348,0.020079,-0.105487,0.105487,-0.062893,0.065961,-0.001837,2.9840,1.4944,-0.2215
11.5549,0.020073,-0.115998,0.115998,-0.067495,0.078233,-0.001847,2.9722,1.4453,-0.1688
11.5750,0.020097,-0.126521,0.126521,-0.084369,0.092039,-0.001847,2.9722,1.4453,-0.1688
11.5950,0.020076,-0.137033,0.137033,-0.104311,0.101243,-0.001837,2.9840,1.4944,-0.2215
11.6151,0.020079,-0.147546,0.147546,-0.118117,0.107379,-0.001847,2.9722,1.4453,-0.1688
11.6354,0.020246,-0.158147,0.158147,-0.133456,0.133456,-0.001835,2.9854,1.5001,-0.2276
11.6554,0.020072,-0.168656,0.168656,-0.133456,0.133456,-0.001837,2.9840,1.4944,-0.2215
11.6757,0.020239,-0.179254,0.179254,-0.159534,0.154932,-0.001847,2.9344,1.5094,-0.2770
11.6958,0.020076,-0.189765,0.189765,-0.159534,0.154932,-0.001846,2.9396,1.5079,-0.2712
11.7158,0.020077,-0.200278,0.200278,-0.168738,0.162602,-0.001846,2.9769,1.4438,-0.1636
11.7359,0.020078,-0.210790,0.210790,-0.181010,0.185612,-0.001836,2.9849,1.5003,-0.2282
11.7560,0.020100,-0.221315,0.221315,-0.197884,0.196350,-0.001837,2.9840,1.4944,-0.2214
11.7766,0.020545,-0.232072,0.232072,-0.211689,0.207087,-0.001847,2.9722,1.4453,-0.1688
11.7967,0.020179,-0.242637,0.242637,-0.219359,0.217825,-0.001846,2.9735,1.4504,-0.1743
11.8168,0.020077,-0.253150,0.253150,-0.225495,0.225495,-0.001836,2.9852,1.4996,-0.2271
11.8369,0.020084,-0.263666,0.263666,-0.237767,0.239301,-0.001837,2.9840,1.4944,-0.2216
11.8570,0.020121,-0.274201,0.274201,-0.253107,0.251573,-0.001847,2.9344,1.5094,-0.2770
11.8771,0.020077,-0.284714,0.284714,-0.263845,0.262311,-0.001835,2.9893,1.4934,-0.2164
11.8972,0.020113,-0.295245,0.295245,-0.268447,0.266913,-0.001837,2.9836,1.4951,-0.2227
11.9173,0.020078,-0.305758,0.305758,-0.277651,0.273049,-0.001847,2.9723,1.4452,-0.1687
11.9375,0.020218,-0.316344,0.316344,-0.291456,0.291456,-0.001846,2.9735,1.4504,-0.1743
11.9578,0.020256,-0.326950,0.326950,-0.306796,0.303728,-0.001836,2.9852,1.4996,-0.2271
11.9780,0.020204,-0.337529,0.337529,-0.314466,0.311398,-0.001837,2.9840,1.4944,-0.2216
11.9981,0.020156,-0.348082,0.348082,-0.323670,0.320602,-0.001837,2.9840,1.4944,-0.2216
12.0182,0.020078,-0.339536,0.339536,-0.334408,0.331340,-0.001847,2.9722,1.4453,-0.1688
12.0383,0.020090,-0.329017,0.329017,-0.348214,0.343612,-0.001835,2.9854,1.5001,-0.2276
12.0584,0.020079,-0.318504,0.318504,-0.354350,0.349748,-0.001847,2.9721,1.4447,-0.1682
12.0788,0.020440,-0.307801,0.307801,-0.352816,0.346680,-0.001835,2.9854,1.5002,-0.2277
12.0992,0.020380,-0.297130,0.297130,-0.342078,0.335942,-0.001837,2.9840,1.4944,-0.2215
12.1193,0.020082,-0.286616,0.286616,-0.332874,0.328272,-0.001837,2.9840,1.4944,-0.2215
12.1394,0.020091,-0.276096,0.276096,-0.317534,0.316000,-0.001837,2.9840,1.4944,-0.2215
12.1594,0.020082,-0.265582,0.265582,-0.305262,0.305262,-0.001837,2.9840,1.4944,-0.2215
12.1795,0.020078,-0.255068,0.255068,-0.288388,0.292990,-0.001847,2.9722,1.4453,-0.1688
12.1996,0.020126,-0.244530,0.244530,-0.279185,0.283786,-0.001835,2.9854,1.5001,-0.2276
12.2197,0.020075,-0.234019,0.234019,-0.268447,0.271515,-0.001837,2.9840,1.4944,-0.2215
12.2399,0.020168,-0.223459,0.223459,-0.259243,0.262311,-0.001837,2.9840,1.4944,-0.2215
12.2600,0.020124,-0.212922,0.212922,-0.250039,0.250039,-0.001847,2.9722,1.4453,-0.1688
12.2801,0.020078,-0.202409,0.202409,-0.239301,0.240835,-0.001846,2.9356,1.5146,-0.2825
12.3002,0.020085,-0.191893,0.191893,-0.228563,0.230097,-0.001835,2.9892,1.4929,-0.2158
12.3203,0.020077,-0.181380,0.181380,-0.216291,0.219359,-0.001837,2.9836,1.4951,-0.2227
12.3406,0.020350,-0.170725,0.170725,-0.204019,0.210155,-0.001847,2.9723,1.4452,-0.1687
12.3607,0.020076,-0.160213,0.160213,-0.193282,0.199418,-0.001835,2.9853,1.5001,-0.2276
12.3808,0.020079,-0.149699,0.149699,-0.181010,0.187146,-0.001847,2.9721,1.4447,-0.1682
12.4008,0.020085,-0.139183,0.139183,-0.173340,0.177942,-0.001835,2.9854,1.5002,-0.2277
12.4209,0.020085,-0.128666,0.128666,-0.162602,0.164136,-0.001837,2.9840,1.4944,-0.2215
12.4411,0.020131,-0.118126,0.118126,-0.153398,0.153398,-0.001847,2.9722,1.4453,-0.1688
12.4611,0.020083,-0.107611,0.107611,-0.142660,0.141126,-0.001835,2.9854,1.5001,-0.2276
12.4812,0.020085,-0.097094,0.097094,-0.131922,0.130388,-0.001847,2.9721,1.4447,-0.1682
12.5014,0.020217,-0.086509,0.086509,-0.119651,0.118117,-0.001835,2.9854,1.5002,-0.2277
12.5216,0.020114,-0.075977,0.075977,-0.108913,0.108913,-0.001837,2.9840,1.4944,-0.2215
12.5418,0.020289,-0.065354,0.065354,-0.096641,0.098175,-0.001837,2.9840,1.4944,-0.2215
12.5619,0.020082,-0.054839,0.054839,-0.087437,0.087437,-0.001847,2.9722,1.4453,-0.1688
12.5820,0.020083,-0.044323,0.044323,-0.076699,0.076699,-0.001846,2.9735,1.4504,-0.1743
12.6023,0.020318,-0.033685,0.033685,-0.065961,0.065961,-0.001836,2.9852,1.4996,-0.2271
12.6224,0.020096,-0.023162,0.023162,-0.053689,0.055223,-0.001847,2.9721,1.4447,-0.1682
12.6425,0.020112,-0.012631,0.012631,-0.041417,0.044485,-0.001835,2.9854,1.5002,-0.2277
12.6626,0.020080,-0.002118,0.002118,-0.030680,0.033748,-0.001837,2.9840,1.4944,-0.2215
12.6827,0.020078,-0.008395,0.008395,-0.019942,0.023010,-0.001837,2.9840,1.4944,-0.2215
12.7029,0.020221,-0.018982,0.018982,-0.010738,0.013806,-0.001847,2.9722,1.4453,-0.1688
12.7232,0.020256,-0.029589,0.029589,-0.003068,0.003068,-0.001846,2.9735,1.4504,-0.1743
12.7435,0.020306,-0.040221,0.040221,-0.001534,0.003068,-0.001846,2.9735,1.4504,-0.1743
12.7636,0.020089,-0.050739,0.050739,-0.009204,0.013806,-0.001847,2.9721,1.4447,-0.1682
12.7837,0.020079,-0.061252,0.061252,-0.026078,0.029146,-0.001846,2.9735,1.4504,-0.1744
12.8040,0.020351,-0.071908,0.071908,-0.041417,0.042951,-0.001836,2.9852,1.4996,-0.2271
12.8241,0.020084,-0.082424,0.082424,-0.058291,0.053689,-0.001837,2.9840,1.4944,-0.2216
12.8443,0.020180,-0.092990,0.092990,-0.062893,0.061359,-0.001837,2.9840,1.4944,-0.2216
12.8643,0.020082,-0.103505,0.103505,-0.061359,0.067495,-0.001837,2.9840,1.4944,-0.2216
12.8844,0.020077,-0.114017,0.114017,-0.070563,0.081301,-0.001847,2.9722,1.4453,-0.1688
12.9045,0.020087,-0.124535,0.124535,-0.090505,0.095107,-0.001835,2.9854,1.5001,-0.2276
12.9246,0.020089,-0.135053,0.135053,-0.111981,0.105845,-0.001837,2.9840,1.4944,-0.2215
12.9447,0.020079,-0.145567,0.145567,-0.121184,0.113515,-0.001837,2.9840,1.4944,-0.2215
12.9653,0.020668,-0.156389,0.156389,-0.127320,0.125786,-0.001847,2.9722,1.4453,-0.1688
12.9854,0.020083,-0.166904,0.166904,-0.136524,0.136524,-0.001846,2.9735,1.4504,-0.1743
13.0055,0.020102,-0.177430,0.177430,-0.150330,0.147262,-0.001836,2.9852,1.4996,-0.2271
13.0256,0.020073,-0.187940,0.187940,-0.162602,0.156466,-0.001837,2.9840,1.4944,-0.2216
13.0457,0.020082,-0.198455,0.198455,-0.170272,0.164136,-0.001857,2.9225,1.4597,-0.2236
13.0658,0.020085,-0.208972,0.208972,-0.177942,0.176408,-0.001857,2.9225,1.4597,-0.2236
13.0859,0.020082,-0.219486,0.219486,-0.190214,0.190214,-0.001846,2.9728,1.4500,-0.1743
13.1063,0.020407,-0.230172,0.230172,-0.205553,0.202485,-0.001846,2.9728,1.4500,-0.1743
13.1263,0.020075,-0.240683,0.240683,-0.213223,0.210155,-0.001837,2.9840,1.4944,-0.2216
13.1464,0.020075,-0.251194,0.251194,-0.219359,0.216291,-0.001837,2.9840,1.4944,-0.2216
13.1665,0.020081,-0.261708,0.261708,-0.228563,0.225495,-0.001847,2.9722,1.4453,-0.1688
13.1866,0.020100,-0.272233,0.272233,-0.243903,0.243903,-0.001835,2.9854,1.5001,-0.2276
13.2067,0.020138,-0.282777,0.282777,-0.254641,0.254641,-0.001847,2.9721,1.4447,-0.1682
13.2268,0.020077,-0.293289,0.293289,-0.259243,0.262311,-0.001835,2.9854,1.5002,-0.2277
13.2469,0.020107,-0.303817,0.303817,-0.271515,0.266913,-0.001837,2.9840,1.4944,-0.2215
13.2671,0.020153,-0.314369,0.314369,-0.286854,0.276117,-0.001847,2.9722,1.4453,-0.1688
13.2872,0.020135,-0.324912,0.324912,-0.299126,0.294524,-0.001846,2.9356,1.5146,-0.2825
13.3073,0.020116,-0.335444,0.335444,-0.308330,0.308330,-0.001835,2.9892,1.4929,-0.2158
13.3274,0.020087,-0.345962,0.345962,-0.316000,0.314466,-0.001837,2.9836,1.4951,-0.2227
13.3475,0.020079,-0.341656,0.341656,-0.329806,0.320602,-0.001837,2.9836,1.4951,-0.2227
13.3676,0.020099,-0.331132,0.331132,-0.342078,0.332874,-0.001847,2.9723,1.4452,-0.1687
13.3877,0.020123,-0.320596,0.320596,-0.349748,0.348214,-0.001846,2.9735,1.4504,-0.1743
13.4078,0.020128,-0.310057,0.310057,-0.349748,0.349748,-0.001836,2.9852,1.4996,-0.2271
13.4281,0.020311,-0.299422,0.299422,-0.345146,0.343612,-0.001837,2.9840,1.4944,-0.2216
13.4482,0.020081,-0.288908,0.288908,-0.334408,0.332874,-0.001837,2.9840,1.4944,-0.2216
13.4685,0.020278,-0.278291,0.278291,-0.323670,0.323670,-0.001847,2.9722,1.4453,-0.1688
13.4886,0.020082,-0.267776,0.267776,-0.311398,0.311398,-0.001846,2.9735,1.4504,-0.1743
13.5088,0.020251,-0.257172,0.257172,-0.299126,0.300660,-0.001846,2.9735,1.4504,-0.1743
13.5289,0.020087,-0.246655,0.246655,-0.286854,0.289922,-0.001836,2.9852,1.4996,-0.2271
13.5490,0.020077,-0.236143,0.236143,-0.277651,0.280718,-0.001837,2.9840,1.4944,-0.2216
13.5691,0.020092,-0.225622,0.225622,-0.265379,0.268447,-0.001837,2.9840,1.4944,-0.2216
13.5892,0.020153,-0.215070,0.215070,-0.257709,0.259243,-0.001837,2.9840,1.4944,-0.2216
13.6094,0.020127,-0.204532,0.204532,-0.248505,0.248505,-0.001847,2.9722,1.4453,-0.1688
13.6298,0.020426,-0.193837,0.193837,-0.236233,0.237767,-0.001835,2.9854,1.5001,-0.2276
13.6499,0.020093,-0.183316,0.183316,-0.225495,0.228563,-0.001847,2.9721,1.4447,-0.1682
13.6700,0.020099,-0.172792,0.172792,-0.211689,0.217825,-0.001835,2.9854,1.5002,-0.2277
13.6901,0.020080,-0.162279,0.162279,-0.200951,0.208621,-0.001837,2.9840,1.4944,-0.2215
13.7102,0.020168,-0.151719,0.151719,-0.191748,0.197884,-0.001837,2.9840,1.4944,-0.2215
13.7303,0.020080,-0.141205,0.141205,-0.181010,0.185612,-0.001837,2.9840,1.4944,-0.2215
13.7504,0.020078,-0.130692,0.130692,-0.170272,0.171806,-0.001847,2.9722,1.4453,-0.1688
13.7706,0.020173,-0.120129,0.120129,-0.158000,0.159534,-0.001856,2.9238,1.4648,-0.2291
13.7907,0.020094,-0.109608,0.109608,-0.148796,0.147262,-0.001834,2.9904,1.4981,-0.2213
