t,loop_dt,cmd_ant_l,cmd_ant_r,pres_ant_l,pres_ant_r,pres_z,pres_roll,pres_pitch,pres_yaw
0.0000,0.000001,-0.174532,0.174532,-0.176408,0.173340,-0.001985,3.1616,1.6580,0.1166
0.0202,0.020156,-0.157979,0.157979,-0.176408,0.173340,-0.001985,3.1616,1.6580,0.1166
0.0403,0.020099,-0.141622,0.141622,-0.176408,0.173340,-0.001985,3.1616,1.6580,0.1166
0.0621,0.021885,-0.124152,0.124152,-0.176408,0.173340,-0.001985,3.1616,1.6580,0.1166
0.0822,0.020101,-0.108573,0.108573,-0.171806,0.168738,-0.001985,3.1616,1.6580,0.1166
0.1023,0.020095,-0.093589,0.093589,-0.156466,0.158000,-0.001985,3.1616,1.6580,0.1166
0.1224,0.020087,-0.079337,0.079337,-0.136524,0.141126,-0.001985,3.1616,1.6580,0.1166
0.1425,0.020093,-0.065933,0.065933,-0.113515,0.118117,-0.001985,3.1616,1.6580,0.1166
0.1626,0.020092,-0.053503,0.053503,-0.090505,0.096641,-0.001985,3.1616,1.6580,0.1166
0.1827,0.020089,-0.042158,0.042158,-0.076699,0.078233,-0.001971,3.1125,1.6389,0.0634
0.2028,0.020091,-0.031998,0.031998,-0.061359,0.059825,-0.001973,3.1176,1.6409,0.0689
0.2228,0.020056,-0.023128,0.023128,-0.047553,0.047553,-0.001973,3.1176,1.6409,0.0689
0.2429,0.020090,-0.015599,0.015599,-0.036816,0.036816,-0.001973,3.1176,1.6409,0.0689
0.2637,0.020729,-0.009323,0.009323,-0.027612,0.029146,-0.001973,3.1176,1.6409,0.0689
0.2838,0.020091,-0.004742,0.004742,-0.021476,0.021476,-0.001973,3.1176,1.6409,0.0689
0.3038,0.020095,-0.001682,0.001682,-0.015340,0.012272,-0.001973,3.1176,1.6409,0.0689
0.3239,0.020093,-0.000171,0.000171,-0.009204,0.004602,-0.001973,3.1176,1.6409,0.0689
0.3440,0.020090,-0.000222,0.000222,-0.001534,0.003068,-0.001973,3.1176,1.6409,0.0689
0.3641,0.020091,-0.001834,0.001834,0.000000,0.001534,-0.001983,3.0673,1.6549,0.0136
0.3842,0.020094,-0.004993,0.004993,-0.003068,0.000000,-0.001971,3.1224,1.6392,0.0741
0.4045,0.020314,-0.009731,0.009731,-0.003068,0.000000,-0.001973,3.1166,1.6409,0.0678
0.4253,0.020788,-0.016142,0.016142,0.000000,0.001534,-0.001973,3.1166,1.6409,0.0678
0.4454,0.020086,-0.023779,0.023779,0.000000,0.004602,-0.001973,3.1166,1.6409,0.0678
0.4658,0.020395,-0.032915,0.032915,-0.007670,0.010738,-0.001973,3.1166,1.6409,0.0678
0.4859,0.020091,-0.043192,0.043192,-0.018408,0.016874,-0.001973,3.1166,1.6409,0.0678
0.5060,0.020097,-0.054650,0.054650,-0.029146,0.019942,-0.001973,3.1166,1.6409,0.0678
0.5264,0.020408,-0.067384,0.067384,-0.033748,0.026078,-0.001973,3.1166,1.6409,0.0678
0.5465,0.020095,-0.080891,0.080891,-0.035282,0.038350,-0.001973,3.1166,1.6409,0.0678
0.5669,0.020391,-0.095453,0.095453,-0.044485,0.053689,-0.001973,3.1166,1.6409,0.0678
0.5870,0.020080,-0.110508,0.110508,-0.064427,0.069029,-0.001962,3.1289,1.6905,0.0152
0.6071,0.020106,-0.126156,0.126156,-0.084369,0.082835,-0.001973,3.1159,1.6355,0.0739
0.6272,0.020106,-0.142237,0.142237,-0.102777,0.096641,-0.001972,3.1173,1.6412,0.0678
0.6473,0.020119,-0.158620,0.158620,-0.116583,0.111981,-0.001972,3.1173,1.6412,0.0678
0.6674,0.020152,-0.175172,0.175172,-0.130388,0.127320,-0.001972,3.1173,1.6412,0.0678
0.6875,0.020084,-0.191663,0.191663,-0.144194,0.144194,-0.001972,3.1173,1.6412,0.0678
0.7076,0.020092,-0.208006,0.208006,-0.164136,0.159534,-0.001972,3.1173,1.6412,0.0678
0.7277,0.020083,-0.224043,0.224043,-0.181010,0.176408,-0.001972,3.1173,1.6412,0.0678
0.7478,0.020085,-0.239639,0.239639,-0.199418,0.193282,-0.001972,3.1173,1.6412,0.0678
0.7679,0.020104,-0.254665,0.254665,-0.211689,0.210155,-0.001972,3.1173,1.6412,0.0678
0.7882,0.020285,-0.269098,0.269098,-0.225495,0.227029,-0.001962,3.1288,1.6905,0.0152
0.8083,0.020096,-0.282546,0.282546,-0.242369,0.243903,-0.001973,3.1159,1.6355,0.0739
0.8284,0.020103,-0.295030,0.295030,-0.259243,0.257709,-0.001972,3.1173,1.6412,0.0678
0.8485,0.020090,-0.306426,0.306426,-0.273049,0.269981,-0.001972,3.1173,1.6412,0.0678
0.8686,0.020130,-0.316660,0.316660,-0.283786,0.283786,-0.001972,3.1173,1.6412,0.0678
0.8887,0.020092,-0.325600,0.325600,-0.299126,0.297592,-0.001983,3.0673,1.6549,0.0137
0.9088,0.020091,-0.333187,0.333187,-0.311398,0.308330,-0.001961,3.1340,1.6890,0.0209
0.9290,0.020217,-0.339387,0.339387,-0.322136,0.317534,-0.001974,3.1154,1.6357,0.0734
0.9491,0.020109,-0.344070,0.344070,-0.329806,0.325204,-0.001974,3.1154,1.6357,0.0734
0.9695,0.020367,-0.347263,0.347263,-0.337476,0.334408,-0.001972,3.1173,1.6412,0.0679
0.9896,0.020106,-0.348855,0.348855,-0.343612,0.340544,-0.001972,3.1173,1.6412,0.0679
1.0097,0.020091,-0.348885,0.348885,-0.348214,0.342078,-0.001972,3.1173,1.6412,0.0679
1.0302,0.020555,-0.347299,0.347299,-0.348214,0.345146,-0.001972,3.1173,1.6412,0.0679
1.0503,0.020091,-0.344183,0.344183,-0.351282,0.346680,-0.001972,3.1173,1.6412,0.0679
1.0708,0.020509,-0.339435,0.339435,-0.351282,0.346680,-0.001972,3.1173,1.6412,0.0679
1.0914,0.020556,-0.333132,0.333132,-0.349748,0.346680,-0.001973,3.1159,1.6355,0.0739
1.1116,0.020234,-0.325475,0.325475,-0.346680,0.345146,-0.001972,3.1173,1.6412,0.0678
1.1318,0.020158,-0.316484,0.316484,-0.345146,0.340544,-0.001983,3.0673,1.6549,0.0137
1.1519,0.020088,-0.306250,0.306250,-0.343612,0.339010,-0.001972,3.0841,1.7033,-0.0339
1.1725,0.020665,-0.294492,0.294492,-0.342078,0.335942,-0.001972,3.1206,1.6342,0.0791
1.1926,0.020086,-0.281973,0.281973,-0.337476,0.332874,-0.001972,3.1168,1.6414,0.0673
1.2127,0.020085,-0.268493,0.268493,-0.326738,0.326738,-0.001983,3.0674,1.6548,0.0138
1.2329,0.020219,-0.254074,0.254074,-0.314466,0.316000,-0.001982,3.0725,1.6535,0.0193
1.2530,0.020088,-0.239034,0.239034,-0.297592,0.299126,-0.001961,3.1335,1.6892,0.0203
1.2733,0.020267,-0.223275,0.223275,-0.283786,0.286854,-0.001974,3.1155,1.6357,0.0734
1.2934,0.020100,-0.207206,0.207206,-0.269981,0.274583,-0.001972,3.1173,1.6412,0.0679
1.3135,0.020089,-0.190853,0.190853,-0.256175,0.259243,-0.001972,3.1173,1.6412,0.0679
1.3336,0.020090,-0.174354,0.174354,-0.239301,0.243903,-0.001972,3.1173,1.6412,0.0679
1.3536,0.020090,-0.157856,0.157856,-0.223961,0.227029,-0.001972,3.1173,1.6412,0.0679
1.3739,0.020217,-0.141405,0.141405,-0.205553,0.210155,-0.001972,3.1173,1.6412,0.0679
1.3942,0.020343,-0.125155,0.125155,-0.188680,0.191748,-0.001962,3.1288,1.6905,0.0152
1.4144,0.020169,-0.109491,0.109491,-0.171806,0.174874,-0.001984,3.0661,1.6497,0.0192
1.4345,0.020105,-0.094462,0.094462,-0.153398,0.156466,-0.001972,3.0843,1.7038,-0.0345
1.4547,0.020276,-0.080032,0.080032,-0.139592,0.139592,-0.001972,3.1206,1.6341,0.0791
1.4749,0.020107,-0.066573,0.066573,-0.124252,0.122718,-0.001935,3.0292,1.6534,-0.0938
1.4950,0.020099,-0.054088,0.054088,-0.110447,0.105845,-0.001935,3.0292,1.6534,-0.0938
1.5155,0.020591,-0.042418,0.042418,-0.093573,0.090505,-0.001949,3.0271,1.6016,-0.0225
1.5357,0.020117,-0.032215,0.032215,-0.078233,0.076699,-0.001937,3.0390,1.6562,-0.0824
1.5558,0.020092,-0.023301,0.023301,-0.064427,0.061359,-0.001949,3.0260,1.6013,-0.0236
1.5761,0.020305,-0.015669,0.015669,-0.036816,0.036816,-0.001947,3.0274,1.6070,-0.0298
1.5962,0.020099,-0.009546,0.009546,-0.026078,0.027612,-0.001947,3.0274,1.6070,-0.0298
1.6163,0.020093,-0.004902,0.004902,-0.026078,0.027612,-0.001947,3.0274,1.6070,-0.0298
1.6364,0.020114,-0.001776,0.001776,-0.018408,0.018408,-0.001947,3.0274,1.6070,-0.0298
1.6566,0.020263,-0.000195,0.000195,-0.007670,0.004602,-0.001947,3.0274,1.6070,-0.0298
1.6770,0.020385,-0.000207,0.000207,0.000000,0.004602,-0.001947,3.0274,1.6070,-0.0298
1.6972,0.020216,-0.001807,0.001807,0.000000,0.003068,-0.001947,3.0274,1.6070,-0.0298
1.7173,0.020090,-0.004949,0.004949,-0.006136,0.000000,-0.001947,3.0274,1.6070,-0.0298
1.7376,0.020263,-0.009656,0.009656,-0.003068,0.000000,-0.001947,3.0274,1.6070,-0.0298
1.7580,0.020402,-0.015913,0.015913,0.000000,0.001534,-0.001947,3.0274,1.6070,-0.0298
1.7781,0.020085,-0.023504,0.023504,-0.003068,0.006136,-0.001947,3.0274,1.6070,-0.0298
1.7982,0.020093,-0.032451,0.032451,-0.012272,0.015340,-0.001947,3.0274,1.6070,-0.0298
1.8185,0.020287,-0.042775,0.042775,-0.023010,0.016874,-0.001947,3.0274,1.6070,-0.0298
1.8387,0.020209,-0.054256,0.054256,-0.032214,0.019942,-0.001947,3.0274,1.6070,-0.0298
1.8592,0.020516,-0.067026,0.067026,-0.036816,0.029146,-0.001947,3.0274,1.6070,-0.0298
1.8793,0.020087,-0.080503,0.080503,-0.039884,0.042951,-0.001937,3.0389,1.6562,-0.0824
1.8995,0.020202,-0.094905,0.094905,-0.052155,0.059825,-0.001949,3.0260,1.6013,-0.0236
1.9196,0.020097,-0.109948,0.109948,-0.070563,0.073631,-0.001947,3.0274,1.6070,-0.0298
1.9403,0.020731,-0.126071,0.126071,-0.088971,0.087437,-0.001947,3.0274,1.6070,-0.0298
1.9616,0.021329,-0.143140,0.143140,-0.102777,0.098175,-0.001947,3.0274,1.6070,-0.0298
1.9817,0.020089,-0.159510,0.159510,-0.116583,0.110447,-0.001947,3.0274,1.6070,-0.0298
2.0018,0.020088,-0.176013,0.176013,-0.130388,0.124252,-0.001947,3.0274,1.6070,-0.0298
2.0219,0.020084,-0.192500,0.192500,-0.151864,0.145728,-0.001947,3.0274,1.6070,-0.0298
2.0420,0.020083,-0.208825,0.208825,-0.168738,0.164136,-0.001937,3.0389,1.6562,-0.0824
2.0621,0.020089,-0.224848,0.224848,-0.184078,0.182544,-0.001949,3.0260,1.6013,-0.0236
2.0821,0.020092,-0.240422,0.240422,-0.200951,0.199418,-0.001937,3.0391,1.6568,-0.0831
2.1022,0.020095,-0.255409,0.255409,-0.217825,0.216291,-0.001949,3.0260,1.6013,-0.0236
2.1223,0.020094,-0.269670,0.269670,-0.233165,0.233165,-0.001947,3.0274,1.6071,-0.0298
2.1427,0.020351,-0.283244,0.283244,-0.248505,0.246971,-0.001937,3.0389,1.6562,-0.0824
2.1629,0.020253,-0.295761,0.295761,-0.262311,0.262311,-0.001938,3.0378,1.6511,-0.0769
2.1830,0.020091,-0.307088,0.307088,-0.277651,0.276117,-0.001959,2.9764,1.6162,-0.0790
2.2031,0.020090,-0.317227,0.317227,-0.291456,0.289922,-0.001946,3.0326,1.6055,-0.0240
2.2233,0.020152,-0.326113,0.326113,-0.305262,0.300660,-0.001948,3.0267,1.6066,-0.0297
2.2434,0.020087,-0.333612,0.333612,-0.314466,0.309864,-0.001948,3.0267,1.6066,-0.0297
2.2635,0.020097,-0.339689,0.339689,-0.323670,0.320602,-0.001948,3.0267,1.6066,-0.0297
2.2835,0.020089,-0.344284,0.344284,-0.331340,0.328272,-0.001948,3.0267,1.6066,-0.0297
2.3036,0.020097,-0.347361,0.347361,-0.337476,0.334408,-0.001948,3.0267,1.6066,-0.0297
2.3238,0.020109,-0.348888,0.348888,-0.345146,0.342078,-0.001948,3.0267,1.6066,-0.0297
2.3438,0.020085,-0.348852,0.348852,-0.348214,0.343612,-0.001948,3.0267,1.6066,-0.0297
2.3642,0.020366,-0.347222,0.347222,-0.348214,0.346680,-0.001958,2.9775,1.6208,-0.0839
2.3845,0.020333,-0.344010,0.344010,-0.352816,0.349748,-0.001946,3.0325,1.6050,-0.0235
2.4046,0.020093,-0.339307,0.339307,-0.352816,0.348214,-0.001948,3.0267,1.6067,-0.0298
2.4247,0.020102,-0.333126,0.333126,-0.352816,0.348214,-0.001948,3.0267,1.6067,-0.0298
2.4449,0.020122,-0.325514,0.325514,-0.349748,0.346680,-0.001948,3.0267,1.6067,-0.0298
2.4650,0.020104,-0.316554,0.316554,-0.343612,0.340544,-0.001937,3.0390,1.6563,-0.0824
2.4851,0.020116,-0.306315,0.306315,-0.343612,0.339010,-0.001949,3.0260,1.6013,-0.0236
2.5052,0.020121,-0.294888,0.294888,-0.340544,0.335942,-0.001947,3.0274,1.6070,-0.0298
2.5254,0.020156,-0.282359,0.282359,-0.340544,0.335942,-0.001947,3.0274,1.6070,-0.0298
2.5455,0.020100,-0.268896,0.268896,-0.334408,0.331340,-0.001947,3.0274,1.6070,-0.0298
2.5656,0.020108,-0.254581,0.254581,-0.325204,0.323670,-0.001958,2.9775,1.6208,-0.0839
2.5856,0.020090,-0.239561,0.239561,-0.311398,0.312932,-0.001946,3.0325,1.6050,-0.0235
2.6058,0.020115,-0.223939,0.223939,-0.297592,0.299126,-0.001948,3.0267,1.6067,-0.0298
2.6259,0.020119,-0.207871,0.207871,-0.282252,0.285320,-0.001948,3.0267,1.6067,-0.0298
2.6462,0.020311,-0.191346,0.191346,-0.266913,0.271515,-0.001948,3.0267,1.6067,-0.0298
2.6663,0.020114,-0.174829,0.174829,-0.253107,0.256175,-0.001958,2.9775,1.6208,-0.0839
2.6864,0.020102,-0.158319,0.158319,-0.237767,0.240835,-0.001946,3.0325,1.6050,-0.0235
2.7065,0.020111,-0.141947,0.141947,-0.222427,0.223961,-0.001948,3.0267,1.6067,-0.0298
2.7279,0.021424,-0.124832,0.124832,-0.185612,0.190214,-0.001948,3.0267,1.6067,-0.0298
2.7480,0.020104,-0.109229,0.109229,-0.167204,0.170272,-0.001948,3.0267,1.6067,-0.0298
2.7681,0.020100,-0.094214,0.094214,-0.151864,0.153398,-0.001948,3.0267,1.6067,-0.0298
2.7882,0.020100,-0.079918,0.079918,-0.134990,0.134990,-0.001958,2.9775,1.6208,-0.0839
2.8083,0.020086,-0.066481,0.066481,-0.119651,0.118117,-0.001958,2.9775,1.6208,-0.0839
2.8284,0.020102,-0.054000,0.054000,-0.102777,0.099709,-0.001946,3.0325,1.6050,-0.0235
2.8485,0.020103,-0.042600,0.042600,-0.102777,0.099709,-0.001948,3.0267,1.6067,-0.0298
2.8686,0.020102,-0.032384,0.032384,-0.070563,0.069029,-0.001948,3.0267,1.6067,-0.0298
2.8887,0.020100,-0.023444,0.023444,-0.070563,0.069029,-0.001948,3.0267,1.6067,-0.0298
2.9088,0.020089,-0.015861,0.015861,-0.044485,0.044485,-0.001948,3.0267,1.6067,-0.0298
2.9290,0.020121,-0.009691,0.009691,-0.044485,0.044485,-0.001948,3.0267,1.6067,-0.0298
2.9490,0.020094,-0.005007,0.005007,-0.023010,0.026078,-0.001948,3.0267,1.6067,-0.0298
2.9692,0.020132,-0.001838,0.001838,-0.023010,0.026078,-0.001948,3.0267,1.6067,-0.0298
2.9893,0.020115,-0.000222,0.000222,-0.015340,0.015340,-0.001948,3.0267,1.6067,-0.0298
3.0094,0.020100,-0.000171,0.000171,-0.009204,0.004602,-0.001948,3.0267,1.6067,-0.0298
3.0295,0.020103,-0.001683,0.001683,-0.009204,0.004602,-0.001948,3.0267,1.6067,-0.0298
3.0497,0.020172,-0.004759,0.004759,-0.001534,0.004602,-0.001948,3.0267,1.6067,-0.0298
3.0702,0.020503,-0.009456,0.009456,-0.001534,0.000000,-0.001948,3.0267,1.6067,-0.0298
3.0903,0.020097,-0.015554,0.015554,-0.001534,0.000000,-0.001948,3.0267,1.6067,-0.0298
3.1104,0.020093,-0.023076,0.023076,0.000000,0.003068,-0.001948,3.0267,1.6067,-0.0298
3.1305,0.020109,-0.031962,0.031962,-0.001534,0.007670,-0.001948,3.0267,1.6067,-0.0298
3.1506,0.020095,-0.042120,0.042120,-0.009204,0.016874,-0.001948,3.0267,1.6067,-0.0298
3.1707,0.020098,-0.053466,0.053466,-0.009204,0.016874,-0.001948,3.0267,1.6067,-0.0298
3.1908,0.020108,-0.065903,0.065903,-0.021476,0.018408,-0.001948,3.0267,1.6067,-0.0298
3.2109,0.020096,-0.079307,0.079307,-0.044485,0.032214,-0.001948,3.0267,1.6067,-0.0298
3.2310,0.020107,-0.093572,0.093572,-0.044485,0.032214,-0.001948,3.0267,1.6067,-0.0298
3.2511,0.020099,-0.108558,0.108558,-0.049087,0.047553,-0.001948,3.0267,1.6067,-0.0298
3.2712,0.020102,-0.124138,0.124138,-0.056757,0.061359,-0.001948,3.0267,1.6067,-0.0298
3.2913,0.020101,-0.140168,0.140168,-0.069029,0.078233,-0.001948,3.0267,1.6067,-0.0298
3.3114,0.020091,-0.156499,0.156499,-0.088971,0.090505,-0.001948,3.0267,1.6067,-0.0298
3.3315,0.020101,-0.172999,0.172999,-0.110447,0.104311,-0.001948,3.0267,1.6067,-0.0298
3.3516,0.020093,-0.189506,0.189506,-0.124252,0.118117,-0.001948,3.0267,1.6067,-0.0298
3.3717,0.020097,-0.205883,0.205883,-0.139592,0.134990,-0.001948,3.0267,1.6067,-0.0298
3.3933,0.021594,-0.223162,0.223162,-0.171806,0.170272,-0.001948,3.0267,1.6067,-0.0298
3.4133,0.020088,-0.238788,0.238788,-0.171806,0.170272,-0.001937,3.0390,1.6563,-0.0824
3.4334,0.020089,-0.253839,0.253839,-0.187146,0.184078,-0.001949,3.0260,1.6013,-0.0236
3.4535,0.020095,-0.268184,0.268184,-0.219359,0.216291,-0.001947,3.0274,1.6070,-0.0298
3.4736,0.020087,-0.281685,0.281685,-0.231631,0.230097,-0.001947,3.0274,1.6070,-0.0298
3.4937,0.020100,-0.294235,0.294235,-0.246971,0.248505,-0.001947,3.0274,1.6070,-0.0298
3.5138,0.020092,-0.305707,0.305707,-0.268447,0.268447,-0.001947,3.0274,1.6070,-0.0298
3.5339,0.020090,-0.316003,0.316003,-0.286854,0.289922,-0.001947,3.0274,1.6070,-0.0298
3.5540,0.020089,-0.325032,0.325032,-0.305262,0.300660,-0.001947,3.0274,1.6070,-0.0298
3.5741,0.020097,-0.332716,0.332716,-0.311398,0.309864,-0.001947,3.0274,1.6070,-0.0298
3.5942,0.020103,-0.338983,0.338983,-0.320602,0.320602,-0.001947,3.0274,1.6070,-0.0298
3.6143,0.020098,-0.343775,0.343775,-0.332874,0.328272,-0.001947,3.0274,1.6070,-0.0298
3.6344,0.020091,-0.347049,0.347049,-0.339010,0.334408,-0.001947,3.0274,1.6070,-0.0298
3.6545,0.020093,-0.348777,0.348777,-0.340544,0.340544,-0.001947,3.0274,1.6070,-0.0298
3.6746,0.020091,-0.348945,0.348945,-0.346680,0.345146,-0.001947,3.0274,1.6070,-0.0298
3.6946,0.020086,-0.347551,0.347551,-0.352816,0.345146,-0.001947,3.0274,1.6070,-0.0298
3.7147,0.020084,-0.344609,0.344609,-0.352816,0.346680,-0.001947,3.0274,1.6070,-0.0298
3.7348,0.020080,-0.340145,0.340145,-0.351282,0.346680,-0.001947,3.0274,1.6070,-0.0298
3.7549,0.020088,-0.334197,0.334197,-0.351282,0.346680,-0.001947,3.0274,1.6070,-0.0298
3.7750,0.020101,-0.326814,0.326814,-0.348214,0.343612,-0.001947,3.0274,1.6070,-0.0298
3.7951,0.020084,-0.318074,0.318074,-0.345146,0.340544,-0.001947,3.0274,1.6070,-0.0298
3.8152,0.020099,-0.308041,0.308041,-0.342078,0.339010,-0.001947,3.0274,1.6070,-0.0298
3.8353,0.020092,-0.296815,0.296815,-0.340544,0.335942,-0.001947,3.0274,1.6070,-0.0298
3.8554,0.020107,-0.284484,0.284484,-0.335942,0.329806,-0.001947,3.0274,1.6070,-0.0298
3.8755,0.020092,-0.271178,0.271178,-0.326738,0.323670,-0.001947,3.0274,1.6070,-0.0298
3.8956,0.020090,-0.257006,0.257006,-0.312932,0.311398,-0.001947,3.0274,1.6070,-0.0298
3.9156,0.020088,-0.242098,0.242098,-0.299126,0.299126,-0.001947,3.0274,1.6070,-0.0298
3.9357,0.020088,-0.226585,0.226585,-0.282252,0.285320,-0.001947,3.0274,1.6070,-0.0298
3.9558,0.020089,-0.210605,0.210605,-0.266913,0.271515,-0.001947,3.0274,1.6070,-0.0298
3.9759,0.020084,-0.194306,0.194306,-0.253107,0.254641,-0.001947,3.0274,1.6070,-0.0298
3.9960,0.020133,-0.177790,0.177790,-0.237767,0.240835,-0.001947,3.0274,1.6070,-0.0298
4.0161,0.020086,-0.161283,0.161283,-0.222427,0.223961,-0.001947,3.0274,1.6070,-0.0298
4.0362,0.020097,-0.144886,0.144886,-0.204019,0.208621,-0.001947,3.0274,1.6070,-0.0298
4.0563,0.020092,-0.128758,0.128758,-0.185612,0.190214,-0.001947,3.0274,1.6070,-0.0298
4.0764,0.020090,-0.113042,0.113042,-0.170272,0.171806,-0.001947,3.0274,1.6070,-0.0298
4.0965,0.020106,-0.097865,0.097865,-0.151864,0.153398,-0.001947,3.0274,1.6070,-0.0298
4.1166,0.020095,-0.083383,0.083383,-0.136524,0.134990,-0.001947,3.0274,1.6070,-0.0298
4.1372,0.020616,-0.069375,0.069375,-0.121184,0.119651,-0.001947,3.0274,1.6070,-0.0298
4.1573,0.020091,-0.056678,0.056678,-0.102777,0.101243,-0.001947,3.0274,1.6070,-0.0298
4.1774,0.020082,-0.045041,0.045041,-0.087437,0.084369,-0.001947,3.0274,1.6070,-0.0298
4.1975,0.020087,-0.034560,0.034560,-0.075165,0.072097,-0.001947,3.0274,1.6070,-0.0298
4.2176,0.020082,-0.025335,0.025335,-0.061359,0.058291,-0.001958,2.9775,1.6208,-0.0839
4.2376,0.020084,-0.017444,0.017444,-0.047553,0.046019,-0.001946,3.0325,1.6050,-0.0235
4.2577,0.020085,-0.010960,0.010960,-0.033748,0.033748,-0.001948,3.0267,1.6067,-0.0298
4.2778,0.020083,-0.005939,0.005939,-0.023010,0.026078,-0.001948,3.0267,1.6067,-0.0298
4.2979,0.020081,-0.002428,0.002428,-0.016874,0.016874,-0.001948,3.0267,1.6067,-0.0298
4.3180,0.020093,-0.000456,0.000456,-0.013806,0.007670,-0.001948,3.0267,1.6067,-0.0298
4.3381,0.020154,-0.000045,0.000045,-0.009204,0.004602,-0.001958,2.9775,1.6208,-0.0839
4.3582,0.020097,-0.001201,0.001201,0.000000,0.003068,-0.001946,3.0325,1.6050,-0.0235
4.3785,0.020216,-0.003931,0.003931,0.003068,0.000000,-0.001948,3.0267,1.6067,-0.0298
4.3987,0.020203,-0.008205,0.008205,-0.003068,-0.001534,-0.001948,3.0267,1.6067,-0.0298
4.4187,0.020086,-0.013947,0.013947,-0.004602,0.000000,-0.001948,3.0267,1.6067,-0.0298
4.4388,0.020100,-0.021133,0.021133,0.000000,0.001534,-0.001937,3.0390,1.6563,-0.0824
4.4594,0.020593,-0.029921,0.029921,0.000000,0.007670,-0.001949,3.0260,1.6013,-0.0236
4.4796,0.020201,-0.039864,0.039864,-0.007670,0.015340,-0.001947,3.0274,1.6070,-0.0298
4.4997,0.020097,-0.050966,0.050966,-0.019942,0.018408,-0.001947,3.0274,1.6070,-0.0298
4.5198,0.020093,-0.063173,0.063173,-0.033748,0.019942,-0.001947,3.0274,1.6070,-0.0298
4.5399,0.020090,-0.076376,0.076376,-0.039884,0.026078,-0.001947,3.0274,1.6070,-0.0298
4.5600,0.020107,-0.090470,0.090470,-0.044485,0.039884,-0.001947,3.0274,1.6070,-0.0298
4.5801,0.020092,-0.105307,0.105307,-0.053689,0.058291,-0.001958,2.9775,1.6208,-0.0839
4.6002,0.020100,-0.120770,0.120770,-0.070563,0.075165,-0.001936,3.0442,1.6548,-0.0768
4.6203,0.020094,-0.136711,0.136711,-0.088971,0.088971,-0.001949,3.0255,1.6015,-0.0242
4.6404,0.020090,-0.152987,0.152987,-0.105845,0.101243,-0.001947,3.0275,1.6070,-0.0297
4.6605,0.020094,-0.169459,0.169459,-0.119651,0.115049,-0.001947,3.0275,1.6070,-0.0297
4.6806,0.020100,-0.185981,0.185981,-0.133456,0.127320,-0.001958,2.9774,1.6208,-0.0839
4.7007,0.020102,-0.202403,0.202403,-0.148796,0.145728,-0.001936,3.0442,1.6548,-0.0768
4.7208,0.020095,-0.218569,0.218569,-0.165670,0.162602,-0.001949,3.0255,1.6015,-0.0242
4.7409,0.020097,-0.234343,0.234343,-0.182544,0.179476,-0.001947,3.0275,1.6070,-0.0297
4.7610,0.020090,-0.249574,0.249574,-0.199418,0.194816,-0.001947,3.0275,1.6070,-0.0297
4.7811,0.020088,-0.264132,0.264132,-0.216291,0.211689,-0.001947,3.0275,1.6070,-0.0297
4.8012,0.020090,-0.277890,0.277890,-0.228563,0.228563,-0.001958,2.9774,1.6208,-0.0839
4.8212,0.020089,-0.290721,0.290721,-0.242369,0.242369,-0.001946,3.0325,1.6050,-0.0235
4.8413,0.020089,-0.302511,0.302511,-0.257709,0.257709,-0.001948,3.0267,1.6067,-0.0298
4.8614,0.020091,-0.313157,0.313157,-0.288388,0.288388,-0.001948,3.0267,1.6067,-0.0298
4.8815,0.020087,-0.322559,0.322559,-0.303728,0.299126,-0.001948,3.0267,1.6067,-0.0298
4.9016,0.020086,-0.330635,0.330635,-0.312932,0.309864,-0.001948,3.0267,1.6067,-0.0298
4.9217,0.020092,-0.337316,0.337316,-0.323670,0.322136,-0.001948,3.0267,1.6067,-0.0298
4.9418,0.020087,-0.342538,0.342538,-0.331340,0.328272,-0.001958,2.9775,1.6208,-0.0839
4.9619,0.020096,-0.346256,0.346256,-0.334408,0.331340,-0.001946,3.0325,1.6050,-0.0235
4.9820,0.020097,-0.348436,0.348436,-0.342078,0.343612,-0.001948,3.0267,1.6067,-0.0298
5.0021,0.020095,-0.349058,0.349058,-0.351282,0.345146,-0.001948,2.9892,1.6706,-0.1372
5.0222,0.020091,-0.348115,0.348115,-0.349748,0.343612,-0.001958,2.9814,1.6142,-0.0727
5.0423,0.020100,-0.345617,0.345617,-0.349748,0.349748,-0.001946,3.0321,1.6057,-0.0246
5.0623,0.020090,-0.341587,0.341587,-0.351282,0.349748,-0.001948,3.0268,1.6066,-0.0297
5.0824,0.020092,-0.336060,0.336060,-0.348214,0.345146,-0.001948,3.0268,1.6066,-0.0297
5.1029,0.020448,-0.328950,0.328950,-0.348214,0.343612,-0.001948,3.0268,1.6066,-0.0297
5.1233,0.020395,-0.320431,0.320431,-0.346680,0.340544,-0.001948,3.0268,1.6066,-0.0297
5.1434,0.020087,-0.310724,0.310724,-0.343612,0.339010,-0.001948,3.0268,1.6066,-0.0297
5.1635,0.020093,-0.299795,0.299795,-0.340544,0.335942,-0.001948,3.0268,1.6066,-0.0297
5.1836,0.020095,-0.287741,0.287741,-0.335942,0.331340,-0.001948,3.0268,1.6066,-0.0297
5.2037,0.020106,-0.274666,0.274666,-0.325204,0.323670,-0.001937,3.0390,1.6563,-0.0824
5.2238,0.020110,-0.260690,0.260690,-0.311398,0.311398,-0.001949,3.0260,1.6013,-0.0236
5.2439,0.020087,-0.245958,0.245958,-0.297592,0.299126,-0.001947,3.0274,1.6070,-0.0298
5.2640,0.020107,-0.230571,0.230571,-0.282252,0.285320,-0.001947,3.0274,1.6070,-0.0298
5.2841,0.020090,-0.214695,0.214695,-0.266913,0.269981,-0.001937,3.0389,1.6562,-0.0824
5.3042,0.020098,-0.198452,0.198452,-0.254641,0.254641,-0.001949,3.0260,1.6013,-0.0236
5.3243,0.020100,-0.181994,0.181994,-0.237767,0.239301,-0.001947,3.0274,1.6070,-0.0298
5.3443,0.020086,-0.165480,0.165480,-0.220893,0.223961,-0.001947,3.0274,1.6070,-0.0298
5.3644,0.020099,-0.149036,0.149036,-0.202485,0.208621,-0.001947,3.0274,1.6070,-0.0298
5.3845,0.020100,-0.132821,0.132821,-0.185612,0.191748,-0.001947,3.0274,1.6070,-0.0298
5.4046,0.020102,-0.116978,0.116978,-0.168738,0.173340,-0.001947,3.0274,1.6070,-0.0298
5.4247,0.020103,-0.101650,0.101650,-0.151864,0.153398,-0.001947,3.0274,1.6070,-0.0298
5.4448,0.020098,-0.086980,0.086980,-0.136524,0.134990,-0.001947,3.0274,1.6070,-0.0298
5.4650,0.020110,-0.073086,0.073086,-0.136524,0.134990,-0.001947,3.0274,1.6070,-0.0298
5.4851,0.020100,-0.060108,0.060108,-0.119651,0.116583,-0.001947,3.0274,1.6070,-0.0298
5.5052,0.020099,-0.048157,0.048157,-0.104311,0.101243,-0.001947,3.0274,1.6070,-0.0298
5.5253,0.020097,-0.037340,0.037340,-0.090505,0.088971,-0.001947,3.0274,1.6070,-0.0298
5.5453,0.020096,-0.027753,0.027753,-0.078233,0.076699,-0.001958,2.9775,1.6208,-0.0839
5.5654,0.020100,-0.019480,0.019480,-0.065961,0.062893,-0.001946,3.0325,1.6050,-0.0235
5.5855,0.020099,-0.012597,0.012597,-0.052155,0.050621,-0.001948,3.0267,1.6067,-0.0298
5.6057,0.020115,-0.007162,0.007162,-0.038350,0.038350,-0.001948,3.0267,1.6067,-0.0298
5.6258,0.020099,-0.003232,0.003232,-0.027612,0.029146,-0.001937,3.0390,1.6563,-0.0824
5.6459,0.020183,-0.000831,0.000831,-0.018408,0.019942,-0.001949,3.0260,1.6013,-0.0236
5.6661,0.020183,-0.000001,0.000001,-0.012272,0.010738,-0.001947,3.0274,1.6070,-0.0298
5.6862,0.020119,-0.000742,0.000742,-0.009204,0.004602,-0.001947,3.0274,1.6070,-0.0298
5.7064,0.020163,-0.003052,0.003052,-0.003068,0.003068,-0.001947,3.0274,1.6070,-0.0298
5.7265,0.020097,-0.006893,0.006893,0.001534,0.003068,-0.001947,3.0274,1.6070,-0.0298
5.7466,0.020098,-0.012237,0.012237,-0.003068,0.000000,-0.001947,3.0274,1.6070,-0.0298
5.7667,0.020095,-0.019035,0.019035,-0.003068,-0.001534,-0.001947,3.0274,1.6070,-0.0298
5.7868,0.020097,-0.027227,0.027227,-0.001534,0.000000,-0.001947,3.0274,1.6070,-0.0298
5.8069,0.020094,-0.036737,0.036737,0.000000,0.003068,-0.001947,3.0274,1.6070,-0.0298
5.8270,0.020093,-0.047482,0.047482,-0.007670,0.013806,-0.001937,3.0389,1.6562,-0.0824
5.8471,0.020087,-0.059361,0.059361,-0.016874,0.018408,-0.001949,3.0260,1.6013,-0.0236
5.8672,0.020091,-0.072274,0.072274,-0.029146,0.019942,-0.001947,3.0274,1.6070,-0.0298
5.8872,0.020062,-0.086083,0.086083,-0.036816,0.024544,-0.001947,3.0274,1.6070,-0.0298
5.9073,0.020087,-0.100700,0.100700,-0.038350,0.035282,-0.001958,2.9775,1.6208,-0.0839
5.9274,0.020097,-0.115986,0.115986,-0.046019,0.050621,-0.001946,3.0325,1.6050,-0.0235
5.9475,0.020089,-0.131790,0.131790,-0.062893,0.069029,-0.001948,3.0267,1.6067,-0.0298
5.9676,0.020091,-0.147979,0.147979,-0.082835,0.085903,-0.001948,3.0267,1.6067,-0.0298
5.9877,0.020092,-0.164406,0.164406,-0.104311,0.099709,-0.001948,3.0267,1.6067,-0.0298
6.0078,0.020088,-0.180920,0.180920,-0.118117,0.110447,-0.001948,3.0267,1.6067,-0.0298
6.0278,0.020046,-0.197344,0.197344,-0.130388,0.124252,-0.001948,3.0267,1.6067,-0.0298
6.0479,0.020089,-0.213598,0.213598,-0.144194,0.141126,-0.001948,3.0267,1.6067,-0.0298
6.0680,0.020091,-0.229504,0.229504,-0.158000,0.156466,-0.001948,3.0267,1.6067,-0.0298
6.0881,0.020094,-0.244920,0.244920,-0.181010,0.181010,-0.001948,3.0267,1.6067,-0.0298
6.1082,0.020083,-0.259698,0.259698,-0.208621,0.205553,-0.001948,3.0267,1.6067,-0.0298
6.1283,0.020087,-0.273716,0.273716,-0.242369,0.240835,-0.001948,3.0267,1.6067,-0.0298
6.1483,0.020083,-0.286843,0.286843,-0.242369,0.240835,-0.001948,3.0267,1.6067,-0.0298
6.1684,0.020082,-0.298964,0.298964,-0.251573,0.251573,-0.001948,3.0267,1.6067,-0.0298
6.1885,0.020089,-0.309976,0.309976,-0.266913,0.266913,-0.001948,3.0267,1.6067,-0.0298
6.2086,0.020097,-0.319778,0.319778,-0.299126,0.294524,-0.001958,2.9775,1.6208,-0.0839
6.2287,0.020086,-0.328275,0.328275,-0.309864,0.303728,-0.001946,3.0325,1.6050,-0.0235
6.2488,0.020099,-0.335399,0.335399,-0.320602,0.317534,-0.001948,3.0267,1.6067,-0.0298
6.2689,0.020095,-0.341080,0.341080,-0.331340,0.328272,-0.001948,3.0267,1.6067,-0.0298
6.2890,0.020103,-0.345270,0.345270,-0.335942,0.332874,-0.001948,3.0267,1.6067,-0.0298
6.3091,0.020084,-0.347927,0.347927,-0.339010,0.339010,-0.001948,3.0267,1.6067,-0.0298
6.3292,0.020085,-0.349032,0.349032,-0.349748,0.345146,-0.001958,2.9775,1.6208,-0.0839
6.3493,0.020090,-0.348575,0.348575,-0.352816,0.345146,-0.001946,3.0325,1.6050,-0.0235
6.3693,0.020090,-0.346559,0.346559,-0.351282,0.346680,-0.001948,3.0267,1.6067,-0.0298
6.3894,0.020102,-0.343000,0.343000,-0.351282,0.346680,-0.001958,2.9775,1.6208,-0.0839
6.4095,0.020083,-0.337935,0.337935,-0.351282,0.345146,-0.001936,3.0442,1.6548,-0.0768
6.4296,0.020085,-0.331408,0.331408,-0.348214,0.343612,-0.001949,3.0255,1.6015,-0.0242
6.4497,0.020081,-0.323478,0.323478,-0.345146,0.342078,-0.001947,3.0275,1.6070,-0.0297
6.4698,0.020091,-0.314210,0.314210,-0.343612,0.340544,-0.001937,3.0389,1.6562,-0.0824
6.4902,0.020407,-0.303516,0.303516,-0.340544,0.337476,-0.001949,3.0260,1.6013,-0.0236
6.5103,0.020091,-0.291823,0.291823,-0.339010,0.332874,-0.001947,3.0274,1.6070,-0.0298
6.5304,0.020092,-0.279079,0.279079,-0.329806,0.326738,-0.001947,3.0274,1.6070,-0.0298
6.5505,0.020086,-0.265402,0.265402,-0.319068,0.317534,-0.001947,3.0274,1.6070,-0.0298
6.5706,0.020098,-0.250903,0.250903,-0.303728,0.305262,-0.001958,2.9775,1.6208,-0.0839
6.5907,0.020100,-0.235717,0.235717,-0.285320,0.289922,-0.001946,3.0325,1.6050,-0.0235
6.6108,0.020152,-0.219943,0.219943,-0.273049,0.277651,-0.001948,3.0267,1.6067,-0.0298
6.6309,0.020099,-0.203802,0.203802,-0.259243,0.263845,-0.001948,3.0267,1.6067,-0.0298
6.6510,0.020131,-0.187372,0.187372,-0.245437,0.246971,-0.001948,3.0267,1.6067,-0.0298
6.6711,0.020091,-0.170859,0.170859,-0.230097,0.231631,-0.001948,3.0267,1.6067,-0.0298
6.6912,0.020094,-0.154378,0.154378,-0.211689,0.216291,-0.001948,3.0267,1.6067,-0.0298
6.7113,0.020091,-0.138079,0.138079,-0.194816,0.199418,-0.001948,3.0267,1.6067,-0.0298
6.7314,0.020100,-0.122100,0.122100,-0.177942,0.182544,-0.001948,3.0267,1.6067,-0.0298
6.7515,0.020083,-0.106603,0.106603,-0.159534,0.164136,-0.001948,3.0267,1.6067,-0.0298
6.7716,0.020073,-0.091722,0.091722,-0.142660,0.144194,-0.001958,2.9775,1.6208,-0.0839
6.7917,0.020100,-0.077562,0.077562,-0.125786,0.125786,-0.001946,3.0325,1.6050,-0.0235
6.8118,0.020096,-0.064275,0.064275,-0.110447,0.108913,-0.001958,2.9769,1.6210,-0.0845
6.8319,0.020085,-0.051982,0.051982,-0.093573,0.092039,-0.001946,3.0325,1.6050,-0.0234
6.8519,0.020088,-0.040785,0.040785,-0.079767,0.076699,-0.001938,3.0384,1.6565,-0.0831
6.8720,0.020094,-0.030782,0.030782,-0.065961,0.062893,-0.001949,3.0261,1.6013,-0.0236
6.8922,0.020113,-0.022059,0.022059,-0.050621,0.049087,-0.001947,3.0274,1.6070,-0.0298
6.9123,0.020103,-0.014709,0.014709,-0.038350,0.036816,-0.001947,3.0274,1.6070,-0.0298
6.9324,0.020104,-0.008792,0.008792,-0.027612,0.029146,-0.001947,3.0274,1.6070,-0.0298
6.9525,0.020109,-0.004360,0.004360,-0.019942,0.021476,-0.001947,3.0274,1.6070,-0.0298
6.9726,0.020088,-0.001458,0.001458,-0.015340,0.012272,-0.001947,3.0274,1.6070,-0.0298
6.9926,0.020083,-0.000105,0.000105,-0.010738,0.004602,-0.001947,3.0274,1.6070,-0.0298
7.0128,0.020125,-0.000316,0.000316,-0.001534,0.003068,-0.001947,3.0274,1.6070,-0.0298
7.0329,0.020088,-0.002087,0.002087,0.001534,0.000000,-0.001947,3.0274,1.6070,-0.0298
7.0529,0.020095,-0.005404,0.005404,-0.003068,0.000000,-0.001947,3.0274,1.6070,-0.0298
7.0730,0.020092,-0.010236,0.010236,-0.004602,0.000000,-0.001947,3.0274,1.6070,-0.0298
7.0931,0.020089,-0.016538,0.016538,-0.001534,0.000000,-0.001947,3.0274,1.6070,-0.0298
7.1132,0.020076,-0.024250,0.024250,0.000000,0.003068,-0.001947,3.0274,1.6070,-0.0298
7.1333,0.020092,-0.033314,0.033314,-0.007670,0.012272,-0.001947,3.0274,1.6070,-0.0298
7.1534,0.020086,-0.043640,0.043640,-0.018408,0.016874,-0.001947,3.0274,1.6070,-0.0298
7.1735,0.020169,-0.055187,0.055187,-0.029146,0.018408,-0.001947,3.0274,1.6070,-0.0298
7.1936,0.020092,-0.067761,0.067761,-0.035282,0.024544,-0.001947,3.0274,1.6070,-0.0298
7.2137,0.020082,-0.081285,0.081285,-0.038350,0.036816,-0.001947,3.0274,1.6070,-0.0298
7.2338,0.020102,-0.095658,0.095658,-0.047553,0.052155,-0.001947,3.0274,1.6070,-0.0298
7.2539,0.020094,-0.110731,0.110731,-0.064427,0.070563,-0.001947,3.0274,1.6070,-0.0298
7.2743,0.020382,-0.126605,0.126605,-0.081301,0.081301,-0.001947,3.0274,1.6070,-0.0298
7.2944,0.020100,-0.142692,0.142692,-0.101243,0.090505,-0.001947,3.0274,1.6070,-0.0298
7.3148,0.020363,-0.159280,0.159280,-0.115049,0.105845,-0.001958,2.9775,1.6208,-0.0839
7.3349,0.020111,-0.175801,0.175801,-0.127320,0.124252,-0.001946,3.0325,1.6050,-0.0235
7.3551,0.020179,-0.192366,0.192366,-0.144194,0.142660,-0.001958,2.9769,1.6210,-0.0845
7.3752,0.020108,-0.208713,0.208713,-0.161068,0.159534,-0.001957,2.9827,1.6193,-0.0782
7.3953,0.020118,-0.224762,0.224762,-0.179476,0.176408,-0.001947,3.0319,1.6052,-0.0241
7.4154,0.020101,-0.240346,0.240346,-0.196350,0.190214,-0.001948,3.0268,1.6066,-0.0297
7.4355,0.020111,-0.255347,0.255347,-0.211689,0.207087,-0.001948,3.0268,1.6066,-0.0297
7.4556,0.020099,-0.269615,0.269615,-0.227029,0.225495,-0.001958,2.9775,1.6208,-0.0839
7.4757,0.020092,-0.283026,0.283026,-0.240835,0.242369,-0.001946,3.0325,1.6050,-0.0235
7.4958,0.020087,-0.295462,0.295462,-0.256175,0.256175,-0.001948,3.0267,1.6067,-0.0298
7.5159,0.020092,-0.306818,0.306818,-0.271515,0.269981,-0.001948,3.0267,1.6067,-0.0298
7.5360,0.020105,-0.316995,0.316995,-0.280718,0.280718,-0.001948,3.0267,1.6067,-0.0298
7.5561,0.020104,-0.325895,0.325895,-0.296058,0.294524,-0.001948,3.0267,1.6067,-0.0298
7.5762,0.020090,-0.333431,0.333431,-0.311398,0.308330,-0.001948,3.0267,1.6067,-0.0298
7.5963,0.020095,-0.339546,0.339546,-0.322136,0.317534,-0.001948,3.0267,1.6067,-0.0298
7.6163,0.020081,-0.344180,0.344180,-0.326738,0.323670,-0.001948,3.0267,1.6067,-0.0298
7.6364,0.020091,-0.347297,0.347297,-0.335942,0.328272,-0.001948,3.0267,1.6067,-0.0298
7.6565,0.020091,-0.348866,0.348866,-0.343612,0.342078,-0.001948,3.0267,1.6067,-0.0298
7.6766,0.020083,-0.348875,0.348875,-0.345146,0.343612,-0.001958,2.9775,1.6208,-0.0839
7.6967,0.020094,-0.347321,0.347321,-0.346680,0.340544,-0.001946,3.0325,1.6050,-0.0235
7.7168,0.020093,-0.344220,0.344220,-0.354350,0.349748,-0.001948,3.0267,1.6067,-0.0298
7.7369,0.020097,-0.339597,0.339597,-0.354350,0.349748,-0.001948,3.0267,1.6067,-0.0298
7.7570,0.020101,-0.333494,0.333494,-0.349748,0.346680,-0.001948,3.0267,1.6067,-0.0298
7.7771,0.020143,-0.325948,0.325948,-0.349748,0.345146,-0.001937,3.0390,1.6563,-0.0824
7.7972,0.020105,-0.317057,0.317057,-0.348214,0.343612,-0.001949,3.0260,1.6013,-0.0236
7.8173,0.020088,-0.306897,0.306897,-0.343612,0.339010,-0.001948,2.9893,1.6711,-0.1378
7.8374,0.020082,-0.295555,0.295555,-0.340544,0.337476,-0.001948,3.0312,1.5998,-0.0179
7.8575,0.020091,-0.283125,0.283125,-0.337476,0.332874,-0.001948,3.0269,1.6072,-0.0304
7.8776,0.020125,-0.269698,0.269698,-0.328272,0.328272,-0.001937,3.0390,1.6562,-0.0824
7.8977,0.020088,-0.255442,0.255442,-0.317534,0.319068,-0.001949,3.0260,1.6013,-0.0236
7.9178,0.020088,-0.240463,0.240463,-0.302194,0.305262,-0.001947,3.0274,1.6070,-0.0298
7.9379,0.020095,-0.224888,0.224888,-0.286854,0.291456,-0.001947,3.0274,1.6070,-0.0298
7.9580,0.020092,-0.208864,0.208864,-0.273049,0.277651,-0.001947,3.0274,1.6070,-0.0298
7.9781,0.020095,-0.192529,0.192529,-0.245437,0.246971,-0.001947,3.0274,1.6070,-0.0298
7.9982,0.020099,-0.176031,0.176031,-0.230097,0.231631,-0.001947,3.0274,1.6070,-0.0298
8.0183,0.020093,-0.159523,0.159523,-0.211689,0.216291,-0.001947,3.0274,1.6070,-0.0298
8.0384,0.020095,-0.143149,0.143149,-0.194816,0.199418,-0.001947,3.0274,1.6070,-0.0298
8.0585,0.020095,-0.127055,0.127055,-0.176408,0.182544,-0.001947,3.0274,1.6070,-0.0298
8.0786,0.020099,-0.111385,0.111385,-0.159534,0.162602,-0.001947,3.0274,1.6070,-0.0298
8.0987,0.020092,-0.096285,0.096285,-0.142660,0.142660,-0.001947,3.0274,1.6070,-0.0298
8.1187,0.020091,-0.081887,0.081887,-0.125786,0.124252,-0.001947,3.0274,1.6070,-0.0298
8.1388,0.020088,-0.068321,0.068321,-0.110447,0.108913,-0.001947,3.0274,1.6070,-0.0298
8.1591,0.020232,-0.055619,0.055619,-0.093573,0.092039,-0.001937,3.0389,1.6562,-0.0824
8.1792,0.020093,-0.044073,0.044073,-0.079767,0.078233,-0.001949,3.0260,1.6013,-0.0236
8.1993,0.020095,-0.033695,0.033695,-0.067495,0.064427,-0.001947,3.0274,1.6070,-0.0298
8.2193,0.020088,-0.024582,0.024582,-0.053689,0.052155,-0.001947,3.0274,1.6070,-0.0298
8.2394,0.020085,-0.016812,0.016812,-0.041417,0.039884,-0.001947,3.0274,1.6070,-0.0298
8.2600,0.020529,-0.010331,0.010331,-0.041417,0.039884,-0.001947,3.0274,1.6070,-0.0298
8.2801,0.020107,-0.005471,0.005471,-0.021476,0.021476,-0.001947,3.0274,1.6070,-0.0298
8.3002,0.020120,-0.002125,0.002125,-0.021476,0.021476,-0.001947,3.0274,1.6070,-0.0298
8.3203,0.020113,-0.000329,0.000329,-0.015340,0.013806,-0.001947,3.0274,1.6070,-0.0298
8.3404,0.020104,-0.000097,0.000097,-0.013806,0.006136,-0.001947,3.0274,1.6070,-0.0298
8.3605,0.020109,-0.001429,0.001429,-0.007670,0.004602,-0.001947,3.0274,1.6070,-0.0298
8.3806,0.020114,-0.004316,0.004316,0.000000,0.003068,-0.001947,3.0274,1.6070,-0.0298
8.4007,0.020115,-0.008730,0.008730,0.001534,0.000000,-0.001947,3.0274,1.6070,-0.0298
8.4208,0.020111,-0.014633,0.014633,-0.006136,0.000000,-0.001937,3.0389,1.6562,-0.0824
8.4409,0.020089,-0.021961,0.021961,-0.004602,0.000000,-0.001949,3.0260,1.6013,-0.0236
8.4611,0.020208,-0.030711,0.030711,0.000000,0.003068,-0.001947,3.0274,1.6070,-0.0298
8.4812,0.020105,-0.040710,0.040710,-0.003068,0.010738,-0.001937,3.0389,1.6562,-0.0824
8.5013,0.020095,-0.051903,0.051903,-0.012272,0.016874,-0.001949,3.0260,1.6013,-0.0236
8.5221,0.020794,-0.064642,0.064642,-0.026078,0.021476,-0.001947,3.0274,1.6070,-0.0298
8.5422,0.020086,-0.077949,0.077949,-0.038350,0.024544,-0.001947,3.0274,1.6070,-0.0298
8.5623,0.020096,-0.092128,0.092128,-0.049087,0.036816,-0.001947,3.0274,1.6070,-0.0298
8.5824,0.020090,-0.107041,0.107041,-0.059825,0.055223,-0.001947,3.0274,1.6070,-0.0298
8.6025,0.020094,-0.122562,0.122562,-0.075165,0.076699,-0.001947,3.0274,1.6070,-0.0298
8.6226,0.020102,-0.138554,0.138554,-0.095107,0.095107,-0.001958,2.9775,1.6208,-0.0839
8.6427,0.020086,-0.154856,0.154856,-0.111981,0.108913,-0.001946,3.0325,1.6050,-0.0235
8.6628,0.020087,-0.171336,0.171336,-0.122718,0.119651,-0.001948,3.0267,1.6067,-0.0298
8.6829,0.020104,-0.187857,0.187857,-0.138058,0.133456,-0.001948,3.0267,1.6067,-0.0298
8.7030,0.020093,-0.204251,0.204251,-0.156466,0.151864,-0.001948,3.0267,1.6067,-0.0298
8.7231,0.020102,-0.220385,0.220385,-0.173340,0.168738,-0.001958,2.9775,1.6208,-0.0839
8.7432,0.020089,-0.236098,0.236098,-0.190214,0.185612,-0.001936,3.0442,1.6548,-0.0768
8.7633,0.020089,-0.251260,0.251260,-0.204019,0.202485,-0.001949,3.0255,1.6015,-0.0242
8.7833,0.020085,-0.265731,0.265731,-0.220893,0.217825,-0.001937,3.0391,1.6568,-0.0830
8.8034,0.020086,-0.279388,0.279388,-0.234699,0.234699,-0.001949,3.0260,1.6013,-0.0236
8.8235,0.020085,-0.292104,0.292104,-0.250039,0.246971,-0.001937,3.0391,1.6568,-0.0831
8.8436,0.020080,-0.303766,0.303766,-0.263845,0.263845,-0.001959,2.9762,1.6156,-0.0783
8.8637,0.020075,-0.314269,0.314269,-0.279185,0.279185,-0.001946,3.0326,1.6055,-0.0241
8.8837,0.020081,-0.323525,0.323525,-0.296058,0.292990,-0.001948,3.0267,1.6066,-0.0297
8.9038,0.020095,-0.331452,0.331452,-0.308330,0.302194,-0.001948,3.0267,1.6066,-0.0297
8.9239,0.020087,-0.337972,0.337972,-0.317534,0.312932,-0.001958,2.9775,1.6208,-0.0839
8.9440,0.020084,-0.343027,0.343027,-0.325204,0.325204,-0.001946,3.0325,1.6050,-0.0235
8.9641,0.020078,-0.346573,0.346573,-0.334408,0.328272,-0.001938,3.0384,1.6565,-0.0831
8.9842,0.020093,-0.348581,0.348581,-0.342078,0.337476,-0.001949,3.0261,1.6013,-0.0236
9.0043,0.020082,-0.349031,0.349031,-0.345146,0.345146,-0.001947,3.0274,1.6070,-0.0298
9.0244,0.020088,-0.347918,0.347918,-0.346680,0.343612,-0.001958,2.9775,1.6208,-0.0839
9.0444,0.020084,-0.345253,0.345253,-0.351282,0.343612,-0.001946,3.0325,1.6050,-0.0235
9.0645,0.020077,-0.341061,0.341061,-0.352816,0.349748,-0.001958,2.9769,1.6210,-0.0845
9.0846,0.020091,-0.335376,0.335376,-0.351282,0.348214,-0.001946,3.0325,1.6050,-0.0234
9.1047,0.020080,-0.328255,0.328255,-0.348214,0.345146,-0.001948,3.0267,1.6067,-0.0298
9.1248,0.020088,-0.319754,0.319754,-0.346680,0.343612,-0.001948,3.0267,1.6067,-0.0298
9.1449,0.020085,-0.309955,0.309955,-0.343612,0.340544,-0.001948,3.0267,1.6067,-0.0298
9.1649,0.020078,-0.298947,0.298947,-0.342078,0.337476,-0.001948,3.0267,1.6067,-0.0298
9.1850,0.020087,-0.286821,0.286821,-0.337476,0.332874,-0.001948,3.0267,1.6067,-0.0298
9.2051,0.020080,-0.273693,0.273693,-0.329806,0.328272,-0.001948,2.9892,1.6706,-0.1372
9.2252,0.020080,-0.259680,0.259680,-0.317534,0.317534,-0.001958,2.9814,1.6142,-0.0727
9.2453,0.020087,-0.244899,0.244899,-0.306796,0.308330,-0.001946,3.0321,1.6057,-0.0246
9.2653,0.020076,-0.229496,0.229496,-0.291456,0.294524,-0.001948,3.0268,1.6066,-0.0297
9.2854,0.020089,-0.213592,0.213592,-0.276117,0.279185,-0.001948,3.0268,1.6066,-0.0297
9.3055,0.020077,-0.197347,0.197347,-0.263845,0.266913,-0.001948,3.0268,1.6066,-0.0297
9.3256,0.020091,-0.180887,0.180887,-0.251573,0.251573,-0.001958,2.9775,1.6208,-0.0839
9.3457,0.020083,-0.164376,0.164376,-0.234699,0.236233,-0.001946,3.0325,1.6050,-0.0235
9.3658,0.020072,-0.147965,0.147965,-0.217825,0.220893,-0.001948,3.0267,1.6067,-0.0298
9.3859,0.020094,-0.131775,0.131775,-0.200951,0.205553,-0.001948,3.0267,1.6067,-0.0298
9.4059,0.020076,-0.115982,0.115982,-0.181010,0.187146,-0.001948,3.0267,1.6067,-0.0298
9.4260,0.020083,-0.100707,0.100707,-0.165670,0.168738,-0.001948,3.0267,1.6067,-0.0298
9.4461,0.020107,-0.086076,0.086076,-0.148796,0.150330,-0.001958,2.9775,1.6208,-0.0839
9.4662,0.020080,-0.072256,0.072256,-0.131922,0.130388,-0.001946,3.0325,1.6050,-0.0235
9.4863,0.020087,-0.059347,0.059347,-0.099709,0.096641,-0.001948,3.0267,1.6067,-0.0298
9.5064,0.020079,-0.047474,0.047474,-0.084369,0.081301,-0.001948,3.0267,1.6067,-0.0298
9.5265,0.020092,-0.036730,0.036730,-0.069029,0.067495,-0.001948,3.0267,1.6067,-0.0298
9.5465,0.020081,-0.027226,0.027226,-0.069029,0.067495,-0.001948,3.0267,1.6067,-0.0298
9.5666,0.020075,-0.019043,0.019043,-0.041417,0.039884,-0.001948,3.0267,1.6067,-0.0298
9.5867,0.020088,-0.012246,0.012246,-0.029146,0.030680,-0.001948,3.0267,1.6067,-0.0298
9.6068,0.020077,-0.006904,0.006904,-0.021476,0.021476,-0.001948,3.0267,1.6067,-0.0298
9.6268,0.020054,-0.003066,0.003066,-0.016874,0.015340,-0.001937,3.0390,1.6563,-0.0824
9.6469,0.020083,-0.000755,0.000755,-0.012272,0.006136,-0.001949,3.0260,1.6013,-0.0236
9.6670,0.020073,-0.000000,0.000000,-0.006136,0.003068,-0.001947,3.0274,1.6070,-0.0298
9.6871,0.020080,-0.000806,0.000806,0.001534,0.001534,-0.001947,3.0274,1.6070,-0.0298
9.7071,0.020077,-0.003166,0.003166,0.001534,0.000000,-0.001947,3.0274,1.6070,-0.0298
9.7272,0.020046,-0.007051,0.007051,-0.006136,-0.001534,-0.001947,3.0274,1.6070,-0.0298
9.7473,0.020075,-0.012439,0.012439,-0.003068,0.000000,-0.001947,3.0274,1.6070,-0.0298
9.7673,0.020080,-0.019278,0.019278,0.000000,0.003068,-0.001947,3.0274,1.6070,-0.0298
9.7874,0.020084,-0.027508,0.027508,-0.003068,0.009204,-0.001958,2.9775,1.6208,-0.0839
9.8075,0.020075,-0.037049,0.037049,-0.012272,0.013806,-0.001946,3.0325,1.6050,-0.0235
9.8276,0.020081,-0.047824,0.047824,-0.024544,0.019942,-0.001948,3.0267,1.6067,-0.0298
9.8477,0.020077,-0.059729,0.059729,-0.035282,0.024544,-0.001948,3.0267,1.6067,-0.0298
9.8677,0.020078,-0.072662,0.072662,-0.039884,0.035282,-0.001948,3.0267,1.6067,-0.0298
9.8878,0.020091,-0.086516,0.086516,-0.044485,0.049087,-0.001958,2.9775,1.6208,-0.0839
9.9079,0.020076,-0.101147,0.101147,-0.056757,0.062893,-0.001946,3.0325,1.6050,-0.0235
9.9280,0.020083,-0.116439,0.116439,-0.076699,0.078233,-0.001948,3.0267,1.6067,-0.0298
9.9481,0.020079,-0.132249,0.132249,-0.095107,0.093573,-0.001948,3.0267,1.6067,-0.0298
9.9682,0.020097,-0.148451,0.148451,-0.111981,0.105845,-0.001958,2.9775,1.6208,-0.0839
9.9883,0.020083,-0.164875,0.164875,-0.124252,0.118117,-0.001957,2.9826,1.6194,-0.0782
10.0083,0.020074,-0.181379,0.181379,-0.138058,0.133456,-0.001957,2.9826,1.6194,-0.0782
10.0284,0.020072,-0.197820,0.197820,-0.153398,0.150330,-0.001947,3.0319,1.6052,-0.0241
10.0485,0.020126,-0.214096,0.214096,-0.171806,0.170272,-0.001948,3.0268,1.6066,-0.0297
10.0686,0.020073,-0.229974,0.229974,-0.190214,0.187146,-0.001958,2.9775,1.6208,-0.0839
10.0887,0.020080,-0.245363,0.245363,-0.208621,0.202485,-0.001957,2.9826,1.6194,-0.0782
10.1088,0.020074,-0.260113,0.260113,-0.220893,0.216291,-0.001947,3.0319,1.6052,-0.0241
10.1288,0.020081,-0.274103,0.274103,-0.233165,0.234699,-0.001948,3.0268,1.6066,-0.0297
10.1489,0.020072,-0.287196,0.287196,-0.250039,0.250039,-0.001948,3.0268,1.6066,-0.0297
10.1690,0.020078,-0.299286,0.299286,-0.265379,0.263845,-0.001948,3.0268,1.6066,-0.0297
10.1891,0.020080,-0.310260,0.310260,-0.279185,0.277651,-0.001948,3.0268,1.6066,-0.0297
10.2091,0.020081,-0.320021,0.320021,-0.292990,0.292990,-0.001948,3.0268,1.6066,-0.0297
10.2292,0.020082,-0.328480,0.328480,-0.306796,0.303728,-0.001948,3.0268,1.6066,-0.0297
10.2493,0.020079,-0.335560,0.335560,-0.316000,0.312932,-0.001948,3.0268,1.6066,-0.0297
10.2694,0.020082,-0.341201,0.341201,-0.325204,0.320602,-0.001948,3.0268,1.6066,-0.0297
10.2895,0.020080,-0.345350,0.345350,-0.334408,0.329806,-0.001948,3.0268,1.6066,-0.0297
10.3096,0.020093,-0.347972,0.347972,-0.340544,0.340544,-0.001948,3.0268,1.6066,-0.0297
10.3296,0.020082,-0.349039,0.349039,-0.345146,0.342078,-0.001958,2.9775,1.6208,-0.0839
10.3500,0.020315,-0.348531,0.348531,-0.349748,0.343612,-0.001957,2.9826,1.6194,-0.0782
10.3700,0.020086,-0.346461,0.346461,-0.349748,0.346680,-0.001947,3.0319,1.6052,-0.0241
10.3901,0.020089,-0.342852,0.342852,-0.349748,0.346680,-0.001948,3.0268,1.6066,-0.0297
10.4102,0.020085,-0.337736,0.337736,-0.349748,0.346680,-0.001948,3.0268,1.6066,-0.0297
10.4306,0.020404,-0.331044,0.331044,-0.348214,0.345146,-0.001937,3.0390,1.6563,-0.0824
10.4507,0.020087,-0.323043,0.323043,-0.345146,0.342078,-0.001949,3.0260,1.6013,-0.0236
10.4708,0.020080,-0.313715,0.313715,-0.345146,0.342078,-0.001947,3.0274,1.6070,-0.0298
10.4909,0.020086,-0.303139,0.303139,-0.343612,0.339010,-0.001947,3.0274,1.6070,-0.0298
10.5110,0.020084,-0.291413,0.291413,-0.339010,0.334408,-0.001937,3.0389,1.6562,-0.0824
10.5310,0.020080,-0.278643,0.278643,-0.331340,0.328272,-0.001949,3.0260,1.6013,-0.0236
10.5511,0.020089,-0.264936,0.264936,-0.317534,0.317534,-0.001947,3.0274,1.6070,-0.0298
10.5713,0.020158,-0.250368,0.250368,-0.305262,0.305262,-0.001947,3.0274,1.6070,-0.0298
10.5914,0.020101,-0.235160,0.235160,-0.288388,0.291456,-0.001947,3.0274,1.6070,-0.0298
10.6115,0.020081,-0.219424,0.219424,-0.274583,0.277651,-0.001947,3.0274,1.6070,-0.0298
10.6316,0.020123,-0.203253,0.203253,-0.260777,0.263845,-0.001947,3.0274,1.6070,-0.0298
10.6517,0.020097,-0.186845,0.186845,-0.246971,0.248505,-0.001948,2.9891,1.6705,-0.1372
10.6718,0.020084,-0.170337,0.170337,-0.231631,0.233165,-0.001948,3.0312,1.5998,-0.0179
10.6919,0.020107,-0.153848,0.153848,-0.214757,0.217825,-0.001948,3.0269,1.6072,-0.0304
10.7120,0.020082,-0.137565,0.137565,-0.197884,0.200951,-0.001948,3.0275,1.6062,-0.0286
10.7320,0.020088,-0.121608,0.121608,-0.179476,0.184078,-0.001948,3.0275,1.6062,-0.0286
10.7522,0.020153,-0.106076,0.106076,-0.161068,0.165670,-0.001948,3.0275,1.6062,-0.0286
10.7723,0.020084,-0.091210,0.091210,-0.145728,0.148796,-0.001948,3.0275,1.6062,-0.0286
10.7924,0.020098,-0.077080,0.077080,-0.128854,0.127320,-0.001948,3.0275,1.6062,-0.0286
10.8125,0.020169,-0.063779,0.063779,-0.113515,0.111981,-0.001948,3.0275,1.6062,-0.0286
10.8326,0.020086,-0.051526,0.051526,-0.096641,0.095107,-0.001958,2.9774,1.6209,-0.0840
10.8527,0.020098,-0.040368,0.040368,-0.082835,0.081301,-0.001946,3.0325,1.6050,-0.0235
10.8728,0.020077,-0.030422,0.030422,-0.069029,0.064427,-0.001948,3.0267,1.6067,-0.0298
10.8929,0.020099,-0.021757,0.021757,-0.055223,0.053689,-0.001948,3.0267,1.6067,-0.0298
10.9131,0.020160,-0.014441,0.014441,-0.041417,0.041417,-0.001958,2.9775,1.6208,-0.0839
10.9333,0.020186,-0.008562,0.008562,-0.027612,0.029146,-0.001946,3.0325,1.6050,-0.0235
10.9535,0.020230,-0.004176,0.004176,-0.019942,0.021476,-0.001948,3.0267,1.6067,-0.0298
10.9738,0.020277,-0.001332,0.001332,-0.015340,0.013806,-0.001948,3.0267,1.6067,-0.0298
10.9939,0.020113,-0.000073,0.000073,-0.012272,0.004602,-0.001948,3.0267,1.6067,-0.0298
11.0140,0.020084,-0.000378,0.000378,-0.006136,0.003068,-0.001948,3.0267,1.6067,-0.0298
11.0340,0.020064,-0.002239,0.002239,0.001534,0.003068,-0.001948,3.0267,1.6067,-0.0298
11.0541,0.020125,-0.005651,0.005651,0.001534,0.000000,-0.001948,3.0267,1.6067,-0.0298
11.0742,0.020090,-0.010572,0.010572,-0.006136,-0.001534,-0.001937,3.0390,1.6563,-0.0824
11.0943,0.020092,-0.016962,0.016962,-0.003068,0.001534,-0.001949,3.0260,1.6013,-0.0236
11.1144,0.020086,-0.024761,0.024761,0.000000,0.004602,-0.001947,3.0274,1.6070,-0.0298
11.1345,0.020083,-0.033899,0.033899,-0.003068,0.009204,-0.001947,3.0274,1.6070,-0.0298
11.1546,0.020089,-0.044300,0.044300,-0.013806,0.016874,-0.001947,3.0274,1.6070,-0.0298
11.1747,0.020091,-0.055867,0.055867,-0.027612,0.024544,-0.001947,3.0274,1.6070,-0.0298
11.1948,0.020099,-0.068503,0.068503,-0.039884,0.030680,-0.001947,3.0274,1.6070,-0.0298
11.2149,0.020083,-0.082078,0.082078,-0.046019,0.039884,-0.001947,3.0274,1.6070,-0.0298
11.2349,0.020082,-0.096479,0.096479,-0.047553,0.052155,-0.001947,3.0274,1.6070,-0.0298
11.2550,0.020088,-0.111584,0.111584,-0.056757,0.064427,-0.001947,3.0274,1.6070,-0.0298
11.2751,0.020084,-0.127250,0.127250,-0.072097,0.078233,-0.001947,3.0274,1.6070,-0.0298
11.2952,0.020092,-0.143345,0.143345,-0.092039,0.093573,-0.001947,3.0274,1.6070,-0.0298
11.3153,0.020087,-0.159715,0.159715,-0.113515,0.107379,-0.001947,3.0274,1.6070,-0.0298
11.3354,0.020086,-0.176217,0.176217,-0.128854,0.122718,-0.001947,3.0274,1.6070,-0.0298
11.3555,0.020118,-0.192731,0.192731,-0.142660,0.139592,-0.001947,3.0274,1.6070,-0.0298
11.3756,0.020093,-0.209060,0.209060,-0.158000,0.156466,-0.001947,3.0274,1.6070,-0.0298
11.3957,0.020081,-0.225071,0.225071,-0.174874,0.173340,-0.001947,3.0274,1.6070,-0.0298
11.4158,0.020085,-0.240633,0.240633,-0.193282,0.190214,-0.001947,3.0274,1.6070,-0.0298
11.4358,0.020048,-0.255577,0.255577,-0.211689,0.205553,-0.001937,3.0389,1.6562,-0.0824
11.4559,0.020090,-0.269826,0.269826,-0.225495,0.222427,-0.001949,3.0260,1.6013,-0.0236
11.4760,0.020091,-0.283222,0.283222,-0.239301,0.239301,-0.001947,3.0274,1.6070,-0.0298
11.4961,0.020081,-0.295639,0.295639,-0.253107,0.254641,-0.001947,3.0274,1.6070,-0.0298
11.5162,0.020087,-0.306975,0.306975,-0.269981,0.268447,-0.001947,3.0274,1.6070,-0.0298
11.5362,0.020085,-0.317125,0.317125,-0.283786,0.282252,-0.001947,3.0274,1.6070,-0.0298
11.5563,0.020088,-0.326000,0.326000,-0.297592,0.294524,-0.001947,3.0274,1.6070,-0.0298
11.5764,0.020087,-0.333518,0.333518,-0.309864,0.306796,-0.001947,3.0274,1.6070,-0.0298
11.5965,0.020082,-0.339611,0.339611,-0.322136,0.319068,-0.001948,2.9891,1.6705,-0.1372
11.6166,0.020089,-0.344228,0.344228,-0.328272,0.325204,-0.001948,3.0312,1.5998,-0.0179
11.6367,0.020081,-0.347325,0.347325,-0.334408,0.329806,-0.001948,3.0269,1.6072,-0.0304
11.6568,0.020086,-0.348875,0.348875,-0.343612,0.343612,-0.001948,3.0275,1.6062,-0.0286
11.6768,0.020083,-0.348865,0.348865,-0.348214,0.343612,-0.001948,3.0275,1.6062,-0.0286
11.6969,0.020079,-0.347296,0.347296,-0.348214,0.340544,-0.001948,3.0275,1.6062,-0.0286
11.7170,0.020091,-0.344178,0.344178,-0.349748,0.348214,-0.001958,2.9774,1.6209,-0.0840
11.7371,0.020079,-0.339544,0.339544,-0.352816,0.349748,-0.001946,3.0325,1.6050,-0.0235
11.7572,0.020078,-0.333434,0.333434,-0.351282,0.346680,-0.001948,3.0267,1.6067,-0.0298
11.7773,0.020095,-0.325896,0.325896,-0.348214,0.345146,-0.001948,3.0267,1.6067,-0.0298
11.7973,0.020082,-0.317008,0.317008,-0.346680,0.342078,-0.001948,3.0267,1.6067,-0.0298
11.8174,0.020090,-0.306840,0.306840,-0.343612,0.339010,-0.001948,3.0267,1.6067,-0.0298
11.8375,0.020083,-0.295492,0.295492,-0.342078,0.337476,-0.001948,3.0267,1.6067,-0.0298
11.8576,0.020092,-0.283055,0.283055,-0.339010,0.332874,-0.001948,3.0267,1.6067,-0.0298
11.8777,0.020088,-0.269649,0.269649,-0.331340,0.328272,-0.001948,3.0267,1.6067,-0.0298
11.8977,0.020035,-0.255430,0.255430,-0.319068,0.317534,-0.001948,3.0267,1.6067,-0.0298
11.9178,0.020091,-0.240447,0.240447,-0.286854,0.291456,-0.001948,3.0267,1.6067,-0.0298
11.9379,0.020081,-0.224882,0.224882,-0.273049,0.277651,-0.001948,3.0267,1.6067,-0.0298
11.9580,0.020093,-0.208857,0.208857,-0.273049,0.277651,-0.001948,3.0267,1.6067,-0.0298
11.9781,0.020081,-0.192534,0.192534,-0.243903,0.246971,-0.001948,3.0267,1.6067,-0.0298
11.9981,0.020076,-0.176055,0.176055,-0.230097,0.231631,-0.001948,3.0267,1.6067,-0.0298
12.0184,0.020226,-0.159438,0.159438,-0.211689,0.216291,-0.001948,3.0267,1.6067,-0.0298
12.0385,0.020078,-0.143079,0.143079,-0.194816,0.199418,-0.001948,3.0267,1.6067,-0.0298
12.0585,0.020063,-0.127012,0.127012,-0.176408,0.182544,-0.001948,3.0267,1.6067,-0.0298
12.0786,0.020078,-0.111359,0.111359,-0.159534,0.162602,-0.001948,3.0267,1.6067,-0.0298
12.0987,0.020079,-0.096271,0.096271,-0.142660,0.144194,-0.001948,3.0267,1.6067,-0.0298
12.1188,0.020089,-0.081875,0.081875,-0.125786,0.125786,-0.001948,3.0267,1.6067,-0.0298
12.1388,0.020080,-0.068314,0.068314,-0.111981,0.108913,-0.001948,3.0267,1.6067,-0.0298
12.1589,0.020090,-0.055698,0.055698,-0.093573,0.092039,-0.001948,3.0267,1.6067,-0.0298
12.1790,0.020083,-0.044150,0.044150,-0.078233,0.076699,-0.001948,3.0267,1.6067,-0.0298
12.1991,0.020078,-0.033772,0.033772,-0.065961,0.061359,-0.001948,3.0267,1.6067,-0.0298
12.2192,0.020085,-0.024650,0.024650,-0.053689,0.052155,-0.001948,3.0267,1.6067,-0.0298
12.2393,0.020081,-0.016871,0.016871,-0.041417,0.039884,-0.001948,3.0267,1.6067,-0.0298
12.2594,0.020090,-0.010500,0.010500,-0.029146,0.030680,-0.001948,3.0267,1.6067,-0.0298
12.2794,0.020079,-0.005601,0.005601,-0.019942,0.021476,-0.001958,2.9775,1.6208,-0.0839
12.2995,0.020075,-0.002213,0.002213,-0.013806,0.013806,-0.001946,3.0325,1.6050,-0.0235
12.3196,0.020078,-0.000366,0.000366,-0.007670,0.004602,-0.001948,3.0267,1.6067,-0.0298
12.3397,0.020081,-0.000078,0.000078,-0.001534,0.003068,-0.001948,3.0267,1.6067,-0.0298
12.3598,0.020100,-0.001352,0.001352,0.000000,0.001534,-0.001948,3.0267,1.6067,-0.0298
12.3798,0.020080,-0.004175,0.004175,-0.006136,0.000000,-0.001948,3.0267,1.6067,-0.0298
12.3999,0.020077,-0.008522,0.008522,-0.003068,-0.001534,-0.001948,3.0267,1.6067,-0.0298
12.4200,0.020078,-0.014354,0.014354,0.000000,0.000000,-0.001948,3.0267,1.6067,-0.0298
12.4401,0.020078,-0.021619,0.021619,-0.003068,0.004602,-0.001948,3.0267,1.6067,-0.0298
12.4602,0.020091,-0.030257,0.030257,-0.012272,0.013806,-0.001948,3.0267,1.6067,-0.0298
12.4802,0.020081,-0.040183,0.040183,-0.021476,0.016874,-0.001948,3.0267,1.6067,-0.0298
12.5003,0.020080,-0.051310,0.051310,-0.027612,0.018408,-0.001948,3.0267,1.6067,-0.0298
12.5206,0.020223,-0.063631,0.063631,-0.032214,0.026078,-0.001948,3.0267,1.6067,-0.0298
12.5406,0.020084,-0.076863,0.076863,-0.035282,0.038350,-0.001948,3.0267,1.6067,-0.0298
12.5610,0.020376,-0.091180,0.091180,-0.047553,0.053689,-0.001948,3.0267,1.6067,-0.0298
12.5811,0.020078,-0.106040,0.106040,-0.065961,0.070563,-0.001958,2.9775,1.6208,-0.0839
12.6012,0.020080,-0.121514,0.121514,-0.085903,0.084369,-0.001946,3.0325,1.6050,-0.0235
12.6214,0.020257,-0.137605,0.137605,-0.102777,0.096641,-0.001948,3.0267,1.6067,-0.0298
12.6415,0.020114,-0.153915,0.153915,-0.113515,0.108913,-0.001937,3.0390,1.6563,-0.0824
12.6616,0.020088,-0.170389,0.170389,-0.127320,0.124252,-0.001949,3.0260,1.6013,-0.0236
12.6820,0.020345,-0.187111,0.187111,-0.144194,0.141126,-0.001947,3.0274,1.6070,-0.0298
12.7021,0.020081,-0.203503,0.203503,-0.161068,0.158000,-0.001947,3.0274,1.6070,-0.0298
12.7221,0.020075,-0.219632,0.219632,-0.179476,0.176408,-0.001947,3.0274,1.6070,-0.0298
12.7422,0.020084,-0.235364,0.235364,-0.196350,0.191748,-0.001947,3.0274,1.6070,-0.0298
12.7623,0.020074,-0.250544,0.250544,-0.208621,0.205553,-0.001947,3.0274,1.6070,-0.0298
12.7824,0.020133,-0.265086,0.265086,-0.225495,0.222427,-0.001947,3.0274,1.6070,-0.0298
12.8025,0.020076,-0.278776,0.278776,-0.242369,0.240835,-0.001947,3.0274,1.6070,-0.0298
12.8226,0.020083,-0.291537,0.291537,-0.257709,0.256175,-0.001947,3.0274,1.6070,-0.0298
12.8427,0.020081,-0.303250,0.303250,-0.271515,0.268447,-0.001947,3.0274,1.6070,-0.0298
12.8627,0.020077,-0.313810,0.313810,-0.280718,0.282252,-0.001947,3.0274,1.6070,-0.0298
12.8829,0.020187,-0.323171,0.323171,-0.296058,0.296058,-0.001947,3.0274,1.6070,-0.0298
12.9030,0.020070,-0.331146,0.331146,-0.311398,0.308330,-0.001947,3.0274,1.6070,-0.0298
12.9234,0.020448,-0.337831,0.337831,-0.322136,0.317534,-0.001947,3.0274,1.6070,-0.0298
12.9435,0.020081,-0.342922,0.342922,-0.328272,0.323670,-0.001947,3.0274,1.6070,-0.0298
12.9636,0.020076,-0.346505,0.346505,-0.332874,0.331340,-0.001947,3.0274,1.6070,-0.0298
12.9837,0.020106,-0.348552,0.348552,-0.342078,0.342078,-0.001947,3.0274,1.6070,-0.0298
13.0038,0.020079,-0.349038,0.349038,-0.348214,0.342078,-0.001947,3.0274,1.6070,-0.0298
13.0239,0.020161,-0.347956,0.347956,-0.349748,0.343612,-0.001947,3.0274,1.6070,-0.0298
13.0440,0.020074,-0.345324,0.345324,-0.348214,0.348214,-0.001947,3.0274,1.6070,-0.0298
13.0641,0.020080,-0.341163,0.341163,-0.354350,0.348214,-0.001947,3.0274,1.6070,-0.0298
13.0843,0.020167,-0.335484,0.335484,-0.354350,0.345146,-0.001947,3.0274,1.6070,-0.0298
13.1043,0.020077,-0.328388,0.328388,-0.348214,0.345146,-0.001946,3.0325,1.6050,-0.0235
13.1244,0.020104,-0.319903,0.319903,-0.346680,0.343612,-0.001948,3.0267,1.6067,-0.0298
13.1445,0.020086,-0.310124,0.310124,-0.342078,0.339010,-0.001948,3.0267,1.6067,-0.0298
13.1646,0.020079,-0.299134,0.299134,-0.340544,0.335942,-0.001948,3.0267,1.6067,-0.0298
13.1849,0.020330,-0.286872,0.286872,-0.337476,0.332874,-0.001948,3.0267,1.6067,-0.0298
13.2050,0.020084,-0.273747,0.273747,-0.328272,0.326738,-0.001948,3.0267,1.6067,-0.0298
13.2251,0.020120,-0.259707,0.259707,-0.314466,0.316000,-0.001948,3.0267,1.6067,-0.0298
13.2452,0.020084,-0.244929,0.244929,-0.300660,0.303728,-0.001948,3.0267,1.6067,-0.0298
13.2653,0.020080,-0.229525,0.229525,-0.285320,0.288388,-0.001948,3.0267,1.6067,-0.0298
13.2854,0.020106,-0.213607,0.213607,-0.269981,0.274583,-0.001948,3.0267,1.6067,-0.0298
13.3055,0.020075,-0.197365,0.197365,-0.257709,0.259243,-0.001948,3.0267,1.6067,-0.0298
13.3256,0.020079,-0.180915,0.180915,-0.242369,0.242369,-0.001948,3.0267,1.6067,-0.0298
13.3457,0.020083,-0.164405,0.164405,-0.225495,0.227029,-0.001948,3.0267,1.6067,-0.0298
13.3657,0.020080,-0.147987,0.147987,-0.207087,0.211689,-0.001948,3.0267,1.6067,-0.0298
13.3858,0.020101,-0.131791,0.131791,-0.190214,0.194816,-0.001958,2.9775,1.6208,-0.0839
13.4059,0.020086,-0.115988,0.115988,-0.171806,0.177942,-0.001946,3.0325,1.6050,-0.0235
13.4260,0.020127,-0.100680,0.100680,-0.156466,0.158000,-0.001946,3.0325,1.6050,-0.0235
13.4463,0.020208,-0.085978,0.085978,-0.141126,0.141126,-0.001948,3.0267,1.6067,-0.0298
13.4664,0.020097,-0.072153,0.072153,-0.124252,0.122718,-0.001948,3.0267,1.6067,-0.0298
13.4864,0.020068,-0.059263,0.059263,-0.108913,0.107379,-0.001948,3.0267,1.6067,-0.0298
13.5065,0.020089,-0.047391,0.047391,-0.093573,0.090505,-0.001948,3.0267,1.6067,-0.0298
13.5266,0.020119,-0.036643,0.036643,-0.078233,0.076699,-0.001948,3.0267,1.6067,-0.0298
13.5467,0.020090,-0.027146,0.027146,-0.064427,0.061359,-0.001948,3.0267,1.6067,-0.0298
13.5668,0.020086,-0.018971,0.018971,-0.049087,0.049087,-0.001948,2.9892,1.6706,-0.1372
13.5869,0.020088,-0.012188,0.012188,-0.036816,0.036816,-0.001948,2.9892,1.6706,-0.1372
13.6070,0.020085,-0.006858,0.006858,-0.024544,0.027612,-0.001948,3.0312,1.5998,-0.0179
13.6278,0.020786,-0.002924,0.002924,-0.016874,0.018408,-0.001958,2.9771,1.6215,-0.0851
13.6479,0.020122,-0.000683,0.000683,-0.013806,0.009204,-0.001948,3.0267,1.6067,-0.0298
13.6681,0.020192,-0.000004,0.000004,-0.009204,0.004602,-0.001948,3.0267,1.6067,-0.0298
13.6886,0.020475,-0.000928,0.000928,-0.001534,0.003068,-0.001948,3.0267,1.6067,-0.0298
13.7086,0.020085,-0.003403,0.003403,0.003068,0.000000,-0.001948,3.0267,1.6067,-0.0298
13.7289,0.020285,-0.007458,0.007458,-0.001534,-0.001534,-0.001948,3.0267,1.6067,-0.0298
13.7492,0.020320,-0.013049,0.013049,-0.006136,0.000000,-0.001948,3.0267,1.6067,-0.0298
13.7693,0.020078,-0.020027,0.020027,-0.003068,0.001534,-0.001948,3.0267,1.6067,-0.0298
13.7899,0.020560,-0.028604,0.028604,0.000000,0.006136,-0.001948,3.0267,1.6067,-0.0298
13.8100,0.020076,-0.038301,0.038301,-0.007670,0.012272,-0.001948,3.0267,1.6067,-0.0298
