t,loop_dt,cmd_ant_l,cmd_ant_r,pres_ant_l,pres_ant_r,pres_z,pres_roll,pres_pitch,pres_yaw
0.0000,0.000001,-0.349066,0.349066,-0.179476,0.177942,-0.002178,2.8348,2.0529,0.4554
0.0201,0.020097,-0.348380,0.348380,-0.179476,0.177942,-0.002165,2.8742,2.0170,0.4016
0.0402,0.020099,-0.343901,0.343901,-0.182544,0.177942,-0.002156,2.9199,2.0067,0.4620
0.0603,0.020096,-0.333299,0.333299,-0.231631,0.223961,-0.002167,2.8653,2.0218,0.4010
0.0804,0.020095,-0.316606,0.316606,-0.303728,0.294524,-0.002156,2.9208,2.0062,0.4621
0.1005,0.020086,-0.296458,0.296458,-0.368155,0.358952,-0.002129,2.8154,1.9694,0.3481
0.1206,0.020085,-0.285941,0.285941,-0.381961,0.372757,-0.002118,2.7767,1.9543,0.3061
0.1406,0.020089,-0.275423,0.275423,-0.366621,0.357418,-0.002106,2.7311,1.9368,0.2566
0.1607,0.020092,-0.264903,0.264903,-0.334408,0.331340,-0.002097,2.7475,1.9886,0.2084
0.1808,0.020089,-0.254384,0.254384,-0.300660,0.305262,-0.002094,2.6845,1.9143,0.2129
0.2009,0.020092,-0.243864,0.243864,-0.274583,0.282252,-0.002067,2.5919,1.8842,0.1046
0.2210,0.020090,-0.233345,0.233345,-0.260777,0.265379,-0.002070,2.6016,1.8874,0.1159
0.2411,0.020093,-0.222824,0.222824,-0.254641,0.253107,-0.002070,2.6002,1.8869,0.1143
0.2612,0.020101,-0.212299,0.212299,-0.248505,0.246971,-0.002070,2.6002,1.8869,0.1143
0.2813,0.020089,-0.201781,0.201781,-0.240835,0.242369,-0.002070,2.6002,1.8869,0.1143
0.3014,0.020094,-0.191260,0.191260,-0.231631,0.234699,-0.002070,2.6002,1.8869,0.1143
0.3215,0.020105,-0.180733,0.180733,-0.222427,0.223961,-0.002070,2.6002,1.8869,0.1143
0.3416,0.020086,-0.170216,0.170216,-0.210155,0.214757,-0.002070,2.6002,1.8869,0.1143
0.3617,0.020090,-0.159697,0.159697,-0.197884,0.204019,-0.002070,2.6002,1.8869,0.1143
0.3818,0.020099,-0.149173,0.149173,-0.187146,0.193282,-0.002070,2.6002,1.8869,0.1143
0.4018,0.020079,-0.138659,0.138659,-0.176408,0.181010,-0.002070,2.6002,1.8869,0.1143
0.4224,0.020583,-0.127882,0.127882,-0.165670,0.168738,-0.002070,2.6002,1.8869,0.1143
0.4425,0.020092,-0.117362,0.117362,-0.156466,0.156466,-0.002070,2.6002,1.8869,0.1143
0.4626,0.020048,-0.106865,0.106865,-0.145728,0.144194,-0.002070,2.6002,1.8869,0.1143
0.4827,0.020085,-0.096348,0.096348,-0.134990,0.133456,-0.002070,2.6002,1.8869,0.1143
0.5027,0.020094,-0.085827,0.085827,-0.122718,0.122718,-0.002070,2.6002,1.8869,0.1143
0.5228,0.020085,-0.075310,0.075310,-0.111981,0.111981,-0.002070,2.6002,1.8869,0.1143
0.5433,0.020476,-0.064589,0.064589,-0.101243,0.101243,-0.002070,2.6002,1.8869,0.1143
0.5634,0.020077,-0.054077,0.054077,-0.090505,0.090505,-0.002070,2.6002,1.8869,0.1143
0.5835,0.020084,-0.043762,0.043762,-0.078233,0.079767,-0.002070,2.6002,1.8869,0.1143
0.6036,0.020100,-0.035060,0.035060,-0.069029,0.069029,-0.002070,2.6002,1.8869,0.1143
0.6243,0.020712,-0.029180,0.029180,-0.058291,0.058291,-0.002070,2.6002,1.8869,0.1143
0.6444,0.020099,-0.026645,0.026645,-0.046019,0.047553,-0.002070,2.6002,1.8869,0.1143
0.6645,0.020097,-0.026180,0.026180,-0.035282,0.036816,-0.002070,2.6002,1.8869,0.1143
0.6846,0.020084,-0.000486,0.000486,-0.027612,0.029146,-0.002070,2.6002,1.8869,0.1143
0.7047,0.020102,-0.004400,0.004400,-0.024544,0.026078,-0.002070,2.6002,1.8869,0.1143
0.7248,0.020097,-0.014288,0.014288,-0.029146,0.026078,-0.002070,2.6002,1.8869,0.1143
0.7449,0.020091,-0.030390,0.030390,-0.026078,0.021476,-0.002070,2.6002,1.8869,0.1143
0.7649,0.020094,-0.050559,0.050559,-0.012272,0.010738,-0.002070,2.6002,1.8869,0.1143
0.7850,0.020094,-0.061980,0.061980,-0.006136,0.004602,-0.002070,2.6002,1.8869,0.1143
0.8051,0.020099,-0.072504,0.072504,-0.012272,0.012272,-0.002070,2.6002,1.8869,0.1143
0.8252,0.020092,-0.083024,0.083024,-0.030680,0.029146,-0.002070,2.6002,1.8869,0.1143
0.8453,0.020093,-0.093545,0.093545,-0.052155,0.052155,-0.002070,2.6002,1.8869,0.1143
0.8654,0.020081,-0.104060,0.104060,-0.076699,0.075165,-0.002070,2.6002,1.8869,0.1143
0.8855,0.020084,-0.114575,0.114575,-0.087437,0.085903,-0.002060,2.6125,1.9370,0.0615
0.9056,0.020087,-0.125093,0.125093,-0.085903,0.088971,-0.002071,2.5994,1.8819,0.1204
0.9257,0.020092,-0.135613,0.135613,-0.088971,0.096641,-0.002070,2.6008,1.8876,0.1143
0.9458,0.020103,-0.146139,0.146139,-0.105845,0.110447,-0.002070,2.6008,1.8876,0.1143
0.9659,0.020094,-0.156660,0.156660,-0.125786,0.124252,-0.002070,2.6008,1.8876,0.1143
0.9860,0.020086,-0.167177,0.167177,-0.142660,0.133456,-0.002070,2.6008,1.8876,0.1143
1.0060,0.020089,-0.177696,0.177696,-0.147262,0.142660,-0.002070,2.6008,1.8876,0.1143
1.0265,0.020455,-0.188406,0.188406,-0.153398,0.154932,-0.002070,2.6008,1.8876,0.1143
1.0466,0.020096,-0.198928,0.198928,-0.168738,0.167204,-0.002070,2.6008,1.8876,0.1143
1.0667,0.020105,-0.209455,0.209455,-0.168738,0.167204,-0.002070,2.6008,1.8876,0.1143
1.0868,0.020094,-0.219976,0.219976,-0.188680,0.184078,-0.002070,2.6008,1.8876,0.1143
1.1073,0.020516,-0.230718,0.230718,-0.193282,0.191748,-0.002070,2.6008,1.8876,0.1143
1.1289,0.021616,-0.242037,0.242037,-0.199418,0.200951,-0.002070,2.6008,1.8876,0.1143
1.1490,0.020110,-0.252566,0.252566,-0.210155,0.213223,-0.002070,2.6008,1.8876,0.1143
1.1691,0.020116,-0.263098,0.263098,-0.239301,0.234699,-0.002070,2.6008,1.8876,0.1143
1.1893,0.020118,-0.273632,0.273632,-0.239301,0.234699,-0.002070,2.6008,1.8876,0.1143
1.2094,0.020101,-0.284157,0.284157,-0.251573,0.253107,-0.002070,2.6008,1.8876,0.1143
1.2295,0.020106,-0.294684,0.294684,-0.251573,0.253107,-0.002070,2.6008,1.8876,0.1143
1.2496,0.020122,-0.305038,0.305038,-0.263845,0.266913,-0.002070,2.6008,1.8876,0.1143
1.2697,0.020139,-0.313820,0.313820,-0.277651,0.279185,-0.002070,2.6008,1.8876,0.1143
1.2907,0.021001,-0.319843,0.319843,-0.291456,0.286854,-0.002070,2.6008,1.8876,0.1143
1.3108,0.020087,-0.322407,0.322407,-0.309864,0.303728,-0.002070,2.6008,1.8876,0.1143
1.3309,0.020100,-0.322885,0.322885,-0.320602,0.317534,-0.002070,2.6008,1.8876,0.1143
1.3510,0.020099,-0.348597,0.348597,-0.323670,0.320602,-0.002070,2.6008,1.8876,0.1143
1.3711,0.020127,-0.344727,0.344727,-0.323670,0.320602,-0.002070,2.6008,1.8876,0.1143
1.3912,0.020095,-0.334899,0.334899,-0.323670,0.317534,-0.002070,2.6008,1.8876,0.1143
1.4113,0.020092,-0.318847,0.318847,-0.325204,0.325204,-0.002070,2.6008,1.8876,0.1143
1.4314,0.020097,-0.298696,0.298696,-0.334408,0.334408,-0.002070,2.6008,1.8876,0.1143
1.4515,0.020089,-0.287183,0.287183,-0.352816,0.349748,-0.002070,2.6008,1.8876,0.1143
1.4716,0.020094,-0.276661,0.276661,-0.354350,0.349748,-0.002070,2.6008,1.8876,0.1143
1.4917,0.020104,-0.266135,0.266135,-0.343612,0.340544,-0.002070,2.6008,1.8876,0.1143
1.5118,0.020093,-0.255614,0.255614,-0.325204,0.322136,-0.002070,2.6008,1.8876,0.1143
1.5319,0.020089,-0.245096,0.245096,-0.300660,0.300660,-0.002070,2.6008,1.8876,0.1143
1.5520,0.020085,-0.234580,0.234580,-0.276117,0.277651,-0.002070,2.6008,1.8876,0.1143
1.5721,0.020086,-0.224062,0.224062,-0.260777,0.265379,-0.002070,2.6008,1.8876,0.1143
1.5922,0.020103,-0.213536,0.213536,-0.246971,0.250039,-0.002070,2.6008,1.8876,0.1143
1.6123,0.020093,-0.203016,0.203016,-0.237767,0.242369,-0.002060,2.6124,1.9369,0.0615
1.6324,0.020094,-0.192494,0.192494,-0.230097,0.233165,-0.002071,2.5994,1.8819,0.1204
1.6525,0.020089,-0.181976,0.181976,-0.222427,0.225495,-0.002070,2.6008,1.8876,0.1143
1.6726,0.020101,-0.171451,0.171451,-0.211689,0.217825,-0.002070,2.6008,1.8876,0.1143
1.6926,0.020057,-0.160949,0.160949,-0.200951,0.208621,-0.002070,2.6008,1.8876,0.1143
1.7132,0.020608,-0.150159,0.150159,-0.190214,0.196350,-0.002070,2.6008,1.8876,0.1143
1.7333,0.020086,-0.139641,0.139641,-0.179476,0.184078,-0.002070,2.6008,1.8876,0.1143
1.7534,0.020083,-0.129126,0.129126,-0.170272,0.171806,-0.002070,2.6008,1.8876,0.1143
1.7735,0.020084,-0.118610,0.118610,-0.158000,0.158000,-0.002070,2.6008,1.8876,0.1143
1.7936,0.020079,-0.108096,0.108096,-0.145728,0.145728,-0.002070,2.6008,1.8876,0.1143
1.8136,0.020086,-0.097579,0.097579,-0.136524,0.134990,-0.002070,2.6008,1.8876,0.1143
1.8337,0.020103,-0.087054,0.087054,-0.125786,0.124252,-0.002070,2.6008,1.8876,0.1143
1.8538,0.020086,-0.076537,0.076537,-0.115049,0.115049,-0.002070,2.6008,1.8876,0.1143
1.8739,0.020098,-0.066013,0.066013,-0.102777,0.104311,-0.002070,2.6008,1.8876,0.1143
1.8940,0.020104,-0.055487,0.055487,-0.092039,0.093573,-0.002060,2.6124,1.9369,0.0615
1.9141,0.020096,-0.045085,0.045085,-0.081301,0.081301,-0.002071,2.5994,1.8819,0.1204
1.9342,0.020096,-0.036071,0.036071,-0.070563,0.070563,-0.002070,2.6008,1.8876,0.1143
1.9543,0.020087,-0.029885,0.029885,-0.062893,0.061359,-0.002070,2.6008,1.8876,0.1143
1.9744,0.020104,-0.026879,0.026879,-0.049087,0.050621,-0.002070,2.6008,1.8876,0.1143
1.9945,0.020109,-0.026187,0.026187,-0.038350,0.041417,-0.002070,2.6008,1.8876,0.1143
2.0146,0.020100,-0.000266,0.000266,-0.030680,0.032214,-0.002070,2.6008,1.8876,0.1143
2.0347,0.020091,-0.003394,0.003394,-0.026078,0.026078,-0.002070,2.6008,1.8876,0.1143
2.0549,0.020163,-0.012261,0.012261,-0.026078,0.024544,-0.002070,2.6008,1.8876,0.1143
2.0750,0.020089,-0.027452,0.027452,-0.027612,0.023010,-0.002070,2.6008,1.8876,0.1143
2.0956,0.020587,-0.047708,0.047708,-0.004602,0.004602,-0.002070,2.6008,1.8876,0.1143
2.1156,0.020099,-0.060554,0.060554,-0.006136,0.007670,-0.002070,2.6008,1.8876,0.1143
2.1358,0.020104,-0.071080,0.071080,-0.019942,0.019942,-0.002070,2.6008,1.8876,0.1143
2.1559,0.020195,-0.081654,0.081654,-0.039884,0.038350,-0.002070,2.6008,1.8876,0.1143
2.1760,0.020083,-0.092170,0.092170,-0.062893,0.059825,-0.002070,2.6008,1.8876,0.1143
2.1961,0.020088,-0.102688,0.102688,-0.082835,0.078233,-0.002070,2.6008,1.8876,0.1143
2.2162,0.020083,-0.113204,0.113204,-0.085903,0.085903,-0.002070,2.6008,1.8876,0.1143
2.2363,0.020095,-0.123725,0.123725,-0.085903,0.090505,-0.002070,2.6008,1.8876,0.1143
2.2564,0.020102,-0.134251,0.134251,-0.095107,0.102777,-0.002070,2.6008,1.8876,0.1143
2.2765,0.020084,-0.144766,0.144766,-0.113515,0.116583,-0.002070,2.6008,1.8876,0.1143
2.2966,0.020085,-0.155283,0.155283,-0.131922,0.127320,-0.002070,2.6008,1.8876,0.1143
2.3166,0.020082,-0.165798,0.165798,-0.141126,0.134990,-0.002070,2.6008,1.8876,0.1143
2.3367,0.020091,-0.176317,0.176317,-0.145728,0.142660,-0.002070,2.6008,1.8876,0.1143
2.3568,0.020095,-0.186839,0.186839,-0.158000,0.159534,-0.002070,2.6008,1.8876,0.1143
2.3769,0.020085,-0.197355,0.197355,-0.174874,0.171806,-0.002070,2.6008,1.8876,0.1143
2.3970,0.020089,-0.207874,0.207874,-0.182544,0.177942,-0.002060,2.6124,1.9369,0.0615
2.4171,0.020085,-0.218390,0.218390,-0.188680,0.184078,-0.002071,2.5994,1.8819,0.1204
2.4372,0.020089,-0.228909,0.228909,-0.199418,0.193282,-0.002070,2.6008,1.8876,0.1143
2.4573,0.020090,-0.239428,0.239428,-0.211689,0.210155,-0.002070,2.6008,1.8876,0.1143
2.4774,0.020087,-0.249946,0.249946,-0.222427,0.222427,-0.002070,2.6008,1.8876,0.1143
2.4975,0.020090,-0.260465,0.260465,-0.231631,0.231631,-0.002070,2.6008,1.8876,0.1143
2.5175,0.020088,-0.270983,0.270983,-0.243903,0.239301,-0.002070,2.6008,1.8876,0.1143
2.5376,0.020087,-0.281500,0.281500,-0.253107,0.250039,-0.002070,2.6008,1.8876,0.1143
2.5577,0.020090,-0.292019,0.292019,-0.260777,0.262311,-0.002070,2.6008,1.8876,0.1143
2.5778,0.020098,-0.302483,0.302483,-0.271515,0.273049,-0.002070,2.6008,1.8876,0.1143
2.5979,0.020121,-0.311823,0.311823,-0.286854,0.285320,-0.002070,2.6008,1.8876,0.1143
2.6180,0.020088,-0.318477,0.318477,-0.299126,0.294524,-0.002070,2.6008,1.8876,0.1143
2.6384,0.020337,-0.321947,0.321947,-0.305262,0.302194,-0.002060,2.6124,1.9369,0.0615
2.6585,0.020094,-0.322862,0.322862,-0.311398,0.312932,-0.002071,2.5994,1.8819,0.1204
2.6785,0.020087,-0.348923,0.348923,-0.323670,0.320602,-0.002070,2.6008,1.8876,0.1143
2.6986,0.020092,-0.346391,0.346391,-0.326738,0.319068,-0.002070,2.6008,1.8876,0.1143
2.7187,0.020086,-0.338444,0.338444,-0.323670,0.322136,-0.002070,2.6008,1.8876,0.1143
2.7388,0.020084,-0.324092,0.324092,-0.334408,0.335942,-0.002070,2.6008,1.8876,0.1143
2.7589,0.020087,-0.304810,0.304810,-0.351282,0.348214,-0.002070,2.6008,1.8876,0.1143
2.7790,0.020082,-0.290263,0.290263,-0.355884,0.349748,-0.002070,2.6008,1.8876,0.1143
2.7991,0.020095,-0.279741,0.279741,-0.348214,0.340544,-0.002070,2.6008,1.8876,0.1143
2.8192,0.020083,-0.269225,0.269225,-0.332874,0.329806,-0.002070,2.6008,1.8876,0.1143
2.8393,0.020135,-0.258683,0.258683,-0.314466,0.312932,-0.002070,2.6008,1.8876,0.1143
2.8594,0.020082,-0.248167,0.248167,-0.292990,0.294524,-0.002070,2.6008,1.8876,0.1143
2.8796,0.020225,-0.237578,0.237578,-0.276117,0.279185,-0.002070,2.6008,1.8876,0.1143
2.8999,0.020284,-0.226957,0.226957,-0.262311,0.266913,-0.002070,2.6008,1.8876,0.1143
2.9200,0.020098,-0.216434,0.216434,-0.253107,0.256175,-0.002070,2.6008,1.8876,0.1143
2.9401,0.020101,-0.205909,0.205909,-0.243903,0.245437,-0.002070,2.6008,1.8876,0.1143
2.9606,0.020554,-0.195147,0.195147,-0.234699,0.236233,-0.002070,2.6008,1.8876,0.1143
2.9807,0.020094,-0.184625,0.184625,-0.223961,0.227029,-0.002070,2.6008,1.8876,0.1143
3.0011,0.020359,-0.173966,0.173966,-0.211689,0.219359,-0.002070,2.6008,1.8876,0.1143
3.0213,0.020209,-0.163384,0.163384,-0.200951,0.208621,-0.002070,2.6008,1.8876,0.1143
3.0414,0.020086,-0.152868,0.152868,-0.190214,0.196350,-0.002060,2.6124,1.9369,0.0615
3.0615,0.020084,-0.142351,0.142351,-0.181010,0.187146,-0.002071,2.5994,1.8819,0.1204
3.0816,0.020091,-0.131832,0.131832,-0.171806,0.174874,-0.002070,2.6008,1.8876,0.1143
3.1017,0.020097,-0.121309,0.121309,-0.161068,0.162602,-0.002070,2.6008,1.8876,0.1143
3.1217,0.020087,-0.110791,0.110791,-0.148796,0.148796,-0.002070,2.6008,1.8876,0.1143
3.1418,0.020086,-0.100274,0.100274,-0.138058,0.138058,-0.002070,2.6008,1.8876,0.1143
3.1619,0.020105,-0.089747,0.089747,-0.127320,0.125786,-0.002070,2.6008,1.8876,0.1143
3.1820,0.020095,-0.079226,0.079226,-0.116583,0.116583,-0.002070,2.6008,1.8876,0.1143
3.2021,0.020105,-0.068699,0.068699,-0.105845,0.107379,-0.002070,2.6008,1.8876,0.1143
3.2231,0.020950,-0.057729,0.057729,-0.095107,0.095107,-0.002070,2.6008,1.8876,0.1143
3.2435,0.020435,-0.047075,0.047075,-0.085903,0.084369,-0.002070,2.6008,1.8876,0.1143
3.2636,0.020092,-0.037651,0.037651,-0.073631,0.073631,-0.002070,2.6008,1.8876,0.1143
3.2838,0.020182,-0.030818,0.030818,-0.065961,0.064427,-0.002060,2.6124,1.9369,0.0615
3.3040,0.020175,-0.027225,0.027225,-0.053689,0.053689,-0.002061,2.6112,1.9318,0.0670
3.3243,0.020339,-0.026212,0.026212,-0.039884,0.042951,-0.002071,2.5996,1.8824,0.1198
3.3445,0.020216,-0.000120,0.000120,-0.032214,0.033748,-0.002070,2.6008,1.8876,0.1143
3.3654,0.020930,-0.002711,0.002711,-0.027612,0.026078,-0.002070,2.6008,1.8876,0.1143
3.3855,0.020089,-0.010707,0.010707,-0.027612,0.024544,-0.002070,2.6008,1.8876,0.1143
3.4056,0.020086,-0.025106,0.025106,-0.026078,0.023010,-0.002070,2.6008,1.8876,0.1143
3.4257,0.020097,-0.044425,0.044425,-0.015340,0.013806,-0.002070,2.6008,1.8876,0.1143
3.4458,0.020083,-0.058889,0.058889,-0.003068,0.003068,-0.002070,2.6008,1.8876,0.1143
3.4661,0.020259,-0.069497,0.069497,-0.004602,0.007670,-0.002070,2.6008,1.8876,0.1143
3.4873,0.021266,-0.080631,0.080631,-0.004602,0.007670,-0.002070,2.6008,1.8876,0.1143
3.5074,0.020095,-0.091153,0.091153,-0.064427,0.061359,-0.002070,2.6008,1.8876,0.1143
3.5275,0.020104,-0.101680,0.101680,-0.082835,0.078233,-0.002070,2.6008,1.8876,0.1143
3.5476,0.020097,-0.112202,0.112202,-0.085903,0.084369,-0.002070,2.6008,1.8876,0.1143
3.5678,0.020131,-0.122743,0.122743,-0.085903,0.084369,-0.002070,2.6008,1.8876,0.1143
3.5879,0.020108,-0.133271,0.133271,-0.084369,0.088971,-0.002070,2.6008,1.8876,0.1143
3.6080,0.020095,-0.143793,0.143793,-0.116583,0.119651,-0.002070,2.6008,1.8876,0.1143
3.6281,0.020101,-0.154318,0.154318,-0.116583,0.119651,-0.002070,2.6008,1.8876,0.1143
3.6482,0.020093,-0.164839,0.164839,-0.134990,0.128854,-0.002070,2.6008,1.8876,0.1143
3.6683,0.020115,-0.175371,0.175371,-0.142660,0.133456,-0.002060,2.6124,1.9369,0.0615
3.6884,0.020107,-0.185899,0.185899,-0.145728,0.139592,-0.002071,2.5994,1.8819,0.1204
3.7085,0.020114,-0.196430,0.196430,-0.156466,0.151864,-0.002070,2.6008,1.8876,0.1143
3.7286,0.020112,-0.206961,0.206961,-0.170272,0.168738,-0.002070,2.6008,1.8876,0.1143
3.7487,0.020103,-0.217487,0.217487,-0.184078,0.181010,-0.002070,2.6008,1.8876,0.1143
3.7688,0.020102,-0.228012,0.228012,-0.191748,0.188680,-0.002070,2.6008,1.8876,0.1143
3.7898,0.020989,-0.239002,0.239002,-0.200951,0.197884,-0.002070,2.6008,1.8876,0.1143
3.8100,0.020254,-0.249607,0.249607,-0.220893,0.220893,-0.002070,2.6008,1.8876,0.1143
3.8302,0.020108,-0.260135,0.260135,-0.228563,0.228563,-0.002070,2.6008,1.8876,0.1143
3.8502,0.020088,-0.270653,0.270653,-0.240835,0.240835,-0.002070,2.6008,1.8876,0.1143
3.8704,0.020108,-0.281182,0.281182,-0.240835,0.240835,-0.002070,2.6008,1.8876,0.1143
3.8905,0.020101,-0.291707,0.291707,-0.254641,0.253107,-0.002070,2.6008,1.8876,0.1143
3.9107,0.020254,-0.302259,0.302259,-0.273049,0.271515,-0.002070,2.6008,1.8876,0.1143
3.9308,0.020108,-0.311638,0.311638,-0.273049,0.271515,-0.002070,2.6008,1.8876,0.1143
3.9509,0.020093,-0.318364,0.318364,-0.300660,0.297592,-0.002070,2.6008,1.8876,0.1143
3.9710,0.020109,-0.321880,0.321880,-0.309864,0.305262,-0.002070,2.6008,1.8876,0.1143
3.9911,0.020103,-0.322856,0.322856,-0.309864,0.305262,-0.002070,2.6008,1.8876,0.1143
4.0112,0.020055,-0.348946,0.348946,-0.317534,0.316000,-0.002070,2.6008,1.8876,0.1143
4.0313,0.020124,-0.346550,0.346550,-0.322136,0.319068,-0.002070,2.6008,1.8876,0.1143
4.0517,0.020451,-0.338612,0.338612,-0.325204,0.323670,-0.002070,2.6008,1.8876,0.1143
4.0718,0.020092,-0.324344,0.324344,-0.340544,0.339010,-0.002070,2.6008,1.8876,0.1143
4.0919,0.020104,-0.305096,0.305096,-0.340544,0.339010,-0.002070,2.6008,1.8876,0.1143
4.1121,0.020107,-0.290395,0.290395,-0.355884,0.351282,-0.002070,2.6008,1.8876,0.1143
4.1321,0.020096,-0.279873,0.279873,-0.354350,0.349748,-0.002060,2.6124,1.9369,0.0615
4.1522,0.020090,-0.269354,0.269354,-0.345146,0.339010,-0.002071,2.5994,1.8819,0.1204
4.1723,0.020094,-0.258833,0.258833,-0.331340,0.328272,-0.002070,2.6008,1.8876,0.1143
4.1924,0.020092,-0.248313,0.248313,-0.309864,0.308330,-0.002070,2.6008,1.8876,0.1143
4.2125,0.020097,-0.237790,0.237790,-0.288388,0.291456,-0.002070,2.6008,1.8876,0.1143
4.2326,0.020097,-0.227268,0.227268,-0.268447,0.271515,-0.002070,2.6008,1.8876,0.1143
4.2527,0.020097,-0.216745,0.216745,-0.253107,0.257709,-0.002070,2.6008,1.8876,0.1143
4.2728,0.020092,-0.206225,0.206225,-0.242369,0.245437,-0.002070,2.6008,1.8876,0.1143
4.2929,0.020088,-0.195707,0.195707,-0.231631,0.236233,-0.002070,2.6008,1.8876,0.1143
4.3130,0.020094,-0.185186,0.185186,-0.225495,0.227029,-0.002070,2.6008,1.8876,0.1143
4.3331,0.020097,-0.174663,0.174663,-0.214757,0.219359,-0.002070,2.6008,1.8876,0.1143
4.3532,0.020094,-0.164142,0.164142,-0.204019,0.210155,-0.002060,2.6124,1.9369,0.0615
4.3733,0.020090,-0.153622,0.153622,-0.193282,0.197884,-0.002071,2.5994,1.8819,0.1204
4.3934,0.020091,-0.143103,0.143103,-0.182544,0.187146,-0.002070,2.6008,1.8876,0.1143
4.4135,0.020090,-0.132583,0.132583,-0.171806,0.174874,-0.002070,2.6008,1.8876,0.1143
4.4335,0.020093,-0.122063,0.122063,-0.162602,0.162602,-0.002070,2.6008,1.8876,0.1143
4.4536,0.020094,-0.111542,0.111542,-0.150330,0.150330,-0.002070,2.6008,1.8876,0.1143
4.4737,0.020082,-0.101027,0.101027,-0.141126,0.139592,-0.002070,2.6008,1.8876,0.1143
4.4938,0.020084,-0.090511,0.090511,-0.130388,0.128854,-0.002070,2.6008,1.8876,0.1143
4.5139,0.020075,-0.080000,0.080000,-0.121184,0.119651,-0.002070,2.6008,1.8876,0.1143
4.5340,0.020083,-0.069484,0.069484,-0.108913,0.108913,-0.002070,2.6008,1.8876,0.1143
4.5541,0.020101,-0.058959,0.058959,-0.099709,0.099709,-0.002070,2.6008,1.8876,0.1143
4.5741,0.020079,-0.048464,0.048464,-0.087437,0.087437,-0.002070,2.6008,1.8876,0.1143
4.5942,0.020095,-0.038793,0.038793,-0.078233,0.078233,-0.002070,2.6008,1.8876,0.1143
4.6143,0.020092,-0.031571,0.031571,-0.065961,0.065961,-0.002070,2.6008,1.8876,0.1143
4.6344,0.020091,-0.027552,0.027552,-0.055223,0.055223,-0.002070,2.6008,1.8876,0.1143
4.6547,0.020292,-0.026253,0.026253,-0.042951,0.046019,-0.002070,2.6008,1.8876,0.1143
4.6748,0.020087,-0.000046,0.000046,-0.033748,0.035282,-0.002070,2.6008,1.8876,0.1143
4.6949,0.020139,-0.001871,0.001871,-0.026078,0.027612,-0.002070,2.6008,1.8876,0.1143
4.7150,0.020083,-0.008674,0.008674,-0.027612,0.021476,-0.002070,2.6008,1.8876,0.1143
4.7351,0.020091,-0.021893,0.021893,-0.018408,0.013806,-0.002070,2.6008,1.8876,0.1143
4.7552,0.020099,-0.040493,0.040493,-0.003068,0.003068,-0.002070,2.6008,1.8876,0.1143
4.7753,0.020109,-0.056891,0.056891,-0.003068,0.006136,-0.002070,2.6008,1.8876,0.1143
4.7954,0.020085,-0.067407,0.067407,-0.016874,0.019942,-0.002070,2.6008,1.8876,0.1143
4.8155,0.020085,-0.077924,0.077924,-0.038350,0.038350,-0.002070,2.6008,1.8876,0.1143
4.8356,0.020090,-0.088443,0.088443,-0.064427,0.061359,-0.002070,2.6008,1.8876,0.1143
4.8557,0.020095,-0.098965,0.098965,-0.082835,0.078233,-0.002070,2.6008,1.8876,0.1143
4.8758,0.020085,-0.109481,0.109481,-0.085903,0.082835,-0.002070,2.6008,1.8876,0.1143
4.8958,0.020086,-0.119998,0.119998,-0.085903,0.087437,-0.002070,2.6008,1.8876,0.1143
4.9159,0.020088,-0.130516,0.130516,-0.096641,0.102777,-0.002070,2.6008,1.8876,0.1143
4.9361,0.020192,-0.141089,0.141089,-0.113515,0.115049,-0.002070,2.6008,1.8876,0.1143
4.9562,0.020087,-0.151607,0.151607,-0.133456,0.127320,-0.002070,2.6008,1.8876,0.1143
4.9763,0.020088,-0.162125,0.162125,-0.141126,0.133456,-0.002070,2.6008,1.8876,0.1143
4.9964,0.020096,-0.172647,0.172647,-0.144194,0.141126,-0.002070,2.6008,1.8876,0.1143
5.0165,0.020086,-0.183164,0.183164,-0.150330,0.156466,-0.002070,2.6008,1.8876,0.1143
5.0366,0.020090,-0.193683,0.193683,-0.167204,0.167204,-0.002070,2.6008,1.8876,0.1143
5.0567,0.020084,-0.204199,0.204199,-0.184078,0.177942,-0.002070,2.6008,1.8876,0.1143
5.0769,0.020201,-0.214777,0.214777,-0.193282,0.185612,-0.002070,2.6008,1.8876,0.1143
5.0969,0.020088,-0.225295,0.225295,-0.197884,0.197884,-0.002070,2.6008,1.8876,0.1143
5.1171,0.020103,-0.235820,0.235820,-0.205553,0.211689,-0.002070,2.6008,1.8876,0.1143
5.1372,0.020101,-0.246345,0.246345,-0.220893,0.222427,-0.002070,2.6008,1.8876,0.1143
5.1573,0.020104,-0.256871,0.256871,-0.231631,0.227029,-0.002070,2.6008,1.8876,0.1143
5.1774,0.020142,-0.267418,0.267418,-0.231631,0.227029,-0.002070,2.6008,1.8876,0.1143
5.1977,0.020290,-0.278041,0.278041,-0.233165,0.230097,-0.002070,2.6008,1.8876,0.1143
5.2178,0.020095,-0.288563,0.288563,-0.253107,0.250039,-0.002070,2.6008,1.8876,0.1143
5.2379,0.020093,-0.299080,0.299080,-0.273049,0.271515,-0.002070,2.6008,1.8876,0.1143
5.2580,0.020095,-0.308981,0.308981,-0.286854,0.286854,-0.002070,2.6008,1.8876,0.1143
5.2784,0.020436,-0.316740,0.316740,-0.292990,0.291456,-0.002070,2.6008,1.8876,0.1143
5.2985,0.020091,-0.321171,0.321171,-0.299126,0.292990,-0.002070,2.6008,1.8876,0.1143
5.3186,0.020097,-0.322749,0.322749,-0.311398,0.306796,-0.002070,2.6008,1.8876,0.1143
5.3387,0.020083,-0.349053,0.349053,-0.325204,0.320602,-0.002070,2.6008,1.8876,0.1143
5.3588,0.020092,-0.347693,0.347693,-0.325204,0.323670,-0.002070,2.6008,1.8876,0.1143
5.3788,0.020059,-0.341745,0.341745,-0.325204,0.322136,-0.002070,2.6008,1.8876,0.1143
5.3989,0.020089,-0.329435,0.329435,-0.335942,0.331340,-0.002070,2.6008,1.8876,0.1143
5.4190,0.020084,-0.311463,0.311463,-0.351282,0.346680,-0.002070,2.6008,1.8876,0.1143
5.4391,0.020104,-0.293684,0.293684,-0.355884,0.349748,-0.002070,2.6008,1.8876,0.1143
5.4592,0.020096,-0.283161,0.283161,-0.348214,0.342078,-0.002070,2.6008,1.8876,0.1143
5.4795,0.020266,-0.272550,0.272550,-0.335942,0.332874,-0.002060,2.6124,1.9369,0.0615
5.4996,0.020087,-0.262032,0.262032,-0.320602,0.319068,-0.002061,2.6112,1.9318,0.0670
5.5196,0.020089,-0.251514,0.251514,-0.297592,0.299126,-0.002071,2.5996,1.8824,0.1198
5.5397,0.020087,-0.240997,0.240997,-0.280718,0.285320,-0.002070,2.6008,1.8876,0.1143
5.5598,0.020085,-0.230480,0.230480,-0.265379,0.271515,-0.002070,2.6008,1.8876,0.1143
5.5799,0.020080,-0.219966,0.219966,-0.256175,0.259243,-0.002070,2.6008,1.8876,0.1143
5.6000,0.020099,-0.209442,0.209442,-0.248505,0.248505,-0.002070,2.6008,1.8876,0.1143
5.6201,0.020099,-0.198919,0.198919,-0.237767,0.240835,-0.002070,2.6008,1.8876,0.1143
5.6402,0.020092,-0.188398,0.188398,-0.228563,0.231631,-0.002070,2.6008,1.8876,0.1143
5.6603,0.020085,-0.177882,0.177882,-0.217825,0.220893,-0.002070,2.6008,1.8876,0.1143
5.6804,0.020085,-0.167365,0.167365,-0.205553,0.211689,-0.002070,2.6008,1.8876,0.1143
5.7004,0.020087,-0.156848,0.156848,-0.193282,0.199418,-0.002070,2.6008,1.8876,0.1143
5.7205,0.020087,-0.146330,0.146330,-0.182544,0.188680,-0.002070,2.6008,1.8876,0.1143
5.7406,0.020087,-0.135813,0.135813,-0.173340,0.176408,-0.002070,2.6008,1.8876,0.1143
5.7607,0.020093,-0.125292,0.125292,-0.162602,0.164136,-0.002070,2.6008,1.8876,0.1143
5.7808,0.020090,-0.114773,0.114773,-0.151864,0.153398,-0.002070,2.6008,1.8876,0.1143
5.8010,0.020207,-0.104193,0.104193,-0.142660,0.141126,-0.002070,2.6008,1.8876,0.1143
5.8211,0.020090,-0.093674,0.093674,-0.131922,0.130388,-0.002070,2.6008,1.8876,0.1143
5.8412,0.020093,-0.083153,0.083153,-0.121184,0.119651,-0.002070,2.6008,1.8876,0.1143
5.8613,0.020092,-0.072633,0.072633,-0.108913,0.110447,-0.002070,2.6008,1.8876,0.1143
5.8814,0.020090,-0.062114,0.062114,-0.099709,0.099709,-0.002070,2.6008,1.8876,0.1143
5.9021,0.020774,-0.051237,0.051237,-0.087437,0.087437,-0.002060,2.6124,1.9369,0.0615
5.9222,0.020090,-0.041179,0.041179,-0.078233,0.078233,-0.002071,2.5994,1.8819,0.1204
5.9424,0.020174,-0.033159,0.033159,-0.067495,0.067495,-0.002070,2.6008,1.8876,0.1143
5.9625,0.020094,-0.028298,0.028298,-0.056757,0.056757,-0.002070,2.6008,1.8876,0.1143
5.9826,0.020090,-0.026404,0.026404,-0.044485,0.046019,-0.002070,2.6008,1.8876,0.1143
6.0027,0.020121,-0.000002,0.000002,-0.032214,0.035282,-0.002070,2.6008,1.8876,0.1143
6.0228,0.020094,-0.000996,0.000996,-0.026078,0.027612,-0.002070,2.6008,1.8876,0.1143
6.0429,0.020089,-0.006208,0.006208,-0.026078,0.026078,-0.002070,2.6008,1.8876,0.1143
6.0630,0.020095,-0.017686,0.017686,-0.024544,0.021476,-0.002070,2.6008,1.8876,0.1143
6.0831,0.020093,-0.035058,0.035058,-0.015340,0.010738,-0.002070,2.6008,1.8876,0.1143
6.1032,0.020093,-0.054024,0.054024,-0.001534,0.001534,-0.002070,2.6008,1.8876,0.1143
6.1233,0.020118,-0.064558,0.064558,-0.003068,0.006136,-0.002070,2.6008,1.8876,0.1143
6.1438,0.020462,-0.075272,0.075272,-0.003068,0.006136,-0.002070,2.6008,1.8876,0.1143
6.1639,0.020103,-0.085797,0.085797,-0.038350,0.039884,-0.002070,2.6008,1.8876,0.1143
6.1840,0.020103,-0.096323,0.096323,-0.059825,0.058291,-0.002070,2.6008,1.8876,0.1143
6.2041,0.020089,-0.106842,0.106842,-0.084369,0.081301,-0.002070,2.6008,1.8876,0.1143
6.2242,0.020110,-0.117371,0.117371,-0.082835,0.084369,-0.002070,2.6008,1.8876,0.1143
6.2443,0.020098,-0.127895,0.127895,-0.088971,0.096641,-0.002070,2.6008,1.8876,0.1143
6.2644,0.020108,-0.138423,0.138423,-0.088971,0.096641,-0.002070,2.6008,1.8876,0.1143
6.2845,0.020102,-0.148949,0.148949,-0.125786,0.127320,-0.002070,2.6008,1.8876,0.1143
6.3046,0.020091,-0.159469,0.159469,-0.142660,0.133456,-0.002070,2.6008,1.8876,0.1143
6.3247,0.020097,-0.169992,0.169992,-0.142660,0.133456,-0.002070,2.6008,1.8876,0.1143
6.3448,0.020110,-0.180521,0.180521,-0.148796,0.139592,-0.002070,2.6008,1.8876,0.1143
6.3649,0.020117,-0.191054,0.191054,-0.154932,0.154932,-0.002070,2.6008,1.8876,0.1143
6.3850,0.020144,-0.201602,0.201602,-0.181010,0.177942,-0.002070,2.6008,1.8876,0.1143
6.4051,0.020078,-0.212115,0.212115,-0.181010,0.177942,-0.002070,2.6008,1.8876,0.1143
6.4252,0.020112,-0.222645,0.222645,-0.188680,0.184078,-0.002070,2.6008,1.8876,0.1143
6.4453,0.020096,-0.233168,0.233168,-0.208621,0.205553,-0.002070,2.6008,1.8876,0.1143
6.4654,0.020115,-0.243700,0.243700,-0.208621,0.205553,-0.002070,2.6008,1.8876,0.1143
6.4858,0.020368,-0.254365,0.254365,-0.222427,0.220893,-0.002070,2.6008,1.8876,0.1143
6.5059,0.020103,-0.264890,0.264890,-0.239301,0.236233,-0.002070,2.6008,1.8876,0.1143
6.5260,0.020113,-0.275421,0.275421,-0.239301,0.236233,-0.002070,2.6008,1.8876,0.1143
6.5461,0.020110,-0.285951,0.285951,-0.248505,0.242369,-0.002070,2.6008,1.8876,0.1143
6.5662,0.020115,-0.296483,0.296483,-0.269981,0.269981,-0.002070,2.6008,1.8876,0.1143
6.5864,0.020186,-0.306727,0.306727,-0.282252,0.283786,-0.002070,2.6008,1.8876,0.1143
6.6065,0.020094,-0.315053,0.315053,-0.282252,0.283786,-0.002070,2.6008,1.8876,0.1143
6.6266,0.020114,-0.320334,0.320334,-0.292990,0.289922,-0.002070,2.6008,1.8876,0.1143
6.6467,0.020106,-0.322552,0.322552,-0.305262,0.297592,-0.002070,2.6008,1.8876,0.1143
6.6670,0.020227,-0.349066,0.349066,-0.314466,0.309864,-0.002070,2.6008,1.8876,0.1143
6.6871,0.020109,-0.348348,0.348348,-0.322136,0.319068,-0.002070,2.6008,1.8876,0.1143
6.7072,0.020104,-0.343785,0.343785,-0.323670,0.319068,-0.002070,2.6008,1.8876,0.1143
6.7273,0.020108,-0.333072,0.333072,-0.323670,0.322136,-0.002070,2.6008,1.8876,0.1143
6.7474,0.020102,-0.316286,0.316286,-0.339010,0.340544,-0.002070,2.6008,1.8876,0.1143
6.7675,0.020103,-0.296273,0.296273,-0.355884,0.354350,-0.002070,2.6008,1.8876,0.1143
6.7876,0.020094,-0.285752,0.285752,-0.355884,0.351282,-0.002070,2.6008,1.8876,0.1143
6.8077,0.020101,-0.275227,0.275227,-0.345146,0.340544,-0.002060,2.6124,1.9369,0.0615
6.8280,0.020266,-0.264616,0.264616,-0.331340,0.328272,-0.002061,2.6112,1.9318,0.0670
6.8481,0.020099,-0.254092,0.254092,-0.312932,0.311398,-0.002071,2.5996,1.8824,0.1198
6.8682,0.020101,-0.243567,0.243567,-0.291456,0.296058,-0.002070,2.6008,1.8876,0.1143
6.8883,0.020113,-0.233036,0.233036,-0.279185,0.283786,-0.002070,2.6008,1.8876,0.1143
6.9084,0.020101,-0.222511,0.222511,-0.266913,0.271515,-0.002070,2.6008,1.8876,0.1143
6.9285,0.020102,-0.211985,0.211985,-0.257709,0.259243,-0.002070,2.6008,1.8876,0.1143
6.9486,0.020128,-0.201446,0.201446,-0.248505,0.250039,-0.002070,2.6008,1.8876,0.1143
6.9691,0.020456,-0.190735,0.190735,-0.237767,0.239301,-0.002070,2.6008,1.8876,0.1143
6.9892,0.020099,-0.180212,0.180212,-0.227029,0.230097,-0.002070,2.6008,1.8876,0.1143
7.0092,0.020084,-0.169696,0.169696,-0.216291,0.220893,-0.002070,2.6008,1.8876,0.1143
7.0293,0.020093,-0.159175,0.159175,-0.204019,0.211689,-0.002070,2.6008,1.8876,0.1143
7.0494,0.020087,-0.148658,0.148658,-0.193282,0.199418,-0.002060,2.6124,1.9369,0.0615
7.0695,0.020085,-0.138141,0.138141,-0.184078,0.190214,-0.002061,2.6112,1.9318,0.0670
7.0896,0.020102,-0.127616,0.127616,-0.174874,0.179476,-0.002071,2.5996,1.8824,0.1198
7.1097,0.020087,-0.117098,0.117098,-0.162602,0.164136,-0.002070,2.6008,1.8876,0.1143
7.1298,0.020088,-0.106581,0.106581,-0.151864,0.151864,-0.002070,2.6008,1.8876,0.1143
7.1499,0.020091,-0.096061,0.096061,-0.134990,0.134990,-0.002070,2.6008,1.8876,0.1143
7.1700,0.020085,-0.085544,0.085544,-0.124252,0.122718,-0.002070,2.6008,1.8876,0.1143
7.1900,0.020093,-0.075024,0.075024,-0.110447,0.110447,-0.002070,2.6008,1.8876,0.1143
7.2101,0.020094,-0.064503,0.064503,-0.099709,0.098175,-0.002070,2.6008,1.8876,0.1143
7.2302,0.020090,-0.053984,0.053984,-0.087437,0.087437,-0.002070,2.6008,1.8876,0.1143
7.2503,0.020094,-0.043671,0.043671,-0.076699,0.076699,-0.002070,2.6008,1.8876,0.1143
7.2704,0.020098,-0.034992,0.034992,-0.065961,0.065961,-0.002070,2.6008,1.8876,0.1143
7.2905,0.020093,-0.029267,0.029267,-0.056757,0.056757,-0.002070,2.6008,1.8876,0.1143
7.3106,0.020087,-0.026673,0.026673,-0.046019,0.047553,-0.002070,2.6008,1.8876,0.1143
7.3307,0.020085,-0.026181,0.026181,-0.033748,0.036816,-0.002070,2.6008,1.8876,0.1143
7.3508,0.020087,-0.000450,0.000450,-0.027612,0.029146,-0.002070,2.6008,1.8876,0.1143
7.3709,0.020095,-0.004249,0.004249,-0.026078,0.024544,-0.002070,2.6008,1.8876,0.1143
7.3910,0.020095,-0.013986,0.013986,-0.027612,0.026078,-0.002070,2.6008,1.8876,0.1143
7.4111,0.020092,-0.029962,0.029962,-0.026078,0.021476,-0.002070,2.6008,1.8876,0.1143
7.4312,0.020092,-0.050075,0.050075,-0.015340,0.010738,-0.002070,2.6008,1.8876,0.1143
7.4512,0.020080,-0.061731,0.061731,-0.007670,0.004602,-0.002070,2.6008,1.8876,0.1143
7.4713,0.020087,-0.072248,0.072248,-0.013806,0.013806,-0.002070,2.6008,1.8876,0.1143
7.4914,0.020088,-0.082766,0.082766,-0.032214,0.029146,-0.002070,2.6008,1.8876,0.1143
7.5115,0.020088,-0.093284,0.093284,-0.053689,0.050621,-0.002070,2.6008,1.8876,0.1143
7.5316,0.020089,-0.103803,0.103803,-0.076699,0.073631,-0.002070,2.6008,1.8876,0.1143
7.5518,0.020188,-0.114373,0.114373,-0.087437,0.085903,-0.002070,2.6008,1.8876,0.1143
7.5719,0.020094,-0.124895,0.124895,-0.085903,0.087437,-0.002070,2.6008,1.8876,0.1143
7.5920,0.020091,-0.135414,0.135414,-0.090505,0.095107,-0.002070,2.6008,1.8876,0.1143
7.6120,0.020093,-0.145935,0.145935,-0.108913,0.110447,-0.002070,2.6008,1.8876,0.1143
7.6321,0.020097,-0.156458,0.156458,-0.125786,0.125786,-0.002070,2.6008,1.8876,0.1143
7.6522,0.020100,-0.166982,0.166982,-0.142660,0.133456,-0.002070,2.6008,1.8876,0.1143
7.6723,0.020084,-0.177498,0.177498,-0.147262,0.141126,-0.002070,2.6008,1.8876,0.1143
7.6924,0.020083,-0.188013,0.188013,-0.153398,0.154932,-0.002060,2.6124,1.9369,0.0615
7.7125,0.020103,-0.198539,0.198539,-0.165670,0.165670,-0.002071,2.5994,1.8819,0.1204
7.7326,0.020094,-0.209061,0.209061,-0.177942,0.173340,-0.002070,2.6008,1.8876,0.1143
7.7527,0.020100,-0.219585,0.219585,-0.185612,0.181010,-0.002070,2.6008,1.8876,0.1143
7.7728,0.020090,-0.230104,0.230104,-0.196350,0.191748,-0.002070,2.6008,1.8876,0.1143
7.7929,0.020103,-0.240630,0.240630,-0.208621,0.205553,-0.002070,2.6008,1.8876,0.1143
7.8130,0.020088,-0.251148,0.251148,-0.219359,0.216291,-0.002070,2.6008,1.8876,0.1143
7.8331,0.020111,-0.261678,0.261678,-0.227029,0.225495,-0.002070,2.6008,1.8876,0.1143
7.8532,0.020094,-0.272199,0.272199,-0.236233,0.237767,-0.002070,2.6008,1.8876,0.1143
7.8733,0.020091,-0.282719,0.282719,-0.250039,0.246971,-0.002070,2.6008,1.8876,0.1143
7.8934,0.020093,-0.293240,0.293240,-0.257709,0.254641,-0.002060,2.6124,1.9369,0.0615
7.9135,0.020127,-0.303673,0.303673,-0.266913,0.268447,-0.002071,2.5994,1.8819,0.1204
7.9336,0.020092,-0.312754,0.312754,-0.280718,0.280718,-0.002070,2.6008,1.8876,0.1143
7.9537,0.020096,-0.319041,0.319041,-0.292990,0.289922,-0.002070,2.6008,1.8876,0.1143
7.9737,0.020046,-0.322132,0.322132,-0.309864,0.308330,-0.002070,2.6008,1.8876,0.1143
7.9938,0.020099,-0.322876,0.322876,-0.319068,0.319068,-0.002070,2.6008,1.8876,0.1143
8.0139,0.020094,-0.348835,0.348835,-0.326738,0.319068,-0.002070,2.6008,1.8876,0.1143
8.0340,0.020095,-0.345861,0.345861,-0.325204,0.319068,-0.002070,2.6008,1.8876,0.1143
8.0553,0.021290,-0.336535,0.336535,-0.326738,0.325204,-0.002070,2.6008,1.8876,0.1143
8.0754,0.020110,-0.321196,0.321196,-0.343612,0.337476,-0.002070,2.6008,1.8876,0.1143
8.0955,0.020103,-0.301377,0.301377,-0.354350,0.349748,-0.002070,2.6008,1.8876,0.1143
8.1156,0.020090,-0.288526,0.288526,-0.352816,0.348214,-0.002070,2.6008,1.8876,0.1143
8.1357,0.020088,-0.278008,0.278008,-0.339010,0.332874,-0.002070,2.6008,1.8876,0.1143
8.1558,0.020096,-0.267485,0.267485,-0.320602,0.319068,-0.002070,2.6008,1.8876,0.1143
8.1759,0.020096,-0.256963,0.256963,-0.297592,0.299126,-0.002070,2.6008,1.8876,0.1143
8.1960,0.020099,-0.246439,0.246439,-0.280718,0.283786,-0.002070,2.6008,1.8876,0.1143
8.2161,0.020131,-0.235898,0.235898,-0.265379,0.271515,-0.002070,2.6008,1.8876,0.1143
8.2362,0.020095,-0.225377,0.225377,-0.257709,0.260777,-0.002060,2.6124,1.9369,0.0615
8.2563,0.020092,-0.214857,0.214857,-0.250039,0.251573,-0.002071,2.5994,1.8819,0.1204
8.2764,0.020097,-0.204334,0.204334,-0.240835,0.242369,-0.002070,2.6008,1.8876,0.1143
8.2965,0.020095,-0.193812,0.193812,-0.231631,0.233165,-0.002070,2.6008,1.8876,0.1143
8.3166,0.020102,-0.183287,0.183287,-0.220893,0.223961,-0.002070,2.6008,1.8876,0.1143
8.3367,0.020104,-0.172761,0.172761,-0.210155,0.216291,-0.002070,2.6008,1.8876,0.1143
8.3568,0.020106,-0.162233,0.162233,-0.197884,0.205553,-0.002070,2.6008,1.8876,0.1143
8.3769,0.020098,-0.151710,0.151710,-0.187146,0.193282,-0.002070,2.6008,1.8876,0.1143
8.3971,0.020166,-0.141151,0.141151,-0.174874,0.179476,-0.002070,2.6008,1.8876,0.1143
8.4172,0.020103,-0.130625,0.130625,-0.167204,0.168738,-0.002070,2.6008,1.8876,0.1143
8.4373,0.020091,-0.120106,0.120106,-0.156466,0.156466,-0.002070,2.6008,1.8876,0.1143
8.4574,0.020093,-0.109585,0.109585,-0.144194,0.144194,-0.002070,2.6008,1.8876,0.1143
8.4775,0.020100,-0.099061,0.099061,-0.134990,0.133456,-0.002070,2.6008,1.8876,0.1143
8.4976,0.020104,-0.088534,0.088534,-0.124252,0.122718,-0.002070,2.6008,1.8876,0.1143
8.5178,0.020180,-0.077968,0.077968,-0.113515,0.113515,-0.002070,2.6008,1.8876,0.1143
8.5379,0.020091,-0.067448,0.067448,-0.102777,0.102777,-0.002070,2.6008,1.8876,0.1143
8.5579,0.020099,-0.056925,0.056925,-0.090505,0.090505,-0.002070,2.6008,1.8876,0.1143
8.5780,0.020095,-0.046466,0.046466,-0.079767,0.079767,-0.002070,2.6008,1.8876,0.1143
8.5981,0.020088,-0.037162,0.037162,-0.067495,0.069029,-0.002070,2.6008,1.8876,0.1143
8.6182,0.020096,-0.030538,0.030538,-0.058291,0.058291,-0.002070,2.6008,1.8876,0.1143
8.6383,0.020086,-0.027123,0.027123,-0.046019,0.047553,-0.002070,2.6008,1.8876,0.1143
8.6584,0.020084,-0.026204,0.026204,-0.035282,0.038350,-0.002070,2.6008,1.8876,0.1143
8.6785,0.020087,-0.000141,0.000141,-0.027612,0.029146,-0.002070,2.6008,1.8876,0.1143
8.6986,0.020091,-0.002661,0.002661,-0.026078,0.026078,-0.002070,2.6008,1.8876,0.1143
8.7187,0.020094,-0.010595,0.010595,-0.026078,0.024544,-0.002070,2.6008,1.8876,0.1143
8.7388,0.020088,-0.024935,0.024935,-0.023010,0.019942,-0.002070,2.6008,1.8876,0.1143
8.7588,0.020091,-0.044214,0.044214,-0.009204,0.009204,-0.002070,2.6008,1.8876,0.1143
8.7789,0.020089,-0.058785,0.058785,-0.003068,0.004602,-0.002070,2.6008,1.8876,0.1143
8.7990,0.020087,-0.069302,0.069302,-0.010738,0.013806,-0.002070,2.6008,1.8876,0.1143
8.8191,0.020097,-0.079825,0.079825,-0.029146,0.029146,-0.002070,2.6008,1.8876,0.1143
8.8392,0.020085,-0.090341,0.090341,-0.050621,0.049087,-0.002070,2.6008,1.8876,0.1143
8.8593,0.020086,-0.100858,0.100858,-0.075165,0.070563,-0.002060,2.6124,1.9369,0.0615
8.8794,0.020084,-0.111375,0.111375,-0.087437,0.084369,-0.002071,2.5994,1.8819,0.1204
8.8995,0.020114,-0.121906,0.121906,-0.087437,0.087437,-0.002059,2.6126,1.9375,0.0608
8.9196,0.020107,-0.132434,0.132434,-0.088971,0.093573,-0.002071,2.5994,1.8818,0.1205
8.9398,0.020176,-0.142999,0.142999,-0.102777,0.105845,-0.002059,2.6126,1.9375,0.0608
8.9599,0.020092,-0.153519,0.153519,-0.122718,0.121184,-0.002071,2.5994,1.8818,0.1205
8.9800,0.020089,-0.164037,0.164037,-0.139592,0.134990,-0.002070,2.6008,1.8876,0.1143
9.0007,0.020751,-0.174903,0.174903,-0.148796,0.144194,-0.002070,2.6008,1.8876,0.1143
9.0208,0.020111,-0.185432,0.185432,-0.153398,0.153398,-0.002070,2.6008,1.8876,0.1143
9.0409,0.020094,-0.195954,0.195954,-0.165670,0.164136,-0.002070,2.6008,1.8876,0.1143
9.0610,0.020100,-0.206478,0.206478,-0.177942,0.173340,-0.002070,2.6008,1.8876,0.1143
9.0811,0.020090,-0.216997,0.216997,-0.188680,0.184078,-0.002070,2.6008,1.8876,0.1143
9.1013,0.020166,-0.227556,0.227556,-0.199418,0.196350,-0.002070,2.6008,1.8876,0.1143
9.1214,0.020088,-0.238074,0.238074,-0.208621,0.207087,-0.002070,2.6008,1.8876,0.1143
9.1415,0.020096,-0.248596,0.248596,-0.217825,0.213223,-0.002070,2.6008,1.8876,0.1143
9.1615,0.020090,-0.259115,0.259115,-0.228563,0.223961,-0.002070,2.6008,1.8876,0.1143
9.1817,0.020163,-0.269673,0.269673,-0.237767,0.239301,-0.002070,2.6008,1.8876,0.1143
9.2019,0.020177,-0.280238,0.280238,-0.250039,0.250039,-0.002070,2.6008,1.8876,0.1143
9.2223,0.020460,-0.290950,0.290950,-0.257709,0.257709,-0.002070,2.6008,1.8876,0.1143
9.2424,0.020098,-0.301441,0.301441,-0.268447,0.266913,-0.002070,2.6008,1.8876,0.1143
9.2628,0.020328,-0.311065,0.311065,-0.280718,0.277651,-0.002070,2.6008,1.8876,0.1143
9.2829,0.020099,-0.318006,0.318006,-0.292990,0.291456,-0.002070,2.6008,1.8876,0.1143
9.3032,0.020320,-0.321758,0.321758,-0.303728,0.300660,-0.002070,2.6008,1.8876,0.1143
9.3233,0.020109,-0.322843,0.322843,-0.311398,0.308330,-0.002070,2.6008,1.8876,0.1143
9.3434,0.020102,-0.348979,0.348979,-0.322136,0.319068,-0.002070,2.6008,1.8876,0.1143
9.3637,0.020264,-0.346770,0.346770,-0.326738,0.320602,-0.002070,2.6008,1.8876,0.1143
9.3838,0.020094,-0.339331,0.339331,-0.325204,0.319068,-0.002070,2.6008,1.8876,0.1143
9.4039,0.020196,-0.325383,0.325383,-0.329806,0.325204,-0.002070,2.6008,1.8876,0.1143
9.4240,0.020086,-0.306374,0.306374,-0.348214,0.345146,-0.002070,2.6008,1.8876,0.1143
9.4441,0.020088,-0.291057,0.291057,-0.355884,0.351282,-0.002070,2.6008,1.8876,0.1143
9.4642,0.020095,-0.280535,0.280535,-0.354350,0.348214,-0.002070,2.6008,1.8876,0.1143
9.4845,0.020304,-0.269904,0.269904,-0.340544,0.332874,-0.002070,2.6008,1.8876,0.1143
9.5049,0.020345,-0.259251,0.259251,-0.323670,0.320602,-0.002070,2.6008,1.8876,0.1143
9.5253,0.020458,-0.248539,0.248539,-0.303728,0.302194,-0.002070,2.6008,1.8876,0.1143
9.5455,0.020160,-0.237983,0.237983,-0.282252,0.285320,-0.002071,2.5994,1.8819,0.1204
9.5657,0.020219,-0.227396,0.227396,-0.265379,0.271515,-0.002070,2.6008,1.8876,0.1143
9.5858,0.020087,-0.216879,0.216879,-0.256175,0.260777,-0.002070,2.6008,1.8876,0.1143
9.6059,0.020094,-0.206358,0.206358,-0.250039,0.250039,-0.002070,2.6008,1.8876,0.1143
9.6260,0.020093,-0.195838,0.195838,-0.239301,0.240835,-0.002070,2.6008,1.8876,0.1143
9.6461,0.020088,-0.185320,0.185320,-0.219359,0.222427,-0.002070,2.6008,1.8876,0.1143
9.6664,0.020299,-0.174691,0.174691,-0.207087,0.213223,-0.002070,2.6008,1.8876,0.1143
9.6868,0.020408,-0.164006,0.164006,-0.194816,0.202485,-0.002070,2.6008,1.8876,0.1143
9.7069,0.020095,-0.153484,0.153484,-0.184078,0.190214,-0.002070,2.6008,1.8876,0.1143
9.7270,0.020092,-0.142964,0.142964,-0.173340,0.177942,-0.002070,2.6008,1.8876,0.1143
9.7470,0.020085,-0.132448,0.132448,-0.164136,0.164136,-0.002070,2.6008,1.8876,0.1143
9.7674,0.020375,-0.121779,0.121779,-0.151864,0.151864,-0.002070,2.6008,1.8876,0.1143
9.7880,0.020576,-0.111006,0.111006,-0.142660,0.141126,-0.002070,2.6008,1.8876,0.1143
9.8081,0.020111,-0.100475,0.100475,-0.131922,0.131922,-0.002070,2.6008,1.8876,0.1143
9.8282,0.020093,-0.089955,0.089955,-0.121184,0.121184,-0.002070,2.6008,1.8876,0.1143
9.8483,0.020089,-0.079436,0.079436,-0.108913,0.110447,-0.002070,2.6008,1.8876,0.1143
9.8684,0.020126,-0.068898,0.068898,-0.096641,0.099709,-0.002070,2.6008,1.8876,0.1143
9.8887,0.020307,-0.058265,0.058265,-0.087437,0.085903,-0.002070,2.6008,1.8876,0.1143
9.9088,0.020089,-0.047776,0.047776,-0.075165,0.075165,-0.002070,2.6008,1.8876,0.1143
9.9289,0.020091,-0.038224,0.038224,-0.064427,0.064427,-0.002070,2.6008,1.8876,0.1143
9.9490,0.020096,-0.031203,0.031203,-0.056757,0.056757,-0.002070,2.6008,1.8876,0.1143
9.9691,0.020136,-0.027388,0.027388,-0.044485,0.046019,-0.002070,2.6008,1.8876,0.1143
9.9892,0.020102,-0.026233,0.026233,-0.033748,0.036816,-0.002070,2.6008,1.8876,0.1143
10.0093,0.020091,-0.000070,0.000070,-0.027612,0.027612,-0.002070,2.6008,1.8876,0.1143
10.0296,0.020279,-0.002141,0.002141,-0.026078,0.024544,-0.002070,2.6008,1.8876,0.1143
10.0499,0.020302,-0.009466,0.009466,-0.026078,0.023010,-0.002070,2.6008,1.8876,0.1143
10.0700,0.020091,-0.023168,0.023168,-0.018408,0.015340,-0.002070,2.6008,1.8876,0.1143
10.0904,0.020424,-0.042406,0.042406,-0.003068,0.004602,-0.002070,2.6008,1.8876,0.1143
10.1105,0.020089,-0.057864,0.057864,-0.003068,0.006136,-0.002070,2.6008,1.8876,0.1143
10.1306,0.020093,-0.068384,0.068384,-0.016874,0.019942,-0.002070,2.6008,1.8876,0.1143
10.1507,0.020097,-0.078907,0.078907,-0.036816,0.036816,-0.002070,2.6008,1.8876,0.1143
10.1708,0.020091,-0.089427,0.089427,-0.058291,0.056757,-0.002070,2.6008,1.8876,0.1143
10.1909,0.020094,-0.099948,0.099948,-0.081301,0.076699,-0.002070,2.6008,1.8876,0.1143
10.2110,0.020091,-0.110468,0.110468,-0.081301,0.076699,-0.002070,2.6008,1.8876,0.1143
10.2311,0.020117,-0.121001,0.121001,-0.087437,0.084369,-0.002070,2.6008,1.8876,0.1143
10.2512,0.020101,-0.131526,0.131526,-0.085903,0.090505,-0.002060,2.6124,1.9369,0.0615
10.2713,0.020097,-0.142049,0.142049,-0.095107,0.101243,-0.002071,2.5994,1.8819,0.1204
10.2914,0.020126,-0.152587,0.152587,-0.111981,0.113515,-0.002070,2.6008,1.8876,0.1143
10.3119,0.020456,-0.163298,0.163298,-0.128854,0.124252,-0.002070,2.6008,1.8876,0.1143
10.3320,0.020102,-0.173823,0.173823,-0.138058,0.133456,-0.002070,2.6008,1.8876,0.1143
10.3521,0.020105,-0.184350,0.184350,-0.144194,0.142660,-0.002070,2.6008,1.8876,0.1143
10.3722,0.020089,-0.194868,0.194868,-0.151864,0.154932,-0.002070,2.6008,1.8876,0.1143
10.3923,0.020098,-0.205392,0.205392,-0.168738,0.165670,-0.002070,2.6008,1.8876,0.1143
10.4124,0.020097,-0.215915,0.215915,-0.181010,0.174874,-0.002070,2.6008,1.8876,0.1143
10.4328,0.020479,-0.226637,0.226637,-0.199418,0.196350,-0.002070,2.6008,1.8876,0.1143
10.4530,0.020107,-0.237166,0.237166,-0.199418,0.196350,-0.002070,2.6008,1.8876,0.1143
10.4733,0.020303,-0.247796,0.247796,-0.217825,0.216291,-0.002070,2.6008,1.8876,0.1143
10.4934,0.020118,-0.258330,0.258330,-0.228563,0.223961,-0.002070,2.6008,1.8876,0.1143
10.5135,0.020087,-0.268847,0.268847,-0.240835,0.239301,-0.002070,2.6008,1.8876,0.1143
10.5336,0.020094,-0.279368,0.279368,-0.240835,0.239301,-0.002070,2.6008,1.8876,0.1143
10.5537,0.020101,-0.289893,0.289893,-0.251573,0.251573,-0.002070,2.6008,1.8876,0.1143
10.5738,0.020109,-0.300407,0.300407,-0.259243,0.260777,-0.002070,2.6008,1.8876,0.1143
10.5939,0.020099,-0.310111,0.310111,-0.271515,0.269981,-0.002070,2.6008,1.8876,0.1143
10.6140,0.020096,-0.317390,0.317390,-0.283786,0.280718,-0.002070,2.6008,1.8876,0.1143
10.6341,0.020094,-0.321469,0.321469,-0.292990,0.291456,-0.002070,2.6008,1.8876,0.1143
10.6542,0.020101,-0.322802,0.322802,-0.302194,0.297592,-0.002070,2.6008,1.8876,0.1143
10.6742,0.020092,-0.349028,0.349028,-0.314466,0.308330,-0.002070,2.6008,1.8876,0.1143
10.6944,0.020112,-0.347305,0.347305,-0.323670,0.320602,-0.002070,2.6008,1.8876,0.1143
10.7145,0.020108,-0.340665,0.340665,-0.323670,0.322136,-0.002070,2.6008,1.8876,0.1143
10.7346,0.020121,-0.327596,0.327596,-0.323670,0.319068,-0.002070,2.6008,1.8876,0.1143
10.7547,0.020094,-0.309109,0.309109,-0.335942,0.334408,-0.002070,2.6008,1.8876,0.1143
10.7748,0.020093,-0.292460,0.292460,-0.354350,0.351282,-0.002070,2.6008,1.8876,0.1143
10.7949,0.020099,-0.281937,0.281937,-0.355884,0.351282,-0.002070,2.6008,1.8876,0.1143
10.8150,0.020097,-0.271414,0.271414,-0.349748,0.343612,-0.002070,2.6008,1.8876,0.1143
10.8351,0.020097,-0.260891,0.260891,-0.334408,0.329806,-0.002070,2.6008,1.8876,0.1143
10.8554,0.020319,-0.250252,0.250252,-0.316000,0.314466,-0.002070,2.6008,1.8876,0.1143
10.8755,0.020100,-0.239728,0.239728,-0.296058,0.297592,-0.002070,2.6008,1.8876,0.1143
10.8955,0.020062,-0.229223,0.229223,-0.277651,0.280718,-0.002070,2.6008,1.8876,0.1143
10.9156,0.020061,-0.218719,0.218719,-0.263845,0.268447,-0.002070,2.6008,1.8876,0.1143
10.9357,0.020133,-0.208178,0.208178,-0.254641,0.257709,-0.002070,2.6008,1.8876,0.1143
10.9558,0.020104,-0.197651,0.197651,-0.246971,0.248505,-0.002070,2.6008,1.8876,0.1143
10.9759,0.020099,-0.187127,0.187127,-0.237767,0.239301,-0.002060,2.6124,1.9369,0.0615
10.9960,0.020096,-0.176605,0.176605,-0.227029,0.230097,-0.002071,2.5994,1.8819,0.1204
11.0163,0.020280,-0.165986,0.165986,-0.214757,0.220893,-0.002070,2.6008,1.8876,0.1143
11.0370,0.020681,-0.155158,0.155158,-0.191748,0.199418,-0.002070,2.6008,1.8876,0.1143
11.0571,0.020124,-0.144621,0.144621,-0.191748,0.199418,-0.002060,2.6124,1.9369,0.0615
11.0772,0.020094,-0.134099,0.134099,-0.181010,0.187146,-0.002071,2.5994,1.8819,0.1204
11.0973,0.020104,-0.123573,0.123573,-0.173340,0.176408,-0.002070,2.6008,1.8876,0.1143
11.1174,0.020113,-0.113042,0.113042,-0.162602,0.162602,-0.002070,2.6008,1.8876,0.1143
11.1375,0.020093,-0.102521,0.102521,-0.151864,0.150330,-0.002070,2.6008,1.8876,0.1143
11.1576,0.020107,-0.091993,0.091993,-0.141126,0.141126,-0.002070,2.6008,1.8876,0.1143
11.1777,0.020108,-0.081465,0.081465,-0.131922,0.130388,-0.002070,2.6008,1.8876,0.1143
11.1978,0.020102,-0.070939,0.070939,-0.119651,0.119651,-0.002070,2.6008,1.8876,0.1143
11.2180,0.020102,-0.060414,0.060414,-0.108913,0.108913,-0.002070,2.6008,1.8876,0.1143
11.2380,0.020095,-0.049897,0.049897,-0.096641,0.098175,-0.002070,2.6008,1.8876,0.1143
11.2582,0.020106,-0.040004,0.040004,-0.085903,0.085903,-0.002070,2.6008,1.8876,0.1143
11.2783,0.020108,-0.032370,0.032370,-0.075165,0.075165,-0.002070,2.6008,1.8876,0.1143
11.2984,0.020111,-0.027913,0.027913,-0.064427,0.064427,-0.002070,2.6008,1.8876,0.1143
11.3185,0.020106,-0.026320,0.026320,-0.053689,0.053689,-0.002070,2.6008,1.8876,0.1143
11.3386,0.020092,-0.000012,0.000012,-0.041417,0.044485,-0.002070,2.6008,1.8876,0.1143
11.3587,0.020101,-0.001357,0.001357,-0.032214,0.035282,-0.002070,2.6008,1.8876,0.1143
11.3788,0.020090,-0.007290,0.007290,-0.027612,0.027612,-0.002070,2.6008,1.8876,0.1143
11.3989,0.020094,-0.019582,0.019582,-0.027612,0.026078,-0.002070,2.6008,1.8876,0.1143
11.4194,0.020530,-0.037983,0.037983,-0.024544,0.019942,-0.002070,2.6008,1.8876,0.1143
11.4395,0.020090,-0.055575,0.055575,-0.012272,0.009204,-0.002070,2.6008,1.8876,0.1143
11.4596,0.020092,-0.066095,0.066095,-0.001534,0.001534,-0.002070,2.6008,1.8876,0.1143
11.4797,0.020108,-0.076623,0.076623,-0.003068,0.006136,-0.002070,2.6008,1.8876,0.1143
11.4998,0.020094,-0.087145,0.087145,-0.018408,0.023010,-0.002070,2.6008,1.8876,0.1143
11.5199,0.020097,-0.097667,0.097667,-0.039884,0.041417,-0.002070,2.6008,1.8876,0.1143
11.5400,0.020098,-0.108191,0.108191,-0.064427,0.064427,-0.002070,2.6008,1.8876,0.1143
11.5601,0.020090,-0.118710,0.118710,-0.084369,0.079767,-0.002070,2.6008,1.8876,0.1143
11.5801,0.020091,-0.129230,0.129230,-0.085903,0.084369,-0.002070,2.6008,1.8876,0.1143
11.6003,0.020122,-0.139766,0.139766,-0.081301,0.087437,-0.002070,2.6008,1.8876,0.1143
11.6204,0.020100,-0.150290,0.150290,-0.088971,0.101243,-0.002070,2.6008,1.8876,0.1143
11.6405,0.020107,-0.160818,0.160818,-0.108913,0.115049,-0.002070,2.6008,1.8876,0.1143
11.6606,0.020086,-0.171335,0.171335,-0.128854,0.127320,-0.002070,2.6008,1.8876,0.1143
11.6806,0.020088,-0.181853,0.181853,-0.148796,0.141126,-0.002070,2.6008,1.8876,0.1143
11.7007,0.020093,-0.192374,0.192374,-0.154932,0.156466,-0.002070,2.6008,1.8876,0.1143
11.7208,0.020086,-0.202891,0.202891,-0.167204,0.167204,-0.002070,2.6008,1.8876,0.1143
11.7409,0.020104,-0.213417,0.213417,-0.182544,0.176408,-0.002070,2.6008,1.8876,0.1143
11.7610,0.020090,-0.223936,0.223936,-0.193282,0.188680,-0.002070,2.6008,1.8876,0.1143
11.7811,0.020090,-0.234455,0.234455,-0.205553,0.202485,-0.002070,2.6008,1.8876,0.1143
11.8012,0.020043,-0.244950,0.244950,-0.220893,0.217825,-0.002070,2.6008,1.8876,0.1143
11.8212,0.020093,-0.255471,0.255471,-0.233165,0.231631,-0.002070,2.6008,1.8876,0.1143
11.8413,0.020091,-0.265990,0.265990,-0.236233,0.234699,-0.002070,2.6008,1.8876,0.1143
11.8614,0.020091,-0.276510,0.276510,-0.234699,0.233165,-0.002070,2.6008,1.8876,0.1143
11.8815,0.020085,-0.287026,0.287026,-0.245437,0.240835,-0.002070,2.6008,1.8876,0.1143
11.9016,0.020083,-0.297542,0.297542,-0.266913,0.263845,-0.002070,2.6008,1.8876,0.1143
11.9217,0.020097,-0.307635,0.307635,-0.288388,0.285320,-0.002070,2.6008,1.8876,0.1143
11.9419,0.020240,-0.315751,0.315751,-0.299126,0.294524,-0.002070,2.6008,1.8876,0.1143
11.9620,0.020088,-0.320689,0.320689,-0.300660,0.297592,-0.002070,2.6008,1.8876,0.1143
11.9821,0.020094,-0.322643,0.322643,-0.308330,0.300660,-0.002060,2.6124,1.9369,0.0615
12.0022,0.020091,-0.349065,0.349065,-0.322136,0.317534,-0.002071,2.5994,1.8819,0.1204
12.0223,0.020112,-0.348132,0.348132,-0.329806,0.326738,-0.002070,2.6008,1.8876,0.1143
12.0424,0.020090,-0.343056,0.343056,-0.328272,0.323670,-0.002070,2.6008,1.8876,0.1143
12.0625,0.020091,-0.331740,0.331740,-0.331340,0.328272,-0.002070,2.6008,1.8876,0.1143
12.0826,0.020101,-0.314480,0.314480,-0.352816,0.349748,-0.002070,2.6008,1.8876,0.1143
12.1027,0.020086,-0.295299,0.295299,-0.355884,0.349748,-0.002070,2.6008,1.8876,0.1143
12.1228,0.020088,-0.284781,0.284781,-0.346680,0.339010,-0.002070,2.6008,1.8876,0.1143
12.1429,0.020087,-0.274264,0.274264,-0.334408,0.328272,-0.002060,2.6124,1.9369,0.0615
12.1630,0.020089,-0.263745,0.263745,-0.316000,0.312932,-0.002071,2.5994,1.8819,0.1204
12.1831,0.020101,-0.253221,0.253221,-0.296058,0.296058,-0.002070,2.6008,1.8876,0.1143
12.2031,0.020087,-0.242703,0.242703,-0.277651,0.282252,-0.002070,2.6008,1.8876,0.1143
12.2232,0.020092,-0.232183,0.232183,-0.263845,0.269981,-0.002070,2.6008,1.8876,0.1143
12.2433,0.020097,-0.221660,0.221660,-0.254641,0.257709,-0.002070,2.6008,1.8876,0.1143
12.2636,0.020230,-0.211068,0.211068,-0.246971,0.248505,-0.002070,2.6008,1.8876,0.1143
12.2837,0.020102,-0.200542,0.200542,-0.237767,0.239301,-0.002070,2.6008,1.8876,0.1143
12.3038,0.020190,-0.189971,0.189971,-0.228563,0.231631,-0.002070,2.6008,1.8876,0.1143
12.3239,0.020070,-0.179462,0.179462,-0.220893,0.223961,-0.002070,2.6008,1.8876,0.1143
12.3445,0.020614,-0.168669,0.168669,-0.208621,0.216291,-0.002060,2.6124,1.9369,0.0615
12.3649,0.020332,-0.158023,0.158023,-0.199418,0.208621,-0.002071,2.5994,1.8819,0.1204
12.3850,0.020099,-0.147499,0.147499,-0.188680,0.196350,-0.002071,2.5994,1.8819,0.1204
12.4051,0.020151,-0.136948,0.136948,-0.177942,0.184078,-0.002070,2.6008,1.8876,0.1143
12.4252,0.020095,-0.126426,0.126426,-0.168738,0.171806,-0.002070,2.6008,1.8876,0.1143
12.4453,0.020085,-0.115910,0.115910,-0.158000,0.158000,-0.002070,2.6008,1.8876,0.1143
12.4656,0.020283,-0.105290,0.105290,-0.147262,0.145728,-0.002070,2.6008,1.8876,0.1143
12.4857,0.020161,-0.094733,0.094733,-0.136524,0.134990,-0.002070,2.6008,1.8876,0.1143
12.5059,0.020175,-0.084170,0.084170,-0.125786,0.124252,-0.002070,2.6008,1.8876,0.1143
12.5263,0.020400,-0.073489,0.073489,-0.115049,0.113515,-0.002060,2.6124,1.9369,0.0615
12.5464,0.020084,-0.062973,0.062973,-0.092039,0.092039,-0.002071,2.5994,1.8819,0.1204
12.5666,0.020159,-0.052418,0.052418,-0.092039,0.092039,-0.002070,2.6008,1.8876,0.1143
12.5867,0.020149,-0.042207,0.042207,-0.081301,0.081301,-0.002070,2.6008,1.8876,0.1143
12.6068,0.020103,-0.033914,0.033914,-0.059825,0.059825,-0.002070,2.6008,1.8876,0.1143
12.6269,0.020087,-0.028685,0.028685,-0.047553,0.049087,-0.002070,2.6008,1.8876,0.1143
12.6470,0.020086,-0.026502,0.026502,-0.035282,0.039884,-0.002070,2.6008,1.8876,0.1143
12.6672,0.020229,-0.000000,0.000000,-0.027612,0.030680,-0.002070,2.6008,1.8876,0.1143
12.6874,0.020217,-0.000754,0.000754,-0.026078,0.026078,-0.002070,2.6008,1.8876,0.1143
12.7075,0.020093,-0.005407,0.005407,-0.026078,0.021476,-0.002070,2.6008,1.8876,0.1143
12.7278,0.020258,-0.016336,0.016336,-0.016874,0.013806,-0.002070,2.6008,1.8876,0.1143
12.7479,0.020092,-0.033238,0.033238,-0.003068,0.000000,-0.002070,2.6008,1.8876,0.1143
12.7682,0.020300,-0.053147,0.053147,0.000000,0.003068,-0.002070,2.6008,1.8876,0.1143
12.7885,0.020290,-0.063770,0.063770,-0.012272,0.016874,-0.002070,2.6008,1.8876,0.1143
12.8085,0.020086,-0.074287,0.074287,-0.030680,0.033748,-0.002070,2.6008,1.8876,0.1143
12.8286,0.020091,-0.084807,0.084807,-0.049087,0.050621,-0.002070,2.6008,1.8876,0.1143
12.8488,0.020121,-0.095342,0.095342,-0.073631,0.070563,-0.002070,2.6008,1.8876,0.1143
12.8688,0.020084,-0.105859,0.105859,-0.085903,0.081301,-0.002070,2.6008,1.8876,0.1143
12.8890,0.020110,-0.116388,0.116388,-0.085903,0.085903,-0.002070,2.6008,1.8876,0.1143
12.9090,0.020083,-0.126903,0.126903,-0.087437,0.095107,-0.002070,2.6008,1.8876,0.1143
12.9292,0.020117,-0.137437,0.137437,-0.102777,0.108913,-0.002070,2.6008,1.8876,0.1143
12.9493,0.020148,-0.147986,0.147986,-0.122718,0.122718,-0.002070,2.6008,1.8876,0.1143
12.9694,0.020095,-0.158508,0.158508,-0.138058,0.130388,-0.002070,2.6008,1.8876,0.1143
12.9895,0.020155,-0.169061,0.169061,-0.144194,0.136524,-0.002070,2.6008,1.8876,0.1143
13.0098,0.020204,-0.179640,0.179640,-0.150330,0.148796,-0.002070,2.6008,1.8876,0.1143
13.0300,0.020247,-0.190241,0.190241,-0.165670,0.164136,-0.002070,2.6008,1.8876,0.1143
13.0501,0.020096,-0.200763,0.200763,-0.179476,0.177942,-0.002070,2.6008,1.8876,0.1143
13.0702,0.020084,-0.211279,0.211279,-0.190214,0.182544,-0.002070,2.6008,1.8876,0.1143
13.0903,0.020085,-0.221796,0.221796,-0.194816,0.187146,-0.002070,2.6008,1.8876,0.1143
13.1104,0.020088,-0.232314,0.232314,-0.202485,0.199418,-0.002070,2.6008,1.8876,0.1143
13.1307,0.020385,-0.242988,0.242988,-0.217825,0.216291,-0.002070,2.6008,1.8876,0.1143
13.1510,0.020304,-0.253619,0.253619,-0.230097,0.230097,-0.002070,2.6008,1.8876,0.1143
13.1711,0.020094,-0.264140,0.264140,-0.237767,0.236233,-0.002070,2.6008,1.8876,0.1143
13.1913,0.020145,-0.274688,0.274688,-0.248505,0.242369,-0.002070,2.6008,1.8876,0.1143
13.2114,0.020087,-0.285205,0.285205,-0.257709,0.253107,-0.002070,2.6008,1.8876,0.1143
13.2315,0.020088,-0.295723,0.295723,-0.269981,0.268447,-0.002070,2.6008,1.8876,0.1143
13.2518,0.020358,-0.306116,0.306116,-0.279185,0.282252,-0.002070,2.6008,1.8876,0.1143
13.2719,0.020108,-0.314612,0.314612,-0.279185,0.282252,-0.002070,2.6008,1.8876,0.1143
13.2920,0.020109,-0.320097,0.320097,-0.288388,0.286854,-0.002070,2.6008,1.8876,0.1143
13.3121,0.020105,-0.322485,0.322485,-0.302194,0.294524,-0.002070,2.6008,1.8876,0.1143
13.3322,0.020099,-0.322886,0.322886,-0.312932,0.305262,-0.002070,2.6008,1.8876,0.1143
13.3523,0.020093,-0.348486,0.348486,-0.320602,0.319068,-0.002070,2.6008,1.8876,0.1143
13.3724,0.020101,-0.344293,0.344293,-0.320602,0.319068,-0.002070,2.6008,1.8876,0.1143
13.3925,0.020119,-0.334033,0.334033,-0.323670,0.319068,-0.002070,2.6008,1.8876,0.1143
13.4127,0.020108,-0.317612,0.317612,-0.328272,0.323670,-0.002070,2.6008,1.8876,0.1143
13.4328,0.020101,-0.297309,0.297309,-0.335942,0.331340,-0.002070,2.6008,1.8876,0.1143
13.4529,0.020105,-0.286480,0.286480,-0.349748,0.346680,-0.002070,2.6008,1.8876,0.1143
13.4730,0.020116,-0.275948,0.275948,-0.354350,0.349748,-0.002070,2.6008,1.8876,0.1143
13.4931,0.020101,-0.265423,0.265423,-0.346680,0.339010,-0.002070,2.6008,1.8876,0.1143
13.5132,0.020089,-0.254904,0.254904,-0.328272,0.320602,-0.002070,2.6008,1.8876,0.1143
13.5333,0.020092,-0.244384,0.244384,-0.308330,0.306796,-0.002070,2.6008,1.8876,0.1143
13.5534,0.020097,-0.233862,0.233862,-0.282252,0.285320,-0.002070,2.6008,1.8876,0.1143
13.5735,0.020099,-0.223338,0.223338,-0.266913,0.273049,-0.002070,2.6008,1.8876,0.1143
13.5936,0.020099,-0.212814,0.212814,-0.256175,0.260777,-0.002070,2.6008,1.8876,0.1143
13.6136,0.020093,-0.202293,0.202293,-0.248505,0.251573,-0.002070,2.6008,1.8876,0.1143
13.6337,0.020096,-0.191771,0.191771,-0.240835,0.243903,-0.002070,2.6008,1.8876,0.1143
13.6538,0.020103,-0.181245,0.181245,-0.230097,0.234699,-0.002070,2.6008,1.8876,0.1143
13.6740,0.020104,-0.170719,0.170719,-0.220893,0.223961,-0.002070,2.6008,1.8876,0.1143
13.6941,0.020101,-0.160194,0.160194,-0.208621,0.214757,-0.002070,2.6008,1.8876,0.1143
13.7141,0.020096,-0.149671,0.149671,-0.197884,0.204019,-0.002070,2.6008,1.8876,0.1143
13.7342,0.020090,-0.139152,0.139152,-0.187146,0.193282,-0.002070,2.6008,1.8876,0.1143
13.7543,0.020092,-0.128632,0.128632,-0.177942,0.181010,-0.002070,2.6008,1.8876,0.1143
13.7744,0.020092,-0.118112,0.118112,-0.167204,0.168738,-0.002070,2.6008,1.8876,0.1143
13.7945,0.020091,-0.107592,0.107592,-0.156466,0.156466,-0.002070,2.6008,1.8876,0.1143
13.8146,0.020091,-0.097073,0.097073,-0.144194,0.144194,-0.002070,2.6008,1.8876,0.1143
13.8347,0.020084,-0.086557,0.086557,-0.134990,0.133456,-0.002060,2.6124,1.9369,0.0615
13.8548,0.020093,-0.076036,0.076036,-0.122718,0.121184,-0.002071,2.5994,1.8819,0.1204
13.8749,0.020090,-0.065517,0.065517,-0.110447,0.111981,-0.002070,2.6008,1.8876,0.1143
13.8950,0.020091,-0.054998,0.054998,-0.101243,0.101243,-0.002070,2.6008,1.8876,0.1143
13.9151,0.020102,-0.044618,0.044618,-0.090505,0.090505,-0.002070,2.6008,1.8876,0.1143
13.9352,0.020090,-0.035713,0.035713,-0.081301,0.081301,-0.002070,2.6008,1.8876,0.1143
13.9553,0.020121,-0.029670,0.029670,-0.069029,0.069029,-0.002070,2.6008,1.8876,0.1143
