t,loop_dt,cmd_ant_l,cmd_ant_r,pres_ant_l,pres_ant_r,pres_z,pres_roll,pres_pitch,pres_yaw
0.0000,0.000002,-0.349066,0.349066,-3.048020,3.041884,-0.046082,1.1519,26.7798,1.1917
0.0172,0.017164,-0.348495,0.348495,-3.048020,3.041884,-0.046082,1.1519,26.7798,1.1917
0.0339,0.016758,-0.346840,0.346840,-3.048020,3.041884,-0.046082,1.1519,26.7798,1.1917
0.0507,0.016750,-0.344113,0.344113,-3.048020,3.041884,-0.046082,1.1519,26.7798,1.1917
0.0674,0.016752,-0.340330,0.340330,-3.048020,3.041884,-0.046082,1.1519,26.7798,1.1917
0.0842,0.016746,-0.335515,0.335515,-3.048020,3.041884,-0.046082,1.1519,26.7798,1.1917
0.1009,0.016726,-0.329706,0.329706,-3.048020,3.041884,-0.046082,1.1519,26.7798,1.1917
0.1176,0.016748,-0.322924,0.322924,-3.048020,3.041884,-0.046082,1.1519,26.7798,1.1917
0.1344,0.016756,-0.315214,0.315214,-3.048020,3.041884,-0.046082,1.1519,26.7798,1.1917
0.1511,0.016744,-0.306634,0.306634,-3.048020,3.041884,-0.046082,1.1519,26.7798,1.1917
0.1679,0.016751,-0.297229,0.297229,-3.048020,3.041884,-0.046082,1.1519,26.7798,1.1917
0.1847,0.016758,-0.287054,0.287054,-3.048020,3.041884,-0.046082,1.1519,26.7798,1.1917
0.2017,0.017035,-0.275993,0.275993,-3.048020,3.041884,-0.046082,1.1519,26.7798,1.1917
0.2184,0.016750,-0.264479,0.264479,-3.048020,3.041884,-0.046082,1.1519,26.7798,1.1917
0.2352,0.016757,-0.252400,0.252400,-3.048020,3.041884,-0.046082,1.1519,26.7798,1.1917
0.2519,0.016741,-0.239848,0.239848,-3.048020,3.041884,-0.046082,1.1519,26.7798,1.1917
0.2687,0.016752,-0.226881,0.226881,-3.048020,3.041884,-0.046082,1.1519,26.7798,1.1917
0.2854,0.016745,-0.213594,0.213594,-3.048020,3.041884,-0.046082,1.1519,26.7798,1.1917
0.3022,0.016755,-0.200056,0.200056,-3.048020,3.041884,-0.046082,1.1519,26.7798,1.1917
0.3189,0.016748,-0.186363,0.186363,-3.048020,3.041884,-0.046082,1.1519,26.7798,1.1917
0.3357,0.016750,-0.172596,0.172596,-3.048020,3.041884,-0.046082,1.1519,26.7798,1.1917
0.3524,0.016748,-0.158842,0.158842,-3.048020,3.041884,-0.046082,1.1519,26.7798,1.1917
0.3692,0.016747,-0.145187,0.145187,-3.048020,3.041884,-0.046082,1.1519,26.7798,1.1917
0.3859,0.016750,-0.131712,0.131712,-3.048020,3.041884,-0.046082,1.1519,26.7798,1.1917
0.4027,0.016745,-0.118508,0.118508,-3.048020,3.041884,-0.046082,1.1519,26.7798,1.1917
0.4195,0.016823,-0.105594,0.105594,-3.048020,3.041884,-0.046082,1.1519,26.7798,1.1917
0.4363,0.016751,-0.093165,0.093165,-3.048020,3.041884,-0.046082,1.1519,26.7798,1.1917
0.4530,0.016748,-0.081245,0.081245,-3.048020,3.041884,-0.046082,1.1519,26.7798,1.1917
0.4698,0.016770,-0.069891,0.069891,-3.048020,3.041884,-0.046082,1.1519,26.7798,1.1917
0.4865,0.016751,-0.059202,0.059202,-3.048020,3.041884,-0.046082,1.1519,26.7798,1.1917
0.5033,0.016768,-0.049222,0.049222,-3.048020,3.041884,-0.046082,1.1519,26.7798,1.1917
0.5200,0.016742,-0.040037,0.040037,-3.048020,3.041884,-0.046082,1.1519,26.7798,1.1917
0.5368,0.016750,-0.031685,0.031685,-3.048020,3.041884,-0.046082,1.1519,26.7798,1.1917
0.5535,0.016744,-0.024225,0.024225,-3.048020,3.041884,-0.046082,1.1519,26.7798,1.1917
0.5703,0.016752,-0.017698,0.017698,-3.048020,3.041884,-0.046084,1.1414,26.7760,1.1584
0.5870,0.016745,-0.012149,0.012149,-3.048020,3.041884,-0.046082,1.1527,26.7801,1.1943
0.6038,0.016769,-0.007606,0.007606,-3.048020,3.041884,-0.046082,1.1527,26.7801,1.1943
0.6205,0.016746,-0.004108,0.004108,-3.048020,3.041884,-0.046082,1.1519,26.7798,1.1916
0.6373,0.016752,-0.001670,0.001670,-3.048020,3.041884,-0.046082,1.1519,26.7798,1.1916
0.6540,0.016745,-0.000309,0.000309,-3.048020,3.041884,-0.046082,1.1519,26.7798,1.1916
0.6708,0.016737,-0.000033,0.000033,-3.048020,3.041884,-0.046082,1.1519,26.7798,1.1916
0.6875,0.016743,-0.000842,0.000842,-3.048020,3.041884,-0.046082,1.1519,26.7798,1.1916
0.7043,0.016766,-0.002734,0.002734,-3.048020,3.041884,-0.046082,1.1519,26.7798,1.1916
0.7210,0.016748,-0.005695,0.005695,-3.048020,3.041884,-0.046082,1.1519,26.7798,1.1916
0.7378,0.016735,-0.009704,0.009704,-3.048020,3.041884,-0.046082,1.1519,26.7798,1.1916
0.7545,0.016744,-0.014740,0.014740,-3.048020,3.041884,-0.046082,1.1519,26.7798,1.1916
0.7713,0.016765,-0.020779,0.020779,-3.048020,3.041884,-0.046082,1.1519,26.7798,1.1916
0.7880,0.016744,-0.027767,0.027767,-3.048020,3.041884,-0.046082,1.1519,26.7798,1.1916
0.8048,0.016765,-0.035679,0.035679,-3.048020,3.041884,-0.046082,1.1519,26.7798,1.1916
0.8215,0.016743,-0.044445,0.044445,-3.048020,3.041884,-0.046084,1.1414,26.7760,1.1584
0.8383,0.016758,-0.054030,0.054030,-3.048020,3.041884,-0.046082,1.1527,26.7801,1.1943
0.8550,0.016754,-0.064363,0.064363,-3.048020,3.041884,-0.046082,1.1519,26.7798,1.1916
0.8718,0.016751,-0.075381,0.075381,-3.048020,3.041884,-0.046082,1.1519,26.7798,1.1916
0.8885,0.016749,-0.087014,0.087014,-3.048020,3.041884,-0.046082,1.1519,26.7798,1.1916
0.9053,0.016755,-0.099197,0.099197,-3.048020,3.041884,-0.046082,1.1519,26.7798,1.1916
0.9220,0.016743,-0.111841,0.111841,-3.048020,3.041884,-0.046082,1.1519,26.7798,1.1916
0.9388,0.016743,-0.124874,0.124874,-3.048020,3.041884,-0.046082,1.1519,26.7798,1.1916
0.9555,0.016752,-0.138223,0.138223,-3.048020,3.041884,-0.046082,1.1519,26.7798,1.1916
0.9723,0.016746,-0.151794,0.151794,-3.048020,3.041884,-0.046082,1.1519,26.7798,1.1916
0.9890,0.016743,-0.165503,0.165503,-3.048020,3.041884,-0.046082,1.1519,26.7798,1.1916
1.0058,0.016766,-0.179289,0.179289,-3.048020,3.041884,-0.046082,1.1519,26.7798,1.1916
1.0225,0.016759,-0.193038,0.193038,-3.048020,3.041884,-0.046082,1.1519,26.7798,1.1916
1.0393,0.016751,-0.206666,0.206666,-3.048020,3.041884,-0.046082,1.1519,26.7798,1.1916
1.0560,0.016744,-0.220087,0.220087,-3.048020,3.041884,-0.046082,1.1519,26.7798,1.1916
1.0728,0.016748,-0.233229,0.233229,-3.048020,3.041884,-0.046082,1.1519,26.7798,1.1916
1.0895,0.016762,-0.246015,0.246015,-3.048020,3.041884,-0.046082,1.1519,26.7798,1.1916
1.1063,0.016748,-0.258346,0.258346,-3.048020,3.041884,-0.046082,1.1519,26.7798,1.1916
1.1230,0.016747,-0.270154,0.270154,-3.048020,3.041884,-0.046075,1.1747,26.8367,1.1643
1.1398,0.016742,-0.281364,0.281364,-3.048020,3.041884,-0.046083,1.1493,26.7738,1.1937
1.1565,0.016743,-0.291910,0.291910,-3.048020,3.041884,-0.046082,1.1519,26.7804,1.1906
1.1733,0.016775,-0.301744,0.301744,-3.048020,3.041884,-0.046082,1.1519,26.7804,1.1906
1.1900,0.016745,-0.310767,0.310767,-3.048020,3.041884,-0.046082,1.1519,26.7804,1.1906
1.2072,0.017173,-0.319141,0.319141,-3.048020,3.041884,-0.046082,1.1519,26.7804,1.1906
1.2240,0.016745,-0.326394,0.326394,-3.048020,3.041884,-0.046082,1.1519,26.7804,1.1906
1.2407,0.016740,-0.332701,0.332701,-3.048020,3.041884,-0.046082,1.1519,26.7804,1.1906
1.2574,0.016733,-0.338022,0.338022,-3.048020,3.041884,-0.046082,1.1519,26.7804,1.1906
1.2742,0.016746,-0.342330,0.342330,-3.048020,3.041884,-0.046082,1.1519,26.7804,1.1906
1.2909,0.016748,-0.345593,0.345593,-3.048020,3.041884,-0.046082,1.1519,26.7804,1.1906
1.3077,0.016729,-0.347790,0.347790,-3.048020,3.041884,-0.046082,1.1519,26.7804,1.1906
1.3244,0.016754,-0.348912,0.348912,-3.048020,3.041884,-0.046082,1.1519,26.7804,1.1906
1.3412,0.016751,-0.348947,0.348947,-3.048020,3.041884,-0.046082,1.1519,26.7804,1.1906
1.3579,0.016751,-0.347896,0.347896,-3.048020,3.041884,-0.046082,1.1519,26.7804,1.1906
1.3747,0.016753,-0.345765,0.345765,-3.048020,3.041884,-0.046082,1.1519,26.7804,1.1906
1.3914,0.016758,-0.342566,0.342566,-3.048020,3.041884,-0.046082,1.1519,26.7804,1.1906
1.4082,0.016754,-0.338321,0.338321,-3.048020,3.041884,-0.046082,1.1519,26.7804,1.1906
1.4249,0.016752,-0.333056,0.333056,-3.048020,3.041884,-0.046082,1.1519,26.7804,1.1906
1.4417,0.016755,-0.326803,0.326803,-3.048020,3.041884,-0.046082,1.1519,26.7804,1.1906
1.4584,0.016756,-0.319600,0.319600,-3.048020,3.041884,-0.046082,1.1519,26.7804,1.1906
1.4752,0.016756,-0.311494,0.311494,-3.048020,3.041884,-0.046082,1.1519,26.7804,1.1906
1.4920,0.016754,-0.302535,0.302535,-3.048020,3.041884,-0.046082,1.1519,26.7804,1.1906
1.5087,0.016759,-0.292776,0.292776,-3.048020,3.041884,-0.046082,1.1519,26.7804,1.1906
1.5255,0.016752,-0.282284,0.282284,-3.048020,3.041884,-0.046082,1.1519,26.7804,1.1906
1.5422,0.016754,-0.271120,0.271120,-3.048020,3.041884,-0.046082,1.1519,26.7804,1.1906
1.5590,0.016754,-0.259354,0.259354,-3.048020,3.041884,-0.046082,1.1519,26.7804,1.1906
1.5757,0.016758,-0.247056,0.247056,-3.048020,3.041884,-0.046082,1.1519,26.7804,1.1906
1.5925,0.016760,-0.234305,0.234305,-3.048020,3.041884,-0.046082,1.1519,26.7804,1.1906
1.6092,0.016756,-0.221185,0.221185,-3.048020,3.041884,-0.046082,1.1519,26.7804,1.1906
1.6260,0.016753,-0.207776,0.207776,-3.048020,3.041884,-0.046082,1.1519,26.7804,1.1906
1.6428,0.016771,-0.194145,0.194145,-3.048020,3.041884,-0.046082,1.1519,26.7804,1.1906
1.6595,0.016751,-0.180408,0.180408,-3.048020,3.041884,-0.046082,1.1519,26.7804,1.1906
1.6763,0.016767,-0.166622,0.166622,-3.048020,3.041884,-0.046082,1.1519,26.7804,1.1906
1.6930,0.016754,-0.152895,0.152895,-3.048020,3.041884,-0.046082,1.1519,26.7804,1.1906
1.7098,0.016756,-0.139302,0.139302,-3.048020,3.041884,-0.046082,1.1519,26.7804,1.1906
1.7266,0.016757,-0.125927,0.125927,-3.048020,3.041884,-0.046082,1.1519,26.7804,1.1906
1.7433,0.016763,-0.112851,0.112851,-3.048020,3.041884,-0.046082,1.1519,26.7804,1.1906
1.7605,0.017198,-0.099836,0.099836,-3.048020,3.041884,-0.046082,1.1519,26.7804,1.1906
1.7773,0.016758,-0.087625,0.087625,-3.048020,3.041884,-0.046082,1.1519,26.7804,1.1906
1.7940,0.016761,-0.075953,0.075953,-3.048020,3.041884,-0.046082,1.1519,26.7804,1.1906
1.8108,0.016754,-0.064901,0.064901,-3.048020,3.041884,-0.046082,1.1519,26.7804,1.1906
1.8277,0.016883,-0.054455,0.054455,-3.048020,3.041884,-0.046082,1.1519,26.7804,1.1906
1.8444,0.016755,-0.044838,0.044838,-3.048020,3.041884,-0.046082,1.1519,26.7804,1.1906
1.8616,0.017219,-0.035799,0.035799,-3.048020,3.041884,-0.046082,1.1519,26.7804,1.1906
1.8784,0.016771,-0.027871,0.027871,-3.048020,3.041884,-0.046082,1.1519,26.7804,1.1906
1.8952,0.016768,-0.020860,0.020860,-3.048020,3.041884,-0.046082,1.1519,26.7804,1.1906
1.9119,0.016753,-0.014813,0.014813,-3.048020,3.041884,-0.046082,1.1519,26.7804,1.1906
1.9287,0.016772,-0.009756,0.009756,-3.048020,3.041884,-0.046082,1.1519,26.7804,1.1906
1.9455,0.016760,-0.005731,0.005731,-3.048020,3.041884,-0.046082,1.1519,26.7804,1.1906
1.9622,0.016771,-0.002756,0.002756,-3.048020,3.041884,-0.046082,1.1519,26.7804,1.1906
1.9790,0.016758,-0.000854,0.000854,-3.048020,3.041884,-0.046082,1.1519,26.7804,1.1906
1.9958,0.016766,-0.000035,0.000035,-3.048020,3.041884,-0.046082,1.1519,26.7804,1.1906
2.0125,0.016753,-0.000304,0.000304,-3.048020,3.041884,-0.046082,1.1519,26.7804,1.1906
2.0293,0.016768,-0.001659,0.001659,-3.048020,3.041884,-0.046082,1.1519,26.7804,1.1906
2.0460,0.016758,-0.004092,0.004092,-3.048020,3.041884,-0.046082,1.1519,26.7804,1.1906
2.0628,0.016764,-0.007589,0.007589,-3.048020,3.041884,-0.046082,1.1519,26.7804,1.1906
2.0796,0.016758,-0.012125,0.012125,-3.048020,3.041884,-0.046082,1.1519,26.7804,1.1906
2.0963,0.016763,-0.017675,0.017675,-3.048020,3.041884,-0.046082,1.1519,26.7804,1.1906
2.1131,0.016751,-0.024199,0.024199,-3.048020,3.041884,-0.046084,1.1414,26.7759,1.1585
2.1298,0.016762,-0.031664,0.031664,-3.048020,3.041884,-0.046082,1.1527,26.7801,1.1943
2.1466,0.016752,-0.040014,0.040014,-3.048020,3.041884,-0.046082,1.1519,26.7798,1.1916
2.1634,0.016764,-0.049210,0.049210,-3.048020,3.041884,-0.046082,1.1519,26.7798,1.1916
2.1801,0.016765,-0.059188,0.059188,-3.048020,3.041884,-0.046082,1.1519,26.7798,1.1916
2.1969,0.016769,-0.069888,0.069888,-3.048020,3.041884,-0.046082,1.1519,26.7798,1.1916
2.2136,0.016758,-0.081233,0.081233,-3.048020,3.041884,-0.046082,1.1519,26.7798,1.1916
2.2304,0.016760,-0.093162,0.093162,-3.048020,3.041884,-0.046082,1.1519,26.7798,1.1916
2.2472,0.016759,-0.105597,0.105597,-3.048020,3.041884,-0.046082,1.1519,26.7798,1.1916
2.2639,0.016763,-0.118465,0.118465,-3.048020,3.041884,-0.046082,1.1519,26.7798,1.1916
2.2807,0.016756,-0.131677,0.131677,-3.048020,3.041884,-0.046082,1.1519,26.7798,1.1916
2.2974,0.016761,-0.145160,0.145160,-3.048020,3.041884,-0.046082,1.1519,26.7798,1.1916
2.3142,0.016763,-0.158827,0.158827,-3.048020,3.041884,-0.046082,1.1519,26.7798,1.1916
2.3310,0.016776,-0.172604,0.172604,-3.048020,3.041884,-0.046082,1.1519,26.7798,1.1916
2.3478,0.016830,-0.186437,0.186437,-3.048020,3.041884,-0.046082,1.1519,26.7798,1.1916
2.3646,0.016764,-0.200141,0.200141,-3.048020,3.041884,-0.046084,1.1414,26.7760,1.1584
2.3813,0.016761,-0.213683,0.213683,-3.048020,3.041884,-0.046082,1.1527,26.7801,1.1943
2.3981,0.016767,-0.226986,0.226986,-3.048020,3.041884,-0.046082,1.1519,26.7798,1.1916
2.4149,0.016766,-0.239961,0.239961,-3.048020,3.041884,-0.046082,1.1519,26.7798,1.1916
2.4316,0.016759,-0.252522,0.252522,-3.048020,3.041884,-0.046082,1.1519,26.7798,1.1916
2.4484,0.016765,-0.264601,0.264601,-3.048020,3.041884,-0.046082,1.1519,26.7798,1.1916
2.4652,0.016759,-0.276115,0.276115,-3.048020,3.041884,-0.046082,1.1519,26.7798,1.1916
2.4819,0.016752,-0.286990,0.286990,-3.048020,3.041884,-0.046082,1.1519,26.7798,1.1916
2.4987,0.016793,-0.297190,0.297190,-3.048020,3.041884,-0.046082,1.1519,26.7798,1.1916
2.5155,0.016759,-0.306603,0.306603,-3.048020,3.041884,-0.046082,1.1519,26.7798,1.1916
2.5322,0.016768,-0.315197,0.315197,-3.048020,3.041884,-0.046082,1.1519,26.7798,1.1916
2.5492,0.016983,-0.323007,0.323007,-3.048020,3.041884,-0.046082,1.1519,26.7798,1.1916
2.5660,0.016762,-0.329784,0.329784,-3.048020,3.041884,-0.046082,1.1519,26.7798,1.1916
2.5827,0.016748,-0.335587,0.335587,-3.048020,3.041884,-0.046082,1.1519,26.7798,1.1916
2.5995,0.016762,-0.340392,0.340392,-3.048020,3.041884,-0.046082,1.1519,26.7798,1.1916
2.6166,0.017147,-0.344237,0.344237,-3.048020,3.041884,-0.046082,1.1519,26.7798,1.1916
2.6334,0.016768,-0.346926,0.346926,-3.048020,3.041884,-0.046082,1.1519,26.7798,1.1916
2.6502,0.016760,-0.348538,0.348538,-3.048020,3.041884,-0.046082,1.1519,26.7798,1.1916
2.6669,0.016761,-0.349066,0.349066,-3.048020,3.041884,-0.046082,1.1519,26.7798,1.1916
2.6837,0.016757,-0.348505,0.348505,-3.048020,3.041884,-0.046082,1.1519,26.7798,1.1916
2.7004,0.016758,-0.346861,0.346861,-3.048020,3.041884,-0.046082,1.1519,26.7798,1.1916
2.7172,0.016761,-0.344141,0.344141,-3.048020,3.041884,-0.046082,1.1519,26.7798,1.1916
2.7340,0.016762,-0.340364,0.340364,-3.048020,3.041884,-0.046082,1.1519,26.7798,1.1916
2.7507,0.016767,-0.335551,0.335551,-3.048020,3.041884,-0.046082,1.1519,26.7798,1.1916
2.7675,0.016769,-0.329733,0.329733,-3.048020,3.041884,-0.046082,1.1519,26.7798,1.1916
2.7843,0.016761,-0.322950,0.322950,-3.048020,3.041884,-0.046082,1.1519,26.7798,1.1916
2.8010,0.016758,-0.315242,0.315242,-3.048020,3.041884,-0.046082,1.1519,26.7798,1.1916
2.8178,0.016763,-0.306655,0.306655,-3.048020,3.041884,-0.046082,1.1519,26.7798,1.1916
2.8345,0.016757,-0.297248,0.297248,-3.048020,3.041884,-0.046082,1.1519,26.7798,1.1916
2.8515,0.016982,-0.286934,0.286934,-3.048020,3.041884,-0.046082,1.1519,26.7798,1.1916
2.8683,0.016764,-0.276046,0.276046,-3.048020,3.041884,-0.046082,1.1519,26.7798,1.1916
2.8850,0.016755,-0.264532,0.264532,-3.048020,3.041884,-0.046082,1.1519,26.7798,1.1916
2.9018,0.016750,-0.252461,0.252461,-3.048020,3.041884,-0.046082,1.1519,26.7798,1.1916
2.9185,0.016757,-0.239899,0.239899,-3.048020,3.041884,-0.046082,1.1519,26.7798,1.1916
2.9353,0.016753,-0.226933,0.226933,-3.048020,3.041884,-0.046082,1.1519,26.7798,1.1916
2.9521,0.016766,-0.213629,0.213629,-3.048020,3.041884,-0.046082,1.1519,26.7798,1.1916
2.9688,0.016753,-0.200093,0.200093,-3.048020,3.041884,-0.046082,1.1519,26.7798,1.1916
2.9856,0.016762,-0.186390,0.186390,-3.048020,3.041884,-0.046082,1.1519,26.7798,1.1916
3.0024,0.016790,-0.172590,0.172590,-3.048020,3.041884,-0.046082,1.1519,26.7798,1.1916
3.0191,0.016772,-0.158817,0.158817,-3.048020,3.041884,-0.046082,1.1519,26.7798,1.1916
3.0359,0.016764,-0.145148,0.145148,-3.048020,3.041884,-0.046082,1.1519,26.7798,1.1916
3.0527,0.016762,-0.131665,0.131665,-3.048020,3.041884,-0.046082,1.1519,26.7798,1.1916
3.0694,0.016762,-0.118449,0.118449,-3.048020,3.041884,-0.046082,1.1519,26.7798,1.1916
3.0862,0.016756,-0.105586,0.105586,-3.048020,3.041884,-0.046082,1.1519,26.7798,1.1916
3.1030,0.016773,-0.093142,0.093142,-3.048020,3.041884,-0.046082,1.1519,26.7798,1.1916
3.1197,0.016763,-0.081212,0.081212,-3.048020,3.041884,-0.046082,1.1519,26.7798,1.1916
3.1365,0.016755,-0.069870,0.069870,-3.048020,3.041884,-0.046082,1.1519,26.7798,1.1916
3.1532,0.016754,-0.059180,0.059180,-3.048020,3.041884,-0.046082,1.1519,26.7798,1.1916
3.1700,0.016761,-0.049206,0.049206,-3.048020,3.041884,-0.046082,1.1519,26.7798,1.1916
3.1867,0.016754,-0.040016,0.040016,-3.048020,3.041884,-0.046082,1.1519,26.7798,1.1916
3.2035,0.016760,-0.031662,0.031662,-3.048020,3.041884,-0.046082,1.1519,26.7798,1.1916
3.2202,0.016751,-0.024201,0.024201,-3.048020,3.041884,-0.046082,1.1519,26.7798,1.1916
3.2370,0.016784,-0.017666,0.017666,-3.048020,3.041884,-0.046082,1.1519,26.7798,1.1916
3.2538,0.016760,-0.012118,0.012118,-3.048020,3.041884,-0.046082,1.1519,26.7798,1.1916
3.2705,0.016755,-0.007584,0.007584,-3.048020,3.041884,-0.046082,1.1519,26.7798,1.1916
3.2873,0.016749,-0.004091,0.004091,-3.048020,3.041884,-0.046082,1.1519,26.7798,1.1916
3.3041,0.016764,-0.001658,0.001658,-3.048020,3.041884,-0.046082,1.1519,26.7798,1.1916
3.3208,0.016756,-0.000304,0.000304,-3.048020,3.041884,-0.046082,1.1519,26.7798,1.1916
3.3376,0.016774,-0.000035,0.000035,-3.048020,3.041884,-0.046082,1.1519,26.7798,1.1916
3.3543,0.016757,-0.000855,0.000855,-3.048020,3.041884,-0.046082,1.1519,26.7798,1.1916
3.3711,0.016760,-0.002758,0.002758,-3.048020,3.041884,-0.046082,1.1519,26.7798,1.1916
3.3879,0.016749,-0.005729,0.005729,-3.048020,3.041884,-0.046082,1.1519,26.7798,1.1916
3.4046,0.016756,-0.009754,0.009754,-3.048020,3.041884,-0.046082,1.1519,26.7798,1.1916
3.4214,0.016757,-0.014805,0.014805,-3.048020,3.041884,-0.046082,1.1519,26.7798,1.1916
3.4381,0.016764,-0.020855,0.020855,-3.048020,3.041884,-0.046082,1.1519,26.7798,1.1916
3.4549,0.016766,-0.027864,0.027864,-3.048020,3.041884,-0.046082,1.1519,26.7798,1.1916
3.4717,0.016771,-0.035791,0.035791,-3.048020,3.041884,-0.046082,1.1519,26.7798,1.1916
3.4884,0.016772,-0.044584,0.044584,-3.048020,3.041884,-0.046082,1.1519,26.7798,1.1916
3.5061,0.017637,-0.054705,0.054705,-3.048020,3.041884,-0.046082,1.1519,26.7798,1.1916
3.5228,0.016734,-0.065073,0.065073,-3.048020,3.041884,-0.046082,1.1519,26.7798,1.1916
3.5396,0.016768,-0.076145,0.076145,-3.048020,3.041884,-0.046082,1.1519,26.7798,1.1916
3.5563,0.016759,-0.087825,0.087825,-3.048020,3.041884,-0.046082,1.1519,26.7798,1.1916
3.5731,0.016754,-0.100042,0.100042,-3.048020,3.041884,-0.046082,1.1519,26.7798,1.1916
3.5899,0.016760,-0.112727,0.112727,-3.048020,3.041884,-0.046082,1.1519,26.7798,1.1916
3.6066,0.016767,-0.125803,0.125803,-3.048020,3.041884,-0.046082,1.1519,26.7798,1.1916
3.6234,0.016770,-0.139185,0.139185,-3.048020,3.041884,-0.046082,1.1519,26.7798,1.1916
3.6401,0.016756,-0.152777,0.152777,-3.048020,3.041884,-0.046082,1.1519,26.7798,1.1916
3.6569,0.016766,-0.166512,0.166512,-3.048020,3.041884,-0.046082,1.1519,26.7798,1.1916
3.6737,0.016764,-0.180296,0.180296,-3.048020,3.041884,-0.046082,1.1519,26.7798,1.1916
3.6905,0.016775,-0.194054,0.194054,-3.048020,3.041884,-0.046082,1.1519,26.7798,1.1916
3.7072,0.016758,-0.207675,0.207675,-3.048020,3.041884,-0.046082,1.1519,26.7798,1.1916
3.7240,0.016752,-0.221085,0.221085,-3.048020,3.041884,-0.046082,1.1519,26.7798,1.1916
3.7407,0.016753,-0.234206,0.234206,-3.048020,3.041884,-0.046082,1.1519,26.7798,1.1916
3.7575,0.016755,-0.246956,0.246956,-3.048020,3.041884,-0.046082,1.1519,26.7798,1.1916
3.7742,0.016755,-0.259255,0.259255,-3.048020,3.041884,-0.046082,1.1519,26.7798,1.1916
3.7910,0.016727,-0.271008,0.271008,-3.048020,3.041884,-0.046082,1.1519,26.7798,1.1916
3.8077,0.016755,-0.282179,0.282179,-3.048020,3.041884,-0.046082,1.1519,26.7798,1.1916
3.8245,0.016752,-0.292678,0.292678,-3.048020,3.041884,-0.046082,1.1519,26.7798,1.1916
3.8412,0.016756,-0.302443,0.302443,-3.048020,3.041884,-0.046082,1.1519,26.7798,1.1916
3.8580,0.016803,-0.311435,0.311435,-3.048020,3.041884,-0.046084,1.1414,26.7760,1.1584
3.8750,0.016991,-0.319655,0.319655,-3.048020,3.041884,-0.046082,1.1527,26.7801,1.1943
3.8918,0.016751,-0.326849,0.326849,-3.048020,3.041884,-0.046082,1.1527,26.7801,1.1943
3.9085,0.016760,-0.333098,0.333098,-3.048020,3.041884,-0.046082,1.1519,26.7798,1.1916
3.9253,0.016754,-0.338356,0.338356,-3.048020,3.041884,-0.046082,1.1519,26.7798,1.1916
3.9420,0.016772,-0.342597,0.342597,-3.048020,3.041884,-0.046082,1.1519,26.7798,1.1916
3.9588,0.016757,-0.345787,0.345787,-3.048020,3.041884,-0.046082,1.1519,26.7798,1.1916
3.9756,0.016772,-0.347911,0.347911,-3.048020,3.041884,-0.046082,1.1519,26.7798,1.1916
3.9923,0.016754,-0.348952,0.348952,-3.048020,3.041884,-0.046082,1.1519,26.7798,1.1916
4.0091,0.016761,-0.348906,0.348906,-3.048020,3.041884,-0.046082,1.1519,26.7798,1.1916
4.0259,0.016763,-0.347772,0.347772,-3.048020,3.041884,-0.046082,1.1519,26.7798,1.1916
4.0426,0.016766,-0.345558,0.345558,-3.048020,3.041884,-0.046082,1.1519,26.7798,1.1916
4.0594,0.016760,-0.342278,0.342278,-3.048020,3.041884,-0.046082,1.1519,26.7798,1.1916
4.0762,0.016823,-0.337934,0.337934,-3.048020,3.041884,-0.046082,1.1519,26.7798,1.1916
4.0930,0.016759,-0.332586,0.332586,-3.048020,3.041884,-0.046082,1.1519,26.7798,1.1916
4.1097,0.016761,-0.326252,0.326252,-3.048020,3.041884,-0.046082,1.1519,26.7798,1.1916
4.1265,0.016755,-0.318975,0.318975,-3.048020,3.041884,-0.046082,1.1519,26.7798,1.1916
4.1432,0.016767,-0.310791,0.310791,-3.048020,3.041884,-0.046082,1.1519,26.7798,1.1916
4.1600,0.016761,-0.301761,0.301761,-3.048020,3.041884,-0.046082,1.1519,26.7798,1.1916
4.1768,0.016775,-0.291928,0.291928,-3.048020,3.041884,-0.046082,1.1519,26.7798,1.1916
4.1935,0.016769,-0.281367,0.281367,-3.048020,3.041884,-0.046082,1.1519,26.7798,1.1916
4.2103,0.016803,-0.270115,0.270115,-3.048020,3.041884,-0.046082,1.1519,26.7798,1.1916
4.2271,0.016755,-0.258299,0.258299,-3.048020,3.041884,-0.046082,1.1519,26.7798,1.1916
4.2444,0.017269,-0.245575,0.245575,-3.048020,3.041884,-0.046082,1.1519,26.7798,1.1916
4.2613,0.016920,-0.232652,0.232652,-3.048020,3.041884,-0.046084,1.1414,26.7760,1.1584
4.2781,0.016771,-0.219478,0.219478,-3.048020,3.041884,-0.046084,1.1414,26.7760,1.1584
4.2948,0.016773,-0.206022,0.206022,-3.048020,3.041884,-0.046082,1.1527,26.7801,1.1943
4.3116,0.016757,-0.192381,0.192381,-3.048020,3.041884,-0.046082,1.1519,26.7798,1.1916
4.3284,0.016829,-0.178571,0.178571,-3.048020,3.041884,-0.046082,1.1519,26.7798,1.1916
4.3453,0.016922,-0.164659,0.164659,-3.048020,3.041884,-0.046082,1.1519,26.7798,1.1916
4.3623,0.016929,-0.150804,0.150804,-3.048020,3.041884,-0.046082,1.1519,26.7798,1.1916
4.3790,0.016764,-0.137232,0.137232,-3.048020,3.041884,-0.046082,1.1519,26.7798,1.1916
4.3958,0.016766,-0.123892,0.123892,-3.048020,3.041884,-0.046082,1.1519,26.7798,1.1916
4.4126,0.016757,-0.110874,0.110874,-3.048020,3.041884,-0.046082,1.1519,26.7798,1.1916
4.4293,0.016787,-0.098231,0.098231,-3.048020,3.041884,-0.046082,1.1519,26.7798,1.1916
4.4461,0.016755,-0.086088,0.086088,-3.048020,3.041884,-0.046082,1.1519,26.7798,1.1916
4.4631,0.016960,-0.074357,0.074357,-3.048020,3.041884,-0.046082,1.1519,26.7798,1.1916
4.4798,0.016758,-0.063394,0.063394,-3.048020,3.041884,-0.046082,1.1519,26.7798,1.1916
4.4966,0.016764,-0.053121,0.053121,-3.048020,3.041884,-0.046082,1.1519,26.7798,1.1916
4.5133,0.016751,-0.043612,0.043612,-3.048020,3.041884,-0.046082,1.1519,26.7798,1.1916
4.5301,0.016781,-0.034903,0.034903,-3.048020,3.041884,-0.046075,1.1747,26.8367,1.1643
4.5469,0.016754,-0.027079,0.027079,-3.048020,3.041884,-0.046083,1.1493,26.7738,1.1937
4.5637,0.016837,-0.020142,0.020142,-3.048020,3.041884,-0.046083,1.1493,26.7738,1.1937
4.5805,0.016753,-0.014204,0.014204,-3.048020,3.041884,-0.046082,1.1519,26.7804,1.1906
4.5973,0.016792,-0.009254,0.009254,-3.048020,3.041884,-0.046082,1.1519,26.7804,1.1906
4.6140,0.016751,-0.005347,0.005347,-3.048020,3.041884,-0.046082,1.1519,26.7804,1.1906
4.6308,0.016765,-0.002491,0.002491,-3.048020,3.041884,-0.046082,1.1519,26.7804,1.1906
4.6475,0.016763,-0.000709,0.000709,-3.048020,3.041884,-0.046082,1.1519,26.7804,1.1906
4.6643,0.016777,-0.000011,0.000011,-3.048020,3.041884,-0.046082,1.1519,26.7804,1.1906
4.6811,0.016755,-0.000402,0.000402,-3.048020,3.041884,-0.046082,1.1519,26.7804,1.1906
4.6978,0.016782,-0.001881,0.001881,-3.048020,3.041884,-0.046082,1.1519,26.7804,1.1906
4.7146,0.016755,-0.004434,0.004434,-3.048020,3.041884,-0.046082,1.1519,26.7804,1.1906
4.7319,0.017308,-0.008184,0.008184,-3.048020,3.041884,-0.046082,1.1519,26.7804,1.1906
4.7487,0.016761,-0.012870,0.012870,-3.048020,3.041884,-0.046082,1.1519,26.7804,1.1906
4.7654,0.016765,-0.018566,0.018566,-3.048020,3.041884,-0.046082,1.1519,26.7804,1.1906
4.7822,0.016751,-0.025228,0.025228,-3.048020,3.041884,-0.046082,1.1519,26.7804,1.1906
4.7990,0.016777,-0.032833,0.032833,-3.048020,3.041884,-0.046082,1.1519,26.7804,1.1906
4.8157,0.016758,-0.041313,0.041313,-3.048020,3.041884,-0.046075,1.1747,26.8367,1.1644
4.8325,0.016761,-0.050625,0.050625,-3.048020,3.041884,-0.046083,1.1493,26.7738,1.1937
4.8492,0.016750,-0.060703,0.060703,-3.048020,3.041884,-0.046083,1.1493,26.7738,1.1937
4.8660,0.016755,-0.071493,0.071493,-3.048020,3.041884,-0.046084,1.1416,26.7766,1.1582
4.8827,0.016749,-0.082921,0.082921,-3.048020,3.041884,-0.046082,1.1527,26.7801,1.1943
4.8995,0.016759,-0.094927,0.094927,-3.048020,3.041884,-0.046082,1.1519,26.7798,1.1917
4.9162,0.016752,-0.107423,0.107423,-3.048020,3.041884,-0.046082,1.1519,26.7798,1.1917
4.9330,0.016760,-0.120344,0.120344,-3.048020,3.041884,-0.046082,1.1519,26.7798,1.1917
4.9498,0.016751,-0.133595,0.133595,-3.048020,3.041884,-0.046082,1.1519,26.7798,1.1917
4.9665,0.016726,-0.147081,0.147081,-3.048020,3.041884,-0.046082,1.1519,26.7798,1.1917
4.9832,0.016757,-0.160763,0.160763,-3.048020,3.041884,-0.046082,1.1519,26.7798,1.1917
5.0000,0.016763,-0.174536,0.174536,-3.048020,3.041884,-0.046082,1.1519,26.7798,1.1917
5.0168,0.016756,-0.188303,0.188303,-3.048020,3.041884,-0.046082,1.1519,26.7798,1.1917
5.0335,0.016767,-0.201993,0.201993,-3.048020,3.041884,-0.046082,1.1519,26.7798,1.1917
5.0503,0.016758,-0.215505,0.215505,-3.048020,3.041884,-0.046082,1.1519,26.7798,1.1917
5.0670,0.016760,-0.228763,0.228763,-3.048020,3.041884,-0.046082,1.1519,26.7798,1.1917
5.0838,0.016750,-0.241674,0.241674,-3.048020,3.041884,-0.046082,1.1519,26.7798,1.1917
5.1006,0.016758,-0.254174,0.254174,-3.048020,3.041884,-0.046082,1.1519,26.7798,1.1917
5.1173,0.016755,-0.266176,0.266176,-3.048020,3.041884,-0.046082,1.1519,26.7798,1.1917
5.1341,0.016773,-0.277618,0.277618,-3.048020,3.041884,-0.046082,1.1519,26.7798,1.1917
5.1509,0.016776,-0.288418,0.288418,-3.048020,3.041884,-0.046082,1.1519,26.7798,1.1917
5.1676,0.016758,-0.298497,0.298497,-3.048020,3.041884,-0.046082,1.1519,26.7798,1.1917
5.1844,0.016755,-0.307801,0.307801,-3.048020,3.041884,-0.046082,1.1519,26.7798,1.1917
5.2011,0.016755,-0.316275,0.316275,-3.048020,3.041884,-0.046084,1.1414,26.7760,1.1584
5.2178,0.016722,-0.323852,0.323852,-3.048020,3.041884,-0.046084,1.1414,26.7760,1.1584
5.2346,0.016759,-0.330515,0.330515,-3.048020,3.041884,-0.046082,1.1527,26.7801,1.1943
5.2514,0.016764,-0.336208,0.336208,-3.048020,3.041884,-0.046082,1.1519,26.7798,1.1916
5.2681,0.016756,-0.340891,0.340891,-3.048020,3.041884,-0.046082,1.1519,26.7798,1.1916
5.2849,0.016768,-0.344539,0.344539,-3.048020,3.041884,-0.046082,1.1519,26.7798,1.1916
5.3017,0.016812,-0.347131,0.347131,-3.048020,3.041884,-0.046082,1.1519,26.7798,1.1916
5.3185,0.016757,-0.348638,0.348638,-3.048020,3.041884,-0.046082,1.1519,26.7798,1.1916
5.3352,0.016761,-0.349059,0.349059,-3.048020,3.041884,-0.046082,1.1519,26.7798,1.1916
5.3520,0.016757,-0.348392,0.348392,-3.048020,3.041884,-0.046082,1.1519,26.7798,1.1916
5.3687,0.016768,-0.346641,0.346641,-3.048020,3.041884,-0.046082,1.1519,26.7798,1.1916
5.3855,0.016762,-0.343817,0.343817,-3.048020,3.041884,-0.046082,1.1519,26.7798,1.1916
5.4031,0.017576,-0.339722,0.339722,-3.048020,3.041884,-0.046082,1.1519,26.7798,1.1916
5.4199,0.016765,-0.334760,0.334760,-3.048020,3.041884,-0.046082,1.1519,26.7798,1.1916
5.4366,0.016757,-0.328802,0.328802,-3.048020,3.041884,-0.046082,1.1519,26.7798,1.1916
5.4534,0.016759,-0.321881,0.321881,-3.048020,3.041884,-0.046082,1.1519,26.7798,1.1916
5.4704,0.016986,-0.313930,0.313930,-3.048020,3.041884,-0.046082,1.1519,26.7798,1.1916
5.4871,0.016757,-0.305211,0.305211,-3.048020,3.041884,-0.046082,1.1519,26.7798,1.1916
5.5040,0.016875,-0.295608,0.295608,-3.048020,3.041884,-0.046082,1.1519,26.7798,1.1916
5.5207,0.016755,-0.285315,0.285315,-3.048020,3.041884,-0.046082,1.1519,26.7798,1.1916
5.5375,0.016754,-0.274333,0.274333,-3.048020,3.041884,-0.046082,1.1519,26.7798,1.1916
5.5542,0.016751,-0.262732,0.262732,-3.048020,3.041884,-0.046082,1.1519,26.7798,1.1916
5.5710,0.016763,-0.250572,0.250572,-3.048020,3.041884,-0.046082,1.1519,26.7798,1.1916
5.5878,0.016768,-0.237934,0.237934,-3.048020,3.041884,-0.046082,1.1519,26.7798,1.1916
5.6045,0.016771,-0.224898,0.224898,-3.048020,3.041884,-0.046082,1.1519,26.7798,1.1916
5.6213,0.016752,-0.211563,0.211563,-3.048020,3.041884,-0.046082,1.1519,26.7798,1.1916
5.6381,0.016758,-0.197993,0.197993,-3.048020,3.041884,-0.046082,1.1519,26.7798,1.1916
5.6548,0.016753,-0.184280,0.184280,-3.048020,3.041884,-0.046082,1.1519,26.7798,1.1916
5.6716,0.016760,-0.170501,0.170501,-3.048020,3.041884,-0.046082,1.1519,26.7798,1.1916
5.6883,0.016751,-0.156755,0.156755,-3.048020,3.041884,-0.046082,1.1519,26.7798,1.1916
5.7051,0.016773,-0.143101,0.143101,-3.048020,3.041884,-0.046082,1.1519,26.7798,1.1916
5.7219,0.016757,-0.129656,0.129656,-3.048020,3.041884,-0.046082,1.1519,26.7798,1.1916
5.7386,0.016759,-0.116489,0.116489,-3.048020,3.041884,-0.046082,1.1519,26.7798,1.1916
5.7554,0.016756,-0.103687,0.103687,-3.048020,3.041884,-0.046082,1.1519,26.7798,1.1916
5.7721,0.016758,-0.091324,0.091324,-3.048020,3.041884,-0.046082,1.1519,26.7798,1.1916
5.7889,0.016747,-0.079488,0.079488,-3.048020,3.041884,-0.046084,1.1414,26.7760,1.1584
5.8056,0.016772,-0.068228,0.068228,-3.048020,3.041884,-0.046084,1.1414,26.7760,1.1584
5.8224,0.016752,-0.057642,0.057642,-3.048020,3.041884,-0.046082,1.1527,26.7801,1.1943
5.8392,0.016765,-0.047778,0.047778,-3.048020,3.041884,-0.046082,1.1519,26.7798,1.1916
5.8559,0.016751,-0.038712,0.038712,-3.048020,3.041884,-0.046082,1.1519,26.7798,1.1916
5.8732,0.017332,-0.030222,0.030222,-3.048020,3.041884,-0.046082,1.1519,26.7798,1.1916
5.8900,0.016758,-0.022928,0.022928,-3.048020,3.041884,-0.046082,1.1519,26.7798,1.1916
5.9068,0.016770,-0.016575,0.016575,-3.048020,3.041884,-0.046082,1.1519,26.7798,1.1916
5.9235,0.016752,-0.011212,0.011212,-3.048020,3.041884,-0.046082,1.1519,26.7798,1.1916
5.9403,0.016759,-0.006866,0.006866,-3.048020,3.041884,-0.046082,1.1519,26.7798,1.1916
5.9572,0.016892,-0.003542,0.003542,-3.048020,3.041884,-0.046082,1.1519,26.7798,1.1916
5.9739,0.016762,-0.001315,0.001315,-3.048020,3.041884,-0.046082,1.1519,26.7798,1.1916
5.9907,0.016774,-0.000167,0.000167,-3.048020,3.041884,-0.046082,1.1519,26.7798,1.1916
6.0075,0.016757,-0.000108,0.000108,-3.048020,3.041884,-0.046082,1.1519,26.7798,1.1916
6.0242,0.016751,-0.001135,0.001135,-3.048020,3.041884,-0.046082,1.1519,26.7798,1.1916
6.0410,0.016759,-0.003244,0.003244,-3.048020,3.041884,-0.046082,1.1519,26.7798,1.1916
6.0577,0.016760,-0.006421,0.006421,-3.048020,3.041884,-0.046082,1.1519,26.7798,1.1916
6.0745,0.016764,-0.010646,0.010646,-3.048020,3.041884,-0.046082,1.1519,26.7798,1.1916
6.0913,0.016770,-0.015897,0.015897,-3.048020,3.041884,-0.046082,1.1519,26.7798,1.1916
6.1080,0.016774,-0.022139,0.022139,-3.048020,3.041884,-0.046082,1.1519,26.7798,1.1916
6.1250,0.016928,-0.029403,0.029403,-3.048020,3.041884,-0.046082,1.1519,26.7798,1.1916
6.1419,0.016905,-0.037578,0.037578,-3.048020,3.041884,-0.046082,1.1519,26.7798,1.1916
6.1586,0.016762,-0.046542,0.046542,-3.048020,3.041884,-0.046082,1.1519,26.7798,1.1916
6.1755,0.016840,-0.056351,0.056351,-3.048020,3.041884,-0.046082,1.1519,26.7798,1.1916
6.1924,0.016907,-0.066948,0.066948,-3.048020,3.041884,-0.046082,1.1519,26.7798,1.1916
6.2091,0.016760,-0.078126,0.078126,-3.048020,3.041884,-0.046082,1.1519,26.7798,1.1916
6.2259,0.016768,-0.089911,0.089911,-3.048020,3.041884,-0.046082,1.1519,26.7798,1.1916
6.2427,0.016783,-0.102236,0.102236,-3.048020,3.041884,-0.046082,1.1519,26.7798,1.1916
6.2595,0.016762,-0.114996,0.114996,-3.048020,3.041884,-0.046082,1.1519,26.7798,1.1916
6.2762,0.016759,-0.128125,0.128125,-3.048020,3.041884,-0.046082,1.1519,26.7798,1.1916
6.2930,0.016757,-0.141542,0.141542,-3.048020,3.041884,-0.046082,1.1519,26.7798,1.1916
6.3098,0.016808,-0.155206,0.155206,-3.048020,3.041884,-0.046082,1.1519,26.7798,1.1916
6.3266,0.016843,-0.169020,0.169020,-3.048020,3.041884,-0.046082,1.1519,26.7798,1.1916
6.3434,0.016785,-0.182821,0.182821,-3.048020,3.041884,-0.046082,1.1519,26.7798,1.1916
6.3602,0.016779,-0.196565,0.196565,-3.048020,3.041884,-0.046082,1.1519,26.7798,1.1916
6.3776,0.017380,-0.210655,0.210655,-3.048020,3.041884,-0.046082,1.1519,26.7798,1.1916
6.3957,0.018146,-0.225107,0.225107,-3.048020,3.041884,-0.046082,1.1519,26.7798,1.1916
6.4125,0.016758,-0.238127,0.238127,-3.048020,3.041884,-0.046082,1.1519,26.7798,1.1916
6.4292,0.016766,-0.250757,0.250757,-3.048020,3.041884,-0.046082,1.1519,26.7798,1.1916
6.4462,0.016986,-0.263067,0.263067,-3.048020,3.041884,-0.046082,1.1519,26.7798,1.1916
6.4630,0.016760,-0.274659,0.274659,-3.048020,3.041884,-0.046082,1.1519,26.7798,1.1916
6.4798,0.016849,-0.285682,0.285682,-3.048020,3.041884,-0.046082,1.1519,26.7798,1.1916
6.4973,0.017476,-0.296375,0.296375,-3.048020,3.041884,-0.046082,1.1519,26.7798,1.1916
6.5141,0.016752,-0.305850,0.305850,-3.048020,3.041884,-0.046075,1.1747,26.8367,1.1643
6.5308,0.016763,-0.314513,0.314513,-3.048020,3.041884,-0.046083,1.1493,26.7738,1.1937
6.5477,0.016889,-0.322357,0.322357,-3.048020,3.041884,-0.046082,1.1519,26.7804,1.1906
6.5645,0.016760,-0.329217,0.329217,-3.048020,3.041884,-0.046082,1.1519,26.7804,1.1906
6.5812,0.016751,-0.335110,0.335110,-3.048020,3.041884,-0.046082,1.1519,26.7804,1.1906
6.5980,0.016764,-0.340006,0.340006,-3.048020,3.041884,-0.046082,1.1519,26.7804,1.1906
6.6147,0.016752,-0.343867,0.343867,-3.048020,3.041884,-0.046082,1.1519,26.7804,1.1906
6.6315,0.016758,-0.346675,0.346675,-3.048020,3.041884,-0.046082,1.1519,26.7804,1.1906
6.6483,0.016756,-0.348410,0.348410,-3.048020,3.041884,-0.046082,1.1519,26.7804,1.1906
6.6650,0.016761,-0.349061,0.349061,-3.048020,3.041884,-0.046075,1.1747,26.8367,1.1644
6.6818,0.016756,-0.348624,0.348624,-3.048020,3.041884,-0.046075,1.1724,26.8308,1.1672
6.6985,0.016768,-0.347100,0.347100,-3.048020,3.041884,-0.046075,1.1724,26.8308,1.1672
6.7153,0.016755,-0.344503,0.344503,-3.048020,3.041884,-0.046083,1.1495,26.7744,1.1934
6.7321,0.016766,-0.340843,0.340843,-3.048020,3.041884,-0.046082,1.1519,26.7803,1.1906
6.7488,0.016745,-0.336153,0.336153,-3.048020,3.041884,-0.046082,1.1519,26.7803,1.1906
6.7656,0.016776,-0.330445,0.330445,-3.048020,3.041884,-0.046082,1.1519,26.7803,1.1906
6.7823,0.016752,-0.323773,0.323773,-3.048020,3.041884,-0.046082,1.1519,26.7803,1.1906
6.7991,0.016757,-0.316170,0.316170,-3.048020,3.041884,-0.046082,1.1519,26.7803,1.1906
6.8158,0.016751,-0.307686,0.307686,-3.048020,3.041884,-0.046082,1.1519,26.7803,1.1906
6.8326,0.016759,-0.298370,0.298370,-3.048020,3.041884,-0.046082,1.1519,26.7803,1.1906
6.8495,0.016848,-0.288225,0.288225,-3.048020,3.041884,-0.046082,1.1519,26.7803,1.1906
6.8662,0.016781,-0.277409,0.277409,-3.048020,3.041884,-0.046082,1.1519,26.7803,1.1906
6.8830,0.016757,-0.265966,0.265966,-3.048020,3.041884,-0.046082,1.1519,26.7803,1.1906
6.8997,0.016752,-0.253958,0.253958,-3.048020,3.041884,-0.046082,1.1519,26.7803,1.1906
6.9169,0.017133,-0.241166,0.241166,-3.048020,3.041884,-0.046082,1.1519,26.7803,1.1906
6.9336,0.016754,-0.228236,0.228236,-3.048020,3.041884,-0.046082,1.1519,26.7803,1.1906
6.9509,0.017232,-0.214588,0.214588,-3.048020,3.041884,-0.046082,1.1519,26.7803,1.1906
6.9676,0.016768,-0.201054,0.201054,-3.048020,3.041884,-0.046082,1.1519,26.7803,1.1906
6.9844,0.016757,-0.187363,0.187363,-3.048020,3.041884,-0.046082,1.1519,26.7803,1.1906
7.0011,0.016754,-0.173595,0.173595,-3.048020,3.041884,-0.046082,1.1519,26.7803,1.1906
7.0179,0.016776,-0.159815,0.159815,-3.048020,3.041884,-0.046082,1.1519,26.7803,1.1906
7.0347,0.016811,-0.146098,0.146098,-3.048020,3.041884,-0.046082,1.1519,26.7803,1.1906
7.0515,0.016766,-0.132596,0.132596,-3.048020,3.041884,-0.046082,1.1519,26.7803,1.1906
7.0683,0.016760,-0.119360,0.119360,-3.048020,3.041884,-0.046082,1.1519,26.7803,1.1906
7.0850,0.016763,-0.106466,0.106466,-3.048020,3.041884,-0.046082,1.1519,26.7803,1.1906
7.1018,0.016761,-0.093998,0.093998,-3.048020,3.041884,-0.046082,1.1519,26.7803,1.1906
7.1186,0.016774,-0.082022,0.082022,-3.048020,3.041884,-0.046082,1.1519,26.7803,1.1906
7.1353,0.016753,-0.070638,0.070638,-3.048020,3.041884,-0.046082,1.1519,26.7803,1.1906
7.1523,0.017001,-0.059748,0.059748,-3.048020,3.041884,-0.046082,1.1519,26.7803,1.1906
7.1691,0.016796,-0.049712,0.049712,-3.048020,3.041884,-0.046082,1.1519,26.7803,1.1906
7.1859,0.016759,-0.040477,0.040477,-3.048020,3.041884,-0.046082,1.1519,26.7803,1.1906
7.2026,0.016754,-0.032080,0.032080,-3.048020,3.041884,-0.046084,1.1414,26.7759,1.1585
7.2194,0.016752,-0.024571,0.024571,-3.048020,3.041884,-0.046082,1.1527,26.7801,1.1943
7.2361,0.016757,-0.017995,0.017995,-3.048020,3.041884,-0.046082,1.1519,26.7798,1.1916
7.2529,0.016772,-0.012389,0.012389,-3.048020,3.041884,-0.046082,1.1519,26.7798,1.1916
7.2697,0.016781,-0.007794,0.007794,-3.048020,3.041884,-0.046082,1.1519,26.7798,1.1916
7.2864,0.016759,-0.004245,0.004245,-3.048020,3.041884,-0.046082,1.1519,26.7798,1.1916
7.3032,0.016755,-0.001758,0.001758,-3.048020,3.041884,-0.046082,1.1519,26.7798,1.1916
7.3201,0.016898,-0.000340,0.000340,-3.048020,3.041884,-0.046082,1.1519,26.7798,1.1916
7.3370,0.016933,-0.000026,0.000026,-3.048020,3.041884,-0.046082,1.1519,26.7798,1.1916
7.3539,0.016859,-0.000817,0.000817,-3.048020,3.041884,-0.046082,1.1519,26.7798,1.1916
7.3706,0.016759,-0.002690,0.002690,-3.048020,3.041884,-0.046082,1.1519,26.7798,1.1916
7.3874,0.016759,-0.005634,0.005634,-3.048020,3.041884,-0.046082,1.1519,26.7798,1.1916
7.4042,0.016758,-0.009630,0.009630,-3.048020,3.041884,-0.046082,1.1519,26.7798,1.1916
7.4210,0.016808,-0.014671,0.014671,-3.048020,3.041884,-0.046082,1.1519,26.7798,1.1916
7.4377,0.016757,-0.020694,0.020694,-3.048020,3.041884,-0.046082,1.1519,26.7798,1.1916
7.4546,0.016894,-0.027737,0.027737,-3.048020,3.041884,-0.046082,1.1519,26.7798,1.1916
7.4714,0.016758,-0.035642,0.035642,-3.048020,3.041884,-0.046082,1.1519,26.7798,1.1916
7.4881,0.016755,-0.044412,0.044412,-3.048020,3.041884,-0.046082,1.1519,26.7798,1.1916
7.5049,0.016775,-0.054003,0.054003,-3.048020,3.041884,-0.046082,1.1519,26.7798,1.1916
7.5216,0.016746,-0.064329,0.064329,-3.048020,3.041884,-0.046082,1.1519,26.7798,1.1916
7.5384,0.016756,-0.075348,0.075348,-3.048020,3.041884,-0.046082,1.1519,26.7798,1.1916
7.5552,0.016749,-0.086981,0.086981,-3.048020,3.041884,-0.046082,1.1519,26.7798,1.1916
7.5719,0.016757,-0.099164,0.099164,-3.048020,3.041884,-0.046082,1.1519,26.7798,1.1916
7.5887,0.016752,-0.111812,0.111812,-3.048020,3.041884,-0.046082,1.1519,26.7798,1.1916
7.6054,0.016757,-0.124856,0.124856,-3.048020,3.041884,-0.046082,1.1519,26.7798,1.1916
7.6222,0.016825,-0.138264,0.138264,-3.048020,3.041884,-0.046082,1.1519,26.7798,1.1916
7.6390,0.016759,-0.151845,0.151845,-3.048020,3.041884,-0.046082,1.1519,26.7798,1.1916
7.6560,0.016965,-0.165738,0.165738,-3.048020,3.041884,-0.046082,1.1519,26.7798,1.1916
7.6727,0.016750,-0.179510,0.179510,-3.048020,3.041884,-0.046082,1.1519,26.7798,1.1916
7.6895,0.016750,-0.193251,0.193251,-3.048020,3.041884,-0.046082,1.1519,26.7798,1.1916
7.7062,0.016756,-0.206881,0.206881,-3.048020,3.041884,-0.046082,1.1519,26.7798,1.1916
7.7230,0.016754,-0.220307,0.220307,-3.048020,3.041884,-0.046082,1.1519,26.7798,1.1916
7.7397,0.016764,-0.233456,0.233456,-3.048020,3.041884,-0.046082,1.1519,26.7798,1.1916
7.7565,0.016760,-0.246233,0.246233,-3.048020,3.041884,-0.046075,1.1747,26.8367,1.1643
7.7733,0.016753,-0.258560,0.258560,-3.048020,3.041884,-0.046083,1.1493,26.7738,1.1937
7.7900,0.016750,-0.270360,0.270360,-3.048020,3.041884,-0.046082,1.1519,26.7804,1.1906
7.8068,0.016753,-0.281566,0.281566,-3.048020,3.041884,-0.046075,1.1747,26.8367,1.1644
7.8235,0.016753,-0.292105,0.292105,-3.048020,3.041884,-0.046083,1.1493,26.7738,1.1937
7.8403,0.016764,-0.301917,0.301917,-3.048020,3.041884,-0.046083,1.1493,26.7738,1.1937
7.8570,0.016752,-0.310930,0.310930,-3.048020,3.041884,-0.046082,1.1519,26.7804,1.1906
7.8738,0.016770,-0.319100,0.319100,-3.048020,3.041884,-0.046082,1.1519,26.7804,1.1906
7.8906,0.016766,-0.326367,0.326367,-3.048020,3.041884,-0.046082,1.1519,26.7804,1.1906
7.9073,0.016769,-0.332688,0.332688,-3.048020,3.041884,-0.046082,1.1519,26.7804,1.1906
7.9248,0.017475,-0.338224,0.338224,-3.048020,3.041884,-0.046082,1.1519,26.7804,1.1906
7.9416,0.016763,-0.342492,0.342492,-3.048020,3.041884,-0.046082,1.1519,26.7804,1.1906
7.9583,0.016756,-0.345711,0.345711,-3.048020,3.041884,-0.046082,1.1519,26.7804,1.1906
7.9751,0.016765,-0.347865,0.347865,-3.048020,3.041884,-0.046082,1.1519,26.7804,1.1906
7.9919,0.016798,-0.348938,0.348938,-3.048020,3.041884,-0.046082,1.1519,26.7804,1.1906
8.0087,0.016761,-0.348921,0.348921,-3.048020,3.041884,-0.046082,1.1519,26.7804,1.1906
8.0258,0.017158,-0.347777,0.347777,-3.048020,3.041884,-0.046082,1.1519,26.7804,1.1906
8.0426,0.016753,-0.345567,0.345567,-3.048020,3.041884,-0.046082,1.1519,26.7804,1.1906
8.0593,0.016758,-0.342291,0.342291,-3.048020,3.041884,-0.046082,1.1519,26.7804,1.1906
8.0761,0.016753,-0.337970,0.337970,-3.048020,3.041884,-0.046082,1.1519,26.7804,1.1906
8.0928,0.016754,-0.332631,0.332631,-3.048020,3.041884,-0.046082,1.1519,26.7804,1.1906
8.1096,0.016759,-0.326305,0.326305,-3.048020,3.041884,-0.046082,1.1519,26.7804,1.1906
8.1264,0.016765,-0.319030,0.319030,-3.048020,3.041884,-0.046082,1.1519,26.7804,1.1906
8.1431,0.016754,-0.310860,0.310860,-3.048020,3.041884,-0.046082,1.1519,26.7804,1.1906
8.1599,0.016762,-0.301835,0.301835,-3.048020,3.041884,-0.046082,1.1519,26.7804,1.1906
8.1766,0.016763,-0.292016,0.292016,-3.048020,3.041884,-0.046082,1.1519,26.7804,1.1906
8.1934,0.016791,-0.281447,0.281447,-3.048020,3.041884,-0.046082,1.1519,26.7804,1.1906
8.2102,0.016759,-0.270230,0.270230,-3.048020,3.041884,-0.046082,1.1519,26.7804,1.1906
8.2271,0.016880,-0.258330,0.258330,-3.048020,3.041884,-0.046082,1.1519,26.7804,1.1906
8.2438,0.016758,-0.245991,0.245991,-3.048020,3.041884,-0.046082,1.1519,26.7804,1.1906
8.2606,0.016762,-0.233204,0.233204,-3.048020,3.041884,-0.046082,1.1519,26.7804,1.1906
8.2773,0.016758,-0.220054,0.220054,-3.048020,3.041884,-0.046082,1.1519,26.7804,1.1906
8.2941,0.016775,-0.206606,0.206606,-3.048020,3.041884,-0.046082,1.1519,26.7804,1.1906
8.3109,0.016760,-0.192970,0.192970,-3.048020,3.041884,-0.046082,1.1519,26.7804,1.1906
8.3277,0.016809,-0.179180,0.179180,-3.048020,3.041884,-0.046082,1.1519,26.7804,1.1906
8.3444,0.016760,-0.165400,0.165400,-3.048020,3.041884,-0.046082,1.1519,26.7804,1.1906
8.3612,0.016766,-0.151672,0.151672,-3.048020,3.041884,-0.046082,1.1519,26.7804,1.1906
8.3779,0.016733,-0.138113,0.138113,-3.048020,3.041884,-0.046084,1.1414,26.7759,1.1585
8.3957,0.017764,-0.123969,0.123969,-3.048020,3.041884,-0.046084,1.1421,26.7763,1.1609
8.4125,0.016753,-0.110953,0.110953,-3.048020,3.041884,-0.046082,1.1527,26.7801,1.1940
8.4294,0.016898,-0.098225,0.098225,-3.048020,3.041884,-0.046082,1.1527,26.7801,1.1940
8.4461,0.016750,-0.086085,0.086085,-3.048020,3.041884,-0.046082,1.1519,26.7798,1.1916
8.4629,0.016764,-0.074487,0.074487,-3.048020,3.041884,-0.046082,1.1519,26.7798,1.1916
8.4796,0.016760,-0.063515,0.063515,-3.048020,3.041884,-0.046082,1.1519,26.7798,1.1916
8.4964,0.016764,-0.053234,0.053234,-3.048020,3.041884,-0.046082,1.1519,26.7798,1.1916
8.5131,0.016748,-0.043717,0.043717,-3.048020,3.041884,-0.046082,1.1519,26.7798,1.1916
8.5299,0.016768,-0.035005,0.035005,-3.048020,3.041884,-0.046082,1.1519,26.7798,1.1916
8.5467,0.016742,-0.027175,0.027175,-3.048020,3.041884,-0.046082,1.1519,26.7798,1.1916
8.5634,0.016766,-0.020253,0.020253,-3.048020,3.041884,-0.046082,1.1519,26.7798,1.1916
8.5802,0.016755,-0.014298,0.014298,-3.048020,3.041884,-0.046082,1.1519,26.7798,1.1916
8.5969,0.016761,-0.009338,0.009338,-3.048020,3.041884,-0.046082,1.1519,26.7798,1.1916
8.6137,0.016757,-0.005410,0.005410,-3.048020,3.041884,-0.046082,1.1519,26.7798,1.1916
8.6305,0.016775,-0.002533,0.002533,-3.048020,3.041884,-0.046082,1.1519,26.7798,1.1916
8.6472,0.016757,-0.000732,0.000732,-3.048020,3.041884,-0.046082,1.1519,26.7798,1.1916
8.6640,0.016757,-0.000014,0.000014,-3.048020,3.041884,-0.046082,1.1519,26.7798,1.1916
8.6807,0.016755,-0.000383,0.000383,-3.048020,3.041884,-0.046082,1.1519,26.7798,1.1916
8.6975,0.016757,-0.001838,0.001838,-3.048020,3.041884,-0.046082,1.1519,26.7798,1.1916
8.7142,0.016751,-0.004368,0.004368,-3.048020,3.041884,-0.046082,1.1519,26.7798,1.1916
8.7310,0.016767,-0.007962,0.007962,-3.048020,3.041884,-0.046082,1.1519,26.7798,1.1916
8.7478,0.016754,-0.012591,0.012591,-3.048020,3.041884,-0.046082,1.1519,26.7798,1.1916
8.7647,0.016884,-0.018277,0.018277,-3.048020,3.041884,-0.046082,1.1519,26.7798,1.1916
8.7814,0.016745,-0.024892,0.024892,-3.048020,3.041884,-0.046082,1.1519,26.7798,1.1916
8.7982,0.016765,-0.032448,0.032448,-3.048020,3.041884,-0.046082,1.1519,26.7798,1.1916
8.8149,0.016748,-0.040882,0.040882,-3.048020,3.041884,-0.046082,1.1519,26.7798,1.1916
8.8317,0.016758,-0.050154,0.050154,-3.048020,3.041884,-0.046082,1.1519,26.7798,1.1916
8.8484,0.016749,-0.060195,0.060195,-3.048020,3.041884,-0.046082,1.1519,26.7798,1.1916
8.8652,0.016772,-0.070963,0.070963,-3.048020,3.041884,-0.046082,1.1519,26.7798,1.1916
8.8820,0.016768,-0.082375,0.082375,-3.048020,3.041884,-0.046082,1.1519,26.7798,1.1916
8.8987,0.016762,-0.094358,0.094358,-3.048020,3.041884,-0.046082,1.1519,26.7798,1.1916
8.9155,0.016760,-0.106839,0.106839,-3.048020,3.041884,-0.046082,1.1519,26.7798,1.1916
8.9322,0.016762,-0.119743,0.119743,-3.048020,3.041884,-0.046082,1.1519,26.7798,1.1916
8.9490,0.016771,-0.132997,0.132997,-3.048020,3.041884,-0.046082,1.1519,26.7798,1.1916
8.9658,0.016757,-0.146498,0.146498,-3.048020,3.041884,-0.046082,1.1519,26.7798,1.1916
8.9826,0.016807,-0.160215,0.160215,-3.048020,3.041884,-0.046082,1.1519,26.7798,1.1916
8.9993,0.016754,-0.173979,0.173979,-3.048020,3.041884,-0.046082,1.1519,26.7798,1.1916
9.0161,0.016770,-0.187759,0.187759,-3.048020,3.041884,-0.046082,1.1519,26.7798,1.1916
9.0328,0.016749,-0.201440,0.201440,-3.048020,3.041884,-0.046082,1.1519,26.7798,1.1916
9.0498,0.016919,-0.215088,0.215088,-3.048020,3.041884,-0.046082,1.1519,26.7798,1.1916
9.0665,0.016755,-0.228351,0.228351,-3.048020,3.041884,-0.046082,1.1519,26.7798,1.1916
9.0833,0.016767,-0.241288,0.241288,-3.048020,3.041884,-0.046082,1.1519,26.7798,1.1916
9.1000,0.016759,-0.253802,0.253802,-3.048020,3.041884,-0.046082,1.1519,26.7798,1.1916
9.1168,0.016758,-0.265822,0.265822,-3.048020,3.041884,-0.046082,1.1519,26.7798,1.1916
9.1336,0.016752,-0.277268,0.277268,-3.048020,3.041884,-0.046082,1.1519,26.7798,1.1916
9.1503,0.016770,-0.288087,0.288087,-3.048020,3.041884,-0.046082,1.1519,26.7798,1.1916
9.1671,0.016791,-0.298208,0.298208,-3.048020,3.041884,-0.046082,1.1519,26.7798,1.1916
9.1839,0.016809,-0.307565,0.307565,-3.048020,3.041884,-0.046082,1.1519,26.7798,1.1916
9.2007,0.016756,-0.316062,0.316062,-3.048020,3.041884,-0.046082,1.1519,26.7798,1.1916
9.2174,0.016756,-0.323677,0.323677,-3.048020,3.041884,-0.046082,1.1519,26.7798,1.1916
9.2342,0.016722,-0.330350,0.330350,-3.048020,3.041884,-0.046082,1.1519,26.7798,1.1916
9.2509,0.016765,-0.336070,0.336070,-3.048020,3.041884,-0.046075,1.1747,26.8367,1.1643
9.2679,0.017014,-0.340844,0.340844,-3.048020,3.041884,-0.046083,1.1493,26.7738,1.1937
9.2847,0.016763,-0.344503,0.344503,-3.048020,3.041884,-0.046083,1.1493,26.7738,1.1937
9.3015,0.016757,-0.347101,0.347101,-3.048020,3.041884,-0.046082,1.1519,26.7804,1.1906
9.3182,0.016758,-0.348623,0.348623,-3.048020,3.041884,-0.046082,1.1519,26.7804,1.1906
9.3350,0.016757,-0.349061,0.349061,-3.048020,3.041884,-0.046082,1.1519,26.7804,1.1906
9.3517,0.016759,-0.348410,0.348410,-3.048020,3.041884,-0.046082,1.1519,26.7804,1.1906
9.3685,0.016765,-0.346675,0.346675,-3.048020,3.041884,-0.046082,1.1519,26.7804,1.1906
9.3853,0.016764,-0.343866,0.343866,-3.048020,3.041884,-0.046082,1.1519,26.7804,1.1906
9.4020,0.016754,-0.340004,0.340004,-3.048020,3.041884,-0.046082,1.1519,26.7804,1.1906
9.4188,0.016763,-0.335108,0.335108,-3.048020,3.041884,-0.046082,1.1519,26.7804,1.1906
9.4355,0.016763,-0.329210,0.329210,-3.048020,3.041884,-0.046082,1.1519,26.7804,1.1906
9.4523,0.016760,-0.322349,0.322349,-3.048020,3.041884,-0.046082,1.1519,26.7804,1.1906
9.4691,0.016762,-0.314565,0.314565,-3.048020,3.041884,-0.046082,1.1519,26.7804,1.1906
9.4858,0.016766,-0.305906,0.305906,-3.048020,3.041884,-0.046082,1.1519,26.7804,1.1906
9.5026,0.016760,-0.296431,0.296431,-3.048020,3.041884,-0.046082,1.1519,26.7804,1.1906
9.5193,0.016737,-0.286210,0.286210,-3.048020,3.041884,-0.046082,1.1519,26.7804,1.1906
9.5361,0.016756,-0.275283,0.275283,-3.048020,3.041884,-0.046082,1.1519,26.7804,1.1906
9.5528,0.016753,-0.263730,0.263730,-3.048020,3.041884,-0.046082,1.1519,26.7804,1.1906
9.5696,0.016767,-0.251610,0.251610,-3.048020,3.041884,-0.046082,1.1519,26.7804,1.1906
9.5864,0.016755,-0.239019,0.239019,-3.048020,3.041884,-0.046082,1.1519,26.7804,1.1906
9.6031,0.016753,-0.226028,0.226028,-3.048020,3.041884,-0.046082,1.1519,26.7804,1.1906
9.6199,0.016748,-0.212720,0.212720,-3.048020,3.041884,-0.046082,1.1519,26.7804,1.1906
9.6366,0.016760,-0.199164,0.199164,-3.048020,3.041884,-0.046082,1.1519,26.7804,1.1906
9.6534,0.016748,-0.185465,0.185465,-3.048020,3.041884,-0.046082,1.1519,26.7804,1.1906
9.6701,0.016766,-0.171683,0.171683,-3.048020,3.041884,-0.046082,1.1519,26.7804,1.1906
9.6869,0.016758,-0.157925,0.157925,-3.048020,3.041884,-0.046082,1.1519,26.7804,1.1906
9.7037,0.016786,-0.144248,0.144248,-3.048020,3.041884,-0.046082,1.1519,26.7804,1.1906
9.7204,0.016751,-0.130788,0.130788,-3.048020,3.041884,-0.046082,1.1519,26.7804,1.1906
9.7372,0.016762,-0.117592,0.117592,-3.048020,3.041884,-0.046082,1.1519,26.7804,1.1906
9.7539,0.016752,-0.104759,0.104759,-3.048020,3.041884,-0.046082,1.1519,26.7804,1.1906
9.7707,0.016809,-0.092319,0.092319,-3.048020,3.041884,-0.046082,1.1519,26.7804,1.1906
9.7875,0.016754,-0.080433,0.080433,-3.048020,3.041884,-0.046082,1.1519,26.7804,1.1906
9.8043,0.016757,-0.069131,0.069131,-3.048020,3.041884,-0.046082,1.1519,26.7804,1.1906
9.8210,0.016758,-0.058485,0.058485,-3.048020,3.041884,-0.046082,1.1519,26.7804,1.1906
9.8378,0.016761,-0.048561,0.048561,-3.048020,3.041884,-0.046082,1.1519,26.7804,1.1906
9.8545,0.016764,-0.039421,0.039421,-3.048020,3.041884,-0.046082,1.1519,26.7804,1.1906
9.8713,0.016768,-0.031122,0.031122,-3.048020,3.041884,-0.046082,1.1519,26.7804,1.1906
9.8881,0.016755,-0.023722,0.023722,-3.048020,3.041884,-0.046076,1.1645,26.8329,1.1320
9.9048,0.016757,-0.017262,0.017262,-3.048020,3.041884,-0.046083,1.1503,26.7742,1.1970
9.9216,0.016753,-0.011784,0.011784,-3.048020,3.041884,-0.046082,1.1518,26.7803,1.1903
9.9383,0.016764,-0.007316,0.007316,-3.048020,3.041884,-0.046082,1.1518,26.7803,1.1903
9.9551,0.016753,-0.003893,0.003893,-3.048020,3.041884,-0.046082,1.1518,26.7803,1.1903
9.9719,0.016764,-0.001533,0.001533,-3.048020,3.041884,-0.046082,1.1518,26.7803,1.1903
9.9886,0.016753,-0.000251,0.000251,-3.048020,3.041884,-0.046082,1.1518,26.7803,1.1903
10.0054,0.016758,-0.000056,0.000056,-3.048020,3.041884,-0.046082,1.1518,26.7803,1.1903
10.0221,0.016750,-0.000947,0.000947,-3.048020,3.041884,-0.046082,1.1518,26.7803,1.1903
10.0389,0.016760,-0.002921,0.002921,-3.048020,3.041884,-0.046082,1.1518,26.7803,1.1903
10.0557,0.016795,-0.005972,0.005972,-3.048020,3.041884,-0.046082,1.1518,26.7803,1.1903
10.0724,0.016760,-0.010069,0.010069,-3.048020,3.041884,-0.046082,1.1518,26.7803,1.1903
10.0892,0.016755,-0.015190,0.015190,-3.048020,3.041884,-0.046082,1.1518,26.7803,1.1903
10.1059,0.016750,-0.021301,0.021301,-3.048020,3.041884,-0.046082,1.1518,26.7803,1.1903
10.1227,0.016757,-0.028370,0.028370,-3.048020,3.041884,-0.046082,1.1518,26.7803,1.1903
10.1395,0.016755,-0.036348,0.036348,-3.048020,3.041884,-0.046082,1.1518,26.7803,1.1903
10.1562,0.016764,-0.045193,0.045193,-3.048020,3.041884,-0.046082,1.1518,26.7803,1.1903
10.1730,0.016754,-0.054838,0.054838,-3.048020,3.041884,-0.046082,1.1518,26.7803,1.1903
10.1897,0.016751,-0.065227,0.065227,-3.048020,3.041884,-0.046082,1.1518,26.7803,1.1903
10.2065,0.016754,-0.076299,0.076299,-3.048020,3.041884,-0.046082,1.1518,26.7803,1.1903
10.2232,0.016750,-0.087980,0.087980,-3.048020,3.041884,-0.046082,1.1518,26.7803,1.1903
10.2400,0.016760,-0.100208,0.100208,-3.048020,3.041884,-0.046082,1.1518,26.7803,1.1903
10.2567,0.016764,-0.112902,0.112902,-3.048020,3.041884,-0.046082,1.1518,26.7803,1.1903
10.2735,0.016767,-0.125983,0.125983,-3.048020,3.041884,-0.046082,1.1518,26.7803,1.1903
10.2903,0.016752,-0.139354,0.139354,-3.048020,3.041884,-0.046082,1.1518,26.7803,1.1903
10.3072,0.016948,-0.153105,0.153105,-3.048020,3.041884,-0.046082,1.1518,26.7803,1.1903
10.3240,0.016753,-0.166832,0.166832,-3.048020,3.041884,-0.046082,1.1518,26.7803,1.1903
10.3407,0.016739,-0.180595,0.180595,-3.048020,3.041884,-0.046082,1.1518,26.7803,1.1903
10.3575,0.016758,-0.194336,0.194336,-3.048020,3.041884,-0.046082,1.1518,26.7803,1.1903
10.3742,0.016733,-0.207934,0.207934,-3.048020,3.041884,-0.046082,1.1518,26.7803,1.1903
10.3910,0.016761,-0.221346,0.221346,-3.048020,3.041884,-0.046082,1.1518,26.7803,1.1903
10.4077,0.016764,-0.234469,0.234469,-3.048020,3.041884,-0.046082,1.1518,26.7803,1.1903
10.4249,0.017212,-0.247553,0.247553,-3.048020,3.041884,-0.046082,1.1518,26.7803,1.1903
10.4417,0.016756,-0.259830,0.259830,-3.048020,3.041884,-0.046082,1.1518,26.7803,1.1903
10.4585,0.016763,-0.271580,0.271580,-3.048020,3.041884,-0.046082,1.1518,26.7803,1.1903
10.4752,0.016758,-0.282722,0.282722,-3.048020,3.041884,-0.046082,1.1518,26.7803,1.1903
10.4920,0.016765,-0.293193,0.293193,-3.048020,3.041884,-0.046082,1.1518,26.7803,1.1903
10.5087,0.016756,-0.302919,0.302919,-3.048020,3.041884,-0.046082,1.1518,26.7803,1.1903
10.5260,0.017288,-0.312114,0.312114,-3.048020,3.041884,-0.046082,1.1518,26.7803,1.1903
10.5428,0.016757,-0.320157,0.320157,-3.048020,3.041884,-0.046082,1.1518,26.7803,1.1903
10.5595,0.016757,-0.327292,0.327292,-3.048020,3.041884,-0.046082,1.1518,26.7803,1.1903
10.5763,0.016759,-0.333476,0.333476,-3.048020,3.041884,-0.046082,1.1518,26.7803,1.1903
10.5931,0.016767,-0.338671,0.338671,-3.048020,3.041884,-0.046082,1.1518,26.7803,1.1903
10.6098,0.016761,-0.342841,0.342841,-3.048020,3.041884,-0.046082,1.1518,26.7803,1.1903
10.6266,0.016797,-0.345967,0.345967,-3.048020,3.041884,-0.046082,1.1518,26.7803,1.1903
10.6434,0.016759,-0.348016,0.348016,-3.048020,3.041884,-0.046082,1.1518,26.7803,1.1903
10.6601,0.016728,-0.348982,0.348982,-3.048020,3.041884,-0.046082,1.1518,26.7803,1.1903
10.6769,0.016750,-0.348865,0.348865,-3.048020,3.041884,-0.046082,1.1518,26.7803,1.1903
10.6936,0.016773,-0.347659,0.347659,-3.048020,3.041884,-0.046082,1.1518,26.7803,1.1903
10.7104,0.016754,-0.345376,0.345376,-3.048020,3.041884,-0.046082,1.1518,26.7803,1.1903
10.7272,0.016775,-0.342023,0.342023,-3.048020,3.041884,-0.046082,1.1518,26.7803,1.1903
10.7439,0.016754,-0.337630,0.337630,-3.048020,3.041884,-0.046082,1.1518,26.7803,1.1903
10.7606,0.016728,-0.332231,0.332231,-3.048020,3.041884,-0.046082,1.1518,26.7803,1.1903
10.7774,0.016767,-0.325836,0.325836,-3.048020,3.041884,-0.046082,1.1518,26.7803,1.1903
10.7942,0.016765,-0.318498,0.318498,-3.048020,3.041884,-0.046082,1.1518,26.7803,1.1903
10.8109,0.016761,-0.310264,0.310264,-3.048020,3.041884,-0.046082,1.1518,26.7803,1.1903
10.8277,0.016775,-0.301176,0.301176,-3.048020,3.041884,-0.046082,1.1518,26.7803,1.1903
10.8445,0.016753,-0.291310,0.291310,-3.048020,3.041884,-0.046082,1.1518,26.7803,1.1903
10.8612,0.016762,-0.280710,0.280710,-3.048020,3.041884,-0.046082,1.1518,26.7803,1.1903
10.8780,0.016756,-0.269453,0.269453,-3.048020,3.041884,-0.046082,1.1518,26.7803,1.1903
10.8948,0.016777,-0.257589,0.257589,-3.048020,3.041884,-0.046082,1.1518,26.7803,1.1903
10.9115,0.016758,-0.245220,0.245220,-3.048020,3.041884,-0.046082,1.1518,26.7803,1.1903
10.9283,0.016761,-0.232409,0.232409,-3.048020,3.041884,-0.046082,1.1518,26.7803,1.1903
10.9450,0.016760,-0.219237,0.219237,-3.048020,3.041884,-0.046075,1.1747,26.8367,1.1645
10.9620,0.017007,-0.205587,0.205587,-3.048020,3.041884,-0.046083,1.1493,26.7738,1.1937
10.9788,0.016753,-0.191945,0.191945,-3.048020,3.041884,-0.046082,1.1519,26.7804,1.1906
10.9956,0.016784,-0.178170,0.178170,-3.048020,3.041884,-0.046082,1.1519,26.7804,1.1906
11.0123,0.016762,-0.164389,0.164389,-3.048020,3.041884,-0.046082,1.1519,26.7804,1.1906
11.0291,0.016766,-0.150669,0.150669,-3.048020,3.041884,-0.046082,1.1519,26.7804,1.1906
11.0459,0.016753,-0.137108,0.137108,-3.048020,3.041884,-0.046082,1.1519,26.7804,1.1906
11.0626,0.016771,-0.123767,0.123767,-3.048020,3.041884,-0.046082,1.1519,26.7804,1.1906
11.0794,0.016758,-0.110752,0.110752,-3.048020,3.041884,-0.046082,1.1519,26.7804,1.1906
11.0962,0.016764,-0.098130,0.098130,-3.048020,3.041884,-0.046082,1.1519,26.7804,1.1906
11.1129,0.016751,-0.085994,0.085994,-3.048020,3.041884,-0.046082,1.1519,26.7804,1.1906
11.1297,0.016775,-0.074393,0.074393,-3.048020,3.041884,-0.046082,1.1519,26.7804,1.1906
11.1464,0.016750,-0.063434,0.063434,-3.048020,3.041884,-0.046082,1.1519,26.7804,1.1906
11.1632,0.016759,-0.053161,0.053161,-3.048020,3.041884,-0.046082,1.1519,26.7804,1.1906
11.1799,0.016757,-0.043645,0.043645,-3.048020,3.041884,-0.046082,1.1519,26.7804,1.1906
11.1967,0.016737,-0.034955,0.034955,-3.048020,3.041884,-0.046082,1.1519,26.7804,1.1906
11.2134,0.016751,-0.027127,0.027127,-3.048020,3.041884,-0.046082,1.1519,26.7804,1.1906
11.2302,0.016757,-0.020215,0.020215,-3.048020,3.041884,-0.046082,1.1519,26.7804,1.1906
11.2469,0.016760,-0.014263,0.014263,-3.048020,3.041884,-0.046082,1.1519,26.7804,1.1906
11.2637,0.016764,-0.009309,0.009309,-3.048020,3.041884,-0.046082,1.1519,26.7804,1.1906
11.2805,0.016806,-0.005378,0.005378,-3.048020,3.041884,-0.046082,1.1519,26.7804,1.1906
11.2973,0.016766,-0.002513,0.002513,-3.048020,3.041884,-0.046082,1.1519,26.7804,1.1906
11.3140,0.016757,-0.000721,0.000721,-3.048020,3.041884,-0.046082,1.1519,26.7804,1.1906
11.3308,0.016765,-0.000012,0.000012,-3.048020,3.041884,-0.046082,1.1519,26.7804,1.1906
11.3476,0.016754,-0.000392,0.000392,-3.048020,3.041884,-0.046082,1.1519,26.7804,1.1906
11.3643,0.016755,-0.001857,0.001857,-3.048020,3.041884,-0.046082,1.1519,26.7804,1.1906
11.3811,0.016758,-0.004398,0.004398,-3.048020,3.041884,-0.046082,1.1519,26.7804,1.1906
11.3978,0.016758,-0.007999,0.007999,-3.048020,3.041884,-0.046082,1.1519,26.7804,1.1906
11.4146,0.016753,-0.012637,0.012637,-3.048020,3.041884,-0.046082,1.1519,26.7804,1.1906
11.4313,0.016762,-0.018287,0.018287,-3.048020,3.041884,-0.046082,1.1519,26.7804,1.1906
11.4481,0.016758,-0.024909,0.024909,-3.048020,3.041884,-0.046082,1.1519,26.7804,1.1906
11.4649,0.016754,-0.032462,0.032462,-3.048020,3.041884,-0.046084,1.1414,26.7759,1.1585
11.4816,0.016761,-0.040904,0.040904,-3.048020,3.041884,-0.046084,1.1414,26.7759,1.1585
11.4984,0.016758,-0.050177,0.050177,-3.048020,3.041884,-0.046074,1.1758,26.8371,1.1678
11.5151,0.016755,-0.060224,0.060224,-3.048020,3.041884,-0.046083,1.1491,26.7738,1.1933
